Time (sec),Pitch (deg),Roll (deg),Yaw(deg),X-Acceleration (g),Y-Acceleration (g),Z-Acceleration (g),Pitch Rate (deg/sec),Roll Rate (deg/sec),Yaw Rate (deg/sec),Magnetic Field in X direction (uT),Magnetic Field in Y direction (uT),Magnetic Field in Z Direction (uT),Latitude (deg),Longitude (deg),Altitude (m)
729705909.735759,-2.42308,-1.405431,67.389273,0.019104,-0.043076,0.983795,-0.000161,-0.030828,-0.024255,84.30246,38.41806,-148.350174,,,
729705909.739121,-2.42308,-1.405431,67.389273,0.019104,-0.043076,0.983795,-0.000161,-0.030828,-0.024255,84.30246,38.41806,-148.350174,,,
729705909.742433,-2.424298,-1.412996,67.386241,0.017288,-0.047531,0.987854,-0.007025,-0.019219,-0.007629,84.381699,38.425964,-148.606186,,,
729705909.745755,-2.427099,-1.417533,67.385013,0.017288,-0.047531,0.987854,-0.007025,-0.019219,-0.007629,84.381699,38.425964,-148.606186,,,
729705909.749157,-2.427099,-1.417533,67.385013,0.017288,-0.047531,0.987854,-0.007025,-0.019219,-0.007629,84.381699,38.425964,-148.606186,,,
729705909.752486,-2.42927,-1.420185,67.384905,0.016846,-0.04863,0.993683,-0.006225,-0.001132,0.0004,84.381699,38.425964,-148.606186,,,
729705909.755762,-2.431629,-1.420032,67.386461,0.016846,-0.04863,0.993683,-0.006225,-0.001132,0.0004,84.381699,38.425964,-148.606186,,,
729705909.759122,-2.431629,-1.420032,67.386461,0.016846,-0.04863,0.993683,-0.006225,-0.001132,0.0004,84.381699,38.425964,-148.606186,,,
729705909.76244,-2.435137,-1.418336,67.388764,0.019699,-0.047195,0.995422,-0.010891,0.010761,0.005761,84.381699,38.425964,-148.606186,,,
729705909.76584,-2.438531,-1.415422,67.39081,0.019699,-0.047195,0.995422,-0.010891,0.010761,0.005761,84.381699,38.425964,-148.606186,,,
729705909.769169,-2.438531,-1.415422,67.39081,0.019699,-0.047195,0.995422,-0.010891,0.010761,0.005761,84.381699,38.425964,-148.606186,,,
729705909.772437,-2.442491,-1.412429,67.393299,0.020126,-0.044983,0.992905,-0.011647,0.012017,0.00888,84.381699,38.425964,-148.606186,,,
729705909.775801,-2.445329,-1.409918,67.396838,0.020126,-0.044983,0.992905,-0.011647,0.012017,0.00888,84.381699,38.425964,-148.606186,,,
729705909.779111,-2.445329,-1.409918,67.396838,0.020126,-0.044983,0.992905,-0.011647,0.012017,0.00888,84.381699,38.425964,-148.606186,,,
729705909.782553,-2.449241,-1.408736,67.4008,0.018661,-0.048889,0.990082,-0.013589,0.003809,0.011986,84.381699,38.425964,-148.606186,,,
729705909.785788,-2.451898,-1.408268,67.404808,0.018661,-0.048889,0.990082,-0.013589,0.003809,0.011986,84.560989,38.377121,-148.385849,,,
729705909.789092,-2.451898,-1.408268,67.404808,0.018661,-0.048889,0.990082,-0.013589,0.003809,0.011986,84.560989,38.377121,-148.385849,,,
729705909.792455,-2.454798,-1.408701,67.409052,0.021194,-0.04837,0.990051,-0.006471,-0.00114,0.013508,84.560989,38.377121,-148.385849,,,
729705909.795759,-2.455542,-1.410141,67.413402,0.021194,-0.04837,0.990051,-0.006471,-0.00114,0.013508,84.560989,38.377121,-148.385849,,,
729705909.799237,-2.455542,-1.410141,67.413402,0.021194,-0.04837,0.990051,-0.006471,-0.00114,0.013508,84.560989,38.377121,-148.385849,,,
729705909.802419,-2.456612,-1.412487,67.418146,0.021561,-0.048615,0.992355,-0.001168,-0.0081,0.016146,84.560989,38.377121,-148.385849,,,
729705909.805811,-2.456104,-1.414668,67.423666,0.021561,-0.048615,0.992355,-0.001168,-0.0081,0.016146,84.560989,38.377121,-148.385849,,,
729705909.809171,-2.456104,-1.414668,67.423666,0.021561,-0.048615,0.992355,-0.001168,-0.0081,0.016146,84.560989,38.377121,-148.385849,,,
729705909.81245,-2.45417,-1.417346,67.429567,0.028961,-0.047668,0.996704,0.011956,-0.006967,0.018663,84.560989,38.377121,-148.385849,,,
729705909.815852,-2.451278,-1.418314,67.434996,0.028961,-0.047668,0.996704,0.011956,-0.006967,0.018663,84.560989,38.377121,-148.385849,,,
729705909.819152,-2.451278,-1.418314,67.434996,0.028961,-0.047668,0.996704,0.011956,-0.006967,0.018663,84.560989,38.377121,-148.385849,,,
729705909.822512,-2.447165,-1.420268,67.439042,0.036087,-0.041092,0.995422,0.014685,-0.002747,0.00943,84.560989,38.377121,-148.385849,,,
729705909.825791,-2.444644,-1.419514,67.441554,0.036087,-0.041092,0.995422,0.014685,-0.002747,0.00943,84.235535,38.428452,-148.384674,,,
729705909.829114,-2.444644,-1.419514,67.441554,0.036087,-0.041092,0.995422,0.014685,-0.002747,0.00943,84.235535,38.428452,-148.384674,,,
729705909.832509,-2.440865,-1.419723,67.442515,0.036453,-0.036697,0.992188,0.013253,0.004752,-0.000723,84.235535,38.428452,-148.384674,,,
729705909.835769,-2.439811,-1.417479,67.442191,0.036453,-0.036697,0.992188,0.013253,0.004752,-0.000723,84.235535,38.428452,-148.384674,,,
729705909.839106,-2.439811,-1.417479,67.442191,0.036453,-0.036697,0.992188,0.013253,0.004752,-0.000723,84.235535,38.428452,-148.384674,,,
729705909.842454,-2.438141,-1.416417,67.440854,0.035324,-0.03772,0.988113,0.007562,0.007922,-0.007155,84.235535,38.428452,-148.384674,,,
729705909.845766,-2.438046,-1.414214,67.438714,0.035324,-0.03772,0.988113,0.007562,0.007922,-0.007155,84.235535,38.428452,-148.384674,,,
729705909.849138,-2.438046,-1.414214,67.438714,0.035324,-0.03772,0.988113,0.007562,0.007922,-0.007155,84.235535,38.428452,-148.384674,,,
729705909.85249,-2.43787,-1.413972,67.436257,0.034042,-0.041428,0.986435,0.002021,0.002766,-0.008921,84.235535,38.428452,-148.384674,,,
729705909.855849,-2.438925,-1.412288,67.433794,0.034042,-0.041428,0.986435,0.002021,0.002766,-0.008921,84.235535,38.428452,-148.384674,,,
729705909.859085,-2.438925,-1.412288,67.433794,0.034042,-0.041428,0.986435,0.002021,0.002766,-0.008921,84.235535,38.428452,-148.384674,,,
729705909.862431,-2.439165,-1.412016,67.430869,0.03186,-0.042572,0.984283,-0.001896,0.004193,-0.01158,84.235535,38.428452,-148.384674,,,
729705909.865886,-2.44101,-1.410403,67.428699,0.03186,-0.042572,0.984283,-0.001896,0.004193,-0.01158,84.295273,38.625244,-148.638275,,,
729705909.869111,-2.44101,-1.410403,67.428699,0.03186,-0.042572,0.984283,-0.001896,0.004193,-0.01158,84.295273,38.625244,-148.638275,,,
729705909.872514,-2.439755,-1.410412,67.427516,0.02829,-0.042374,0.987061,0.007487,0.003025,-0.004526,84.295273,38.625244,-148.638275,,,
729705909.875752,-2.439562,-1.408953,67.427347,0.02829,-0.042374,0.987061,0.007487,0.003025,-0.004526,84.295273,38.625244,-148.638275,,,
729705909.879114,-2.439562,-1.408953,67.427347,0.02829,-0.042374,0.987061,0.007487,0.003025,-0.004526,84.295273,38.625244,-148.638275,,,
729705909.882483,-2.436858,-1.408308,67.429113,0.019958,-0.043457,0.992493,0.01444,0.003778,0.009084,84.295273,38.625244,-148.638275,,,
729705909.885864,-2.434116,-1.407684,67.433479,0.019958,-0.043457,0.992493,0.01444,0.003778,0.009084,84.295273,38.625244,-148.638275,,,
729705909.889114,-2.434116,-1.407684,67.433479,0.019958,-0.043457,0.992493,0.01444,0.003778,0.009084,84.295273,38.625244,-148.638275,,,
729705909.892455,-2.429241,-1.406848,67.439276,0.018982,-0.0383,0.997543,0.018468,0.004442,0.018938,84.295273,38.625244,-148.638275,,,
729705909.895805,-2.425058,-1.408257,67.446092,0.018982,-0.0383,0.997543,0.018468,0.004442,0.018938,84.295273,38.625244,-148.638275,,,
729705909.899165,-2.425058,-1.408257,67.446092,0.018982,-0.0383,0.997543,0.018468,0.004442,0.018938,84.295273,38.625244,-148.638275,,,
729705909.902424,-2.420509,-1.406615,67.454217,0.017776,-0.035309,0.996826,0.016661,0.008305,0.027402,84.295273,38.625244,-148.638275,,,
729705909.905809,-2.420509,-1.406615,67.454217,0.017776,-0.035309,0.996826,0.016661,0.008305,0.027402,84.295273,38.625244,-148.638275,,,
729705909.909163,-2.41576,-1.407756,67.462521,0.017776,-0.035309,0.996826,0.016661,0.008305,0.027402,84.377945,38.484756,-148.544601,,,
729705909.912442,-2.413354,-1.404538,67.470555,0.015945,-0.034851,1.000427,0.007898,0.012957,0.024628,84.377945,38.484756,-148.544601,,,
729705909.915883,-2.411983,-1.404337,67.477719,0.015945,-0.034851,1.000427,0.007898,0.012957,0.024628,84.377945,38.484756,-148.544601,,,
729705909.919149,-2.411983,-1.404337,67.477719,0.015945,-0.034851,1.000427,0.007898,0.012957,0.024628,84.377945,38.484756,-148.544601,,,
729705909.922515,-2.414039,-1.401165,67.484566,0.01535,-0.031418,0.99855,-0.008423,0.011473,0.021884,84.377945,38.484756,-148.544601,,,
729705909.925804,-2.417187,-1.401941,67.490913,0.01535,-0.031418,0.99855,-0.008423,0.011473,0.021884,84.377945,38.484756,-148.544601,,,
729705909.929101,-2.417187,-1.401941,67.490913,0.01535,-0.031418,0.99855,-0.008423,0.011473,0.021884,84.377945,38.484756,-148.544601,,,
729705909.93252,-2.422068,-1.400785,67.496647,0.018372,-0.034012,1.001785,-0.016201,0.003871,0.01708,84.377945,38.484756,-148.544601,,,
729705909.935837,-2.426622,-1.403447,67.501638,0.018372,-0.034012,1.001785,-0.016201,0.003871,0.01708,84.377945,38.484756,-148.544601,,,
729705909.939099,-2.426622,-1.403447,67.501638,0.018372,-0.034012,1.001785,-0.016201,0.003871,0.01708,84.377945,38.484756,-148.544601,,,
729705909.942443,-2.429645,-1.404801,67.506087,0.023987,-0.041458,1.007431,-0.00754,-0.005562,0.012316,84.377945,38.484756,-148.544601,,,
729705909.945795,-2.429645,-1.409898,67.509514,0.023987,-0.041458,1.007431,-0.00754,-0.005562,0.012316,84.377945,38.484756,-148.544601,,,
729705909.949189,-2.431496,-1.409898,67.509514,0.023987,-0.041458,1.007431,-0.00754,-0.005562,0.012316,84.346268,38.525116,-148.647003,,,
729705909.952482,-2.432156,-1.414434,67.512106,0.027557,-0.045502,1.012833,0.000303,-0.015448,0.005701,84.346268,38.525116,-148.647003,,,
729705909.955796,-2.432156,-1.419696,67.513906,0.027557,-0.045502,1.012833,0.000303,-0.015448,0.005701,84.346268,38.525116,-148.647003,,,
729705909.959104,-2.431523,-1.419696,67.513906,0.027557,-0.045502,1.012833,0.000303,-0.015448,0.005701,84.346268,38.525116,-148.647003,,,
729705909.962519,-2.429741,-1.425113,67.515262,0.030243,-0.046341,1.015503,0.006332,-0.016078,0.002455,84.346268,38.525116,-148.647003,,,
729705909.965854,-2.429741,-1.428719,67.516552,0.030243,-0.046341,1.015503,0.006332,-0.016078,0.002455,84.346268,38.525116,-148.647003,,,
729705909.96911,-2.42793,-1.428719,67.516552,0.030243,-0.046341,1.015503,0.006332,-0.016078,0.002455,84.346268,38.525116,-148.647003,,,
729705909.972443,-2.425596,-1.433674,67.517963,0.029739,-0.048447,1.016083,0.010256,-0.013825,0.003698,84.346268,38.525116,-148.647003,,,
729705909.975879,-2.420317,-1.43642,67.51903,0.029739,-0.048447,1.016083,0.010256,-0.013825,0.003698,84.346268,38.525116,-148.647003,,,
729705909.979099,-2.420317,-1.43642,67.51903,0.029739,-0.048447,1.016083,0.010256,-0.013825,0.003698,84.346268,38.525116,-148.647003,,,
729705909.982525,-2.415117,-1.439949,67.519504,0.032806,-0.054459,1.018402,0.022516,-0.008503,-0.000324,84.346268,38.525116,-148.647003,,,
729705909.985768,-2.415117,-1.439949,67.519504,0.032806,-0.054459,1.018402,0.022516,-0.008503,-0.000324,84.346268,38.525116,-148.647003,,,
729705909.989096,-2.405693,-1.440842,67.519704,0.032806,-0.054459,1.018402,0.022516,-0.008503,-0.000324,84.300262,38.482773,-148.737289,,,
729705909.992423,-2.395968,-1.444672,67.519105,0.036423,-0.056061,1.019623,0.037637,-0.012325,-0.005575,84.300262,38.482773,-148.737289,,,
729705909.995782,-2.395968,-1.444672,67.519105,0.036423,-0.056061,1.019623,0.037637,-0.012325,-0.005575,84.300262,38.482773,-148.737289,,,
729705909.999182,-2.382162,-1.446228,67.51806,0.036423,-0.056061,1.019623,0.037637,-0.012325,-0.005575,84.300262,38.482773,-148.737289,,,
729705910.002427,-2.369622,-1.45005,67.516774,0.034821,-0.05864,1.015747,0.045402,-0.008568,-0.006641,84.300262,38.482773,-148.737289,,,
729705910.005787,-2.369622,-1.45005,67.516774,0.034821,-0.05864,1.015747,0.045402,-0.008568,-0.006641,84.300262,38.482773,-148.737289,,,
729705910.009114,-2.354758,-1.450435,67.515185,0.034821,-0.05864,1.015747,0.045402,-0.008568,-0.006641,84.300262,38.482773,-148.737289,,,
729705910.012434,-2.342895,-1.453517,67.51334,0.033142,-0.059937,1.009796,0.040678,-0.006986,-0.007453,84.300262,38.482773,-148.737289,,,
729705910.015804,-2.342895,-1.453517,67.51334,0.033142,-0.059937,1.009796,0.040678,-0.006986,-0.007453,84.300262,38.482773,-148.737289,,,
729705910.019122,-2.330208,-1.45483,67.511847,0.033142,-0.059937,1.009796,0.040678,-0.006986,-0.007453,84.300262,38.482773,-148.737289,,,
729705910.022435,-2.318705,-1.456579,67.510068,0.03241,-0.061279,1.005402,0.039854,-0.001924,-0.009082,84.300262,38.482773,-148.737289,,,
729705910.025839,-2.318705,-1.456579,67.510068,0.03241,-0.061279,1.005402,0.039854,-0.001924,-0.009082,84.300262,38.482773,-148.737289,,,
729705910.029085,-2.307888,-1.457633,67.50717,0.03241,-0.061279,1.005402,0.039854,-0.001924,-0.009082,84.221909,38.412827,-148.738846,,,
729705910.032508,-2.295572,-1.458415,67.502964,0.032501,-0.05986,1.005447,0.044572,0.001026,-0.018271,84.221909,38.412827,-148.738846,,,
729705910.035754,-2.295572,-1.458415,67.502964,0.032501,-0.05986,1.005447,0.044572,0.001026,-0.018271,84.221909,38.412827,-148.738846,,,
729705910.039171,-2.283806,-1.459266,67.498264,0.032501,-0.05986,1.005447,0.044572,0.001026,-0.018271,84.221909,38.412827,-148.738846,,,
729705910.042416,-2.269891,-1.458195,67.493333,0.03006,-0.056381,1.001724,0.049676,0.007364,-0.020297,84.221909,38.412827,-148.738846,,,
729705910.045758,-2.269891,-1.458195,67.493333,0.03006,-0.056381,1.001724,0.049676,0.007364,-0.020297,84.221909,38.412827,-148.738846,,,
729705910.049218,-2.257597,-1.458123,67.488232,0.03006,-0.056381,1.001724,0.049676,0.007364,-0.020297,84.221909,38.412827,-148.738846,,,
729705910.052452,-2.244118,-1.455926,67.483279,0.029099,-0.052048,0.995438,0.046058,0.012944,-0.019547,84.221909,38.412827,-148.738846,,,
729705910.05585,-2.244118,-1.455926,67.483279,0.029099,-0.052048,0.995438,0.046058,0.012944,-0.019547,84.221909,38.412827,-148.738846,,,
729705910.059097,-2.233764,-1.454413,67.477863,0.029099,-0.052048,0.995438,0.046058,0.012944,-0.019547,84.221909,38.412827,-148.738846,,,
729705910.062433,-2.220668,-1.450743,67.472157,0.029678,-0.049255,0.989212,0.0438,0.01731,-0.021893,84.221909,38.412827,-148.738846,,,
729705910.065832,-2.220668,-1.450743,67.472157,0.029678,-0.049255,0.989212,0.0438,0.01731,-0.021893,84.221909,38.412827,-148.738846,,,
729705910.068847,-2.212245,-1.449196,67.466142,0.029678,-0.049255,0.989212,0.0438,0.01731,-0.021893,84.221909,38.412827,-148.738846,,,
729705910.072558,-2.199791,-1.444295,67.459691,0.030106,-0.044464,0.981812,0.04343,0.02258,-0.025625,84.387344,38.345215,-148.518921,,,
729705910.075489,-2.199791,-1.444295,67.459691,0.030106,-0.044464,0.981812,0.04343,0.02258,-0.025625,84.387344,38.345215,-148.518921,,,
729705910.079165,-2.192002,-1.440923,67.453337,0.030106,-0.044464,0.981812,0.04343,0.02258,-0.025625,84.387344,38.345215,-148.518921,,,
729705910.082497,-2.179355,-1.433978,67.446894,0.030869,-0.040085,0.980408,0.044356,0.027566,-0.027039,84.387344,38.345215,-148.518921,,,
729705910.085777,-2.179355,-1.433978,67.446894,0.030869,-0.040085,0.980408,0.044356,0.027566,-0.027039,84.387344,38.345215,-148.518921,,,
729705910.08911,-2.172243,-1.429858,67.439473,0.030869,-0.040085,0.980408,0.044356,0.027566,-0.027039,84.387344,38.345215,-148.518921,,,
729705910.092425,-2.160662,-1.423619,67.431778,0.029404,-0.035675,0.975082,0.037992,0.02611,-0.029292,84.387344,38.345215,-148.518921,,,
729705910.095783,-2.160662,-1.423619,67.431778,0.029404,-0.035675,0.975082,0.037992,0.02611,-0.029292,84.387344,38.345215,-148.518921,,,
729705910.099153,-2.156487,-1.419421,67.424305,0.029404,-0.035675,0.975082,0.037992,0.02611,-0.029292,84.387344,38.345215,-148.518921,,,
729705910.102434,-2.147804,-1.413007,67.417328,0.029526,-0.034424,0.972931,0.02737,0.026364,-0.02611,84.387344,38.345215,-148.518921,,,
729705910.105775,-2.147804,-1.413007,67.417328,0.029526,-0.034424,0.972931,0.02737,0.026364,-0.02611,84.387344,38.345215,-148.518921,,,
729705910.109103,-2.147318,-1.408935,67.410711,0.029526,-0.034424,0.972931,0.02737,0.026364,-0.02611,84.387344,38.345215,-148.518921,,,
729705910.112452,-2.143072,-1.402835,67.404977,0.025284,-0.030121,0.972473,0.010324,0.024184,-0.020137,84.182129,38.243393,-148.82988,,,
729705910.115823,-2.143072,-1.402835,67.404977,0.025284,-0.030121,0.972473,0.010324,0.024184,-0.020137,84.182129,38.243393,-148.82988,,,
729705910.119153,-2.146363,-1.399702,67.400198,0.025284,-0.030121,0.972473,0.010324,0.024184,-0.020137,84.182129,38.243393,-148.82988,,,
729705910.122425,-2.146934,-1.395014,67.396533,0.02327,-0.027817,0.972397,-0.008083,0.020575,-0.012505,84.182129,38.243393,-148.82988,,,
729705910.12585,-2.146934,-1.395014,67.396533,0.02327,-0.027817,0.972397,-0.008083,0.020575,-0.012505,84.182129,38.243393,-148.82988,,,
729705910.1291,-2.155149,-1.392144,67.393422,0.02327,-0.027817,0.972397,-0.008083,0.020575,-0.012505,84.182129,38.243393,-148.82988,,,
729705910.132523,-2.161275,-1.388427,67.390843,0.022537,-0.024231,0.973572,-0.024838,0.015911,-0.008819,84.182129,38.243393,-148.82988,,,
729705910.135779,-2.161275,-1.388427,67.390843,0.022537,-0.024231,0.973572,-0.024838,0.015911,-0.008819,84.182129,38.243393,-148.82988,,,
729705910.139174,-2.172875,-1.386417,67.388938,0.022537,-0.024231,0.973572,-0.024838,0.015911,-0.008819,84.182129,38.243393,-148.82988,,,
729705910.142421,-2.181884,-1.383993,67.387837,0.025513,-0.02298,0.976639,-0.031576,0.009129,-0.003389,84.182129,38.243393,-148.82988,,,
729705910.145776,-2.181884,-1.383993,67.387837,0.025513,-0.02298,0.976639,-0.031576,0.009129,-0.003389,84.182129,38.243393,-148.82988,,,
729705910.149141,-2.19464,-1.384076,67.387571,0.025513,-0.02298,0.976639,-0.031576,0.009129,-0.003389,84.182129,38.243393,-148.82988,,,
729705910.152459,-2.205075,-1.381831,67.388383,0.027237,-0.020477,0.984924,-0.034557,0.010802,0.00363,84.165695,38.404358,-149.0728,,,
729705910.155794,-2.205075,-1.381831,67.388383,0.027237,-0.020477,0.984924,-0.034557,0.010802,0.00363,84.165695,38.404358,-149.0728,,,
729705910.159095,-2.216538,-1.380539,67.390733,0.027237,-0.020477,0.984924,-0.034557,0.010802,0.00363,84.165695,38.404358,-149.0728,,,
729705910.162431,-2.228319,-1.375995,67.394329,0.031418,-0.020935,0.988037,-0.043254,0.021943,0.012125,84.165695,38.404358,-149.0728,,,
729705910.165848,-2.228319,-1.375995,67.394329,0.031418,-0.020935,0.988037,-0.043254,0.021943,0.012125,84.165695,38.404358,-149.0728,,,
729705910.169111,-2.241025,-1.371071,67.398286,0.031418,-0.020935,0.988037,-0.043254,0.021943,0.012125,84.165695,38.404358,-149.0728,,,
729705910.172431,-2.254054,-1.363164,67.402847,0.038162,-0.023178,0.991074,-0.044154,0.032659,0.015925,84.165695,38.404358,-149.0728,,,
729705910.175845,-2.254054,-1.363164,67.402847,0.038162,-0.023178,0.991074,-0.044154,0.032659,0.015925,84.165695,38.404358,-149.0728,,,
729705910.179092,-2.266831,-1.355302,67.407077,0.038162,-0.023178,0.991074,-0.044154,0.032659,0.015925,84.165695,38.404358,-149.0728,,,
729705910.18252,-2.28076,-1.345883,67.410474,0.040237,-0.020248,0.992325,-0.048346,0.035452,0.009915,84.165695,38.404358,-149.0728,,,
729705910.185774,-2.28076,-1.345883,67.410474,0.040237,-0.020248,0.992325,-0.048346,0.035452,0.009915,84.165695,38.404358,-149.0728,,,
729705910.189188,-2.294205,-1.33807,67.412724,0.040237,-0.020248,0.992325,-0.048346,0.035452,0.009915,84.165695,38.404358,-149.0728,,,
729705910.192426,-2.309294,-1.330436,67.413256,0.035858,-0.016785,0.993057,-0.052114,0.028131,-0.002202,84.255447,38.419571,-148.831375,,,
729705910.195779,-2.309294,-1.330436,67.413256,0.035858,-0.016785,0.993057,-0.052114,0.028131,-0.002202,84.255447,38.419571,-148.831375,,,
729705910.199201,-2.322541,-1.324459,67.411747,0.035858,-0.016785,0.993057,-0.052114,0.028131,-0.002202,84.255447,38.419571,-148.831375,,,
729705910.202418,-2.337283,-1.320039,67.409106,0.032501,-0.020554,0.996979,-0.04981,0.015867,-0.010224,84.255447,38.419571,-148.831375,,,
729705910.205777,-2.337283,-1.320039,67.409106,0.032501,-0.020554,0.996979,-0.04981,0.015867,-0.010224,84.255447,38.419571,-148.831375,,,
729705910.209104,-2.348279,-1.318189,67.405714,0.032501,-0.020554,0.996979,-0.04981,0.015867,-0.010224,84.255447,38.419571,-148.831375,,,
729705910.212421,-2.359206,-1.319918,67.402069,0.030411,-0.024414,0.999374,-0.033058,-0.008866,-0.012343,84.255447,38.419571,-148.831375,,,
729705910.215801,-2.359206,-1.319918,67.402069,0.030411,-0.024414,0.999374,-0.033058,-0.008866,-0.012343,84.255447,38.419571,-148.831375,,,
729705910.219152,-2.364384,-1.324856,67.398984,0.030411,-0.024414,0.999374,-0.033058,-0.008866,-0.012343,84.255447,38.419571,-148.831375,,,
729705910.222438,-2.370795,-1.330368,67.396371,0.019958,-0.02916,1.006241,-0.019768,-0.015606,-0.009483,84.255447,38.419571,-148.831375,,,
729705910.225859,-2.370795,-1.330368,67.396371,0.019958,-0.02916,1.006241,-0.019768,-0.015606,-0.009483,84.255447,38.419571,-148.831375,,,
729705910.229109,-2.371685,-1.336788,67.394149,0.019958,-0.02916,1.006241,-0.019768,-0.015606,-0.009483,84.255447,38.419571,-148.831375,,,
729705910.232523,-2.374223,-1.341669,67.392265,0.015091,-0.033691,1.015121,-0.004618,-0.010318,-0.00769,84.255447,38.419571,-148.831375,,,
729705910.235745,-2.374223,-1.341669,67.392265,0.015091,-0.033691,1.015121,-0.004618,-0.010318,-0.00769,84.253998,38.430344,-148.746933,,,
729705910.23919,-2.370027,-1.346563,67.390888,0.015091,-0.033691,1.015121,-0.004618,-0.010318,-0.00769,84.253998,38.430344,-148.746933,,,
729705910.242427,-2.369548,-1.348782,67.391146,0.010269,-0.037277,1.01738,0.005119,-0.003475,0.003027,84.253998,38.430344,-148.746933,,,
729705910.245782,-2.369548,-1.348782,67.391146,0.010269,-0.037277,1.01738,0.005119,-0.003475,0.003027,84.253998,38.430344,-148.746933,,,
729705910.249156,-2.362455,-1.352479,67.393273,0.010269,-0.037277,1.01738,0.005119,-0.003475,0.003027,84.253998,38.430344,-148.746933,,,
729705910.252454,-2.359087,-1.351187,67.397946,0.005844,-0.039185,1.022293,0.014832,0.008631,0.019611,84.253998,38.430344,-148.746933,,,
729705910.255787,-2.359087,-1.351187,67.397946,0.005844,-0.039185,1.022293,0.014832,0.008631,0.019611,84.253998,38.430344,-148.746933,,,
729705910.259114,-2.350012,-1.353418,67.404781,0.005844,-0.039185,1.022293,0.014832,0.008631,0.019611,84.253998,38.430344,-148.746933,,,
729705910.262426,-2.345082,-1.349461,67.413161,0.004196,-0.039932,1.019928,0.019953,0.016866,0.02875,84.253998,38.430344,-148.746933,,,
729705910.265906,-2.345082,-1.349461,67.413161,0.004196,-0.039932,1.019928,0.019953,0.016866,0.02875,84.253998,38.430344,-148.746933,,,
729705910.2691,-2.333216,-1.349305,67.422322,0.004196,-0.039932,1.019928,0.019953,0.016866,0.02875,84.253998,38.430344,-148.746933,,,
729705910.272428,-2.326754,-1.344775,67.432975,0.004959,-0.038345,1.016769,0.025737,0.015623,0.037778,84.253998,38.430344,-148.746933,,,
729705910.275812,-2.326754,-1.344775,67.432975,0.004959,-0.038345,1.016769,0.025737,0.015623,0.037778,84.268814,38.46788,-148.928391,,,
729705910.279112,-2.313676,-1.34428,67.444304,0.004959,-0.038345,1.016769,0.025737,0.015623,0.037778,84.268814,38.46788,-148.928391,,,
729705910.282473,-2.305825,-1.342094,67.455952,0.006348,-0.04039,1.014313,0.031067,0.006418,0.039016,84.268814,38.46788,-148.928391,,,
729705910.285769,-2.305825,-1.342094,67.455952,0.006348,-0.04039,1.014313,0.031067,0.006418,0.039016,84.268814,38.46788,-148.928391,,,
729705910.289194,-2.291709,-1.344262,67.468127,0.006348,-0.04039,1.014313,0.031067,0.006418,0.039016,84.268814,38.46788,-148.928391,,,
729705910.292425,-2.280419,-1.345651,67.480893,0.00824,-0.042938,1.015228,0.044735,-0.006806,0.04208,84.268814,38.46788,-148.928391,,,
729705910.295787,-2.280419,-1.345651,67.480893,0.00824,-0.042938,1.015228,0.044735,-0.006806,0.04208,84.268814,38.46788,-148.928391,,,
729705910.299132,-2.264094,-1.348915,67.493641,0.00824,-0.042938,1.015228,0.044735,-0.006806,0.04208,84.268814,38.46788,-148.928391,,,
729705910.302423,-2.249745,-1.352368,67.50641,0.012344,-0.045517,1.013199,0.053958,-0.011728,0.041867,84.268814,38.46788,-148.928391,,,
729705910.30579,-2.249745,-1.352368,67.50641,0.012344,-0.045517,1.013199,0.053958,-0.011728,0.041867,84.268814,38.46788,-148.928391,,,
729705910.309125,-2.232587,-1.353924,67.519316,0.012344,-0.045517,1.013199,0.053958,-0.011728,0.041867,84.268814,38.46788,-148.928391,,,
729705910.312427,-2.216923,-1.357676,67.53205,0.013092,-0.042816,1.010849,0.058315,-0.012293,0.041131,84.268814,38.46788,-148.928391,,,
729705910.315805,-2.216923,-1.357676,67.53205,0.013092,-0.042816,1.010849,0.058315,-0.012293,0.041131,84.255997,38.247299,-148.490112,,,
729705910.319162,-2.199582,-1.358353,67.544625,0.013092,-0.042816,1.010849,0.058315,-0.012293,0.041131,84.255997,38.247299,-148.490112,,,
729705910.322425,-2.183742,-1.361901,67.557198,0.016113,-0.042664,1.005768,0.055065,-0.009791,0.042046,84.255997,38.247299,-148.490112,,,
729705910.325848,-2.183742,-1.361901,67.557198,0.016113,-0.042664,1.005768,0.055065,-0.009791,0.042046,84.255997,38.247299,-148.490112,,,
729705910.329097,-2.168124,-1.359693,67.57021,0.016113,-0.042664,1.005768,0.055065,-0.009791,0.042046,84.255997,38.247299,-148.490112,,,
729705910.33251,-2.152633,-1.361021,67.583417,0.019104,-0.043777,1.001968,0.055024,-0.003586,0.044491,84.255997,38.247299,-148.490112,,,
729705910.335752,-2.152633,-1.361021,67.583417,0.019104,-0.043777,1.001968,0.055024,-0.003586,0.044491,84.255997,38.247299,-148.490112,,,
729705910.339094,-2.138084,-1.356488,67.597432,0.019104,-0.043777,1.001968,0.055024,-0.003586,0.044491,84.255997,38.247299,-148.490112,,,
729705910.342426,-2.122833,-1.357203,67.611326,0.019958,-0.042999,0.997406,0.056586,-0.001051,0.045104,84.255997,38.247299,-148.490112,,,
729705910.345776,-2.122833,-1.357203,67.611326,0.019958,-0.042999,0.997406,0.056586,-0.001051,0.045104,84.255997,38.247299,-148.490112,,,
729705910.349226,-2.108159,-1.352294,67.625405,0.019958,-0.042999,0.997406,0.056586,-0.001051,0.045104,84.255997,38.247299,-148.490112,,,
729705910.352467,-2.09284,-1.352035,67.639463,0.021515,-0.0439,0.996918,0.0575,0.003506,0.04633,84.255997,38.247299,-148.490112,,,
729705910.35575,-2.09284,-1.352035,67.639463,0.021515,-0.0439,0.996918,0.0575,0.003506,0.04633,84.246307,38.187012,-149.028366,,,
729705910.359088,-2.077651,-1.345974,67.654054,0.021515,-0.0439,0.996918,0.0575,0.003506,0.04633,84.246307,38.187012,-149.028366,,,
729705910.36243,-2.062173,-1.345414,67.668843,0.024887,-0.040817,0.992188,0.055828,0.003372,0.04912,84.246307,38.187012,-149.028366,,,
729705910.365816,-2.062173,-1.345414,67.668843,0.024887,-0.040817,0.992188,0.055828,0.003372,0.04912,84.246307,38.187012,-149.028366,,,
729705910.369077,-2.047618,-1.340133,67.683932,0.024887,-0.040817,0.992188,0.055828,0.003372,0.04912,84.246307,38.187012,-149.028366,,,
729705910.372425,-2.031885,-1.339921,67.699009,0.027145,-0.040375,0.987564,0.054583,0.000215,0.050137,84.246307,38.187012,-149.028366,,,
729705910.375845,-2.031885,-1.339921,67.699009,0.027145,-0.040375,0.987564,0.054583,0.000215,0.050137,84.246307,38.187012,-149.028366,,,
729705910.379108,-2.019146,-1.335998,67.714234,0.027145,-0.040375,0.987564,0.054583,0.000215,0.050137,84.246307,38.187012,-149.028366,,,
729705910.38247,-2.005231,-1.335853,67.728745,0.032043,-0.038666,0.983978,0.04697,0.001225,0.046323,84.246307,38.187012,-149.028366,,,
729705910.38578,-2.005231,-1.335853,67.728745,0.032043,-0.038666,0.983978,0.04697,0.001225,0.046323,84.246307,38.187012,-149.028366,,,
729705910.389176,-1.99507,-1.332341,67.742763,0.032043,-0.038666,0.983978,0.04697,0.001225,0.046323,84.246307,38.187012,-149.028366,,,
729705910.392416,-1.983605,-1.331108,67.755984,0.036224,-0.034836,0.980865,0.039885,0.006579,0.041665,84.246307,38.187012,-149.028366,,,
729705910.395773,-1.983605,-1.331108,67.755984,0.036224,-0.034836,0.980865,0.039885,0.006579,0.041665,84.246307,38.187012,-149.028366,,,
729705910.399165,-1.975553,-1.327592,67.768062,0.036224,-0.034836,0.980865,0.039885,0.006579,0.041665,84.325851,38.233368,-148.868607,,,
729705910.402413,-1.967756,-1.326658,67.778844,0.040253,-0.031067,0.978333,0.023707,0.005585,0.033532,84.325851,38.233368,-148.868607,,,
729705910.405767,-1.967756,-1.326658,67.778844,0.040253,-0.031067,0.978333,0.023707,0.005585,0.033532,84.325851,38.233368,-148.868607,,,
729705910.409094,-1.964387,-1.323623,67.787898,0.040253,-0.031067,0.978333,0.023707,0.005585,0.033532,84.325851,38.233368,-148.868607,,,
729705910.412429,-1.959982,-1.321839,67.794679,0.042435,-0.029251,0.981018,0.014472,0.008488,0.018289,84.325851,38.233368,-148.868607,,,
729705910.415793,-1.959982,-1.321839,67.794679,0.042435,-0.029251,0.981018,0.014472,0.008488,0.018289,84.325851,38.233368,-148.868607,,,
729705910.419152,-1.95963,-1.319548,67.799918,0.042435,-0.029251,0.981018,0.014472,0.008488,0.018289,84.325851,38.233368,-148.868607,,,
729705910.422419,-1.958624,-1.319475,67.803822,0.037399,-0.025909,0.977905,0.001043,0.000807,0.009593,84.325851,38.233368,-148.868607,,,
729705910.425851,-1.958624,-1.319475,67.803822,0.037399,-0.025909,0.977905,0.001043,0.000807,0.009593,84.325851,38.233368,-148.868607,,,
729705910.429095,-1.96199,-1.319267,67.80644,0.037399,-0.025909,0.977905,0.001043,0.000807,0.009593,84.325851,38.233368,-148.868607,,,
729705910.432507,-1.964446,-1.319971,67.807813,0.038223,-0.02803,0.977234,-0.011108,-0.000253,0.001352,84.325851,38.233368,-148.868607,,,
729705910.435778,-1.964446,-1.319971,67.807813,0.038223,-0.02803,0.977234,-0.011108,-0.000253,0.001352,84.325851,38.233368,-148.868607,,,
729705910.439172,-1.970635,-1.320884,67.808045,0.038223,-0.02803,0.977234,-0.011108,-0.000253,0.001352,84.522629,37.974564,-148.897095,,,
729705910.442418,-1.976378,-1.321444,67.807642,0.036148,-0.028915,0.978928,-0.023642,0.000833,-0.002745,84.522629,37.974564,-148.897095,,,
729705910.445768,-1.976378,-1.321444,67.807642,0.036148,-0.028915,0.978928,-0.023642,0.000833,-0.002745,84.522629,37.974564,-148.897095,,,
729705910.449143,-1.985332,-1.322153,67.806318,0.036148,-0.028915,0.978928,-0.023642,0.000833,-0.002745,84.522629,37.974564,-148.897095,,,
729705910.452443,-1.993824,-1.321563,67.804406,0.029816,-0.030899,0.982697,-0.032248,0.004031,-0.006833,84.522629,37.974564,-148.897095,,,
729705910.455777,-1.993824,-1.321563,67.804406,0.029816,-0.030899,0.982697,-0.032248,0.004031,-0.006833,84.522629,37.974564,-148.897095,,,
729705910.459102,-2.004809,-1.324633,67.802222,0.029816,-0.030899,0.982697,-0.032248,0.004031,-0.006833,84.522629,37.974564,-148.897095,,,
729705910.462429,-2.014786,-1.327295,67.799845,0.023788,-0.033417,0.982193,-0.035532,-0.008262,-0.008608,84.522629,37.974564,-148.897095,,,
729705910.465838,-2.014786,-1.327295,67.799845,0.023788,-0.033417,0.982193,-0.035532,-0.008262,-0.008608,84.522629,37.974564,-148.897095,,,
729705910.469089,-2.026209,-1.334041,67.797408,0.023788,-0.033417,0.982193,-0.035532,-0.008262,-0.008608,84.522629,37.974564,-148.897095,,,
729705910.472426,-2.037724,-1.33911,67.795464,0.018646,-0.042282,0.981415,-0.040625,-0.016165,-0.005796,84.522629,37.974564,-148.897095,,,
729705910.47586,-2.037724,-1.33911,67.795464,0.018646,-0.042282,0.981415,-0.040625,-0.016165,-0.005796,84.522629,37.974564,-148.897095,,,
729705910.479087,-2.049137,-1.348794,67.794516,0.018646,-0.042282,0.981415,-0.040625,-0.016165,-0.005796,84.537933,37.991821,-148.649841,,,
729705910.482497,-2.060521,-1.3558,67.795365,0.01207,-0.047592,0.986145,-0.037997,-0.022692,0.005756,84.537933,37.991821,-148.649841,,,
729705910.485825,-2.060521,-1.3558,67.795365,0.01207,-0.047592,0.986145,-0.037997,-0.022692,0.005756,84.537933,37.991821,-148.649841,,,
729705910.489166,-2.071056,-1.367366,67.797895,0.01207,-0.047592,0.986145,-0.037997,-0.022692,0.005756,84.537933,37.991821,-148.649841,,,
729705910.492413,-2.083968,-1.374971,67.802658,0.008469,-0.046906,0.988312,-0.046322,-0.023136,0.020539,84.537933,37.991821,-148.649841,,,
729705910.49577,-2.083968,-1.374971,67.802658,0.008469,-0.046906,0.988312,-0.046322,-0.023136,0.020539,84.537933,37.991821,-148.649841,,,
729705910.499168,-2.096561,-1.384181,67.809077,0.008469,-0.046906,0.988312,-0.046322,-0.023136,0.020539,84.537933,37.991821,-148.649841,,,
729705910.502413,-2.112258,-1.387577,67.816549,0.009705,-0.044342,0.995758,-0.057627,-0.005156,0.027309,84.537933,37.991821,-148.649841,,,
729705910.505779,-2.112258,-1.387577,67.816549,0.009705,-0.044342,0.995758,-0.057627,-0.005156,0.027309,84.537933,37.991821,-148.649841,,,
729705910.509102,-2.127182,-1.391756,67.8248,0.009705,-0.044342,0.995758,-0.057627,-0.005156,0.027309,84.537933,37.991821,-148.649841,,,
729705910.512419,-2.143379,-1.392783,67.834114,0.011444,-0.045258,1.001358,-0.053793,-0.002582,0.033883,84.537933,37.991821,-148.649841,,,
729705910.515862,-2.143379,-1.392783,67.834114,0.011444,-0.045258,1.001358,-0.053793,-0.002582,0.033883,84.537933,37.991821,-148.649841,,,
729705910.5191,-2.156973,-1.397232,67.844129,0.011444,-0.045258,1.001358,-0.053793,-0.002582,0.033883,84.537933,37.991821,-148.649841,,,
729705910.522457,-2.171103,-1.399733,67.854531,0.01535,-0.046387,1.00589,-0.045738,-0.009547,0.035595,84.28241,38.057281,-148.736954,,,
729705910.525786,-2.171103,-1.399733,67.854531,0.01535,-0.046387,1.00589,-0.045738,-0.009547,0.035595,84.28241,38.057281,-148.736954,,,
729705910.529182,-2.18221,-1.406177,67.864753,0.01535,-0.046387,1.00589,-0.045738,-0.009547,0.035595,84.28241,38.057281,-148.736954,,,
729705910.532485,-2.194117,-1.412302,67.874661,0.022934,-0.042603,1.007858,-0.040103,-0.022548,0.032598,84.28241,38.057281,-148.736954,,,
729705910.535766,-2.194117,-1.412302,67.874661,0.022934,-0.042603,1.007858,-0.040103,-0.022548,0.032598,84.28241,38.057281,-148.736954,,,
729705910.539108,-2.204242,-1.420133,67.883691,0.022934,-0.042603,1.007858,-0.040103,-0.022548,0.032598,84.28241,38.057281,-148.736954,,,
729705910.542417,-2.214987,-1.428096,67.891459,0.028519,-0.039444,1.011383,-0.034383,-0.027057,0.023536,84.28241,38.057281,-148.736954,,,
729705910.545761,-2.214987,-1.428096,67.891459,0.028519,-0.039444,1.011383,-0.034383,-0.027057,0.023536,84.28241,38.057281,-148.736954,,,
729705910.549135,-2.225159,-1.435692,67.89787,0.028519,-0.039444,1.011383,-0.034383,-0.027057,0.023536,84.28241,38.057281,-148.736954,,,
729705910.552436,-2.235127,-1.443279,67.902673,0.031693,-0.038269,1.011749,-0.033776,-0.021957,0.012604,84.28241,38.057281,-148.736954,,,
729705910.555748,-2.235127,-1.443279,67.902673,0.031693,-0.038269,1.011749,-0.033776,-0.021957,0.012604,84.28241,38.057281,-148.736954,,,
729705910.559118,-2.246241,-1.447823,67.906227,0.031693,-0.038269,1.011749,-0.033776,-0.021957,0.012604,84.28241,38.057281,-148.736954,,,
729705910.56242,-2.25377,-1.454583,67.908661,0.035812,-0.035782,1.014206,-0.022682,-0.019615,0.005216,84.471375,38.09993,-148.866837,,,
729705910.565816,-2.25377,-1.454583,67.908661,0.035812,-0.035782,1.014206,-0.022682,-0.019615,0.005216,84.471375,38.09993,-148.866837,,,
729705910.56908,-2.262771,-1.455903,67.910323,0.035812,-0.035782,1.014206,-0.022682,-0.019615,0.005216,84.471375,38.09993,-148.866837,,,
729705910.572423,-2.268338,-1.460562,67.911824,0.037659,-0.0383,1.015564,-0.016158,-0.011246,0.005141,84.471375,38.09993,-148.866837,,,
729705910.575773,-2.268338,-1.460562,67.911824,0.037659,-0.0383,1.015564,-0.016158,-0.011246,0.005141,84.471375,38.09993,-148.866837,,,
729705910.579181,-2.274012,-1.458975,67.914161,0.037659,-0.0383,1.015564,-0.016158,-0.011246,0.005141,84.471375,38.09993,-148.866837,,,
729705910.582446,-2.27571,-1.461401,67.917162,0.033997,-0.041901,1.020279,0.00117,-0.005002,0.010666,84.471375,38.09993,-148.866837,,,
729705910.585783,-2.27571,-1.461401,67.917162,0.033997,-0.041901,1.020279,0.00117,-0.005002,0.010666,84.471375,38.09993,-148.866837,,,
729705910.589083,-2.275287,-1.458913,67.921403,0.033997,-0.041901,1.020279,0.00117,-0.005002,0.010666,84.471375,38.09993,-148.866837,,,
729705910.592416,-2.270931,-1.459472,67.926268,0.029755,-0.0439,1.019852,0.021752,0.003306,0.015661,84.471375,38.09993,-148.866837,,,
729705910.595751,-2.270931,-1.459472,67.926268,0.029755,-0.0439,1.019852,0.021752,0.003306,0.015661,84.471375,38.09993,-148.866837,,,
729705910.599152,-2.265033,-1.455567,67.931462,0.029755,-0.0439,1.019852,0.021752,0.003306,0.015661,84.471375,38.09993,-148.866837,,,
729705910.602431,-2.254261,-1.455969,67.935691,0.0345,-0.042801,1.021896,0.042901,-0.000962,0.009455,84.286987,38.337112,-148.598404,,,
729705910.605848,-2.254261,-1.455969,67.935691,0.0345,-0.042801,1.021896,0.042901,-0.000962,0.009455,84.286987,38.337112,-148.598404,,,
729705910.60909,-2.242696,-1.455312,67.938817,0.0345,-0.042801,1.021896,0.042901,-0.000962,0.009455,84.286987,38.337112,-148.598404,,,
729705910.612429,-2.228539,-1.456784,67.940719,0.033615,-0.037506,1.017578,0.051497,-0.004105,0.001174,84.286987,38.337112,-148.598404,,,
729705910.615818,-2.228539,-1.456784,67.940719,0.033615,-0.037506,1.017578,0.051497,-0.004105,0.001174,84.286987,38.337112,-148.598404,,,
729705910.619175,-2.213542,-1.458541,67.941018,0.033615,-0.037506,1.017578,0.051497,-0.004105,0.001174,84.286987,38.337112,-148.598404,,,
729705910.622415,-2.197475,-1.461186,67.939998,0.028061,-0.03949,1.010712,0.055305,-0.008737,-0.008089,84.286987,38.337112,-148.598404,,,
729705910.625774,-2.197475,-1.461186,67.939998,0.028061,-0.03949,1.010712,0.055305,-0.008737,-0.008089,84.286987,38.337112,-148.598404,,,
729705910.629056,-2.181481,-1.46744,67.938765,0.028061,-0.03949,1.010712,0.055305,-0.008737,-0.008089,84.286987,38.337112,-148.598404,,,
729705910.632529,-2.165191,-1.474921,67.938457,0.023941,-0.042191,1.001114,0.057749,-0.02682,-0.002091,84.286987,38.337112,-148.598404,,,
729705910.635775,-2.165191,-1.474921,67.938457,0.023941,-0.042191,1.001114,0.057749,-0.02682,-0.002091,84.286987,38.337112,-148.598404,,,
729705910.639096,-2.147677,-1.48644,67.939636,0.023941,-0.042191,1.001114,0.057749,-0.02682,-0.002091,84.286987,38.337112,-148.598404,,,
729705910.642419,-2.129543,-1.496244,67.942448,0.023346,-0.04129,0.997177,0.064731,-0.029403,0.008665,84.421463,37.974854,-148.761993,,,
729705910.645856,-2.129543,-1.496244,67.942448,0.023346,-0.04129,0.997177,0.064731,-0.029403,0.008665,84.421463,37.974854,-148.761993,,,
729705910.649158,-2.111051,-1.507474,67.945721,0.023346,-0.04129,0.997177,0.064731,-0.029403,0.008665,84.421463,37.974854,-148.761993,,,
729705910.652421,-2.093797,-1.514126,67.949479,0.026123,-0.039398,0.999496,0.058135,-0.019005,0.011455,84.421463,37.974854,-148.761993,,,
729705910.655773,-2.093797,-1.514126,67.949479,0.026123,-0.039398,0.999496,0.058135,-0.019005,0.011455,84.421463,37.974854,-148.761993,,,
729705910.659162,-2.078574,-1.522327,67.95418,0.026123,-0.039398,0.999496,0.058135,-0.019005,0.011455,84.421463,37.974854,-148.761993,,,
729705910.662416,-2.063205,-1.526812,67.959949,0.024872,-0.03537,0.988831,0.051793,-0.011411,0.018287,84.421463,37.974854,-148.761993,,,
729705910.665814,-2.063205,-1.526812,67.959949,0.024872,-0.03537,0.988831,0.051793,-0.011411,0.018287,84.421463,37.974854,-148.761993,,,
729705910.66909,-2.050951,-1.530697,67.966415,0.024872,-0.03537,0.988831,0.051793,-0.011411,0.018287,84.421463,37.974854,-148.761993,,,
729705910.67242,-2.038511,-1.531525,67.973312,0.025925,-0.033585,0.988739,0.041519,0.002963,0.021311,84.421463,37.974854,-148.761993,,,
729705910.675774,-2.038511,-1.531525,67.973312,0.025925,-0.033585,0.988739,0.041519,0.002963,0.021311,84.421463,37.974854,-148.761993,,,
729705910.679101,-2.029647,-1.531691,67.980513,0.025925,-0.033585,0.988739,0.041519,0.002963,0.021311,84.421463,37.974854,-148.761993,,,
729705910.682517,-2.019725,-1.52915,67.988749,0.023865,-0.036423,0.991272,0.034026,0.01249,0.028411,84.421463,37.974854,-148.761993,,,
729705910.68582,-2.019725,-1.52915,67.988749,0.023865,-0.036423,0.991272,0.034026,0.01249,0.028411,84.417389,38.077438,-148.60733,,,
729705910.689086,-2.012104,-1.528701,67.997884,0.023865,-0.036423,0.991272,0.034026,0.01249,0.028411,84.417389,38.077438,-148.60733,,,
729705910.692423,-2.003444,-1.526412,68.008225,0.020813,-0.038742,0.989182,0.033642,0.007432,0.036182,84.417389,38.077438,-148.60733,,,
729705910.695784,-2.003444,-1.526412,68.008225,0.020813,-0.038742,0.989182,0.033642,0.007432,0.036182,84.417389,38.077438,-148.60733,,,
729705910.699195,-1.994112,-1.526584,68.020364,0.020813,-0.038742,0.989182,0.033642,0.007432,0.036182,84.417389,38.077438,-148.60733,,,
729705910.702413,-1.983188,-1.527523,68.033983,0.021851,-0.038788,0.991409,0.041725,-0.005699,0.046102,84.417389,38.077438,-148.60733,,,
729705910.705776,-1.983188,-1.527523,68.033983,0.021851,-0.038788,0.991409,0.041725,-0.005699,0.046102,84.417389,38.077438,-148.60733,,,
729705910.709098,-1.973139,-1.531526,68.048802,0.021851,-0.038788,0.991409,0.041725,-0.005699,0.046102,84.417389,38.077438,-148.60733,,,
729705910.712451,-1.961011,-1.53912,68.064999,0.021027,-0.035965,0.983002,0.044749,-0.031215,0.05558,84.417389,38.077438,-148.60733,,,
729705910.715806,-1.961011,-1.53912,68.064999,0.021027,-0.035965,0.983002,0.044749,-0.031215,0.05558,84.417389,38.077438,-148.60733,,,
729705910.719094,-1.951205,-1.542984,68.080591,0.021027,-0.035965,0.983002,0.044749,-0.031215,0.05558,84.417389,38.077438,-148.60733,,,
729705910.72244,-1.940483,-1.540659,68.093568,0.027802,-0.031601,0.997162,0.035324,0.022513,0.037989,84.417389,38.077438,-148.60733,,,
729705910.725845,-1.940483,-1.540659,68.093568,0.027802,-0.031601,0.997162,0.035324,0.022513,0.037989,84.501816,37.805786,-148.77832,,,
729705910.729099,-1.933246,-1.534055,68.103944,0.027802,-0.031601,0.997162,0.035324,0.022513,0.037989,84.501816,37.805786,-148.77832,,,
729705910.732476,-1.926657,-1.529365,68.112135,0.03598,-0.024384,0.989197,0.019471,0.012241,0.023339,84.501816,37.805786,-148.77832,,,
729705910.73577,-1.926657,-1.529365,68.112135,0.03598,-0.024384,0.989197,0.019471,0.012241,0.023339,84.501816,37.805786,-148.77832,,,
729705910.739092,-1.923862,-1.527106,68.119176,0.03598,-0.024384,0.989197,0.019471,0.012241,0.023339,84.501816,37.805786,-148.77832,,,
729705910.742417,-1.922627,-1.527873,68.125678,0.03598,-0.024384,0.989197,0.019471,0.012241,0.023339,84.501816,37.805786,-148.77832,,,
729705910.745772,-1.922627,-1.527873,68.125678,0.021805,-0.026215,0.969116,0.001839,-0.004556,0.020217,84.501816,37.805786,-148.77832,,,
729705910.749133,-1.924236,-1.531089,68.131147,0.021805,-0.026215,0.969116,0.001839,-0.004556,0.020217,84.501816,37.805786,-148.77832,,,
729705910.752456,-1.924236,-1.537619,68.134262,0.021805,-0.026215,0.969116,-0.015534,-0.026144,0.004322,84.501816,37.805786,-148.77832,,,
729705910.755764,-1.928133,-1.537619,68.134262,0.023239,-0.026657,0.976044,-0.015534,-0.026144,0.004322,84.501816,37.805786,-148.77832,,,
729705910.759086,-1.933867,-1.547121,68.135008,0.023239,-0.026657,0.976044,-0.015534,-0.026144,0.004322,84.501816,37.805786,-148.77832,,,
729705910.762422,-1.933867,-1.547121,68.135008,0.023239,-0.026657,0.976044,-0.023505,-0.047639,-0.00883,84.501816,37.805786,-148.77832,,,
729705910.765795,-1.940276,-1.560281,68.133818,0.029572,-0.024887,0.974777,-0.023505,-0.047639,-0.00883,84.247787,38.066925,-148.661942,,,
729705910.769079,-1.948752,-1.574606,68.130631,0.029572,-0.024887,0.974777,-0.023505,-0.047639,-0.00883,84.247787,38.066925,-148.661942,,,
729705910.77242,-1.948752,-1.574606,68.125977,0.029572,-0.024887,0.974777,-0.022887,-0.05976,-0.018775,84.247787,38.066925,-148.661942,,,
729705910.775804,-1.955858,-1.591964,68.125977,0.02594,-0.029694,0.983948,-0.022887,-0.05976,-0.018775,84.247787,38.066925,-148.661942,,,
729705910.779081,-1.96328,-1.6084,68.120639,0.02594,-0.029694,0.983948,-0.022887,-0.05976,-0.018775,84.247787,38.066925,-148.661942,,,
729705910.782506,-1.96328,-1.6084,68.115203,0.02594,-0.029694,0.983948,-0.018869,-0.056946,-0.019184,84.247787,38.066925,-148.661942,,,
729705910.785747,-1.968828,-1.626094,68.115203,0.026672,-0.031952,0.988205,-0.018869,-0.056946,-0.019184,84.247787,38.066925,-148.661942,,,
729705910.78909,-1.974496,-1.64154,68.111053,0.026672,-0.031952,0.988205,-0.018869,-0.056946,-0.019184,84.247787,38.066925,-148.661942,,,
729705910.792428,-1.974496,-1.64154,68.111053,0.026672,-0.031952,0.988205,-0.018869,-0.056946,-0.019184,84.247787,38.066925,-148.661942,,,
729705910.795749,-1.978305,-1.656734,68.108946,0.028641,-0.036758,0.98996,-0.011275,-0.046366,-0.00484,84.247787,38.066925,-148.661942,,,
729705910.799131,-1.98161,-1.667517,68.109449,0.028641,-0.036758,0.98996,-0.011275,-0.046366,-0.00484,84.247787,38.066925,-148.661942,,,
729705910.802421,-1.98161,-1.667517,68.109449,0.028641,-0.036758,0.98996,-0.011275,-0.046366,-0.00484,84.247787,38.066925,-148.661942,,,
729705910.805762,-1.984601,-1.675564,68.112279,0.028824,-0.04129,0.994598,-0.010183,-0.017206,0.011704,84.130692,37.944077,-148.925369,,,
729705910.809098,-1.985986,-1.67985,68.116845,0.028824,-0.04129,0.994598,-0.010183,-0.017206,0.011704,84.130692,37.944077,-148.925369,,,
729705910.812539,-1.985986,-1.67985,68.122426,0.028824,-0.04129,0.994598,-0.010183,-0.017206,0.011704,84.130692,37.944077,-148.925369,,,
729705910.815807,-1.989548,-1.678391,68.122426,0.039078,-0.038361,0.994476,-0.013161,0.014359,0.018574,84.130692,37.944077,-148.925369,,,
729705910.819084,-1.991799,-1.673354,68.127443,0.039078,-0.038361,0.994476,-0.013161,0.014359,0.018574,84.130692,37.944077,-148.925369,,,
729705910.822524,-1.991799,-1.673354,68.127443,0.039078,-0.038361,0.994476,-0.013161,0.014359,0.018574,84.130692,37.944077,-148.925369,,,
729705910.825814,-1.997403,-1.665421,68.130707,0.042374,-0.031921,0.988174,-0.022533,0.032643,0.006603,84.130692,37.944077,-148.925369,,,
729705910.829082,-2.00344,-1.653335,68.131386,0.042374,-0.031921,0.988174,-0.022533,0.032643,0.006603,84.130692,37.944077,-148.925369,,,
729705910.832479,-2.00344,-1.653335,68.131386,0.042374,-0.031921,0.988174,-0.022533,0.032643,0.006603,84.130692,37.944077,-148.925369,,,
729705910.835778,-2.012776,-1.642014,68.130213,0.034103,-0.030075,0.983597,-0.036183,0.042433,-0.00544,84.130692,37.944077,-148.925369,,,
729705910.839092,-2.021872,-1.631384,68.128908,0.034103,-0.030075,0.983597,-0.036183,0.042433,-0.00544,84.130692,37.944077,-148.925369,,,
729705910.842476,-2.021872,-1.631384,68.128908,0.034103,-0.030075,0.983597,-0.036183,0.042433,-0.00544,84.130692,37.944077,-148.925369,,,
729705910.845759,-2.033548,-1.623257,68.128015,0.024338,-0.039597,0.978577,-0.040986,0.025486,-0.002434,84.130692,37.944077,-148.925369,,,
729705910.849133,-2.044807,-1.617607,68.127684,0.024338,-0.039597,0.978577,-0.040986,0.025486,-0.002434,84.403931,38.047302,-148.880112,,,
729705910.852498,-2.044807,-1.617607,68.127684,0.024338,-0.039597,0.978577,-0.040986,0.025486,-0.002434,84.403931,38.047302,-148.880112,,,
729705910.855754,-2.058764,-1.613203,68.127418,0.021622,-0.042938,0.979538,-0.048953,0.016645,-0.00177,84.403931,38.047302,-148.880112,,,
729705910.859096,-2.072224,-1.60975,68.126327,0.021622,-0.042938,0.979538,-0.048953,0.016645,-0.00177,84.403931,38.047302,-148.880112,,,
729705910.862468,-2.072224,-1.60975,68.126327,0.021622,-0.042938,0.979538,-0.048953,0.016645,-0.00177,84.403931,38.047302,-148.880112,,,
729705910.865866,-2.086678,-1.608165,68.124462,0.021027,-0.040985,0.981216,-0.050429,0.006812,-0.007026,84.403931,38.047302,-148.880112,,,
729705910.869089,-2.100681,-1.608002,68.122087,0.021027,-0.040985,0.981216,-0.050429,0.006812,-0.007026,84.403931,38.047302,-148.880112,,,
729705910.872479,-2.100681,-1.608002,68.122087,0.021027,-0.040985,0.981216,-0.050429,0.006812,-0.007026,84.403931,38.047302,-148.880112,,,
729705910.875772,-2.114505,-1.608309,68.118494,0.024796,-0.038788,0.984665,-0.046475,0.00362,-0.015692,84.403931,38.047302,-148.880112,,,
729705910.879082,-2.128327,-1.609515,68.113862,0.024796,-0.038788,0.984665,-0.046475,0.00362,-0.015692,84.403931,38.047302,-148.880112,,,
729705910.882514,-2.128327,-1.609515,68.113862,0.024796,-0.038788,0.984665,-0.046475,0.00362,-0.015692,84.403931,38.047302,-148.880112,,,
729705910.885776,-2.141056,-1.6127,68.108853,0.028015,-0.039429,0.98642,-0.043354,-0.009643,-0.01837,84.403931,38.047302,-148.880112,,,
729705910.889086,-2.153945,-1.618099,68.103909,0.028015,-0.039429,0.98642,-0.043354,-0.009643,-0.01837,84.337219,38.231735,-148.704773,,,
729705910.89242,-2.153945,-1.618099,68.103909,0.028015,-0.039429,0.98642,-0.043354,-0.009643,-0.01837,84.337219,38.231735,-148.704773,,,
729705910.895756,-2.166209,-1.623043,68.098877,0.029282,-0.041473,0.987396,-0.043697,-0.013181,-0.019245,84.337219,38.231735,-148.704773,,,
729705910.899135,-2.17871,-1.630614,68.093707,0.029282,-0.041473,0.987396,-0.043697,-0.013181,-0.019245,84.337219,38.231735,-148.704773,,,
729705910.902498,-2.17871,-1.630614,68.093707,0.029282,-0.041473,0.987396,-0.043697,-0.013181,-0.019245,84.337219,38.231735,-148.704773,,,
729705910.905807,-2.191703,-1.634535,68.088811,0.031464,-0.040192,0.992294,-0.044707,-0.007352,-0.018045,84.337219,38.231735,-148.704773,,,
729705910.909185,-2.203543,-1.639495,68.084056,0.031464,-0.040192,0.992294,-0.044707,-0.007352,-0.018045,84.337219,38.231735,-148.704773,,,
729705910.912429,-2.203543,-1.639495,68.084056,0.031464,-0.040192,0.992294,-0.044707,-0.007352,-0.018045,84.337219,38.231735,-148.704773,,,
729705910.915791,-2.217793,-1.640066,68.080139,0.033203,-0.038223,0.996719,-0.049531,0.004577,-0.012783,84.337219,38.231735,-148.704773,,,
729705910.919095,-2.231526,-1.638853,68.076658,0.033203,-0.038223,0.996719,-0.049531,0.004577,-0.012783,84.337219,38.231735,-148.704773,,,
729705910.922444,-2.231526,-1.638853,68.076658,0.033203,-0.038223,0.996719,-0.049531,0.004577,-0.012783,84.337219,38.231735,-148.704773,,,
729705910.925823,-2.246361,-1.635547,68.073079,0.033173,-0.040268,1.003174,-0.050875,0.01887,-0.013403,84.337219,38.231735,-148.704773,,,
729705910.929079,-2.262218,-1.628157,68.069576,0.033173,-0.040268,1.003174,-0.050875,0.01887,-0.013403,84.170044,38.379761,-148.537918,,,
729705910.932466,-2.262218,-1.628157,68.069576,0.033173,-0.040268,1.003174,-0.050875,0.01887,-0.013403,84.170044,38.379761,-148.537918,,,
729705910.935773,-2.27658,-1.619864,68.066152,0.034973,-0.041534,1.008896,-0.04885,0.035922,-0.012481,84.170044,38.379761,-148.537918,,,
729705910.939087,-2.29113,-1.608045,68.062784,0.034973,-0.041534,1.008896,-0.04885,0.035922,-0.012481,84.170044,38.379761,-148.537918,,,
729705910.942441,-2.29113,-1.608045,68.062784,0.034973,-0.041534,1.008896,-0.04885,0.035922,-0.012481,84.170044,38.379761,-148.537918,,,
729705910.94576,-2.303234,-1.597715,68.059103,0.036835,-0.039734,1.01236,-0.039142,0.039839,-0.014398,84.170044,38.379761,-148.537918,,,
729705910.949127,-2.314063,-1.586415,68.054987,0.036835,-0.039734,1.01236,-0.039142,0.039839,-0.014398,84.170044,38.379761,-148.537918,,,
729705910.952499,-2.314063,-1.586415,68.054987,0.036835,-0.039734,1.01236,-0.039142,0.039839,-0.014398,84.170044,38.379761,-148.537918,,,
729705910.955754,-2.324063,-1.578323,68.050295,0.036545,-0.037308,1.008896,-0.033059,0.027955,-0.018181,84.170044,38.379761,-148.537918,,,
729705910.959092,-2.332748,-1.57238,68.043802,0.036545,-0.037308,1.008896,-0.033059,0.027955,-0.018181,84.170044,38.379761,-148.537918,,,
729705910.962435,-2.332748,-1.57238,68.043802,0.036545,-0.037308,1.008896,-0.033059,0.027955,-0.018181,84.170044,38.379761,-148.537918,,,
729705910.965803,-2.341143,-1.569243,68.035523,0.033035,-0.036285,1.00473,-0.028381,0.010098,-0.030757,84.170044,38.379761,-148.537918,,,
729705910.969085,-2.349313,-1.569183,68.026055,0.033035,-0.036285,1.00473,-0.028381,0.010098,-0.030757,84.176422,38.388626,-148.539413,,,
729705910.97243,-2.349313,-1.569183,68.026055,0.033035,-0.036285,1.00473,-0.028381,0.010098,-0.030757,84.176422,38.388626,-148.539413,,,
729705910.975771,-2.357092,-1.571401,68.015229,0.031509,-0.035889,1.003403,-0.02612,-0.007965,-0.040355,84.176422,38.388626,-148.539413,,,
729705910.979082,-2.36339,-1.57678,68.003716,0.031509,-0.035889,1.003403,-0.02612,-0.007965,-0.040355,84.176422,38.388626,-148.539413,,,
729705910.982477,-2.36339,-1.57678,68.003716,0.031509,-0.035889,1.003403,-0.02612,-0.007965,-0.040355,84.176422,38.388626,-148.539413,,,
729705910.985761,-2.367099,-1.583101,67.992161,0.028381,-0.039032,1.007538,-0.009741,-0.0197,-0.041347,84.176422,38.388626,-148.539413,,,
729705910.989088,-2.368808,-1.591698,67.981289,0.028381,-0.039032,1.007538,-0.009741,-0.0197,-0.041347,84.176422,38.388626,-148.539413,,,
729705910.992515,-2.368808,-1.591698,67.981289,0.028381,-0.039032,1.007538,-0.009741,-0.0197,-0.041347,84.176422,38.388626,-148.539413,,,
729705910.995769,-2.371246,-1.598601,67.971276,0.029816,-0.037811,1.009872,-0.010119,-0.018292,-0.035757,84.176422,38.388626,-148.539413,,,
729705910.99914,-2.372421,-1.606107,67.961604,0.029816,-0.037811,1.009872,-0.010119,-0.018292,-0.035757,84.176422,38.388626,-148.539413,,,
729705911.002439,-2.372421,-1.606107,67.961604,0.029816,-0.037811,1.009872,-0.010119,-0.018292,-0.035757,84.176422,38.388626,-148.539413,,,
729705911.00583,-2.373019,-1.610406,67.9525,0.03299,-0.036743,1.009827,-0.000897,-0.006708,-0.032515,84.176422,38.388626,-148.539413,,,
729705911.009071,-2.37341,-1.613476,67.944091,0.03299,-0.036743,1.009827,-0.000897,-0.006708,-0.032515,84.176422,38.388626,-148.539413,,,
729705911.012423,-2.37341,-1.613476,67.944091,0.03299,-0.036743,1.009827,-0.000897,-0.006708,-0.032515,84.273972,38.544678,-148.701752,,,
729705911.015854,-2.374153,-1.612317,67.937038,0.032761,-0.037445,1.011597,-0.002056,0.010736,-0.023576,84.273972,38.544678,-148.701752,,,
729705911.019084,-2.374884,-1.611323,67.931219,0.032761,-0.037445,1.011597,-0.002056,0.010736,-0.023576,84.273972,38.544678,-148.701752,,,
729705911.022434,-2.374884,-1.611323,67.931219,0.032761,-0.037445,1.011597,-0.002056,0.010736,-0.023576,84.273972,38.544678,-148.701752,,,
729705911.02577,-2.376257,-1.606968,67.926125,0.03212,-0.036591,1.006195,-0.004526,0.020105,-0.01901,84.273972,38.544678,-148.701752,,,
729705911.029088,-2.377335,-1.605034,67.921144,0.03212,-0.036591,1.006195,-0.004526,0.020105,-0.01901,84.273972,38.544678,-148.701752,,,
729705911.032464,-2.377335,-1.605034,67.921144,0.03212,-0.036591,1.006195,-0.004526,0.020105,-0.01901,84.273972,38.544678,-148.701752,,,
729705911.035772,-2.379516,-1.60005,67.916574,0.02829,-0.038635,1.001373,-0.006311,0.021756,-0.016899,84.273972,38.544678,-148.701752,,,
729705911.039091,-2.380226,-1.596478,67.911875,0.02829,-0.038635,1.001373,-0.006311,0.021756,-0.016899,84.273972,38.544678,-148.701752,,,
729705911.042412,-2.380226,-1.596478,67.911875,0.02829,-0.038635,1.001373,-0.006311,0.021756,-0.016899,84.273972,38.544678,-148.701752,,,
729705911.045819,-2.382146,-1.590639,67.907206,0.024048,-0.039062,1.005234,-0.005905,0.023857,-0.01732,84.273972,38.544678,-148.701752,,,
729705911.04914,-2.381518,-1.586813,67.902692,0.024048,-0.039062,1.005234,-0.005905,0.023857,-0.01732,84.273972,38.544678,-148.701752,,,
729705911.052414,-2.381518,-1.586813,67.902692,0.024048,-0.039062,1.005234,-0.005905,0.023857,-0.01732,84.217758,38.494659,-148.721771,,,
729705911.055765,-2.381198,-1.583664,67.898696,0.01973,-0.040939,1.003784,0.002315,0.00974,-0.014293,84.217758,38.494659,-148.721771,,,
729705911.059086,-2.378496,-1.583029,67.896095,0.01973,-0.040939,1.003784,0.002315,0.00974,-0.014293,84.217758,38.494659,-148.721771,,,
729705911.062444,-2.378496,-1.583029,67.896095,0.01973,-0.040939,1.003784,0.002315,0.00974,-0.014293,84.217758,38.494659,-148.721771,,,
729705911.065805,-2.37574,-1.583189,67.89529,0.016052,-0.045486,1.00264,0.012342,0.000644,-0.002239,84.217758,38.494659,-148.721771,,,
729705911.069091,-2.371044,-1.584177,67.895738,0.016052,-0.045486,1.00264,0.012342,0.000644,-0.002239,84.217758,38.494659,-148.721771,,,
729705911.072472,-2.371044,-1.584177,67.895738,0.016052,-0.045486,1.00264,0.012342,0.000644,-0.002239,84.217758,38.494659,-148.721771,,,
729705911.075769,-2.367131,-1.585596,67.896786,0.017166,-0.044571,1.002365,0.013568,-0.003574,0.001871,84.217758,38.494659,-148.721771,,,
729705911.079088,-2.362152,-1.588732,67.898797,0.017166,-0.044571,1.002365,0.013568,-0.003574,0.001871,84.217758,38.494659,-148.721771,,,
729705911.082493,-2.362152,-1.588732,67.898797,0.017166,-0.044571,1.002365,0.013568,-0.003574,0.001871,84.217758,38.494659,-148.721771,,,
729705911.085836,-2.358457,-1.591191,67.902362,0.019608,-0.04245,0.99559,0.012914,-0.006901,0.012326,84.217758,38.494659,-148.721771,,,
729705911.089081,-2.354094,-1.595422,67.906937,0.019608,-0.04245,0.99559,0.012914,-0.006901,0.012326,84.217758,38.494659,-148.721771,,,
729705911.092422,-2.354094,-1.595422,67.906937,0.019608,-0.04245,0.99559,0.012914,-0.006901,0.012326,84.20314,38.50386,-148.51297,,,
729705911.095765,-2.352286,-1.598283,67.912213,0.026672,-0.040588,0.992722,0.00489,-0.006383,0.017067,84.20314,38.50386,-148.51297,,,
729705911.099146,-2.351332,-1.601503,67.917731,0.026672,-0.040588,0.992722,0.00489,-0.006383,0.017067,84.20314,38.50386,-148.51297,,,
729705911.102442,-2.351332,-1.601503,67.917731,0.026672,-0.040588,0.992722,0.00489,-0.006383,0.017067,84.20314,38.50386,-148.51297,,,
729705911.105775,-2.353142,-1.602054,67.923159,0.035782,-0.03801,0.987656,-0.00734,0.002404,0.01637,84.20314,38.50386,-148.51297,,,
729705911.109085,-2.355511,-1.602991,67.92753,0.035782,-0.03801,0.987656,-0.00734,0.002404,0.01637,84.20314,38.50386,-148.51297,,,
729705911.112503,-2.355511,-1.602991,67.92753,0.035782,-0.03801,0.987656,-0.00734,0.002404,0.01637,84.20314,38.50386,-148.51297,,,
729705911.115762,-2.361117,-1.603399,67.931467,0.037552,-0.034576,0.984421,-0.022756,0.000346,0.013489,84.20314,38.50386,-148.51297,,,
729705911.119087,-2.367772,-1.603457,67.935379,0.037552,-0.034576,0.984421,-0.022756,0.000346,0.013489,84.20314,38.50386,-148.51297,,,
729705911.122425,-2.367772,-1.603457,67.935379,0.037552,-0.034576,0.984421,-0.022756,0.000346,0.013489,84.20314,38.50386,-148.51297,,,
729705911.125826,-2.376396,-1.604587,67.939421,0.038376,-0.034439,0.982391,-0.03097,-0.001369,0.014875,84.20314,38.50386,-148.51297,,,
729705911.12908,-2.385323,-1.60402,67.944031,0.038376,-0.034439,0.982391,-0.03097,-0.001369,0.014875,84.20314,38.50386,-148.51297,,,
729705911.132426,-2.385323,-1.60402,67.944031,0.038376,-0.034439,0.982391,-0.03097,-0.001369,0.014875,84.222717,38.236298,-148.614151,,,
729705911.135779,-2.395439,-1.604952,67.948923,0.038681,-0.037338,0.981888,-0.034925,0.000318,0.017494,84.222717,38.236298,-148.614151,,,
729705911.139081,-2.406399,-1.602137,67.954416,0.038681,-0.037338,0.981888,-0.034925,0.000318,0.017494,84.222717,38.236298,-148.614151,,,
729705911.142423,-2.406399,-1.602137,67.954416,0.038681,-0.037338,0.981888,-0.034925,0.000318,0.017494,84.222717,38.236298,-148.614151,,,
729705911.145763,-2.416933,-1.601518,67.959856,0.042786,-0.039795,0.986282,-0.034716,0.004634,0.017935,84.222717,38.236298,-148.614151,,,
729705911.149119,-2.428011,-1.597804,67.964908,0.042786,-0.039795,0.986282,-0.034716,0.004634,0.017935,84.222717,38.236298,-148.614151,,,
729705911.152491,-2.428011,-1.597804,67.964908,0.042786,-0.039795,0.986282,-0.034716,0.004634,0.017935,84.222717,38.236298,-148.614151,,,
729705911.155759,-2.437931,-1.598209,67.969241,0.035156,-0.042358,0.989594,-0.034627,0.001241,0.013956,84.222717,38.236298,-148.614151,,,
729705911.159165,-2.448864,-1.595825,67.973773,0.035156,-0.042358,0.989594,-0.034627,0.001241,0.013956,84.222717,38.236298,-148.614151,,,
729705911.162415,-2.448864,-1.595825,67.973773,0.035156,-0.042358,0.989594,-0.034627,0.001241,0.013956,84.222717,38.236298,-148.614151,,,
729705911.165842,-2.460309,-1.596325,67.978181,0.028214,-0.044189,0.99202,-0.03876,2.8e-05,0.013979,84.222717,38.236298,-148.614151,,,
729705911.169075,-2.472101,-1.595562,67.983015,0.028214,-0.044189,0.99202,-0.03876,2.8e-05,0.013979,84.222717,38.236298,-148.614151,,,
729705911.172435,-2.472101,-1.595562,67.983015,0.028214,-0.044189,0.99202,-0.03876,2.8e-05,0.013979,84.222717,38.236298,-148.614151,,,
729705911.175771,-2.483941,-1.597191,67.988282,0.029175,-0.047348,0.991257,-0.038993,-0.0053,0.017547,84.196182,38.438736,-148.688019,,,
729705911.17908,-2.494821,-1.600708,67.993416,0.029175,-0.047348,0.991257,-0.038993,-0.0053,0.017547,84.196182,38.438736,-148.688019,,,
729705911.182453,-2.494821,-1.600708,67.993416,0.029175,-0.047348,0.991257,-0.038993,-0.0053,0.017547,84.196182,38.438736,-148.688019,,,
