Time (sec),Pitch (deg),Roll (deg),Yaw(deg),X-Acceleration (g),Y-Acceleration (g),Z-Acceleration (g),Pitch Rate (deg/sec),Roll Rate (deg/sec),Yaw Rate (deg/sec),Magnetic Field in X direction (uT),Magnetic Field in Y direction (uT),Magnetic Field in Z Direction (uT),Latitude (deg),Longitude (deg),Altitude (m)
729706188.272155,-5.326849,1.277921,168.305634,-0.011093,-0.095032,1.004517,-0.00643,0.025151,-0.0093,87.186401,15.977219,-146.657242,,,
729706188.275507,-5.326849,1.277921,168.305634,-0.011093,-0.095032,1.004517,-0.00643,0.025151,-0.0093,87.186401,15.977219,-146.657242,,,
729706188.278887,-5.328681,1.285185,168.302844,-0.013245,-0.095871,1.004532,-0.006329,0.03109,-0.01211,87.186401,15.977219,-146.657242,,,
729706188.282144,-5.330277,1.292504,168.300029,-0.013245,-0.095871,1.004532,-0.006329,0.03109,-0.01211,87.186401,15.977219,-146.657242,,,
729706188.28549,-5.330277,1.292504,168.300029,-0.013245,-0.095871,1.004532,-0.006329,0.03109,-0.01211,87.186401,15.977219,-146.657242,,,
729706188.288831,-5.332721,1.299532,168.29691,-0.017792,-0.096344,1.000366,-0.009532,0.027795,-0.014383,87.186401,15.977219,-146.657242,,,
729706188.292144,-5.335376,1.305419,168.292958,-0.017792,-0.096344,1.000366,-0.009532,0.027795,-0.014383,87.186401,15.977219,-146.657242,,,
729706188.29549,-5.335376,1.305419,168.292958,-0.017792,-0.096344,1.000366,-0.009532,0.027795,-0.014383,87.183838,15.89325,-146.898773,,,
729706188.298829,-5.33875,1.310104,168.288993,-0.023163,-0.094711,0.997604,-0.011023,0.017876,-0.014664,87.183838,15.89325,-146.898773,,,
729706188.302152,-5.341626,1.313629,168.28553,-0.023163,-0.094711,0.997604,-0.011023,0.017876,-0.014664,87.183838,15.89325,-146.898773,,,
729706188.305527,-5.341626,1.313629,168.28553,-0.023163,-0.094711,0.997604,-0.011023,0.017876,-0.014664,87.183838,15.89325,-146.898773,,,
729706188.308824,-5.344781,1.315975,168.282365,-0.027802,-0.094498,0.997498,-0.00999,0.010941,-0.01245,87.183838,15.89325,-146.898773,,,
729706188.31225,-5.347319,1.317019,168.279054,-0.027802,-0.094498,0.997498,-0.00999,0.010941,-0.01245,87.183838,15.89325,-146.898773,,,
729706188.315503,-5.347319,1.317019,168.279054,-0.027802,-0.094498,0.997498,-0.00999,0.010941,-0.01245,87.183838,15.89325,-146.898773,,,
729706188.318822,-5.349669,1.317807,168.275986,-0.028015,-0.096558,1.000198,-0.007588,0.005657,-0.011031,87.183838,15.89325,-146.898773,,,
729706188.322199,-5.351124,1.317611,168.273606,-0.028015,-0.096558,1.000198,-0.007588,0.005657,-0.011031,87.183838,15.89325,-146.898773,,,
729706188.325481,-5.351124,1.317611,168.273606,-0.028015,-0.096558,1.000198,-0.007588,0.005657,-0.011031,87.183838,15.89325,-146.898773,,,
729706188.328817,-5.352242,1.318761,168.271735,-0.028625,-0.097809,1.003174,-0.003055,0.008705,-0.007974,87.183838,15.89325,-146.898773,,,
729706188.332154,-5.352125,1.319393,168.269946,-0.028625,-0.097809,1.003174,-0.003055,0.008705,-0.007974,87.183838,15.89325,-146.898773,,,
729706188.335484,-5.352125,1.319393,168.269946,-0.028625,-0.097809,1.003174,-0.003055,0.008705,-0.007974,87.265656,15.959732,-146.637482,,,
729706188.338814,-5.351143,1.322263,168.268899,-0.027512,-0.09668,1.003983,0.003141,0.015092,-0.003454,87.265656,15.959732,-146.637482,,,
729706188.342155,-5.350242,1.325074,168.267869,-0.027512,-0.09668,1.003983,0.003141,0.015092,-0.003454,87.265656,15.959732,-146.637482,,,
729706188.345553,-5.350242,1.325074,168.267869,-0.027512,-0.09668,1.003983,0.003141,0.015092,-0.003454,87.265656,15.959732,-146.637482,,,
729706188.348826,-5.348658,1.330924,168.267179,-0.028046,-0.094376,1.004105,0.006858,0.024708,-0.002103,87.265656,15.959732,-146.637482,,,
729706188.352152,-5.347266,1.335436,168.266697,-0.028046,-0.094376,1.004105,0.006858,0.024708,-0.002103,87.265656,15.959732,-146.637482,,,
729706188.355496,-5.347266,1.335436,168.266697,-0.028046,-0.094376,1.004105,0.006858,0.024708,-0.002103,87.265656,15.959732,-146.637482,,,
729706188.358876,-5.346403,1.341967,168.266807,-0.028824,-0.094955,0.999176,0.002367,0.026268,0.000766,87.265656,15.959732,-146.637482,,,
729706188.362149,-5.346893,1.347798,168.267497,-0.028824,-0.094955,0.999176,0.002367,0.026268,0.000766,87.265656,15.959732,-146.637482,,,
729706188.365497,-5.346893,1.347798,168.267497,-0.028824,-0.094955,0.999176,0.002367,0.026268,0.000766,87.265656,15.959732,-146.637482,,,
729706188.368835,-5.347984,1.353638,168.26826,-0.02829,-0.092834,0.994034,-0.004327,0.019042,0.000442,87.265656,15.959732,-146.637482,,,
729706188.372168,-5.350281,1.357546,168.268969,-0.02829,-0.092834,0.994034,-0.004327,0.019042,0.000442,87.265656,15.959732,-146.637482,,,
729706188.375504,-5.350281,1.357546,168.268969,-0.02829,-0.092834,0.994034,-0.004327,0.019042,0.000442,87.279984,15.979599,-146.534988,,,
729706188.378814,-5.353117,1.361348,168.269754,-0.030457,-0.090454,0.992081,-0.010752,0.014287,0.000419,87.279984,15.979599,-146.534988,,,
729706188.382155,-5.356758,1.364368,168.27031,-0.030457,-0.090454,0.992081,-0.010752,0.014287,0.000419,87.279984,15.979599,-146.534988,,,
729706188.385584,-5.356758,1.364368,168.27031,-0.030457,-0.090454,0.992081,-0.010752,0.014287,0.000419,87.279984,15.979599,-146.534988,,,
729706188.388813,-5.360929,1.366017,168.271055,-0.029312,-0.094208,0.991623,-0.01512,0.006969,0.001868,87.279984,15.979599,-146.534988,,,
729706188.392149,-5.365025,1.367779,168.272209,-0.029312,-0.094208,0.991623,-0.01512,0.006969,0.001868,87.279984,15.979599,-146.534988,,,
729706188.395501,-5.365025,1.367779,168.272209,-0.029312,-0.094208,0.991623,-0.01512,0.006969,0.001868,87.279984,15.979599,-146.534988,,,
729706188.39888,-5.368122,1.369072,168.273088,-0.029083,-0.098648,0.995804,-0.010055,0.008694,0.000519,87.279984,15.979599,-146.534988,,,
729706188.40214,-5.371038,1.371786,168.273912,-0.029083,-0.098648,0.995804,-0.010055,0.008694,0.000519,87.279984,15.979599,-146.534988,,,
729706188.405495,-5.371038,1.371786,168.273912,-0.029083,-0.098648,0.995804,-0.010055,0.008694,0.000519,87.279984,15.979599,-146.534988,,,
729706188.408834,-5.371821,1.373899,168.275021,-0.02623,-0.099747,1.001572,0.001624,0.009284,0.003202,87.279984,15.979599,-146.534988,,,
729706188.412144,-5.371271,1.377017,168.276361,-0.02623,-0.099747,1.001572,0.001624,0.009284,0.003202,87.279984,15.979599,-146.534988,,,
729706188.415496,-5.371271,1.377017,168.276361,-0.02623,-0.099747,1.001572,0.001624,0.009284,0.003202,87.279984,15.979599,-146.534988,,,
729706188.418825,-5.369209,1.380175,168.278045,-0.023682,-0.101334,1.004532,0.008212,0.01421,0.006214,87.405243,15.699585,-146.849182,,,
729706188.422146,-5.366049,1.384415,168.280323,-0.023682,-0.101334,1.004532,0.008212,0.01421,0.006214,87.405243,15.699585,-146.849182,,,
729706188.425563,-5.366049,1.384415,168.280323,-0.023682,-0.101334,1.004532,0.008212,0.01421,0.006214,87.405243,15.699585,-146.849182,,,
729706188.428827,-5.361074,1.388697,168.282976,-0.024506,-0.099548,1.00235,0.020161,0.016214,0.009264,87.405243,15.699585,-146.849182,,,
729706188.432069,-5.355332,1.39341,168.285886,-0.024506,-0.099548,1.00235,0.020161,0.016214,0.009264,87.405243,15.699585,-146.849182,,,
729706188.435508,-5.355332,1.39341,168.285886,-0.024506,-0.099548,1.00235,0.020161,0.016214,0.009264,87.405243,15.699585,-146.849182,,,
729706188.438883,-5.349095,1.3975,168.288646,-0.024902,-0.09697,0.996689,0.022661,0.016413,0.0087,87.405243,15.699585,-146.849182,,,
729706188.442138,-5.343206,1.402318,168.291411,-0.024902,-0.09697,0.996689,0.022661,0.016413,0.0087,87.405243,15.699585,-146.849182,,,
729706188.445511,-5.343206,1.402318,168.291411,-0.024902,-0.09697,0.996689,0.022661,0.016413,0.0087,87.405243,15.699585,-146.849182,,,
729706188.448849,-5.338055,1.406359,168.294214,-0.022125,-0.095306,0.993546,0.017032,0.015277,0.009195,87.405243,15.699585,-146.849182,,,
729706188.45215,-5.332895,1.410358,168.297158,-0.022125,-0.095306,0.993546,0.017032,0.015277,0.009195,87.405243,15.699585,-146.849182,,,
729706188.455511,-5.332895,1.410358,168.297158,-0.022125,-0.095306,0.993546,0.017032,0.015277,0.009195,87.405243,15.699585,-146.849182,,,
729706188.458841,-5.328245,1.412924,168.299616,-0.021652,-0.093796,0.989548,0.015371,0.010047,0.006196,87.429764,15.825302,-147.042603,,,
729706188.462143,-5.324463,1.415662,168.301724,-0.021652,-0.093796,0.989548,0.015371,0.010047,0.006196,87.429764,15.825302,-147.042603,,,
729706188.465553,-5.324463,1.415662,168.301724,-0.021652,-0.093796,0.989548,0.015371,0.010047,0.006196,87.429764,15.825302,-147.042603,,,
729706188.468828,-5.321486,1.41638,168.303365,-0.022461,-0.094574,0.987503,0.010448,0.001478,0.003325,87.429764,15.825302,-147.042603,,,
729706188.472152,-5.319545,1.416083,168.304588,-0.022461,-0.094574,0.987503,0.010448,0.001478,0.003325,87.429764,15.825302,-147.042603,,,
729706188.475489,-5.319545,1.416083,168.304588,-0.022461,-0.094574,0.987503,0.010448,0.001478,0.003325,87.429764,15.825302,-147.042603,,,
729706188.478885,-5.317381,1.414013,168.305645,-0.022675,-0.094574,0.9841,0.007344,-0.00553,0.002572,87.429764,15.825302,-147.042603,,,
729706188.482141,-5.316301,1.412335,168.306264,-0.022675,-0.094574,0.9841,0.007344,-0.00553,0.002572,87.429764,15.825302,-147.042603,,,
729706188.485491,-5.316301,1.412335,168.306264,-0.022675,-0.094574,0.9841,0.007344,-0.00553,0.002572,87.429764,15.825302,-147.042603,,,
729706188.488831,-5.313845,1.410544,168.305761,-0.018173,-0.091095,0.983566,0.010653,-0.002362,-0.004818,87.429764,15.825302,-147.042603,,,
729706188.492196,-5.31176,1.409542,168.304504,-0.018173,-0.091095,0.983566,0.010653,-0.002362,-0.004818,87.429764,15.825302,-147.042603,,,
729706188.495499,-5.31176,1.409542,168.304504,-0.018173,-0.091095,0.983566,0.010653,-0.002362,-0.004818,87.429764,15.825302,-147.042603,,,
729706188.498813,-5.308566,1.409567,168.302896,-0.020325,-0.093414,0.98616,0.01155,0.005926,-0.007176,87.46347,15.901138,-146.339966,,,
729706188.502145,-5.305944,1.41124,168.300943,-0.020325,-0.093414,0.98616,0.01155,0.005926,-0.007176,87.46347,15.901138,-146.339966,,,
729706188.505562,-5.305944,1.41124,168.300943,-0.020325,-0.093414,0.98616,0.01155,0.005926,-0.007176,87.46347,15.901138,-146.339966,,,
729706188.508838,-5.301683,1.414439,168.298611,-0.02121,-0.093628,0.985977,0.01667,0.016521,-0.009698,87.46347,15.901138,-146.339966,,,
729706188.51216,-5.298388,1.419009,168.29634,-0.02121,-0.093628,0.985977,0.01667,0.016521,-0.009698,87.46347,15.901138,-146.339966,,,
729706188.515498,-5.298388,1.419009,168.29634,-0.02121,-0.093628,0.985977,0.01667,0.016521,-0.009698,87.46347,15.901138,-146.339966,,,
729706188.51889,-5.294763,1.424938,168.294147,-0.022018,-0.093567,0.987137,0.013265,0.026676,-0.009213,87.46347,15.901138,-146.339966,,,
729706188.522155,-5.291883,1.431373,168.29198,-0.022018,-0.093567,0.987137,0.013265,0.026676,-0.009213,87.46347,15.901138,-146.339966,,,
729706188.525489,-5.291883,1.431373,168.29198,-0.022018,-0.093567,0.987137,0.013265,0.026676,-0.009213,87.46347,15.901138,-146.339966,,,
729706188.52882,-5.28919,1.438105,168.290387,-0.024567,-0.091568,0.985657,0.00863,0.026834,-0.005488,87.46347,15.901138,-146.339966,,,
729706188.532197,-5.287027,1.443773,168.289095,-0.024567,-0.091568,0.985657,0.00863,0.026834,-0.005488,87.46347,15.901138,-146.339966,,,
729706188.53549,-5.287027,1.443773,168.289095,-0.024567,-0.091568,0.985657,0.00863,0.026834,-0.005488,87.46347,15.901138,-146.339966,,,
729706188.538827,-5.284659,1.448393,168.288356,-0.031433,-0.090729,0.981171,0.007559,0.015495,-0.002048,87.475327,15.658127,-146.615616,,,
729706188.542177,-5.283518,1.450793,168.288321,-0.031433,-0.090729,0.981171,0.007559,0.015495,-0.002048,87.475327,15.658127,-146.615616,,,
729706188.545555,-5.283518,1.450793,168.288321,-0.031433,-0.090729,0.981171,0.007559,0.015495,-0.002048,87.475327,15.658127,-146.615616,,,
729706188.548834,-5.282872,1.451086,168.288271,-0.032654,-0.091705,0.977905,0.001926,-0.001702,-0.002521,87.475327,15.658127,-146.615616,,,
729706188.552161,-5.283048,1.448546,168.288207,-0.032654,-0.091705,0.977905,0.001926,-0.001702,-0.002521,87.475327,15.658127,-146.615616,,,
729706188.555496,-5.283048,1.448546,168.288207,-0.032654,-0.091705,0.977905,0.001926,-0.001702,-0.002521,87.475327,15.658127,-146.615616,,,
729706188.558885,-5.282612,1.445089,168.288211,-0.031937,-0.088806,0.979919,0.002504,-0.010239,-0.002227,87.475327,15.658127,-146.615616,,,
729706188.562165,-5.281874,1.440403,168.288035,-0.031937,-0.088806,0.979919,0.002504,-0.010239,-0.002227,87.475327,15.658127,-146.615616,,,
729706188.565503,-5.281874,1.440403,168.288035,-0.031937,-0.088806,0.979919,0.002504,-0.010239,-0.002227,87.475327,15.658127,-146.615616,,,
729706188.56889,-5.279966,1.435985,168.2881,-0.031494,-0.091507,0.985413,0.009001,-0.012883,-0.000793,87.475327,15.658127,-146.615616,,,
729706188.572196,-5.276977,1.430718,168.288707,-0.031494,-0.091507,0.985413,0.009001,-0.012883,-0.000793,87.475327,15.658127,-146.615616,,,
729706188.575496,-5.276977,1.430718,168.288707,-0.031494,-0.091507,0.985413,0.009001,-0.012883,-0.000793,87.475327,15.658127,-146.615616,,,
729706188.578839,-5.272528,1.427176,168.290127,-0.032486,-0.093002,0.991394,0.017878,-0.00778,0.004493,87.475327,15.658127,-146.615616,,,
729706188.582195,-5.267431,1.42369,168.292006,-0.032486,-0.093002,0.991394,0.017878,-0.00778,0.004493,87.341537,15.833679,-146.377991,,,
729706188.585566,-5.267431,1.42369,168.292006,-0.032486,-0.093002,0.991394,0.017878,-0.00778,0.004493,87.341537,15.833679,-146.377991,,,
729706188.58883,-5.26191,1.420382,168.294187,-0.027817,-0.088745,0.989151,0.018504,-0.00931,0.006363,87.341537,15.833679,-146.377991,,,
729706188.592184,-5.257724,1.416313,168.295835,-0.027817,-0.088745,0.989151,0.018504,-0.00931,0.006363,87.341537,15.833679,-146.377991,,,
729706188.595557,-5.257724,1.416313,168.295835,-0.027817,-0.088745,0.989151,0.018504,-0.00931,0.006363,87.341537,15.833679,-146.377991,,,
729706188.598815,-5.25446,1.411858,168.296591,-0.02652,-0.086258,0.981445,0.009248,-0.01474,-0.000352,87.341537,15.833679,-146.377991,,,
729706188.602175,-5.253279,1.405816,168.296272,-0.02652,-0.086258,0.981445,0.009248,-0.01474,-0.000352,87.341537,15.833679,-146.377991,,,
729706188.605486,-5.253279,1.405816,168.296272,-0.02652,-0.086258,0.981445,0.009248,-0.01474,-0.000352,87.341537,15.833679,-146.377991,,,
729706188.608899,-5.254035,1.398099,168.295381,-0.027222,-0.086548,0.975357,-0.006368,-0.027241,-0.004795,87.341537,15.833679,-146.377991,,,
729706188.612149,-5.257473,1.389366,168.294171,-0.027222,-0.086548,0.975357,-0.006368,-0.027241,-0.004795,87.341537,15.833679,-146.377991,,,
729706188.615495,-5.257473,1.389366,168.294171,-0.027222,-0.086548,0.975357,-0.006368,-0.027241,-0.004795,87.341537,15.833679,-146.377991,,,
729706188.618848,-5.263794,1.379838,168.292505,-0.025986,-0.08754,0.972809,-0.026443,-0.029292,-0.008127,87.341537,15.833679,-146.377991,,,
729706188.622233,-5.272521,1.371102,168.29049,-0.025986,-0.08754,0.972809,-0.026443,-0.029292,-0.008127,87.280197,15.760773,-146.849457,,,
729706188.625481,-5.272521,1.371102,168.29049,-0.025986,-0.08754,0.972809,-0.026443,-0.029292,-0.008127,87.280197,15.760773,-146.849457,,,
729706188.628835,-5.281851,1.361189,168.288706,-0.024246,-0.089752,0.975708,-0.03188,-0.030491,-0.005948,87.280197,15.760773,-146.849457,,,
729706188.632193,-5.290856,1.353019,168.288211,-0.024246,-0.089752,0.975708,-0.03188,-0.030491,-0.005948,87.280197,15.760773,-146.849457,,,
729706188.635542,-5.290856,1.353019,168.288211,-0.024246,-0.089752,0.975708,-0.03188,-0.030491,-0.005948,87.280197,15.760773,-146.849457,,,
729706188.638834,-5.298998,1.34513,168.288493,-0.024887,-0.096497,0.988174,-0.025725,-0.022282,0.000265,87.280197,15.760773,-146.849457,,,
729706188.642194,-5.305481,1.340055,168.289383,-0.024887,-0.096497,0.988174,-0.025725,-0.022282,0.000265,87.280197,15.760773,-146.849457,,,
729706188.645495,-5.305481,1.340055,168.289383,-0.024887,-0.096497,0.988174,-0.025725,-0.022282,0.000265,87.280197,15.760773,-146.849457,,,
729706188.648897,-5.310322,1.336221,168.290396,-0.022217,-0.09639,0.997757,-0.013303,-0.006544,0.002067,87.280197,15.760773,-146.849457,,,
729706188.652162,-5.310322,1.336221,168.290396,-0.022217,-0.09639,0.997757,-0.013303,-0.006544,0.002067,87.280197,15.760773,-146.849457,,,
729706188.6555,-5.313803,1.3364,168.291627,-0.022217,-0.09639,0.997757,-0.013303,-0.006544,0.002067,87.280197,15.760773,-146.849457,,,
729706188.658924,-5.316293,1.338237,168.292782,-0.018005,-0.094528,1.00116,-0.007681,0.014418,0.002533,87.280197,15.760773,-146.849457,,,
729706188.66214,-5.316293,1.338237,168.292782,-0.018005,-0.094528,1.00116,-0.007681,0.014418,0.002533,87.488464,15.969604,-146.902191,,,
729706188.6655,-5.317195,1.343015,168.294331,-0.018005,-0.094528,1.00116,-0.007681,0.014418,0.002533,87.488464,15.969604,-146.902191,,,
729706188.668837,-5.317331,1.347764,168.295764,-0.019775,-0.096664,1.00296,-0.001344,0.020904,0.002473,87.488464,15.969604,-146.902191,,,
729706188.672155,-5.317331,1.347764,168.295764,-0.019775,-0.096664,1.00296,-0.001344,0.020904,0.002473,87.488464,15.969604,-146.902191,,,
729706188.675543,-5.316465,1.353467,168.29721,-0.019775,-0.096664,1.00296,-0.001344,0.020904,0.002473,87.488464,15.969604,-146.902191,,,
729706188.67882,-5.315785,1.357985,168.298933,-0.022614,-0.09613,0.997757,0.001896,0.016034,0.004786,87.488464,15.969604,-146.902191,,,
729706188.682163,-5.315785,1.357985,168.298933,-0.022614,-0.09613,0.997757,0.001896,0.016034,0.004786,87.488464,15.969604,-146.902191,,,
729706188.685484,-5.314989,1.360837,168.301225,-0.022614,-0.09613,0.997757,0.001896,0.016034,0.004786,87.488464,15.969604,-146.902191,,,
729706188.688876,-5.315893,1.360616,168.303803,-0.026367,-0.094223,0.990555,-0.00556,-0.001593,0.006967,87.488464,15.969604,-146.902191,,,
729706188.692155,-5.315893,1.360616,168.303803,-0.026367,-0.094223,0.990555,-0.00556,-0.001593,0.006967,87.488464,15.969604,-146.902191,,,
729706188.695486,-5.317921,1.358225,168.306805,-0.026367,-0.094223,0.990555,-0.00556,-0.001593,0.006967,87.488464,15.969604,-146.902191,,,
729706188.69882,-5.32114,1.351969,168.310083,-0.024872,-0.094223,0.987183,-0.010503,-0.02512,0.009129,87.488464,15.969604,-146.902191,,,
729706188.702203,-5.32114,1.351969,168.310083,-0.024872,-0.094223,0.987183,-0.010503,-0.02512,0.009129,87.488464,15.969604,-146.902191,,,
729706188.705491,-5.324516,1.343257,168.313107,-0.024872,-0.094223,0.987183,-0.010503,-0.02512,0.009129,87.165283,15.821976,-147.095154,,,
729706188.70883,-5.32926,1.331442,168.315677,-0.022766,-0.096008,0.986282,-0.017862,-0.043572,0.006108,87.165283,15.821976,-147.095154,,,
729706188.712162,-5.32926,1.331442,168.315677,-0.022766,-0.096008,0.986282,-0.017862,-0.043572,0.006108,87.165283,15.821976,-147.095154,,,
729706188.715585,-5.334226,1.318321,168.317365,-0.022766,-0.096008,0.986282,-0.017862,-0.043572,0.006108,87.165283,15.821976,-147.095154,,,
729706188.718932,-5.337786,1.305826,168.317273,-0.015976,-0.095459,0.993835,-0.009268,-0.037113,-0.005982,87.165283,15.821976,-147.095154,,,
729706188.722164,-5.337786,1.305826,168.317273,-0.015976,-0.095459,0.993835,-0.009268,-0.037113,-0.005982,87.165283,15.821976,-147.095154,,,
729706188.725524,-5.341069,1.295389,168.315356,-0.015976,-0.095459,0.993835,-0.009268,-0.037113,-0.005982,87.165283,15.821976,-147.095154,,,
729706188.728827,-5.342637,1.287182,168.312712,-0.01265,-0.096207,1.005844,-0.001286,-0.018992,-0.010643,87.165283,15.821976,-147.095154,,,
729706188.73217,-5.342637,1.287182,168.312712,-0.01265,-0.096207,1.005844,-0.001286,-0.018992,-0.010643,87.165283,15.821976,-147.095154,,,
729706188.73558,-5.342393,1.281484,168.309808,-0.01265,-0.096207,1.005844,-0.001286,-0.018992,-0.010643,87.165283,15.821976,-147.095154,,,
729706188.738817,-5.340819,1.279142,168.30724,-0.013992,-0.098557,1.008224,0.007134,0.001397,-0.008369,87.165283,15.821976,-147.095154,,,
729706188.742151,-5.340819,1.279142,168.30724,-0.013992,-0.098557,1.008224,0.007134,0.001397,-0.008369,87.165283,15.821976,-147.095154,,,
729706188.745505,-5.338937,1.278936,168.305531,-0.013992,-0.098557,1.008224,0.007134,0.001397,-0.008369,87.134247,15.968033,-147.159943,,,
729706188.748814,-5.336904,1.280453,168.304616,-0.017456,-0.098907,1.003143,0.006139,0.008629,-0.00327,87.134247,15.968033,-147.159943,,,
729706188.75215,-5.336904,1.280453,168.304616,-0.017456,-0.098907,1.003143,0.006139,0.008629,-0.00327,87.134247,15.968033,-147.159943,,,
729706188.755566,-5.336373,1.282299,168.304626,-0.017456,-0.098907,1.003143,0.006139,0.008629,-0.00327,87.134247,15.968033,-147.159943,,,
729706188.75881,-5.336428,1.284655,168.30556,-0.020218,-0.093597,0.997726,-0.001733,0.010346,0.002853,87.134247,15.968033,-147.159943,,,
729706188.762146,-5.336428,1.284655,168.30556,-0.020218,-0.093597,0.997726,-0.001733,0.010346,0.002853,87.134247,15.968033,-147.159943,,,
729706188.765505,-5.338593,1.287328,168.30708,-0.020218,-0.093597,0.997726,-0.001733,0.010346,0.002853,87.134247,15.968033,-147.159943,,,
729706188.768817,-5.342962,1.289152,168.309283,-0.026093,-0.090973,0.991394,-0.018839,0.006496,0.007447,87.134247,15.968033,-147.159943,,,
729706188.772178,-5.342962,1.289152,168.309283,-0.026093,-0.090973,0.991394,-0.018839,0.006496,0.007447,87.134247,15.968033,-147.159943,,,
729706188.775491,-5.349397,1.289906,168.311936,-0.026093,-0.090973,0.991394,-0.018839,0.006496,0.007447,87.134247,15.968033,-147.159943,,,
729706188.778819,-5.356642,1.288828,168.314198,-0.026016,-0.093002,0.987595,-0.026808,-0.00316,0.004845,87.134247,15.968033,-147.159943,,,
729706188.782224,-5.356642,1.288828,168.314198,-0.026016,-0.093002,0.987595,-0.026808,-0.00316,0.004845,87.134247,15.968033,-147.159943,,,
729706188.785473,-5.364813,1.287656,168.316244,-0.026016,-0.093002,0.987595,-0.026808,-0.00316,0.004845,87.195007,15.954483,-146.915894,,,
729706188.788816,-5.371974,1.286108,168.318277,-0.025879,-0.097382,0.995377,-0.021913,-0.003103,0.005116,87.195007,15.954483,-146.915894,,,
729706188.792146,-5.371974,1.286108,168.318277,-0.025879,-0.097382,0.995377,-0.021913,-0.003103,0.005116,87.195007,15.954483,-146.915894,,,
729706188.795521,-5.377697,1.284434,168.320859,-0.025879,-0.097382,0.995377,-0.021913,-0.003103,0.005116,87.195007,15.954483,-146.915894,,,
729706188.798811,-5.381066,1.283892,168.324389,-0.025055,-0.101913,1.009247,-0.008492,0.000682,0.011631,87.195007,15.954483,-146.915894,,,
729706188.802149,-5.381066,1.283892,168.324389,-0.025055,-0.101913,1.009247,-0.008492,0.000682,0.011631,87.195007,15.954483,-146.915894,,,
729706188.80549,-5.382349,1.283288,168.328127,-0.025055,-0.101913,1.009247,-0.008492,0.000682,0.011631,87.195007,15.954483,-146.915894,,,
729706188.808814,-5.38072,1.284724,168.331623,-0.02449,-0.09993,1.013214,0.011199,0.006935,0.009624,87.195007,15.954483,-146.915894,,,
729706188.812184,-5.38072,1.284724,168.331623,-0.02449,-0.09993,1.013214,0.011199,0.006935,0.009624,87.195007,15.954483,-146.915894,,,
729706188.815509,-5.377496,1.285762,168.334823,-0.02449,-0.09993,1.013214,0.011199,0.006935,0.009624,87.195007,15.954483,-146.915894,,,
729706188.818815,-5.373149,1.289858,168.338183,-0.023666,-0.097122,1.013138,0.016815,0.018769,0.009993,87.195007,15.954483,-146.915894,,,
729706188.822234,-5.373149,1.289858,168.338183,-0.023666,-0.097122,1.013138,0.016815,0.018769,0.009993,87.195007,15.954483,-146.915894,,,
729706188.825479,-5.369008,1.293943,168.341319,-0.023666,-0.097122,1.013138,0.016815,0.018769,0.009993,87.20665,15.918243,-146.835846,,,
729706188.828817,-5.364731,1.298967,168.344139,-0.024429,-0.093323,1.00766,0.013119,0.018023,0.00704,87.20665,15.918243,-146.835846,,,
729706188.832146,-5.364731,1.298967,168.344139,-0.024429,-0.093323,1.00766,0.013119,0.018023,0.00704,87.20665,15.918243,-146.835846,,,
729706188.835557,-5.361426,1.302183,168.346981,-0.024429,-0.093323,1.00766,0.013119,0.018023,0.00704,87.20665,15.918243,-146.835846,,,
729706188.838809,-5.357721,1.304411,168.350863,-0.026398,-0.093399,0.998337,0.013445,0.005769,0.013838,87.20665,15.918243,-146.835846,,,
729706188.842219,-5.357721,1.304411,168.350863,-0.026398,-0.093399,0.998337,0.013445,0.005769,0.013838,87.20665,15.918243,-146.835846,,,
729706188.845498,-5.353821,1.304829,168.355703,-0.026398,-0.093399,0.998337,0.013445,0.005769,0.013838,87.20665,15.918243,-146.835846,,,
729706188.848818,-5.350664,1.303726,168.360971,-0.026978,-0.097641,0.997177,0.010453,-0.004053,0.016831,87.20665,15.918243,-146.835846,,,
729706188.85216,-5.350664,1.303726,168.360971,-0.026978,-0.097641,0.997177,0.010453,-0.004053,0.016831,87.20665,15.918243,-146.835846,,,
729706188.855515,-5.347068,1.302237,168.366469,-0.026978,-0.097641,0.997177,0.010453,-0.004053,0.016831,87.20665,15.918243,-146.835846,,,
729706188.858816,-5.342966,1.298639,168.371277,-0.023407,-0.095337,0.995758,0.01483,-0.013699,0.012592,87.20665,15.918243,-146.835846,,,
729706188.86215,-5.342966,1.298639,168.371277,-0.023407,-0.095337,0.995758,0.01483,-0.013699,0.012592,87.20665,15.918243,-146.835846,,,
729706188.865486,-5.338792,1.294983,168.375074,-0.023407,-0.095337,0.995758,0.01483,-0.013699,0.012592,87.20665,15.918243,-146.835846,,,
729706188.868822,-5.333637,1.290887,168.378306,-0.018188,-0.091095,0.996017,0.019779,-0.012442,0.009181,87.232178,15.770782,-146.800049,,,
729706188.872185,-5.333637,1.290887,168.378306,-0.018188,-0.091095,0.996017,0.019779,-0.012442,0.009181,87.232178,15.770782,-146.800049,,,
729706188.875517,-5.328459,1.287141,168.381015,-0.018188,-0.091095,0.996017,0.019779,-0.012442,0.009181,87.232178,15.770782,-146.800049,,,
729706188.878843,-5.322145,1.284322,168.383101,-0.020126,-0.092514,0.995377,0.021107,-0.002777,0.005177,87.232178,15.770782,-146.800049,,,
729706188.882174,-5.322145,1.284322,168.383101,-0.020126,-0.092514,0.995377,0.021107,-0.002777,0.005177,87.232178,15.770782,-146.800049,,,
729706188.885585,-5.317119,1.283856,168.384488,-0.020126,-0.092514,0.995377,0.021107,-0.002777,0.005177,87.232178,15.770782,-146.800049,,,
729706188.888815,-5.311039,1.284655,168.385984,-0.018066,-0.092743,0.991699,0.021593,0.007334,0.006099,87.232178,15.770782,-146.800049,,,
729706188.892255,-5.311039,1.284655,168.385984,-0.018066,-0.092743,0.991699,0.021593,0.007334,0.006099,87.232178,15.770782,-146.800049,,,
729706188.895485,-5.305456,1.287054,168.388581,-0.018066,-0.092743,0.991699,0.021593,0.007334,0.006099,87.232178,15.770782,-146.800049,,,
729706188.898826,-5.298664,1.290086,168.391825,-0.017181,-0.094009,0.990967,0.025077,0.012336,0.01077,87.232178,15.770782,-146.800049,,,
729706188.902145,-5.298664,1.290086,168.391825,-0.017181,-0.094009,0.990967,0.025077,0.012336,0.01077,87.232178,15.770782,-146.800049,,,
729706188.905499,-5.290943,1.293126,168.395068,-0.017181,-0.094009,0.990967,0.025077,0.012336,0.01077,87.232178,15.770782,-146.800049,,,
729706188.908818,-5.281968,1.296005,168.397818,-0.015762,-0.090363,0.991104,0.033031,0.012338,0.00758,87.348633,15.686813,-146.681213,,,
729706188.912238,-5.281968,1.296005,168.397818,-0.015762,-0.090363,0.991104,0.033031,0.012338,0.00758,87.348633,15.686813,-146.681213,,,
729706188.91549,-5.27307,1.299758,168.399537,-0.015762,-0.090363,0.991104,0.033031,0.012338,0.00758,87.348633,15.686813,-146.681213,,,
729706188.918817,-5.264625,1.303793,168.399967,-0.014008,-0.085403,0.990433,0.029824,0.018067,-0.001144,87.348633,15.686813,-146.681213,,,
729706188.922172,-5.264625,1.303793,168.399967,-0.014008,-0.085403,0.990433,0.029824,0.018067,-0.001144,87.348633,15.686813,-146.681213,,,
729706188.925557,-5.257593,1.308635,168.399422,-0.014008,-0.085403,0.990433,0.029824,0.018067,-0.001144,87.348633,15.686813,-146.681213,,,
729706188.92881,-5.251118,1.312293,168.398165,-0.018188,-0.085495,0.987335,0.022337,0.014059,-0.005916,87.348633,15.686813,-146.681213,,,
729706188.932166,-5.251118,1.312293,168.398165,-0.018188,-0.085495,0.987335,0.022337,0.014059,-0.005916,87.348633,15.686813,-146.681213,,,
729706188.935501,-5.246574,1.31475,168.396665,-0.018188,-0.085495,0.987335,0.022337,0.014059,-0.005916,87.348633,15.686813,-146.681213,,,
729706188.938815,-5.242734,1.315002,168.395104,-0.024307,-0.086014,0.983749,0.011229,0.002052,-0.00629,87.348633,15.686813,-146.681213,,,
729706188.942159,-5.242734,1.315002,168.395104,-0.024307,-0.086014,0.983749,0.011229,0.002052,-0.00629,87.348633,15.686813,-146.681213,,,
729706188.9455,-5.239933,1.313454,168.393709,-0.024307,-0.086014,0.983749,0.011229,0.002052,-0.00629,87.348633,15.686813,-146.681213,,,
729706188.948822,-5.237876,1.311984,168.392898,-0.022141,-0.087158,0.982422,0.004269,-0.001511,-0.002724,87.610092,15.486618,-146.712662,,,
729706188.952209,-5.237876,1.311984,168.392898,-0.022141,-0.087158,0.982422,0.004269,-0.001511,-0.002724,87.610092,15.486618,-146.712662,,,
729706188.955487,-5.236893,1.309841,168.392504,-0.022141,-0.087158,0.982422,0.004269,-0.001511,-0.002724,87.610092,15.486618,-146.712662,,,
729706188.958818,-5.236022,1.308071,168.392134,-0.023132,-0.08696,0.984238,0.003522,-0.00269,-0.002937,87.610092,15.486618,-146.712662,,,
729706188.962154,-5.236022,1.308071,168.392134,-0.023132,-0.08696,0.984238,0.003522,-0.00269,-0.002937,87.610092,15.486618,-146.712662,,,
729706188.965558,-5.235477,1.305285,168.391422,-0.023132,-0.08696,0.984238,0.003522,-0.00269,-0.002937,87.610092,15.486618,-146.712662,,,
729706188.968826,-5.23403,1.302964,168.390606,-0.02182,-0.087769,0.987717,0.007155,-0.003353,-0.003998,87.610092,15.486618,-146.712662,,,
729706188.972233,-5.23403,1.302964,168.390606,-0.02182,-0.087769,0.987717,0.007155,-0.003353,-0.003998,87.610092,15.486618,-146.712662,,,
729706188.975563,-5.231928,1.300982,168.390021,-0.02182,-0.087769,0.987717,0.007155,-0.003353,-0.003998,87.610092,15.486618,-146.712662,,,
729706188.97881,-5.22935,1.300903,168.388758,-0.019409,-0.087677,0.989594,0.009309,0.004777,-0.00918,87.610092,15.486618,-146.712662,,,
729706188.982147,-5.22935,1.300903,168.388758,-0.019409,-0.087677,0.989594,0.009309,0.004777,-0.00918,87.610092,15.486618,-146.712662,,,
729706188.985496,-5.227247,1.301507,168.386691,-0.019409,-0.087677,0.989594,0.009309,0.004777,-0.00918,87.610092,15.486618,-146.712662,,,
729706188.988815,-5.224892,1.304129,168.38504,-0.021271,-0.086945,0.9888,0.00871,0.012977,-0.006821,87.414215,15.461655,-146.830765,,,
729706188.992235,-5.224892,1.304129,168.38504,-0.021271,-0.086945,0.9888,0.00871,0.012977,-0.006821,87.414215,15.461655,-146.830765,,,
729706188.995499,-5.222454,1.305846,168.383422,-0.021271,-0.086945,0.9888,0.00871,0.012977,-0.006821,87.414215,15.461655,-146.830765,,,
729706188.99882,-5.220869,1.309253,168.38209,-0.023758,-0.086411,0.987488,0.005699,0.016157,-0.00564,87.414215,15.461655,-146.830765,,,
729706189.002159,-5.220869,1.309253,168.38209,-0.023758,-0.086411,0.987488,0.005699,0.016157,-0.00564,87.414215,15.461655,-146.830765,,,
729706189.005553,-5.21914,1.311419,168.380539,-0.023758,-0.086411,0.987488,0.005699,0.016157,-0.00564,87.414215,15.461655,-146.830765,,,
729706189.008805,-5.218983,1.314326,168.379184,-0.025558,-0.086105,0.989441,0.000197,0.013891,-0.005075,87.414215,15.461655,-146.830765,,,
729706189.012173,-5.218983,1.314326,168.379184,-0.025558,-0.086105,0.989441,0.000197,0.013891,-0.005075,87.414215,15.461655,-146.830765,,,
729706189.015497,-5.218514,1.317584,168.378133,-0.025558,-0.086105,0.989441,0.000197,0.013891,-0.005075,87.414215,15.461655,-146.830765,,,
729706189.018813,-5.218466,1.320837,168.3767,-0.027496,-0.087357,0.991058,0.001963,0.013635,-0.007736,87.414215,15.461655,-146.830765,,,
729706189.022163,-5.218466,1.320837,168.3767,-0.027496,-0.087357,0.991058,0.001963,0.013635,-0.007736,87.414215,15.461655,-146.830765,,,
729706189.025487,-5.217766,1.323068,168.375148,-0.027496,-0.087357,0.991058,0.001963,0.013635,-0.007736,87.414215,15.461655,-146.830765,,,
729706189.028813,-5.217257,1.324017,168.373713,-0.029205,-0.08728,0.990662,0.002597,0.005406,-0.00682,87.414215,15.461655,-146.830765,,,
729706189.03223,-5.217257,1.324017,168.373713,-0.029205,-0.08728,0.990662,0.002597,0.005406,-0.00682,87.3936,15.693298,-146.533875,,,
729706189.035473,-5.216901,1.323975,168.372248,-0.029205,-0.08728,0.990662,0.002597,0.005406,-0.00682,87.3936,15.693298,-146.533875,,,
729706189.038816,-5.217395,1.322864,168.371149,-0.030273,-0.08728,0.989197,-0.000991,-0.002153,-0.004344,87.3936,15.693298,-146.533875,,,
729706189.042153,-5.217395,1.322864,168.371149,-0.030273,-0.08728,0.989197,-0.000991,-0.002153,-0.004344,87.3936,15.693298,-146.533875,,,
729706189.045522,-5.21789,1.320876,168.370285,-0.030273,-0.08728,0.989197,-0.000991,-0.002153,-0.004344,87.3936,15.693298,-146.533875,,,
729706189.048815,-5.219875,1.318192,168.369484,-0.029358,-0.084686,0.990128,-0.008714,-0.006928,-0.004078,87.3936,15.693298,-146.533875,,,
729706189.052172,-5.219875,1.318192,168.369484,-0.029358,-0.084686,0.990128,-0.008714,-0.006928,-0.004078,87.3936,15.693298,-146.533875,,,
729706189.05555,-5.223244,1.3146,168.368675,-0.029358,-0.084686,0.990128,-0.008714,-0.006928,-0.004078,87.3936,15.693298,-146.533875,,,
729706189.058811,-5.228444,1.311655,168.367823,-0.02919,-0.086823,0.987793,-0.018667,-0.004884,-0.0048,87.3936,15.693298,-146.533875,,,
729706189.062171,-5.228444,1.311655,168.367823,-0.02919,-0.086823,0.987793,-0.018667,-0.004884,-0.0048,87.3936,15.693298,-146.533875,,,
729706189.065512,-5.233641,1.308557,168.366896,-0.02919,-0.086823,0.987793,-0.018667,-0.004884,-0.0048,87.3936,15.693298,-146.533875,,,
729706189.068815,-5.238795,1.305805,168.366052,-0.027191,-0.088043,0.992676,-0.015606,-0.006067,-0.004493,87.3936,15.693298,-146.533875,,,
729706189.07216,-5.238795,1.305805,168.366052,-0.027191,-0.088043,0.992676,-0.015606,-0.006067,-0.004493,87.50885,15.662582,-146.723724,,,
729706189.075502,-5.242965,1.303851,168.365477,-0.027191,-0.088043,0.992676,-0.015606,-0.006067,-0.004493,87.50885,15.662582,-146.723724,,,
729706189.078816,-5.247256,1.302821,168.36541,-0.026886,-0.092194,0.998322,-0.012465,0.000516,-0.000847,87.50885,15.662582,-146.723724,,,
729706189.082232,-5.247256,1.302821,168.36541,-0.026886,-0.092194,0.998322,-0.012465,0.000516,-0.000847,87.50885,15.662582,-146.723724,,,
729706189.085494,-5.249885,1.302876,168.366131,-0.026886,-0.092194,0.998322,-0.012465,0.000516,-0.000847,87.50885,15.662582,-146.723724,,,
729706189.088812,-5.252632,1.303153,168.367317,-0.026306,-0.096252,1.002289,-0.008821,0.003684,0.002635,87.50885,15.662582,-146.723724,,,
729706189.092139,-5.252632,1.303153,168.367317,-0.026306,-0.096252,1.002289,-0.008821,0.003684,0.002635,87.50885,15.662582,-146.723724,,,
729706189.095563,-5.254101,1.304894,168.368928,-0.026306,-0.096252,1.002289,-0.008821,0.003684,0.002635,87.50885,15.662582,-146.723724,,,
729706189.098808,-5.255736,1.307148,168.370791,-0.021179,-0.093124,1.000076,-0.005411,0.010738,0.004791,87.50885,15.662582,-146.723724,,,
729706189.102164,-5.255736,1.307148,168.370791,-0.021179,-0.093124,1.000076,-0.005411,0.010738,0.004791,87.50885,15.662582,-146.723724,,,
729706189.105493,-5.256733,1.310592,168.37253,-0.021179,-0.093124,1.000076,-0.005411,0.010738,0.004791,87.50885,15.662582,-146.723724,,,
729706189.108811,-5.257888,1.313325,168.373353,-0.021652,-0.092728,1.000381,-0.002787,0.011507,-0.000998,87.50885,15.662582,-146.723724,,,
729706189.112147,-5.257888,1.313325,168.373353,-0.021652,-0.092728,1.000381,-0.002787,0.011507,-0.000998,87.258759,15.964005,-146.984924,,,
729706189.115512,-5.25912,1.316752,168.373299,-0.021652,-0.092728,1.000381,-0.002787,0.011507,-0.000998,87.258759,15.964005,-146.984924,,,
729706189.118812,-5.261716,1.31938,168.372316,-0.021439,-0.093643,0.997742,-0.009252,0.013704,-0.006936,87.258759,15.964005,-146.984924,,,
729706189.122231,-5.261716,1.31938,168.372316,-0.021439,-0.093643,0.997742,-0.009252,0.013704,-0.006936,87.258759,15.964005,-146.984924,,,
729706189.125493,-5.263681,1.323268,168.370784,-0.021439,-0.093643,0.997742,-0.009252,0.013704,-0.006936,87.258759,15.964005,-146.984924,,,
729706189.128817,-5.265742,1.326413,168.369572,-0.021912,-0.092407,0.999237,-0.004975,0.015195,-0.003987,87.258759,15.964005,-146.984924,,,
729706189.132162,-5.265742,1.326413,168.369572,-0.021912,-0.092407,0.999237,-0.004975,0.015195,-0.003987,87.258759,15.964005,-146.984924,,,
729706189.135556,-5.26647,1.330047,168.369175,-0.021912,-0.092407,0.999237,-0.004975,0.015195,-0.003987,87.258759,15.964005,-146.984924,,,
729706189.138809,-5.267798,1.332181,168.369425,-0.027817,-0.096313,1.001587,-0.003295,0.009824,0.00109,87.258759,15.964005,-146.984924,,,
729706189.142165,-5.267798,1.332181,168.369425,-0.027817,-0.096313,1.001587,-0.003295,0.009824,0.00109,87.258759,15.964005,-146.984924,,,
729706189.145341,-5.267586,1.334445,168.37016,-0.027817,-0.096313,1.001587,-0.003295,0.009824,0.00109,87.258759,15.964005,-146.984924,,,
729706189.14883,-5.266201,1.335623,168.371173,-0.025116,-0.097382,1.003891,0.008344,0.007649,0.003767,87.258759,15.964005,-146.984924,,,
729706189.15217,-5.266201,1.335623,168.371173,-0.025116,-0.097382,1.003891,0.008344,0.007649,0.003767,87.258759,15.964005,-146.984924,,,
729706189.155498,-5.26351,1.337742,168.372578,-0.025116,-0.097382,1.003891,0.008344,0.007649,0.003767,87.263855,15.817215,-146.892471,,,
729706189.158815,-5.260544,1.340102,168.373123,-0.019547,-0.092499,1.006226,0.012106,0.013169,-0.00183,87.263855,15.817215,-146.892471,,,
729706189.162205,-5.260544,1.340102,168.373123,-0.019547,-0.092499,1.006226,0.012106,0.013169,-0.00183,87.263855,15.817215,-146.892471,,,
729706189.1655,-5.257298,1.343911,168.372779,-0.019547,-0.092499,1.006226,0.012106,0.013169,-0.00183,87.263855,15.817215,-146.892471,,,
729706189.168821,-5.25291,1.347945,168.371948,-0.02179,-0.092682,1.00473,0.017569,0.018654,-0.004741,87.263855,15.817215,-146.892471,,,
729706189.172164,-5.25291,1.347945,168.371948,-0.02179,-0.092682,1.00473,0.017569,0.018654,-0.004741,87.263855,15.817215,-146.892471,,,
729706189.175544,-5.249082,1.351875,168.371124,-0.02179,-0.092682,1.00473,0.017569,0.018654,-0.004741,87.263855,15.817215,-146.892471,,,
729706189.178812,-5.245158,1.354625,168.370503,-0.024765,-0.094589,0.998413,0.014641,0.010239,-0.003423,87.263855,15.817215,-146.892471,,,
729706189.182143,-5.245158,1.354625,168.370503,-0.024765,-0.094589,0.998413,0.014641,0.010239,-0.003423,87.263855,15.817215,-146.892471,,,
729706189.185489,-5.241631,1.355814,168.37017,-0.024765,-0.094589,0.998413,0.014641,0.010239,-0.003423,87.263855,15.817215,-146.892471,,,
729706189.188818,-5.238594,1.356515,168.370005,-0.025253,-0.094193,0.99173,0.009986,0.0044,-0.002549,87.263855,15.817215,-146.892471,,,
729706189.192161,-5.238594,1.356515,168.370005,-0.025253,-0.094193,0.99173,0.009986,0.0044,-0.002549,87.263855,15.817215,-146.892471,,,
729706189.195505,-5.235974,1.355804,168.370005,-0.025253,-0.094193,0.99173,0.009986,0.0044,-0.002549,87.302887,15.961914,-146.863785,,,
729706189.198817,-5.232291,1.35409,168.370844,-0.02449,-0.095413,0.991959,0.015849,-0.005503,0.003189,87.302887,15.961914,-146.863785,,,
729706189.202219,-5.232291,1.35409,168.370844,-0.02449,-0.095413,0.991959,0.015849,-0.005503,0.003189,87.302887,15.961914,-146.863785,,,
729706189.205496,-5.227774,1.351271,168.371452,-0.02449,-0.095413,0.991959,0.015849,-0.005503,0.003189,87.302887,15.961914,-146.863785,,,
729706189.208857,-5.222633,1.349029,168.371538,-0.023178,-0.09436,0.994354,0.019603,-0.004728,-0.000667,87.302887,15.961914,-146.863785,,,
729706189.212172,-5.222633,1.349029,168.371538,-0.023178,-0.09436,0.994354,0.019603,-0.004728,-0.000667,87.302887,15.961914,-146.863785,,,
729706189.215522,-5.21749,1.347229,168.371248,-0.023178,-0.09436,0.994354,0.019603,-0.004728,-0.000667,87.302887,15.961914,-146.863785,,,
729706189.218822,-5.212139,1.345704,168.369902,-0.019485,-0.093689,0.994476,0.018583,-0.000301,-0.007853,87.302887,15.961914,-146.863785,,,
729706189.222175,-5.212139,1.345704,168.369902,-0.019485,-0.093689,0.994476,0.018583,-0.000301,-0.007853,87.302887,15.961914,-146.863785,,,
729706189.225499,-5.207801,1.345444,168.368571,-0.019485,-0.093689,0.994476,0.018583,-0.000301,-0.007853,87.302887,15.961914,-146.863785,,,
729706189.228825,-5.202543,1.345253,168.367452,-0.020248,-0.09201,0.994827,0.019444,0.003666,-0.005993,87.302887,15.961914,-146.863785,,,
729706189.232157,-5.202543,1.345253,168.367452,-0.020248,-0.09201,0.994827,0.019444,0.003666,-0.005993,87.302887,15.961914,-146.863785,,,
729706189.235485,-5.197176,1.345573,168.366304,-0.020248,-0.09201,0.994827,0.019444,0.003666,-0.005993,87.328415,16.011795,-146.835327,,,
729706189.238813,-5.190772,1.346854,168.365594,-0.022827,-0.095398,0.997147,0.023129,0.009105,-0.002994,87.328415,16.011795,-146.835327,,,
729706189.242245,-5.190772,1.346854,168.365594,-0.022827,-0.095398,0.997147,0.023129,0.009105,-0.002994,87.328415,16.011795,-146.835327,,,
729706189.2455,-5.183629,1.347772,168.36532,-0.022827,-0.095398,0.997147,0.023129,0.009105,-0.002994,87.328415,16.011795,-146.835327,,,
729706189.248817,-5.17476,1.348421,168.365515,-0.024902,-0.094742,0.992432,0.034301,0.002872,0.000177,87.328415,16.011795,-146.835327,,,
729706189.252161,-5.17476,1.348421,168.365515,-0.024902,-0.094742,0.992432,0.034301,0.002872,0.000177,87.328415,16.011795,-146.835327,,,
729706189.255554,-5.165444,1.348031,168.365862,-0.024902,-0.094742,0.992432,0.034301,0.002872,0.000177,87.328415,16.011795,-146.835327,,,
729706189.258806,-5.15535,1.347115,168.365951,-0.023834,-0.091873,0.989548,0.03631,-0.000206,-0.001508,87.328415,16.011795,-146.835327,,,
729706189.262163,-5.15535,1.347115,168.365951,-0.023834,-0.091873,0.989548,0.03631,-0.000206,-0.001508,87.328415,16.011795,-146.835327,,,
729706189.265484,-5.145534,1.346244,168.365881,-0.023834,-0.091873,0.989548,0.03631,-0.000206,-0.001508,87.328415,16.011795,-146.835327,,,
729706189.268908,-5.135881,1.345136,168.365915,-0.027206,-0.088593,0.988022,0.031076,-0.000978,-0.000834,87.328415,16.011795,-146.835327,,,
729706189.272159,-5.135881,1.345136,168.365915,-0.027206,-0.088593,0.988022,0.031076,-0.000978,-0.000834,87.328415,16.011795,-146.835327,,,
729706189.275486,-5.128566,1.343771,168.366003,-0.027206,-0.088593,0.988022,0.031076,-0.000978,-0.000834,87.244507,15.831161,-147.135208,,,
729706189.278815,-5.121969,1.342099,168.366196,-0.025696,-0.08638,0.980911,0.020185,-0.001915,-0.000243,87.244507,15.831161,-147.135208,,,
729706189.282206,-5.121969,1.342099,168.366196,-0.025696,-0.08638,0.980911,0.020185,-0.001915,-0.000243,87.244507,15.831161,-147.135208,,,
729706189.285496,-5.118235,1.34105,168.366519,-0.025696,-0.08638,0.980911,0.020185,-0.001915,-0.000243,87.244507,15.831161,-147.135208,,,
729706189.288818,-5.11628,1.33959,168.367306,-0.02562,-0.084915,0.9758,0.00188,-0.003474,0.002676,87.244507,15.831161,-147.135208,,,
729706189.29214,-5.11628,1.33959,168.367306,-0.02562,-0.084915,0.9758,0.00188,-0.003474,0.002676,87.244507,15.831161,-147.135208,,,
729706189.295487,-5.117425,1.338148,168.368281,-0.02562,-0.084915,0.9758,0.00188,-0.003474,0.002676,87.244507,15.831161,-147.135208,,,
729706189.298818,-5.120206,1.337906,168.369295,-0.024216,-0.085251,0.973953,-0.01444,0.002395,0.002363,87.244507,15.831161,-147.135208,,,
729706189.302169,-5.120206,1.337906,168.369295,-0.024216,-0.085251,0.973953,-0.01444,0.002395,0.002363,87.244507,15.831161,-147.135208,,,
729706189.305543,-5.125243,1.337338,168.370469,-0.024216,-0.085251,0.973953,-0.01444,0.002395,0.002363,87.244507,15.831161,-147.135208,,,
729706189.308811,-5.13054,1.337497,168.37138,-0.023956,-0.085266,0.977783,-0.019345,0.003548,4.3e-05,87.244507,15.831161,-147.135208,,,
729706189.312199,-5.13054,1.337497,168.37138,-0.023956,-0.085266,0.977783,-0.019345,0.003548,4.3e-05,87.244507,15.831161,-147.135208,,,
729706189.315486,-5.13716,1.337831,168.371405,-0.023956,-0.085266,0.977783,-0.019345,0.003548,4.3e-05,87.244507,15.831161,-147.135208,,,
729706189.318843,-5.143906,1.339734,168.370628,-0.020538,-0.087372,0.982697,-0.024187,0.013243,-0.005799,87.343048,15.750275,-146.8069,,,
729706189.322262,-5.143906,1.339734,168.370628,-0.020538,-0.087372,0.982697,-0.024187,0.013243,-0.005799,87.343048,15.750275,-146.8069,,,
729706189.325516,-5.151629,1.343018,168.369357,-0.020538,-0.087372,0.982697,-0.024187,0.013243,-0.005799,87.343048,15.750275,-146.8069,,,
729706189.328877,-5.15854,1.346834,168.36825,-0.022171,-0.090256,0.988525,-0.024052,0.017206,-0.004623,87.343048,15.750275,-146.8069,,,
729706189.332219,-5.15854,1.346834,168.36825,-0.022171,-0.090256,0.988525,-0.024052,0.017206,-0.004623,87.343048,15.750275,-146.8069,,,
729706189.335541,-5.165528,1.35102,168.367473,-0.022171,-0.090256,0.988525,-0.024052,0.017206,-0.004623,87.343048,15.750275,-146.8069,,,
729706189.338861,-5.171146,1.354626,168.366634,-0.023483,-0.090286,0.991257,-0.018626,0.014452,-0.004814,87.343048,15.750275,-146.8069,,,
729706189.342262,-5.171146,1.354626,168.366634,-0.023483,-0.090286,0.991257,-0.018626,0.014452,-0.004814,87.343048,15.750275,-146.8069,,,
729706189.345537,-5.176388,1.358609,168.366184,-0.023483,-0.090286,0.991257,-0.018626,0.014452,-0.004814,87.343048,15.750275,-146.8069,,,
729706189.348912,-5.181075,1.362725,168.366228,-0.023804,-0.090256,0.99501,-0.016094,0.017316,-0.001089,87.343048,15.750275,-146.8069,,,
729706189.352174,-5.181075,1.362725,168.366228,-0.023804,-0.090256,0.99501,-0.016094,0.017316,-0.001089,87.343048,15.750275,-146.8069,,,
729706189.355562,-5.186447,1.367771,168.365883,-0.023804,-0.090256,0.99501,-0.016094,0.017316,-0.001089,87.343048,15.750275,-146.8069,,,
729706189.358816,-5.193042,1.372257,168.364792,-0.025558,-0.085815,0.993774,-0.021651,0.01712,-0.006152,87.435776,15.68631,-146.449677,,,
729706189.362157,-5.193042,1.372257,168.364792,-0.025558,-0.085815,0.993774,-0.021651,0.01712,-0.006152,87.435776,15.68631,-146.449677,,,
729706189.365487,-5.199713,1.376106,168.363568,-0.025558,-0.085815,0.993774,-0.021651,0.01712,-0.006152,87.435776,15.68631,-146.449677,,,
729706189.368862,-5.207958,1.37933,168.362193,-0.025208,-0.086121,0.990158,-0.029739,0.014841,-0.007191,87.435776,15.68631,-146.449677,,,
729706189.37216,-5.207958,1.37933,168.362193,-0.025208,-0.086121,0.990158,-0.029739,0.014841,-0.007191,87.435776,15.68631,-146.449677,,,
729706189.375497,-5.216916,1.382557,168.360663,-0.025208,-0.086121,0.990158,-0.029739,0.014841,-0.007191,87.435776,15.68631,-146.449677,,,
729706189.378819,-5.227927,1.385599,168.359301,-0.027725,-0.090164,0.993347,-0.040153,0.015259,-0.006092,87.435776,15.68631,-146.449677,,,
729706189.382217,-5.227927,1.385599,168.359301,-0.027725,-0.090164,0.993347,-0.040153,0.015259,-0.006092,87.435776,15.68631,-146.449677,,,
729706189.385475,-5.238681,1.389034,168.358316,-0.027725,-0.090164,0.993347,-0.040153,0.015259,-0.006092,87.435776,15.68631,-146.449677,,,
729706189.388824,-5.249393,1.391705,168.358125,-0.029785,-0.095428,0.998505,-0.035918,0.011412,-0.000297,87.435776,15.68631,-146.449677,,,
729706189.392171,-5.249393,1.391705,168.358125,-0.029785,-0.095428,0.998505,-0.035918,0.011412,-0.000297,87.435776,15.68631,-146.449677,,,
729706189.395551,-5.258466,1.393867,168.359515,-0.029785,-0.095428,0.998505,-0.035918,0.011412,-0.000297,87.435776,15.68631,-146.449677,,,
729706189.398888,-5.26647,1.395792,168.361829,-0.029022,-0.100586,1.005066,-0.024868,0.00762,0.006293,87.371948,15.833099,-146.689194,,,
729706189.402167,-5.26647,1.395792,168.361829,-0.029022,-0.100586,1.005066,-0.024868,0.00762,0.006293,87.371948,15.833099,-146.689194,,,
729706189.405494,-5.272646,1.39675,168.364332,-0.029022,-0.100586,1.005066,-0.024868,0.00762,0.006293,87.371948,15.833099,-146.689194,,,
729706189.408818,-5.277296,1.397428,168.366898,-0.029022,-0.099335,1.006027,-0.011823,0.002465,0.006769,87.371948,15.833099,-146.689194,,,
729706189.41215,-5.277296,1.397428,168.366898,-0.02562,-0.099335,1.006027,-0.011823,0.002465,0.006769,87.371948,15.833099,-146.689194,,,
729706189.415497,-5.279589,1.39754,168.368947,-0.02562,-0.099335,1.006027,-0.011823,0.002465,0.006769,87.371948,15.833099,-146.689194,,,
729706189.418811,-5.280321,1.397898,168.370241,-0.02562,-0.099335,1.006027,0.000347,0.004364,0.001793,87.371948,15.833099,-146.689194,,,
729706189.422203,-5.280321,1.397898,168.370241,-0.026062,-0.095047,1.007751,0.000347,0.004364,0.001793,87.371948,15.833099,-146.689194,,,
729706189.425479,-5.279726,1.397746,168.370875,-0.026062,-0.095047,1.007751,0.000347,0.004364,0.001793,87.371948,15.833099,-146.689194,,,
729706189.42881,-5.279726,1.397236,168.371075,-0.026062,-0.095047,1.007751,0.000347,0.004364,0.001793,87.371948,15.833099,-146.689194,,,
729706189.432153,-5.278466,1.397236,168.371075,-0.025558,-0.094589,1.003464,0.005581,0.001757,-0.001161,87.371948,15.833099,-146.689194,,,
729706189.435475,-5.276349,1.396293,168.371178,-0.025558,-0.094589,1.003464,0.005581,0.001757,-0.001161,87.371948,15.833099,-146.689194,,,
729706189.438807,-5.274511,1.395003,168.371021,-0.024124,-0.094803,0.997757,0.007338,-0.00065,-0.002973,87.414841,15.827179,-146.808456,,,
729706189.442159,-5.274511,1.395003,168.371021,-0.024124,-0.094803,0.997757,0.007338,-0.00065,-0.002973,87.414841,15.827179,-146.808456,,,
729706189.445478,-5.271762,1.394441,168.370912,-0.024124,-0.094803,0.997757,0.007338,-0.00065,-0.002973,87.414841,15.827179,-146.808456,,,
729706189.448821,-5.269629,1.393915,168.371315,-0.023849,-0.091385,0.997696,0.008491,0.001116,0.000781,87.414841,15.827179,-146.808456,,,
729706189.452161,-5.269629,1.393915,168.371315,-0.023849,-0.091385,0.997696,0.008491,0.001116,0.000781,87.414841,15.827179,-146.808456,,,
729706189.455478,-5.266485,1.393271,168.371947,-0.023849,-0.091385,0.997696,0.008491,0.001116,0.000781,87.414841,15.827179,-146.808456,,,
729706189.458852,-5.266485,1.393271,168.371947,-0.023849,-0.091385,0.997696,0.008491,0.001116,0.000781,87.414841,15.827179,-146.808456,,,
729706189.46218,-5.26379,1.392317,168.372258,-0.023773,-0.091049,0.993729,0.009156,1.8e-05,-0.001348,87.414841,15.827179,-146.808456,,,
729706189.465486,-5.2618,1.392168,168.372354,-0.023773,-0.091049,0.993729,0.009156,1.8e-05,-0.001348,87.414841,15.827179,-146.808456,,,
729706189.46886,-5.2618,1.392168,168.372354,-0.023773,-0.091049,0.993729,0.009156,1.8e-05,-0.001348,87.414841,15.827179,-146.808456,,,
729706189.47228,-5.260765,1.391113,168.372524,-0.021103,-0.088898,0.988525,0.001778,-0.000407,-0.00044,87.414841,15.827179,-146.808456,,,
729706189.475553,-5.261901,1.391782,168.373184,-0.021103,-0.088898,0.988525,0.001778,-0.000407,-0.00044,87.414841,15.827179,-146.808456,,,
729706189.478858,-5.261901,1.391782,168.373184,-0.021103,-0.088898,0.988525,0.001778,-0.000407,-0.00044,87.414841,15.827179,-146.808456,,,
729706189.482184,-5.264188,1.39265,168.373983,-0.021912,-0.090118,0.98822,-0.012108,0.005593,0.000622,87.327957,15.769501,-146.678085,,,
729706189.485493,-5.269765,1.394394,168.37493,-0.021912,-0.090118,0.98822,-0.012108,0.005593,0.000622,87.327957,15.769501,-146.678085,,,
729706189.488841,-5.269765,1.394394,168.37493,-0.021912,-0.090118,0.98822,-0.012108,0.005593,0.000622,87.327957,15.769501,-146.678085,,,
729706189.492165,-5.274868,1.396854,168.376477,-0.021744,-0.091766,0.992386,-0.015966,0.013159,0.004994,87.327957,15.769501,-146.678085,,,
729706189.495488,-5.279866,1.400438,168.378477,-0.021744,-0.091766,0.992386,-0.015966,0.013159,0.004994,87.327957,15.769501,-146.678085,,,
729706189.498944,-5.279866,1.404319,168.381033,-0.021744,-0.091766,0.992386,-0.015966,0.013159,0.004994,87.327957,15.769501,-146.678085,,,
729706189.502161,-5.283542,1.404319,168.381033,-0.022873,-0.096832,0.996902,-0.010266,0.014674,0.008984,87.327957,15.769501,-146.678085,,,
729706189.505485,-5.286582,1.408142,168.383985,-0.022873,-0.096832,0.996902,-0.010266,0.014674,0.008984,87.327957,15.769501,-146.678085,,,
729706189.50886,-5.286582,1.408142,168.383985,-0.022873,-0.096832,0.996902,-0.010266,0.014674,0.008984,87.327957,15.769501,-146.678085,,,
729706189.512229,-5.288579,1.411664,168.386583,-0.022552,-0.095291,0.996262,-0.004378,0.014336,0.006854,87.327957,15.769501,-146.678085,,,
729706189.515479,-5.290082,1.415391,168.38928,-0.022552,-0.095291,0.996262,-0.004378,0.014336,0.006854,87.327957,15.769501,-146.678085,,,
729706189.518905,-5.290082,1.415391,168.38928,-0.022552,-0.095291,0.996262,-0.004378,0.014336,0.006854,87.327957,15.769501,-146.678085,,,
729706189.522159,-5.291609,1.419339,168.391651,-0.020203,-0.092682,0.996094,-0.00661,0.016112,0.004537,87.237961,15.981018,-147.007324,,,
729706189.525481,-5.293499,1.423126,168.393244,-0.020203,-0.092682,0.996094,-0.00661,0.016112,0.004537,87.237961,15.981018,-147.007324,,,
729706189.528876,-5.293499,1.423126,168.393244,-0.020203,-0.092682,0.996094,-0.00661,0.016112,0.004537,87.237961,15.981018,-147.007324,,,
729706189.532166,-5.295738,1.427027,168.394005,-0.020447,-0.092407,0.99472,-0.009442,0.015951,-0.001447,87.237961,15.981018,-147.007324,,,
729706189.535485,-5.298658,1.431642,168.394019,-0.020447,-0.092407,0.99472,-0.009442,0.015951,-0.001447,87.237961,15.981018,-147.007324,,,
729706189.538866,-5.298658,1.431642,168.394019,-0.020447,-0.092407,0.99472,-0.009442,0.015951,-0.001447,87.237961,15.981018,-147.007324,,,
729706189.542158,-5.301924,1.437128,168.393694,-0.025497,-0.090988,0.996552,-0.010731,0.021484,-0.003909,87.237961,15.981018,-147.007324,,,
729706189.545486,-5.304576,1.441615,168.393662,-0.025497,-0.090988,0.996552,-0.010731,0.021484,-0.003909,87.237961,15.981018,-147.007324,,,
729706189.548537,-5.304576,1.441615,168.393662,-0.025497,-0.090988,0.996552,-0.010731,0.021484,-0.003909,87.237961,15.981018,-147.007324,,,
729706189.552269,-5.306669,1.444918,168.394938,-0.027359,-0.099014,0.99295,-0.005322,0.010123,0.00512,87.237961,15.981018,-147.007324,,,
729706189.555467,-5.30686,1.445993,168.39697,-0.027359,-0.099014,0.99295,-0.005322,0.010123,0.00512,87.237961,15.981018,-147.007324,,,
729706189.558856,-5.30686,1.445993,168.39697,-0.027359,-0.099014,0.99295,-0.005322,0.010123,0.00512,87.237961,15.981018,-147.007324,,,
729706189.562158,-5.305555,1.447096,168.399201,-0.026245,-0.101013,0.996811,0.006689,0.006094,0.006433,87.355194,15.990326,-146.821411,,,
729706189.565484,-5.302227,1.447686,168.401569,-0.026245,-0.101013,0.996811,0.006689,0.006094,0.006433,87.355194,15.990326,-146.821411,,,
729706189.568862,-5.302227,1.447686,168.401569,-0.026245,-0.101013,0.996811,0.006689,0.006094,0.006433,87.355194,15.990326,-146.821411,,,
729706189.572154,-5.297759,1.44819,168.403968,-0.026199,-0.098022,0.999161,0.015728,0.002817,0.006647,87.355194,15.990326,-146.821411,,,
729706189.57548,-5.292968,1.447814,168.406572,-0.026199,-0.098022,0.999161,0.015728,0.002817,0.006647,87.355194,15.990326,-146.821411,,,
729706189.578921,-5.292968,1.447814,168.406572,-0.026199,-0.098022,0.999161,0.015728,0.002817,0.006647,87.355194,15.990326,-146.821411,,,
729706189.582135,-5.287626,1.448228,168.409129,-0.026306,-0.095993,0.996445,0.018102,0.00536,0.006114,87.355194,15.990326,-146.821411,,,
729706189.585238,-5.282995,1.448752,168.41182,-0.026306,-0.095993,0.996445,0.018102,0.00536,0.006114,87.355194,15.990326,-146.821411,,,
729706189.588892,-5.282995,1.448752,168.41182,-0.026306,-0.095993,0.996445,0.018102,0.00536,0.006114,87.355194,15.990326,-146.821411,,,
729706189.59223,-5.277485,1.449979,168.414901,-0.024658,-0.093887,0.995911,0.019307,0.008298,0.008699,87.355194,15.990326,-146.821411,,,
729706189.595465,-5.273107,1.450824,168.417406,-0.024658,-0.093887,0.995911,0.019307,0.008298,0.008699,87.355194,15.990326,-146.821411,,,
729706189.598833,-5.273107,1.450824,168.417406,-0.024658,-0.093887,0.995911,0.019307,0.008298,0.008699,87.355194,15.990326,-146.821411,,,
729706189.602148,-5.26949,1.451945,168.420013,-0.023773,-0.09108,0.989487,0.011935,0.004943,0.008736,87.267975,15.833435,-146.836533,,,
729706189.60548,-5.267122,1.45227,168.422843,-0.023773,-0.09108,0.989487,0.011935,0.004943,0.008736,87.267975,15.833435,-146.836533,,,
729706189.608832,-5.267122,1.45227,168.422843,-0.023773,-0.09108,0.989487,0.011935,0.004943,0.008736,87.267975,15.833435,-146.836533,,,
729706189.612148,-5.266747,1.452689,168.425645,-0.023254,-0.089676,0.982773,-0.002513,0.000761,0.007725,87.267975,15.833435,-146.836533,,,
729706189.615478,-5.268042,1.451968,168.428484,-0.023254,-0.089676,0.982773,-0.002513,0.000761,0.007725,87.267975,15.833435,-146.836533,,,
729706189.618885,-5.268042,1.451968,168.428484,-0.023254,-0.089676,0.982773,-0.002513,0.000761,0.007725,87.267975,15.833435,-146.836533,,,
729706189.622158,-5.271437,1.450855,168.43162,-0.025421,-0.088531,0.976028,-0.016225,-0.003904,0.009268,87.267975,15.833435,-146.836533,,,
729706189.625485,-5.277519,1.449422,168.434526,-0.025421,-0.088531,0.976028,-0.016225,-0.003904,0.009268,87.267975,15.833435,-146.836533,,,
729706189.628838,-5.277519,1.449422,168.434526,-0.025421,-0.088531,0.976028,-0.016225,-0.003904,0.009268,87.267975,15.833435,-146.836533,,,
729706189.632231,-5.284922,1.447492,168.436532,-0.022202,-0.089752,0.975601,-0.028463,-0.004965,0.002879,87.267975,15.833435,-146.836533,,,
729706189.635476,-5.294885,1.446509,168.437726,-0.022202,-0.089752,0.975601,-0.028463,-0.004965,0.002879,87.267975,15.833435,-146.836533,,,
729706189.638824,-5.294885,1.446509,168.437726,-0.022202,-0.089752,0.975601,-0.028463,-0.004965,0.002879,87.267975,15.833435,-146.836533,,,
729706189.642157,-5.304991,1.447092,168.438357,-0.018356,-0.088562,0.982178,-0.037238,0.008428,-0.001029,87.267975,15.833435,-146.836533,,,
729706189.645484,-5.316536,1.449949,168.438286,-0.018356,-0.088562,0.982178,-0.037238,0.008428,-0.001029,87.39711,16.084518,-147.190933,,,
729706189.648841,-5.316536,1.449949,168.438286,-0.018356,-0.088562,0.982178,-0.037238,0.008428,-0.001029,87.39711,16.084518,-147.190933,,,
729706189.652172,-5.32658,1.454944,168.437449,-0.017868,-0.090454,0.990967,-0.03346,0.024362,-0.006165,87.39711,16.084518,-147.190933,,,
729706189.655483,-5.336953,1.462565,168.436281,-0.017868,-0.090454,0.990967,-0.03346,0.024362,-0.006165,87.39711,16.084518,-147.190933,,,
729706189.658885,-5.336953,1.462565,168.436281,-0.017868,-0.090454,0.990967,-0.03346,0.024362,-0.006165,87.39711,16.084518,-147.190933,,,
729706189.662157,-5.346502,1.471578,168.435073,-0.018524,-0.092651,0.994736,-0.03168,0.035763,-0.00622,87.39711,16.084518,-147.190933,,,
729706189.665485,-5.355511,1.481626,168.434635,-0.018524,-0.092651,0.994736,-0.03168,0.035763,-0.00622,87.39711,16.084518,-147.190933,,,
729706189.668841,-5.355511,1.481626,168.434635,-0.018524,-0.092651,0.994736,-0.03168,0.035763,-0.00622,87.39711,16.084518,-147.190933,,,
729706189.672208,-5.362953,1.491822,168.435421,-0.027359,-0.097092,0.995499,-0.022477,0.036632,0.002576,87.39711,16.084518,-147.190933,,,
729706189.675479,-5.368445,1.50037,168.437013,-0.027359,-0.097092,0.995499,-0.022477,0.036632,0.002576,87.39711,16.084518,-147.190933,,,
729706189.67883,-5.368445,1.50037,168.437013,-0.027359,-0.097092,0.995499,-0.022477,0.036632,0.002576,87.39711,16.084518,-147.190933,,,
729706189.682156,-5.373,1.506543,168.438998,-0.030426,-0.096268,0.989182,-0.014982,0.018573,0.00538,87.39711,16.084518,-147.190933,,,
729706189.685486,-5.376786,1.508927,168.441155,-0.030426,-0.096268,0.989182,-0.014982,0.018573,0.00538,87.326508,15.727097,-146.901657,,,
729706189.688828,-5.376786,1.508927,168.441155,-0.030426,-0.096268,0.989182,-0.014982,0.018573,0.00538,87.326508,15.727097,-146.901657,,,
729706189.692161,-5.38075,1.508512,168.442753,-0.031921,-0.093033,0.98526,-0.014455,-0.002733,0.001315,87.326508,15.727097,-146.901657,,,
729706189.695483,-5.384617,1.505938,168.443308,-0.031921,-0.093033,0.98526,-0.014455,-0.002733,0.001315,87.326508,15.727097,-146.901657,,,
729706189.698878,-5.384617,1.505938,168.443308,-0.031921,-0.093033,0.98526,-0.014455,-0.002733,0.001315,87.326508,15.727097,-146.901657,,,
729706189.702153,-5.390213,1.501931,168.443269,-0.030289,-0.088028,0.982574,-0.022465,-0.013803,-0.003154,87.326508,15.727097,-146.901657,,,
729706189.705488,-5.397481,1.496341,168.442365,-0.030289,-0.088028,0.982574,-0.022465,-0.013803,-0.003154,87.326508,15.727097,-146.901657,,,
729706189.708827,-5.397481,1.496341,168.442365,-0.030289,-0.088028,0.982574,-0.022465,-0.013803,-0.003154,87.326508,15.727097,-146.901657,,,
