Time (sec),Pitch (deg),Roll (deg),Yaw(deg),X-Acceleration (g),Y-Acceleration (g),Z-Acceleration (g),Pitch Rate (deg/sec),Roll Rate (deg/sec),Yaw Rate (deg/sec),Magnetic Field in X direction (uT),Magnetic Field in Y direction (uT),Magnetic Field in Z Direction (uT),Latitude (deg),Longitude (deg),Altitude (m)
729717252.60788,-68.154616,11.947135,107.291553,-0.048264,-0.926544,0.377747,-0.326647,-0.017505,-0.219937,90.596207,75.120865,-101.420609,,,
729717252.608012,-68.249661,11.854826,142.734204,-0.048264,-0.926544,0.377747,-0.326647,-0.017505,-0.219937,90.596207,75.120865,-101.420609,,,
729717252.608575,-68.249669,11.854827,104.121003,-0.048264,-0.926544,0.377747,-0.326647,-0.017505,-0.219937,90.596207,75.120865,-101.420609,,,
729717252.609133,-68.249633,11.854829,107.19784,-0.048264,-0.926544,0.377747,-0.326647,-0.017505,-0.219937,90.596207,75.120865,-101.420609,,,
729717252.609242,-68.249661,11.854826,142.734204,-0.048264,-0.926544,0.377747,-0.326647,-0.017505,-0.219937,90.596207,75.120865,-101.420609,,,
729717252.611353,-68.249669,11.854827,104.121003,-0.048264,-0.926544,0.377747,-0.326647,-0.017505,-0.219937,90.596207,75.120865,-101.420609,,,
729717252.611599,-68.249633,11.854829,107.19784,-0.048264,-0.926544,0.377747,-0.326647,-0.017505,-0.219937,90.596207,75.120865,-101.420609,,,
729717252.612271,-68.249661,11.854826,142.734204,-0.048264,-0.926544,0.377747,-0.326647,-0.017505,-0.219937,90.596207,75.120865,-101.420609,,,
729717252.615656,-68.342542,11.75073,104.018791,-0.056671,-0.938293,0.375488,-0.274254,-0.028767,-0.189853,90.596207,75.120865,-101.420609,,,
729717252.616717,-68.342506,11.750731,107.095627,-0.056671,-0.938293,0.375488,-0.274254,-0.028767,-0.189853,90.596207,75.120865,-101.420609,,,
729717252.616823,-68.342534,11.750729,142.631991,-0.056671,-0.938293,0.375488,-0.274254,-0.028767,-0.189853,90.596207,75.120865,-101.420609,,,
729717252.618292,-68.422844,11.663775,103.931689,-0.056671,-0.938293,0.375488,-0.274254,-0.028767,-0.189853,90.596207,75.120865,-101.420609,,,
729717252.61884,-68.422807,11.663777,107.008525,-0.056671,-0.938293,0.375488,-0.274254,-0.028767,-0.189853,90.596207,75.120865,-101.420609,,,
729717252.618961,-68.422836,11.663775,142.544888,-0.056671,-0.938293,0.375488,-0.274254,-0.028767,-0.189853,90.596207,75.120865,-101.420609,,,
729717252.621376,-68.422844,11.663775,103.931689,-0.056671,-0.938293,0.375488,-0.274254,-0.028767,-0.189853,90.596207,75.120865,-101.420609,,,
729717252.621591,-68.422807,11.663777,107.008525,-0.056671,-0.938293,0.375488,-0.274254,-0.028767,-0.189853,90.596207,75.120865,-101.420609,,,
729717252.622271,-68.422836,11.663775,142.544888,-0.056671,-0.938293,0.375488,-0.274254,-0.028767,-0.189853,90.596207,75.120865,-101.420609,,,
729717252.62584,-68.500124,11.56748,103.834438,-0.059158,-0.938553,0.388153,-0.226498,-0.016143,-0.174661,90.342163,75.328674,-100.564697,,,
729717252.627078,-68.500087,11.567482,106.911275,-0.059158,-0.938553,0.388153,-0.226498,-0.016143,-0.174661,90.342163,75.328674,-100.564697,,,
729717252.627187,-68.500116,11.567479,142.447642,-0.059158,-0.938553,0.388153,-0.226498,-0.016143,-0.174661,90.342163,75.328674,-100.564697,,,
729717252.628221,-68.57093,11.480364,103.745648,-0.059158,-0.938553,0.388153,-0.226498,-0.016143,-0.174661,90.342163,75.328674,-100.564697,,,
729717252.628766,-68.570894,11.480366,106.822484,-0.059158,-0.938553,0.388153,-0.226498,-0.016143,-0.174661,90.342163,75.328674,-100.564697,,,
729717252.628919,-68.570922,11.480363,142.35885,-0.059158,-0.938553,0.388153,-0.226498,-0.016143,-0.174661,90.342163,75.328674,-100.564697,,,
729717252.631397,-68.57093,11.480364,103.745648,-0.059158,-0.938553,0.388153,-0.226498,-0.016143,-0.174661,90.342163,75.328674,-100.564697,,,
729717252.631582,-68.570894,11.480366,106.822484,-0.059158,-0.938553,0.388153,-0.226498,-0.016143,-0.174661,90.342163,75.328674,-100.564697,,,
729717252.632272,-68.570922,11.480363,142.35885,-0.059158,-0.938553,0.388153,-0.226498,-0.016143,-0.174661,90.342163,75.328674,-100.564697,,,
729717252.635746,-68.635274,11.37573,103.641734,-0.052689,-0.923248,0.381699,-0.181048,-0.029308,-0.175845,90.342163,75.328674,-100.564697,,,
729717252.636875,-68.635237,11.375732,106.71857,-0.052689,-0.923248,0.381699,-0.181048,-0.029308,-0.175845,90.342163,75.328674,-100.564697,,,
729717252.636981,-68.635266,11.375729,142.254935,-0.052689,-0.923248,0.381699,-0.181048,-0.029308,-0.175845,90.342163,75.328674,-100.564697,,,
729717252.638245,-68.693667,11.261842,103.530262,-0.052689,-0.923248,0.381699,-0.181048,-0.029308,-0.175845,90.342163,75.328674,-100.564697,,,
729717252.638794,-68.69363,11.261844,106.607098,-0.052689,-0.923248,0.381699,-0.181048,-0.029308,-0.175845,90.342163,75.328674,-100.564697,,,
729717252.638916,-68.693659,11.261841,142.143463,-0.052689,-0.923248,0.381699,-0.181048,-0.029308,-0.175845,90.342163,75.328674,-100.564697,,,
729717252.641381,-68.693667,11.261842,103.530262,-0.052689,-0.923248,0.381699,-0.181048,-0.029308,-0.175845,90.342163,75.328674,-100.564697,,,
729717252.641582,-68.69363,11.261844,106.607098,-0.052689,-0.923248,0.381699,-0.181048,-0.029308,-0.175845,90.342163,75.328674,-100.564697,,,
729717252.64225,-68.693659,11.261841,142.143463,-0.052689,-0.923248,0.381699,-0.181048,-0.029308,-0.175845,90.342163,75.328674,-100.564697,,,
729717252.645524,-68.746009,11.140256,103.411036,-0.048859,-0.914261,0.373901,-0.139453,-0.032464,-0.186429,90.342163,75.328674,-100.564697,,,
729717252.646479,-68.745972,11.140259,106.487872,-0.048859,-0.914261,0.373901,-0.139453,-0.032464,-0.186429,90.342163,75.328674,-100.564697,,,
729717252.646581,-68.746001,11.140256,142.024241,-0.048859,-0.914261,0.373901,-0.139453,-0.032464,-0.186429,90.342163,75.328674,-100.564697,,,
729717252.648339,-68.793761,11.014378,103.285954,-0.048859,-0.914261,0.373901,-0.139453,-0.032464,-0.186429,90.342163,75.328674,-100.564697,,,
729717252.648892,-68.793724,11.01438,106.36279,-0.048859,-0.914261,0.373901,-0.139453,-0.032464,-0.186429,90.342163,75.328674,-100.564697,,,
729717252.648999,-68.793753,11.014377,141.899146,-0.048859,-0.914261,0.373901,-0.139453,-0.032464,-0.186429,90.342163,75.328674,-100.564697,,,
729717252.65137,-68.793761,11.014378,103.285954,-0.048859,-0.914261,0.373901,-0.139453,-0.032464,-0.186429,90.342163,75.328674,-100.564697,,,
729717252.651593,-68.793724,11.01438,106.36279,-0.048859,-0.914261,0.373901,-0.139453,-0.032464,-0.186429,90.342163,75.328674,-100.564697,,,
729717252.652269,-68.793753,11.014377,141.899146,-0.048859,-0.914261,0.373901,-0.139453,-0.032464,-0.186429,90.342163,75.328674,-100.564697,,,
729717252.655533,-68.836998,10.88594,103.156766,-0.058685,-0.909653,0.377289,-0.11039,-0.023723,-0.19018,90.342163,75.328674,-100.564697,,,
729717252.656489,-68.83696,10.885943,106.233601,-0.058685,-0.909653,0.377289,-0.11039,-0.023723,-0.19018,90.342163,75.328674,-100.564697,,,
729717252.656603,-68.836989,10.88594,141.769962,-0.058685,-0.909653,0.377289,-0.11039,-0.023723,-0.19018,90.342163,75.328674,-100.564697,,,
729717252.658321,-68.878596,10.754249,103.023755,-0.058685,-0.909653,0.377289,-0.11039,-0.023723,-0.19018,90.342163,75.328674,-100.564697,,,
729717252.658865,-68.878559,10.754251,106.100591,-0.058685,-0.909653,0.377289,-0.11039,-0.023723,-0.19018,90.342163,75.328674,-100.564697,,,
729717252.658971,-68.878588,10.754248,141.636955,-0.058685,-0.909653,0.377289,-0.11039,-0.023723,-0.19018,90.342163,75.328674,-100.564697,,,
729717252.66109,-68.878596,10.754249,103.023755,-0.058685,-0.909653,0.377289,-0.11039,-0.023723,-0.19018,90.342163,75.328674,-100.564697,,,
729717252.661625,-68.878559,10.754251,106.100591,-0.058685,-0.909653,0.377289,-0.11039,-0.023723,-0.19018,90.342163,75.328674,-100.564697,,,
729717252.662262,-68.878588,10.754248,141.636955,-0.058685,-0.909653,0.377289,-0.11039,-0.023723,-0.19018,90.342163,75.328674,-100.564697,,,
729717252.665244,-68.919666,10.622838,102.891035,-0.059143,-0.908752,0.361237,-0.11035,-0.023499,-0.188439,90.342163,75.328674,-100.564697,,,
729717252.666253,-68.919629,10.622841,105.96787,-0.059143,-0.908752,0.361237,-0.11035,-0.023499,-0.188439,89.866531,75.366287,-100.537201,,,
729717252.666374,-68.919658,10.622838,141.504235,-0.059143,-0.908752,0.361237,-0.11035,-0.023499,-0.188439,89.866531,75.366287,-100.537201,,,
729717252.668716,-68.961351,10.493846,102.76193,-0.059143,-0.908752,0.361237,-0.11035,-0.023499,-0.188439,89.866531,75.366287,-100.537201,,,
729717252.669272,-68.961314,10.493849,105.838766,-0.059143,-0.908752,0.361237,-0.11035,-0.023499,-0.188439,89.866531,75.366287,-100.537201,,,
729717252.669376,-68.961343,10.493846,141.375136,-0.059143,-0.908752,0.361237,-0.11035,-0.023499,-0.188439,89.866531,75.366287,-100.537201,,,
729717252.671318,-68.961351,10.493846,102.76193,-0.059143,-0.908752,0.361237,-0.11035,-0.023499,-0.188439,89.866531,75.366287,-100.537201,,,
729717252.671598,-68.961314,10.493849,105.838766,-0.059143,-0.908752,0.361237,-0.11035,-0.023499,-0.188439,89.866531,75.366287,-100.537201,,,
729717252.672268,-68.961343,10.493846,141.375136,-0.059143,-0.908752,0.361237,-0.11035,-0.023499,-0.188439,89.866531,75.366287,-100.537201,,,
729717252.676094,-69.003339,10.367515,102.637508,-0.061371,-0.916702,0.342545,-0.117858,-0.035216,-0.177086,89.866531,75.366287,-100.537201,,,
729717252.677647,-69.003302,10.367518,105.714344,-0.061371,-0.916702,0.342545,-0.117858,-0.035216,-0.177086,89.866531,75.366287,-100.537201,,,
729717252.67776,-69.003331,10.367514,141.250712,-0.061371,-0.916702,0.342545,-0.117858,-0.035216,-0.177086,89.866531,75.366287,-100.537201,,,
729717252.678348,-69.047181,10.247719,102.521779,-0.061371,-0.916702,0.342545,-0.117858,-0.035216,-0.177086,89.866531,75.366287,-100.537201,,,
729717252.678893,-69.047143,10.247722,105.598615,-0.061371,-0.916702,0.342545,-0.117858,-0.035216,-0.177086,89.866531,75.366287,-100.537201,,,
729717252.679008,-69.047173,10.247719,141.134986,-0.061371,-0.916702,0.342545,-0.117858,-0.035216,-0.177086,89.866531,75.366287,-100.537201,,,
729717252.681368,-69.047181,10.247719,102.521779,-0.061371,-0.916702,0.342545,-0.117858,-0.035216,-0.177086,89.866531,75.366287,-100.537201,,,
729717252.681591,-69.047143,10.247722,105.598615,-0.061371,-0.916702,0.342545,-0.117858,-0.035216,-0.177086,89.866531,75.366287,-100.537201,,,
729717252.682268,-69.047173,10.247719,141.134986,-0.061371,-0.916702,0.342545,-0.117858,-0.035216,-0.177086,89.866531,75.366287,-100.537201,,,
729717252.686086,-69.094029,10.136552,102.416856,-0.06485,-0.925064,0.330475,-0.146315,-0.045248,-0.15402,89.866531,75.366287,-100.537201,,,
729717252.687619,-69.093992,10.136555,105.493692,-0.06485,-0.925064,0.330475,-0.146315,-0.045248,-0.15402,89.866531,75.366287,-100.537201,,,
729717252.687726,-69.094021,10.136551,141.030061,-0.06485,-0.925064,0.330475,-0.146315,-0.045248,-0.15402,89.866531,75.366287,-100.537201,,,
729717252.687856,-69.094029,10.136552,102.416856,-0.06485,-0.925064,0.330475,-0.146315,-0.045248,-0.15402,89.866531,75.366287,-100.537201,,,
729717252.688698,-69.145915,10.03463,105.399566,-0.06485,-0.925064,0.330475,-0.146315,-0.045248,-0.15402,89.866531,75.366287,-100.537201,,,
729717252.688937,-69.145944,10.034626,140.935937,-0.06485,-0.925064,0.330475,-0.146315,-0.045248,-0.15402,89.866531,75.366287,-100.537201,,,
729717252.691791,-69.145952,10.034627,102.32273,-0.06485,-0.925064,0.330475,-0.146315,-0.045248,-0.15402,89.866531,75.366287,-100.537201,,,
729717252.691936,-69.145915,10.03463,105.399566,-0.06485,-0.925064,0.330475,-0.146315,-0.045248,-0.15402,89.866531,75.366287,-100.537201,,,
729717252.692253,-69.145944,10.034626,140.935937,-0.06485,-0.925064,0.330475,-0.146315,-0.045248,-0.15402,89.866531,75.366287,-100.537201,,,
729717252.696105,-69.202846,9.944017,102.240307,-0.075363,-0.934341,0.31868,-0.188485,-0.042525,-0.13127,89.866531,75.366287,-100.537201,,,
729717252.697593,-69.202808,9.94402,105.317142,-0.075363,-0.934341,0.31868,-0.188485,-0.042525,-0.13127,89.866531,75.366287,-100.537201,,,
729717252.697704,-69.202838,9.944017,140.853513,-0.075363,-0.934341,0.31868,-0.188485,-0.042525,-0.13127,89.866531,75.366287,-100.537201,,,
729717252.697835,-69.202846,9.944017,102.240307,-0.075363,-0.934341,0.31868,-0.188485,-0.042525,-0.13127,89.866531,75.366287,-100.537201,,,
729717252.698699,-69.26603,9.862803,105.243797,-0.075363,-0.934341,0.31868,-0.188485,-0.042525,-0.13127,89.866531,75.366287,-100.537201,,,
729717252.698937,-69.26606,9.8628,140.780157,-0.075363,-0.934341,0.31868,-0.188485,-0.042525,-0.13127,89.866531,75.366287,-100.537201,,,
729717252.701805,-69.266068,9.8628,102.166962,-0.075363,-0.934341,0.31868,-0.188485,-0.042525,-0.13127,89.866531,75.366287,-100.537201,,,
729717252.701953,-69.26603,9.862803,105.243797,-0.075363,-0.934341,0.31868,-0.188485,-0.042525,-0.13127,89.866531,75.366287,-100.537201,,,
729717252.702257,-69.26606,9.8628,140.780157,-0.075363,-0.934341,0.31868,-0.188485,-0.042525,-0.13127,89.866531,75.366287,-100.537201,,,
729717252.706081,-69.33487,9.789008,102.100243,-0.077209,-0.935959,0.312714,-0.232681,-0.03411,-0.121486,89.866531,75.366287,-100.537201,,,
729717252.707853,-69.334832,9.789012,105.177078,-0.077209,-0.935959,0.312714,-0.232681,-0.03411,-0.121486,89.531082,75.504532,-99.837646,,,
729717252.70797,-69.40931,9.721025,140.650513,-0.077209,-0.935959,0.312714,-0.232681,-0.03411,-0.121486,89.531082,75.504532,-99.837646,,,
729717252.708809,-69.409318,9.721025,102.037312,-0.077209,-0.935959,0.312714,-0.232681,-0.03411,-0.121486,89.531082,75.504532,-99.837646,,,
729717252.709363,-69.40928,9.721029,105.114147,-0.077209,-0.935959,0.312714,-0.232681,-0.03411,-0.121486,89.531082,75.504532,-99.837646,,,
729717252.709452,-69.40931,9.721025,140.650513,-0.077209,-0.935959,0.312714,-0.232681,-0.03411,-0.121486,89.531082,75.504532,-99.837646,,,
729717252.711303,-69.409318,9.721025,102.037312,-0.077209,-0.935959,0.312714,-0.232681,-0.03411,-0.121486,89.531082,75.504532,-99.837646,,,
729717252.711599,-69.40928,9.721029,105.114147,-0.077209,-0.935959,0.312714,-0.232681,-0.03411,-0.121486,89.531082,75.504532,-99.837646,,,
729717252.712268,-69.40931,9.721025,140.650513,-0.077209,-0.935959,0.312714,-0.232681,-0.03411,-0.121486,89.531082,75.504532,-99.837646,,,
729717252.715509,-69.489845,9.659925,101.977187,-0.080139,-0.933304,0.313385,-0.278194,-0.0043,-0.121529,89.531082,75.504532,-99.837646,,,
729717252.716381,-69.489807,9.659929,105.054022,-0.080139,-0.933304,0.313385,-0.278194,-0.0043,-0.121529,89.531082,75.504532,-99.837646,,,
729717252.716492,-69.489837,9.659925,140.590388,-0.080139,-0.933304,0.313385,-0.278194,-0.0043,-0.121529,89.531082,75.504532,-99.837646,,,
729717252.718043,-69.489845,9.659925,101.919897,-0.080139,-0.933304,0.313385,-0.278194,-0.0043,-0.121529,89.531082,75.504532,-99.837646,,,
729717252.718683,-69.581086,9.609751,104.996731,-0.080139,-0.933304,0.313385,-0.278194,-0.0043,-0.121529,89.531082,75.504532,-99.837646,,,
729717252.718951,-69.581116,9.609747,140.53309,-0.080139,-0.933304,0.313385,-0.278194,-0.0043,-0.121529,89.531082,75.504532,-99.837646,,,
729717252.721869,-69.581124,9.609747,101.919897,-0.080139,-0.933304,0.313385,-0.278194,-0.0043,-0.121529,89.531082,75.504532,-99.837646,,,
729717252.722076,-69.581086,9.609751,104.996731,-0.080139,-0.933304,0.313385,-0.278194,-0.0043,-0.121529,89.531082,75.504532,-99.837646,,,
729717252.722241,-69.581116,9.609747,140.53309,-0.080139,-0.933304,0.313385,-0.278194,-0.0043,-0.121529,89.531082,75.504532,-99.837646,,,
729717252.726705,-69.679947,9.570653,101.863037,-0.080444,-0.931244,0.323746,-0.333286,0.070032,-0.128992,89.531082,75.504532,-99.837646,,,
729717252.728272,-69.679909,9.570656,104.939872,-0.080444,-0.931244,0.323746,-0.333286,0.070032,-0.128992,89.531082,75.504532,-99.837646,,,
729717252.728391,-69.779178,9.534088,140.415637,-0.080444,-0.931244,0.323746,-0.333286,0.070032,-0.128992,89.531082,75.504532,-99.837646,,,
729717252.729082,-69.779187,9.534088,101.802434,-0.080444,-0.931244,0.323746,-0.333286,0.070032,-0.128992,89.531082,75.504532,-99.837646,,,
729717252.729193,-69.779178,9.534088,140.415637,-0.080444,-0.931244,0.323746,-0.333286,0.070032,-0.128992,89.531082,75.504532,-99.837646,,,
729717252.731355,-69.779187,9.534088,101.802434,-0.080444,-0.931244,0.323746,-0.333286,0.070032,-0.128992,89.531082,75.504532,-99.837646,,,
729717252.732021,-69.779148,9.534092,104.879269,-0.080444,-0.931244,0.323746,-0.333286,0.070032,-0.128992,89.531082,75.504532,-99.837646,,,
729717252.732364,-69.779178,9.534088,140.415637,-0.080444,-0.931244,0.323746,-0.333286,0.070032,-0.128992,89.531082,75.504532,-99.837646,,,
729717252.735303,-69.876293,9.496058,101.74086,-0.075638,-0.928192,0.324738,-0.320686,0.066486,-0.128575,89.531082,75.504532,-99.837646,,,
729717252.735989,-69.876254,9.496061,104.817694,-0.075638,-0.928192,0.324738,-0.320686,0.066486,-0.128575,89.531082,75.504532,-99.837646,,,
729717252.736107,-69.876285,9.496057,140.354053,-0.075638,-0.928192,0.324738,-0.320686,0.066486,-0.128575,89.531082,75.504532,-99.837646,,,
729717252.738403,-69.975236,9.460043,101.685692,-0.075638,-0.928192,0.324738,-0.320686,0.066486,-0.128575,89.531082,75.504532,-99.837646,,,
729717252.738959,-69.975197,9.460047,104.762526,-0.075638,-0.928192,0.324738,-0.320686,0.066486,-0.128575,89.531082,75.504532,-99.837646,,,
729717252.73907,-69.975228,9.460043,140.29889,-0.075638,-0.928192,0.324738,-0.320686,0.066486,-0.128575,89.531082,75.504532,-99.837646,,,
729717252.7414,-69.975236,9.460043,101.685692,-0.075638,-0.928192,0.324738,-0.320686,0.066486,-0.128575,89.531082,75.504532,-99.837646,,,
729717252.741631,-69.975197,9.460047,104.762526,-0.075638,-0.928192,0.324738,-0.320686,0.066486,-0.128575,89.531082,75.504532,-99.837646,,,
729717252.742307,-69.975228,9.460043,140.29889,-0.075638,-0.928192,0.324738,-0.320686,0.066486,-0.128575,89.531082,75.504532,-99.837646,,,
729717252.746015,-70.075821,9.432294,101.64421,-0.079697,-0.926971,0.312027,-0.339801,0.034558,-0.098088,89.531082,75.504532,-99.837646,,,
729717252.747265,-70.075781,9.432298,104.721045,-0.079697,-0.926971,0.312027,-0.339801,0.034558,-0.098088,89.531082,75.504532,-99.837646,,,
729717252.747368,-70.075812,9.432294,140.257412,-0.079697,-0.926971,0.312027,-0.339801,0.034558,-0.098088,89.531082,75.504532,-99.837646,,,
729717252.748108,-70.075821,9.432294,101.64421,-0.079697,-0.926971,0.312027,-0.339801,0.034558,-0.098088,89.171265,75.653397,-99.212097,,,
729717252.748985,-70.176704,9.4174,104.698427,-0.079697,-0.926971,0.312027,-0.339801,0.034558,-0.098088,89.171265,75.653397,-99.212097,,,
729717252.749099,-70.176736,9.417397,140.234785,-0.079697,-0.926971,0.312027,-0.339801,0.034558,-0.098088,89.171265,75.653397,-99.212097,,,
729717252.751993,-70.176744,9.417397,101.621593,-0.079697,-0.926971,0.312027,-0.339801,0.034558,-0.098088,89.171265,75.653397,-99.212097,,,
729717252.752225,-70.176704,9.4174,104.698427,-0.079697,-0.926971,0.312027,-0.339801,0.034558,-0.098088,89.171265,75.653397,-99.212097,,,
729717252.752361,-70.176736,9.417397,140.234785,-0.079697,-0.926971,0.312027,-0.339801,0.034558,-0.098088,89.171265,75.653397,-99.212097,,,
729717252.756443,-70.275766,9.416954,101.621064,-0.095749,-0.935226,0.316925,-0.338096,-0.009881,-0.044914,89.171265,75.653397,-99.212097,,,
729717252.757813,-70.275726,9.416958,104.697898,-0.095749,-0.935226,0.316925,-0.338096,-0.009881,-0.044914,89.171265,75.653397,-99.212097,,,
729717252.75793,-70.373878,9.430094,140.257253,-0.095749,-0.935226,0.316925,-0.338096,-0.009881,-0.044914,89.171265,75.653397,-99.212097,,,
729717252.7585,-70.373886,9.430094,101.644063,-0.095749,-0.935226,0.316925,-0.338096,-0.009881,-0.044914,89.171265,75.653397,-99.212097,,,
729717252.75906,-70.373846,9.430098,104.720896,-0.095749,-0.935226,0.316925,-0.338096,-0.009881,-0.044914,89.171265,75.653397,-99.212097,,,
729717252.759183,-70.373878,9.430094,140.257253,-0.095749,-0.935226,0.316925,-0.338096,-0.009881,-0.044914,89.171265,75.653397,-99.212097,,,
729717252.76136,-70.373886,9.430094,101.644063,-0.095749,-0.935226,0.316925,-0.338096,-0.009881,-0.044914,89.171265,75.653397,-99.212097,,,
729717252.761597,-70.373846,9.430098,104.720896,-0.095749,-0.935226,0.316925,-0.338096,-0.009881,-0.044914,89.171265,75.653397,-99.212097,,,
729717252.76227,-70.373878,9.430094,140.257253,-0.095749,-0.935226,0.316925,-0.338096,-0.009881,-0.044914,89.171265,75.653397,-99.212097,,,
729717252.766058,-70.471385,9.455654,101.690738,-0.098053,-0.945084,0.309601,-0.345312,-0.079202,0.009134,89.171265,75.653397,-99.212097,,,
729717252.767555,-70.471344,9.455658,104.767571,-0.098053,-0.945084,0.309601,-0.345312,-0.079202,0.009134,89.171265,75.653397,-99.212097,,,
729717252.767679,-70.471376,9.455654,140.303929,-0.098053,-0.945084,0.309601,-0.345312,-0.079202,0.009134,89.171265,75.653397,-99.212097,,,
729717252.767816,-70.471385,9.455654,101.690738,-0.098053,-0.945084,0.309601,-0.345312,-0.079202,0.009134,89.171265,75.653397,-99.212097,,,
729717252.768704,-70.568704,9.49124,104.834362,-0.098053,-0.945084,0.309601,-0.345312,-0.079202,0.009134,89.171265,75.653397,-99.212097,,,
729717252.768937,-70.568736,9.491236,140.370727,-0.098053,-0.945084,0.309601,-0.345312,-0.079202,0.009134,89.171265,75.653397,-99.212097,,,
729717252.771794,-70.568745,9.491236,101.757529,-0.098053,-0.945084,0.309601,-0.345312,-0.079202,0.009134,89.171265,75.653397,-99.212097,,,
729717252.77194,-70.568704,9.49124,104.834362,-0.098053,-0.945084,0.309601,-0.345312,-0.079202,0.009134,89.171265,75.653397,-99.212097,,,
729717252.772226,-70.568736,9.491236,140.370727,-0.098053,-0.945084,0.309601,-0.345312,-0.079202,0.009134,89.171265,75.653397,-99.212097,,,
729717252.775623,-70.664702,9.537601,101.842041,-0.091675,-0.949875,0.302963,-0.344614,-0.120832,0.049158,89.171265,75.653397,-99.212097,,,
729717252.776649,-70.664661,9.537605,104.918874,-0.091675,-0.949875,0.302963,-0.344614,-0.120832,0.049158,89.171265,75.653397,-99.212097,,,
729717252.776754,-70.664693,9.537601,140.455235,-0.091675,-0.949875,0.302963,-0.344614,-0.120832,0.049158,89.171265,75.653397,-99.212097,,,
729717252.777875,-70.664702,9.537601,101.842041,-0.091675,-0.949875,0.302963,-0.344614,-0.120832,0.049158,89.171265,75.653397,-99.212097,,,
729717252.778699,-70.760071,9.595259,105.017034,-0.091675,-0.949875,0.302963,-0.344614,-0.120832,0.049158,89.171265,75.653397,-99.212097,,,
729717252.778936,-70.760104,9.595255,140.553395,-0.091675,-0.949875,0.302963,-0.344614,-0.120832,0.049158,89.171265,75.653397,-99.212097,,,
729717252.781786,-70.760113,9.595255,101.940201,-0.091675,-0.949875,0.302963,-0.344614,-0.120832,0.049158,89.171265,75.653397,-99.212097,,,
729717252.781931,-70.760071,9.595259,105.017034,-0.091675,-0.949875,0.302963,-0.344614,-0.120832,0.049158,89.171265,75.653397,-99.212097,,,
729717252.782227,-70.760104,9.595255,140.553395,-0.091675,-0.949875,0.302963,-0.344614,-0.120832,0.049158,89.171265,75.653397,-99.212097,,,
729717252.785421,-70.854178,9.662137,102.04575,-0.085999,-0.949249,0.316605,-0.340494,-0.105628,0.06486,89.171265,75.653397,-99.212097,,,
729717252.786272,-70.854136,9.662141,105.122583,-0.085999,-0.949249,0.316605,-0.340494,-0.105628,0.06486,89.171265,75.653397,-99.212097,,,
729717252.786372,-70.854169,9.662137,140.658942,-0.085999,-0.949249,0.316605,-0.340494,-0.105628,0.06486,89.171265,75.653397,-99.212097,,,
729717252.787934,-70.854178,9.662137,102.04575,-0.085999,-0.949249,0.316605,-0.340494,-0.105628,0.06486,89.171265,75.653397,-99.212097,,,
729717252.789005,-70.946388,9.737001,105.231937,-0.085999,-0.949249,0.316605,-0.340494,-0.105628,0.06486,89.364288,75.478882,-98.634705,,,
729717252.789123,-70.946421,9.736997,140.768298,-0.085999,-0.949249,0.316605,-0.340494,-0.105628,0.06486,89.364288,75.478882,-98.634705,,,
729717252.792427,-70.946429,9.736997,102.155104,-0.085999,-0.949249,0.316605,-0.340494,-0.105628,0.06486,89.364288,75.478882,-98.634705,,,
729717252.792665,-70.946388,9.737001,105.231937,-0.085999,-0.949249,0.316605,-0.340494,-0.105628,0.06486,89.364288,75.478882,-98.634705,,,
729717252.792788,-70.946421,9.736997,140.768298,-0.085999,-0.949249,0.316605,-0.340494,-0.105628,0.06486,89.364288,75.478882,-98.634705,,,
729717252.796108,-71.035299,9.821827,102.26769,-0.073746,-0.943649,0.334595,-0.320739,-0.057829,0.073272,89.364288,75.478882,-98.634705,,,
729717252.797767,-71.035258,9.821831,105.344522,-0.073746,-0.943649,0.334595,-0.320739,-0.057829,0.073272,89.364288,75.478882,-98.634705,,,
729717252.797928,-71.03529,9.821827,140.88088,-0.073746,-0.943649,0.334595,-0.320739,-0.057829,0.073272,89.364288,75.478882,-98.634705,,,
729717252.798404,-71.035299,9.915391,102.381437,-0.073746,-0.943649,0.334595,-0.320739,-0.057829,0.073272,89.364288,75.478882,-98.634705,,,
729717252.798943,-71.121317,9.915395,105.458269,-0.073746,-0.943649,0.334595,-0.320739,-0.057829,0.073272,89.364288,75.478882,-98.634705,,,
729717252.799063,-71.12135,9.915391,140.99463,-0.073746,-0.943649,0.334595,-0.320739,-0.057829,0.073272,89.364288,75.478882,-98.634705,,,
729717252.801639,-71.121359,9.915391,102.381437,-0.073746,-0.943649,0.334595,-0.320739,-0.057829,0.073272,89.364288,75.478882,-98.634705,,,
729717252.801841,-71.121317,9.915395,105.458269,-0.073746,-0.943649,0.334595,-0.320739,-0.057829,0.073272,89.364288,75.478882,-98.634705,,,
729717252.802273,-71.12135,9.915391,140.99463,-0.073746,-0.943649,0.334595,-0.320739,-0.057829,0.073272,89.364288,75.478882,-98.634705,,,
729717252.806076,-71.203965,10.017524,102.496264,-0.057343,-0.938156,0.342987,-0.299937,-0.005639,0.076927,89.364288,75.478882,-98.634705,,,
729717252.807585,-71.203923,10.017528,105.573096,-0.057343,-0.938156,0.342987,-0.299937,-0.005639,0.076927,89.364288,75.478882,-98.634705,,,
729717252.807758,-71.203957,10.017524,141.109455,-0.057343,-0.938156,0.342987,-0.299937,-0.005639,0.076927,89.364288,75.478882,-98.634705,,,
729717252.807947,-71.203965,10.017524,102.496264,-0.057343,-0.938156,0.342987,-0.299937,-0.005639,0.076927,89.364288,75.478882,-98.634705,,,
729717252.808678,-71.282743,10.130284,105.690731,-0.057343,-0.938156,0.342987,-0.299937,-0.005639,0.076927,89.364288,75.478882,-98.634705,,,
729717252.808921,-71.282777,10.13028,141.227091,-0.057343,-0.938156,0.342987,-0.299937,-0.005639,0.076927,89.364288,75.478882,-98.634705,,,
729717252.812017,-71.282786,10.130281,102.613899,-0.057343,-0.938156,0.342987,-0.299937,-0.005639,0.076927,89.364288,75.478882,-98.634705,,,
729717252.812244,-71.282743,10.130284,105.690731,-0.057343,-0.938156,0.342987,-0.299937,-0.005639,0.076927,89.364288,75.478882,-98.634705,,,
729717252.812385,-71.282777,10.13028,141.227091,-0.057343,-0.938156,0.342987,-0.299937,-0.005639,0.076927,89.364288,75.478882,-98.634705,,,
729717252.816718,-71.355749,10.256031,102.737539,-0.050034,-0.940033,0.34639,-0.264664,0.044802,0.094365,89.364288,75.478882,-98.634705,,,
729717252.818593,-71.355707,10.256035,105.814371,-0.050034,-0.940033,0.34639,-0.264664,0.044802,0.094365,89.364288,75.478882,-98.634705,,,
729717252.818716,-71.423351,10.393854,141.480717,-0.050034,-0.940033,0.34639,-0.264664,0.044802,0.094365,89.364288,75.478882,-98.634705,,,
729717252.81927,-71.42336,10.393855,102.867522,-0.050034,-0.940033,0.34639,-0.264664,0.044802,0.094365,89.364288,75.478882,-98.634705,,,
729717252.819381,-71.423351,10.393854,141.480717,-0.050034,-0.940033,0.34639,-0.264664,0.044802,0.094365,89.364288,75.478882,-98.634705,,,
729717252.821321,-71.42336,10.393855,102.867522,-0.050034,-0.940033,0.34639,-0.264664,0.044802,0.094365,89.364288,75.478882,-98.634705,,,
729717252.82201,-71.423318,10.393858,105.944354,-0.050034,-0.940033,0.34639,-0.264664,0.044802,0.094365,89.364288,75.478882,-98.634705,,,
729717252.822273,-71.423351,10.393854,141.480717,-0.050034,-0.940033,0.34639,-0.264664,0.044802,0.094365,89.364288,75.478882,-98.634705,,,
729717252.825943,-71.485515,10.540761,103.002825,-0.049454,-0.950348,0.346191,-0.231847,0.072571,0.10986,89.364288,75.478882,-98.634705,,,
729717252.827322,-71.485472,10.540764,106.079657,-0.049454,-0.950348,0.346191,-0.231847,0.072571,0.10986,89.364288,75.478882,-98.634705,,,
729717252.827484,-71.485506,10.540761,141.616016,-0.049454,-0.950348,0.346191,-0.231847,0.072571,0.10986,89.364288,75.478882,-98.634705,,,
729717252.827815,-71.485515,10.540761,103.002825,-0.049454,-0.950348,0.346191,-0.231847,0.072571,0.10986,89.364288,75.478882,-98.634705,,,
729717252.82871,-71.54362,10.691998,106.218614,-0.049454,-0.950348,0.346191,-0.231847,0.072571,0.10986,89.364288,75.478882,-98.634705,,,
729717252.828937,-71.543654,10.691994,141.754971,-0.049454,-0.950348,0.346191,-0.231847,0.072571,0.10986,89.364288,75.478882,-98.634705,,,
729717252.832088,-71.543663,10.691995,103.141782,-0.049454,-0.950348,0.346191,-0.231847,0.072571,0.10986,89.595413,75.382935,-97.876099,,,
729717252.832552,-71.54362,10.691998,106.218614,-0.049454,-0.950348,0.346191,-0.231847,0.072571,0.10986,89.595413,75.382935,-97.876099,,,
729717252.832646,-71.543654,10.691994,141.754971,-0.049454,-0.950348,0.346191,-0.231847,0.072571,0.10986,89.595413,75.382935,-97.876099,,,
729717252.835899,-71.59877,10.843618,103.283528,-0.047699,-0.954163,0.327896,-0.215407,0.056226,0.117101,89.595413,75.382935,-97.876099,,,
729717252.837299,-71.598727,10.843621,106.36036,-0.047699,-0.954163,0.327896,-0.215407,0.056226,0.117101,89.595413,75.382935,-97.876099,,,
729717252.83746,-71.598761,10.843617,141.896732,-0.047699,-0.954163,0.327896,-0.215407,0.056226,0.117101,89.595413,75.382935,-97.876099,,,
729717252.837769,-71.59877,10.843618,103.283528,-0.047699,-0.954163,0.327896,-0.215407,0.056226,0.117101,89.595413,75.382935,-97.876099,,,
729717252.838702,-71.653889,10.991988,106.502843,-0.047699,-0.954163,0.327896,-0.215407,0.056226,0.117101,89.595413,75.382935,-97.876099,,,
729717252.838934,-71.653924,10.991984,142.039199,-0.047699,-0.954163,0.327896,-0.215407,0.056226,0.117101,89.595413,75.382935,-97.876099,,,
729717252.841747,-71.653933,10.991985,103.426011,-0.047699,-0.954163,0.327896,-0.215407,0.056226,0.117101,89.595413,75.382935,-97.876099,,,
729717252.841894,-71.653889,10.991988,106.502843,-0.047699,-0.954163,0.327896,-0.215407,0.056226,0.117101,89.595413,75.382935,-97.876099,,,
729717252.84226,-71.653924,10.991984,142.039199,-0.047699,-0.954163,0.327896,-0.215407,0.056226,0.117101,89.595413,75.382935,-97.876099,,,
729717252.84579,-71.709594,11.134832,103.567352,-0.048386,-0.950195,0.302826,-0.221757,0.024467,0.111303,89.595413,75.382935,-97.876099,,,
729717252.847051,-71.70955,11.134834,106.644184,-0.048386,-0.950195,0.302826,-0.221757,0.024467,0.111303,89.595413,75.382935,-97.876099,,,
729717252.847197,-71.709585,11.134831,142.180555,-0.048386,-0.950195,0.302826,-0.221757,0.024467,0.111303,89.595413,75.382935,-97.876099,,,
729717252.847819,-71.709594,11.134832,103.567352,-0.048386,-0.950195,0.302826,-0.221757,0.024467,0.111303,89.595413,75.382935,-97.876099,,,
729717252.848692,-71.766326,11.27008,106.783104,-0.048386,-0.950195,0.302826,-0.221757,0.024467,0.111303,89.595413,75.382935,-97.876099,,,
729717252.848934,-71.76636,11.270076,142.319473,-0.048386,-0.950195,0.302826,-0.221757,0.024467,0.111303,89.595413,75.382935,-97.876099,,,
729717252.851747,-71.766369,11.270077,103.706272,-0.048386,-0.950195,0.302826,-0.221757,0.024467,0.111303,89.595413,75.382935,-97.876099,,,
729717252.85189,-71.766326,11.27008,106.783104,-0.048386,-0.950195,0.302826,-0.221757,0.024467,0.111303,89.595413,75.382935,-97.876099,,,
729717252.852258,-71.76636,11.270076,142.319473,-0.048386,-0.950195,0.302826,-0.221757,0.024467,0.111303,89.595413,75.382935,-97.876099,,,
729717252.856603,-71.822008,11.396233,103.840506,-0.051224,-0.944794,0.300018,-0.214812,-0.008195,0.100262,89.595413,75.382935,-97.876099,,,
729717252.858202,-71.821964,11.396235,106.917338,-0.051224,-0.944794,0.300018,-0.214812,-0.008195,0.100262,89.595413,75.382935,-97.876099,,,
729717252.858322,-71.877196,11.512434,142.581177,-0.051224,-0.944794,0.300018,-0.214812,-0.008195,0.100262,89.595413,75.382935,-97.876099,,,
729717252.858879,-71.877205,11.512435,103.967976,-0.051224,-0.944794,0.300018,-0.214812,-0.008195,0.100262,89.595413,75.382935,-97.876099,,,
729717252.858986,-71.877196,11.512434,142.581177,-0.051224,-0.944794,0.300018,-0.214812,-0.008195,0.100262,89.595413,75.382935,-97.876099,,,
729717252.861326,-71.877205,11.512435,103.967976,-0.051224,-0.944794,0.300018,-0.214812,-0.008195,0.100262,89.595413,75.382935,-97.876099,,,
729717252.862072,-71.877161,11.512437,107.044808,-0.051224,-0.944794,0.300018,-0.214812,-0.008195,0.100262,89.595413,75.382935,-97.876099,,,
729717252.862269,-71.877196,11.512434,142.581177,-0.051224,-0.944794,0.300018,-0.214812,-0.008195,0.100262,89.595413,75.382935,-97.876099,,,
729717252.865355,-71.931815,11.618879,104.088246,-0.0504,-0.944397,0.303192,-0.210338,-0.028796,0.083444,89.595413,75.382935,-97.876099,,,
729717252.866114,-71.93177,11.618881,107.165077,-0.0504,-0.944397,0.303192,-0.210338,-0.028796,0.083444,89.595413,75.382935,-97.876099,,,
729717252.866228,-71.931805,11.618878,142.701447,-0.0504,-0.944397,0.303192,-0.210338,-0.028796,0.083444,89.595413,75.382935,-97.876099,,,
729717252.867968,-71.931815,11.618879,104.088246,-0.0504,-0.944397,0.303192,-0.210338,-0.028796,0.083444,89.595413,75.382935,-97.876099,,,
729717252.868267,-71.93177,11.618881,107.165077,-0.0504,-0.944397,0.303192,-0.210338,-0.028796,0.083444,89.595413,75.382935,-97.876099,,,
729717252.868935,-71.986072,11.714873,142.811542,-0.0504,-0.944397,0.303192,-0.210338,-0.028796,0.083444,89.595413,75.382935,-97.876099,,,
729717252.872477,-71.986081,11.714874,104.198334,-0.0504,-0.944397,0.303192,-0.210338,-0.028796,0.083444,89.811874,75.340927,-97.216141,,,
729717252.874231,-71.986037,11.714876,107.275165,-0.0504,-0.944397,0.303192,-0.197497,-0.019846,0.058013,89.811874,75.340927,-97.216141,,,
729717252.874394,-72.038911,11.800733,142.909598,-0.04744,-0.94693,0.30809,-0.197497,-0.019846,0.058013,89.811874,75.340927,-97.216141,,,
729717252.875587,-72.03892,11.800734,104.296396,-0.04744,-0.94693,0.30809,-0.197497,-0.019846,0.058013,89.811874,75.340927,-97.216141,,,
729717252.876342,-72.038876,11.800736,107.373227,-0.04744,-0.94693,0.30809,-0.197497,-0.019846,0.058013,89.811874,75.340927,-97.216141,,,
729717252.876439,-72.038911,11.800733,142.909598,-0.04744,-0.94693,0.30809,-0.197497,-0.019846,0.058013,89.811874,75.340927,-97.216141,,,
729717252.878002,-72.03892,11.800734,104.296396,-0.04744,-0.94693,0.30809,-0.197497,-0.019846,0.058013,89.811874,75.340927,-97.216141,,,
729717252.878548,-72.038876,11.875391,107.4584,-0.04744,-0.94693,0.30809,-0.197497,-0.019846,0.058013,89.811874,75.340927,-97.216141,,,
729717252.878945,-72.090847,11.875388,142.994774,-0.04744,-0.94693,0.30809,-0.197497,-0.019846,0.058013,89.811874,75.340927,-97.216141,,,
729717252.882023,-72.090856,11.875389,104.381569,-0.04744,-0.94693,0.30809,-0.197497,-0.019846,0.058013,89.811874,75.340927,-97.216141,,,
729717252.882481,-72.090812,11.875391,107.4584,-0.04744,-0.94693,0.30809,-0.197497,-0.019846,0.058013,89.811874,75.340927,-97.216141,,,
729717252.88263,-72.090847,11.875388,142.994774,-0.04744,-0.94693,0.30809,-0.197497,-0.019846,0.058013,89.811874,75.340927,-97.216141,,,
729717252.88591,-72.141957,11.938697,104.453204,-0.039261,-0.954544,0.311691,-0.188324,-0.009329,0.02918,89.811874,75.340927,-97.216141,,,
729717252.887224,-72.141912,11.938699,107.530035,-0.039261,-0.954544,0.311691,-0.188324,-0.009329,0.02918,89.811874,75.340927,-97.216141,,,
729717252.887326,-72.141947,11.938696,143.066408,-0.039261,-0.954544,0.311691,-0.188324,-0.009329,0.02918,89.811874,75.340927,-97.216141,,,
729717252.887784,-72.141957,11.938697,104.453204,-0.039261,-0.954544,0.311691,-0.188324,-0.009329,0.02918,89.811874,75.340927,-97.216141,,,
729717252.888288,-72.141912,11.938699,107.530035,-0.039261,-0.954544,0.311691,-0.188324,-0.009329,0.02918,89.811874,75.340927,-97.216141,,,
729717252.888932,-72.19259,11.990623,143.123899,-0.039261,-0.954544,0.311691,-0.188324,-0.009329,0.02918,89.811874,75.340927,-97.216141,,,
729717252.892015,-72.192599,11.990624,104.510707,-0.039261,-0.954544,0.311691,-0.188324,-0.009329,0.02918,89.811874,75.340927,-97.216141,,,
729717252.892934,-72.192554,11.990626,107.587538,-0.039261,-0.954544,0.311691,-0.188324,-0.009329,0.02918,89.811874,75.340927,-97.216141,,,
729717252.893138,-72.19259,11.990623,143.123899,-0.039261,-0.954544,0.311691,-0.188324,-0.009329,0.02918,89.811874,75.340927,-97.216141,,,
729717252.89668,-72.240913,12.034443,104.557709,-0.038925,-0.956085,0.313614,-0.170432,0.003478,0.009317,89.811874,75.340927,-97.216141,,,
729717252.898233,-72.240868,12.034445,107.63454,-0.038925,-0.956085,0.313614,-0.170432,0.003478,0.009317,89.811874,75.340927,-97.216141,,,
729717252.898354,-72.288035,12.073765,143.210708,-0.038925,-0.956085,0.313614,-0.170432,0.003478,0.009317,89.811874,75.340927,-97.216141,,,
729717252.898931,-72.288045,12.073766,104.597516,-0.038925,-0.956085,0.313614,-0.170432,0.003478,0.009317,89.811874,75.340927,-97.216141,,,
729717252.899039,-72.288035,12.073765,143.210708,-0.038925,-0.956085,0.313614,-0.170432,0.003478,0.009317,89.811874,75.340927,-97.216141,,,
729717252.901372,-72.288045,12.073766,104.597516,-0.038925,-0.956085,0.313614,-0.170432,0.003478,0.009317,89.811874,75.340927,-97.216141,,,
729717252.902036,-72.288,12.073768,107.674347,-0.038925,-0.956085,0.313614,-0.170432,0.003478,0.009317,89.811874,75.340927,-97.216141,,,
729717252.90227,-72.288035,12.073765,143.210708,-0.038925,-0.956085,0.313614,-0.170432,0.003478,0.009317,89.811874,75.340927,-97.216141,,,
729717252.905632,-72.333146,12.110431,104.63235,-0.04715,-0.956818,0.315918,-0.15671,0.017802,0.000817,89.811874,75.340927,-97.216141,,,
729717252.90669,-72.333101,12.110433,107.709181,-0.04715,-0.956818,0.315918,-0.15671,0.017802,0.000817,89.811874,75.340927,-97.216141,,,
729717252.906796,-72.333137,12.11043,143.245539,-0.04715,-0.956818,0.315918,-0.15671,0.017802,0.000817,89.811874,75.340927,-97.216141,,,
729717252.907879,-72.333146,12.110431,104.63235,-0.04715,-0.956818,0.315918,-0.15671,0.017802,0.000817,89.811874,75.340927,-97.216141,,,
729717252.908282,-72.333101,12.110433,107.709181,-0.04715,-0.956818,0.315918,-0.15671,0.017802,0.000817,89.811874,75.340927,-97.216141,,,
729717252.909002,-72.376269,12.149236,143.281113,-0.04715,-0.956818,0.315918,-0.15671,0.017802,0.000817,89.811874,75.340927,-97.216141,,,
729717252.912056,-72.376279,12.149237,104.667926,-0.04715,-0.956818,0.315918,-0.15671,0.017802,0.000817,89.60817,75.268906,-96.944168,,,
729717252.912914,-72.376233,12.149239,107.744757,-0.04715,-0.956818,0.315918,-0.15671,0.017802,0.000817,89.60817,75.268906,-96.944168,,,
729717252.913013,-72.376269,12.149236,143.281113,-0.04715,-0.956818,0.315918,-0.15671,0.017802,0.000817,89.60817,75.268906,-96.944168,,,
729717252.915424,-72.415614,12.193277,104.707874,-0.051132,-0.953903,0.31395,-0.135643,0.024897,0.014259,89.60817,75.268906,-96.944168,,,
729717252.916376,-72.415569,12.193279,107.784705,-0.051132,-0.953903,0.31395,-0.135643,0.024897,0.014259,89.60817,75.268906,-96.944168,,,
729717252.91648,-72.415605,12.193276,143.321077,-0.051132,-0.953903,0.31395,-0.135643,0.024897,0.014259,89.60817,75.268906,-96.944168,,,
729717252.917921,-72.415614,12.193277,104.707874,-0.051132,-0.953903,0.31395,-0.135643,0.024897,0.014259,89.60817,75.268906,-96.944168,,,
729717252.918274,-72.415569,12.193279,107.784705,-0.051132,-0.953903,0.31395,-0.135643,0.024897,0.014259,89.60817,75.268906,-96.944168,,,
729717252.918935,-72.448067,12.225336,143.349021,-0.051132,-0.953903,0.31395,-0.135643,0.024897,0.014259,89.60817,75.268906,-96.944168,,,
729717252.92179,-72.448077,12.225337,104.735817,-0.051132,-0.953903,0.31395,-0.135643,0.024897,0.014259,89.60817,75.268906,-96.944168,,,
729717252.922344,-72.448031,12.225339,107.812648,-0.051132,-0.953903,0.31395,-0.135643,0.024897,0.014259,89.60817,75.268906,-96.944168,,,
729717252.922452,-72.448067,12.225336,143.349021,-0.051132,-0.953903,0.31395,-0.135643,0.024897,0.014259,89.60817,75.268906,-96.944168,,,
729717252.925687,-72.478203,12.286678,104.791085,-0.056946,-0.955627,0.315582,-0.105326,0.035344,0.040273,89.60817,75.268906,-96.944168,,,
729717252.926823,-72.478157,12.28668,107.867916,-0.056946,-0.955627,0.315582,-0.105326,0.035344,0.040273,89.60817,75.268906,-96.944168,,,
729717252.926931,-72.478193,12.286677,143.404288,-0.056946,-0.955627,0.315582,-0.105326,0.035344,0.040273,89.60817,75.268906,-96.944168,,,
729717252.92783,-72.478203,12.286678,104.791085,-0.056946,-0.955627,0.315582,-0.105326,0.035344,0.040273,89.60817,75.268906,-96.944168,,,
729717252.92828,-72.478157,12.28668,107.867916,-0.056946,-0.955627,0.315582,-0.105326,0.035344,0.040273,89.60817,75.268906,-96.944168,,,
729717252.928931,-72.5005,12.340886,143.452783,-0.056946,-0.955627,0.315582,-0.105326,0.035344,0.040273,89.60817,75.268906,-96.944168,,,
729717252.931794,-72.50051,12.340887,104.839578,-0.056946,-0.955627,0.315582,-0.105326,0.035344,0.040273,89.60817,75.268906,-96.944168,,,
729717252.932339,-72.500464,12.340889,107.916409,-0.056946,-0.955627,0.315582,-0.105326,0.035344,0.040273,89.60817,75.268906,-96.944168,,,
729717252.932445,-72.5005,12.340886,143.452783,-0.056946,-0.955627,0.315582,-0.105326,0.035344,0.040273,89.60817,75.268906,-96.944168,,,
729717252.935302,-72.516585,12.422435,104.914922,-0.064041,-0.959747,0.317917,-0.057919,0.036374,0.071504,89.60817,75.268906,-96.944168,,,
729717252.936065,-72.51654,12.422437,107.991753,-0.064041,-0.959747,0.317917,-0.057919,0.036374,0.071504,89.60817,75.268906,-96.944168,,,
729717252.936179,-72.516576,12.422434,143.528114,-0.064041,-0.959747,0.317917,-0.057919,0.036374,0.071504,89.60817,75.268906,-96.944168,,,
729717252.93805,-72.516585,12.422435,104.914922,-0.064041,-0.959747,0.317917,-0.057919,0.036374,0.071504,89.60817,75.268906,-96.944168,,,
729717252.938249,-72.51654,12.422437,107.991753,-0.064041,-0.959747,0.317917,-0.057919,0.036374,0.071504,89.60817,75.268906,-96.944168,,,
729717252.938939,-72.52167,12.491837,143.59239,-0.064041,-0.959747,0.317917,-0.057919,0.036374,0.071504,89.60817,75.268906,-96.944168,,,
729717252.941806,-72.52168,12.491838,104.979192,-0.064041,-0.959747,0.317917,-0.057919,0.036374,0.071504,89.60817,75.268906,-96.944168,,,
729717252.942406,-72.521634,12.491839,108.056022,-0.064041,-0.959747,0.317917,-0.057919,0.036374,0.071504,89.60817,75.268906,-96.944168,,,
729717252.942558,-72.52167,12.491837,143.59239,-0.064041,-0.959747,0.317917,-0.057919,0.036374,0.071504,89.60817,75.268906,-96.944168,,,
729717252.945713,-72.522842,12.58786,105.068629,-0.071869,-0.965591,0.317062,-0.011663,0.041729,0.093818,89.60817,75.268906,-96.944168,,,
729717252.946908,-72.522796,12.587861,108.14546,-0.071869,-0.965591,0.317062,-0.011663,0.041729,0.093818,89.60817,75.268906,-96.944168,,,
729717252.947066,-72.522832,12.587859,143.681834,-0.071869,-0.965591,0.317062,-0.011663,0.041729,0.093818,89.60817,75.268906,-96.944168,,,
729717252.94782,-72.522842,12.58786,105.068629,-0.071869,-0.965591,0.317062,-0.011663,0.041729,0.093818,89.60817,75.268906,-96.944168,,,
729717252.948283,-72.522796,12.587861,108.14546,-0.071869,-0.965591,0.317062,-0.011663,0.041729,0.093818,89.60817,75.268906,-96.944168,,,
729717252.948932,-72.512713,12.664643,143.753026,-0.071869,-0.965591,0.317062,-0.011663,0.041729,0.093818,89.60817,75.268906,-96.944168,,,
729717252.952496,-72.512722,12.664644,105.13983,-0.071869,-0.965591,0.317062,-0.011663,0.041729,0.093818,90.0755,75.260056,-96.982101,,,
729717252.953852,-72.512677,12.664645,108.216661,-0.071869,-0.965591,0.317062,-0.011663,0.041729,0.093818,90.0755,75.260056,-96.982101,,,
729717252.954004,-72.499598,12.769668,143.852271,-0.079666,-0.969696,0.315018,0.035572,0.036441,0.114241,90.0755,75.260056,-96.982101,,,
729717252.95628,-72.499608,12.769669,105.23907,-0.079666,-0.969696,0.315018,0.035572,0.036441,0.114241,90.0755,75.260056,-96.982101,,,
729717252.957823,-72.499562,12.76967,108.315901,-0.079666,-0.969696,0.315018,0.035572,0.036441,0.114241,90.0755,75.260056,-96.982101,,,
729717252.957939,-72.499598,12.769668,143.852271,-0.079666,-0.969696,0.315018,0.035572,0.036441,0.114241,90.0755,75.260056,-96.982101,,,
729717252.958076,-72.499608,12.769669,105.23907,-0.079666,-0.969696,0.315018,0.035572,0.036441,0.114241,90.0755,75.260056,-96.982101,,,
729717252.958245,-72.499562,12.76967,108.315901,-0.079666,-0.969696,0.315018,0.035572,0.036441,0.114241,90.0755,75.260056,-96.982101,,,
729717252.959021,-72.47375,12.838076,143.917251,-0.079666,-0.969696,0.315018,0.035572,0.036441,0.114241,90.0755,75.260056,-96.982101,,,
729717252.962044,-72.47376,12.838077,105.304052,-0.079666,-0.969696,0.315018,0.035572,0.036441,0.114241,90.0755,75.260056,-96.982101,,,
729717252.962861,-72.473714,12.838079,108.380883,-0.079666,-0.969696,0.315018,0.035572,0.036441,0.114241,90.0755,75.260056,-96.982101,,,
729717252.962995,-72.47375,12.838076,143.917251,-0.079666,-0.969696,0.315018,0.035572,0.036441,0.114241,90.0755,75.260056,-96.982101,,,
729717252.965822,-72.44486,12.942375,105.404232,-0.085358,-0.968887,0.31633,0.087183,0.029796,0.127767,90.0755,75.260056,-96.982101,,,
729717252.967213,-72.444815,12.942377,108.481063,-0.085358,-0.968887,0.31633,0.087183,0.029796,0.127767,90.0755,75.260056,-96.982101,,,
729717252.967328,-72.444851,12.942374,144.01743,-0.085358,-0.968887,0.31633,0.087183,0.029796,0.127767,90.0755,75.260056,-96.982101,,,
729717252.967784,-72.44486,12.942375,105.404232,-0.085358,-0.968887,0.31633,0.087183,0.029796,0.127767,90.0755,75.260056,-96.982101,,,
729717252.968285,-72.444815,12.942377,108.481063,-0.085358,-0.968887,0.31633,0.087183,0.029796,0.127767,90.0755,75.260056,-96.982101,,,
729717252.968932,-72.405644,13.003508,144.078144,-0.085358,-0.968887,0.31633,0.087183,0.029796,0.127767,90.0755,75.260056,-96.982101,,,
729717252.972019,-72.405654,13.003509,105.464954,-0.085358,-0.968887,0.31633,0.087183,0.029796,0.127767,90.0755,75.260056,-96.982101,,,
729717252.972826,-72.405608,13.003511,108.541785,-0.085358,-0.968887,0.31633,0.087183,0.029796,0.127767,90.0755,75.260056,-96.982101,,,
729717252.972985,-72.405644,13.003508,144.078144,-0.085358,-0.968887,0.31633,0.087183,0.029796,0.127767,90.0755,75.260056,-96.982101,,,
729717252.975444,-72.364105,13.107754,105.567963,-0.084442,-0.968216,0.317932,0.12673,0.021925,0.140472,90.0755,75.260056,-96.982101,,,
729717252.9764,-72.36406,13.107755,108.644793,-0.084442,-0.968216,0.317932,0.12673,0.021925,0.140472,90.0755,75.260056,-96.982101,,,
729717252.976504,-72.364096,13.107753,144.181154,-0.084442,-0.968216,0.317932,0.12673,0.021925,0.140472,90.0755,75.260056,-96.982101,,,
729717252.977919,-72.364105,13.107754,105.567963,-0.084442,-0.968216,0.317932,0.12673,0.021925,0.140472,90.0755,75.260056,-96.982101,,,
729717252.97827,-72.36406,13.107755,108.644793,-0.084442,-0.968216,0.317932,0.12673,0.021925,0.140472,90.0755,75.260056,-96.982101,,,
729717252.978931,-72.311798,13.178057,144.252271,-0.084442,-0.968216,0.317932,0.12673,0.021925,0.140472,90.0755,75.260056,-96.982101,,,
729717252.982023,-72.311808,13.178058,105.639078,-0.084442,-0.968216,0.317932,0.12673,0.021925,0.140472,90.0755,75.260056,-96.982101,,,
729717252.98283,-72.311762,13.178059,108.715909,-0.084442,-0.968216,0.317932,0.12673,0.021925,0.140472,90.0755,75.260056,-96.982101,,,
729717252.982984,-72.311798,13.178057,144.252271,-0.084442,-0.968216,0.317932,0.12673,0.021925,0.140472,90.0755,75.260056,-96.982101,,,
729717252.985709,-72.257899,13.288215,105.74606,-0.084915,-0.971725,0.322556,0.167345,0.039083,0.156249,90.0755,75.260056,-96.982101,,,
729717252.986947,-72.257854,13.288216,108.822892,-0.084915,-0.971725,0.322556,0.167345,0.039083,0.156249,90.0755,75.260056,-96.982101,,,
729717252.987096,-72.25789,13.288214,144.359255,-0.084915,-0.971725,0.322556,0.167345,0.039083,0.156249,90.0755,75.260056,-96.982101,,,
729717252.98783,-72.257899,13.288215,105.74606,-0.084915,-0.971725,0.322556,0.167345,0.039083,0.156249,90.0755,75.260056,-96.982101,,,
729717252.988282,-72.257854,13.288216,108.822892,-0.084915,-0.971725,0.322556,0.167345,0.039083,0.156249,90.0755,75.260056,-96.982101,,,
729717252.988929,-72.194775,13.376378,144.440788,-0.084915,-0.971725,0.322556,0.167345,0.039083,0.156249,90.0755,75.260056,-96.982101,,,
729717252.992006,-72.194785,13.376379,105.827599,-0.084915,-0.971725,0.322556,0.167345,0.039083,0.156249,90.0755,75.260056,-96.982101,,,
729717252.992826,-72.19474,13.37638,108.90443,-0.084915,-0.971725,0.322556,0.167345,0.039083,0.156249,90.0755,75.260056,-96.982101,,,
729717252.992981,-72.194775,13.376378,144.440788,-0.084915,-0.971725,0.322556,0.167345,0.039083,0.156249,90.386749,74.949692,-97.212982,,,
729717252.995723,-72.133292,13.502086,105.940515,-0.079712,-0.970184,0.335266,0.181339,0.073901,0.169555,90.386749,74.949692,-97.212982,,,
729717252.99696,-72.133247,13.502087,109.017346,-0.079712,-0.970184,0.335266,0.181339,0.073901,0.169555,90.386749,74.949692,-97.212982,,,
729717252.997073,-72.133283,13.502085,144.553702,-0.079712,-0.970184,0.335266,0.181339,0.073901,0.169555,90.386749,74.949692,-97.212982,,,
729717252.997818,-72.133292,13.502086,105.940515,-0.079712,-0.970184,0.335266,0.181339,0.073901,0.169555,90.386749,74.949692,-97.212982,,,
729717252.998284,-72.133247,13.502087,109.017346,-0.079712,-0.970184,0.335266,0.181339,0.073901,0.169555,90.386749,74.949692,-97.212982,,,
729717252.99893,-72.069156,13.61067,144.649573,-0.079712,-0.970184,0.335266,0.181339,0.073901,0.169555,90.386749,74.949692,-97.212982,,,
729717253.001819,-72.069165,13.610672,106.036377,-0.079712,-0.970184,0.335266,0.181339,0.073901,0.169555,90.386749,74.949692,-97.212982,,,
729717253.00237,-72.069121,13.610672,109.113209,-0.079712,-0.970184,0.335266,0.181339,0.073901,0.169555,90.386749,74.949692,-97.212982,,,
729717253.002478,-72.069156,13.61067,144.649573,-0.079712,-0.970184,0.335266,0.181339,0.073901,0.169555,90.386749,74.949692,-97.212982,,,
729717253.005586,-72.011489,13.738515,106.154178,-0.067734,-0.959885,0.302948,0.15893,0.049283,0.170543,90.386749,74.949692,-97.212982,,,
729717253.006617,-72.011444,13.738516,109.23101,-0.067734,-0.959885,0.302948,0.15893,0.049283,0.170543,90.386749,74.949692,-97.212982,,,
729717253.006722,-72.011479,13.738514,144.767376,-0.067734,-0.959885,0.302948,0.15893,0.049283,0.170543,90.386749,74.949692,-97.212982,,,
729717253.007886,-72.011489,13.738515,106.154178,-0.067734,-0.959885,0.302948,0.15893,0.049283,0.170543,90.386749,74.949692,-97.212982,,,
729717253.008276,-72.011444,13.738516,109.23101,-0.067734,-0.959885,0.302948,0.15893,0.049283,0.170543,90.386749,74.949692,-97.212982,,,
729717253.008933,-71.954351,13.854576,144.879147,-0.067734,-0.959885,0.302948,0.15893,0.049283,0.170543,90.386749,74.949692,-97.212982,,,
729717253.012016,-71.954361,13.854578,106.26595,-0.067734,-0.959885,0.302948,0.15893,0.049283,0.170543,90.386749,74.949692,-97.212982,,,
729717253.012823,-71.954316,13.854578,109.342782,-0.067734,-0.959885,0.302948,0.15893,0.049283,0.170543,90.386749,74.949692,-97.212982,,,
729717253.012974,-71.954351,13.854576,144.879147,-0.067734,-0.959885,0.302948,0.15893,0.049283,0.170543,90.386749,74.949692,-97.212982,,,
729717253.015989,-71.907136,13.999068,106.409383,-0.077316,-0.957352,0.270294,0.108322,0.027169,0.196173,90.386749,74.949692,-97.212982,,,
729717253.017322,-71.907092,13.999068,109.486215,-0.077316,-0.957352,0.270294,0.108322,0.027169,0.196173,90.386749,74.949692,-97.212982,,,
729717253.017426,-71.907127,13.999066,145.022579,-0.077316,-0.957352,0.270294,0.108322,0.027169,0.196173,90.386749,74.949692,-97.212982,,,
729717253.017774,-71.907136,13.999068,106.409383,-0.077316,-0.957352,0.270294,0.108322,0.027169,0.196173,90.386749,74.949692,-97.212982,,,
729717253.018289,-71.907092,13.999068,109.486215,-0.077316,-0.957352,0.270294,0.108322,0.027169,0.196173,90.386749,74.949692,-97.212982,,,
729717253.018929,-71.864335,14.152209,145.177267,-0.077316,-0.957352,0.270294,0.108322,0.027169,0.196173,90.386749,74.949692,-97.212982,,,
729717253.022018,-71.864345,14.15221,106.564067,-0.077316,-0.957352,0.270294,0.108322,0.027169,0.196173,90.386749,74.949692,-97.212982,,,
729717253.022821,-71.864301,14.152211,109.640899,-0.077316,-0.957352,0.270294,0.108322,0.027169,0.196173,90.386749,74.949692,-97.212982,,,
729717253.022975,-71.864335,14.152209,145.177267,-0.077316,-0.957352,0.270294,0.108322,0.027169,0.196173,90.386749,74.949692,-97.212982,,,
729717253.025686,-71.832753,14.334457,106.747587,-0.095612,-0.961975,0.27153,0.039525,0.033311,0.226127,90.386749,74.949692,-97.212982,,,
729717253.026857,-71.832709,14.334457,109.82442,-0.095612,-0.961975,0.27153,0.039525,0.033311,0.226127,90.386749,74.949692,-97.212982,,,
729717253.026955,-71.832744,14.334456,145.36079,-0.095612,-0.961975,0.27153,0.039525,0.033311,0.226127,90.386749,74.949692,-97.212982,,,
729717253.027826,-71.832753,14.334457,106.747587,-0.095612,-0.961975,0.27153,0.039525,0.033311,0.226127,90.386749,74.949692,-97.212982,,,
729717253.02828,-71.832709,14.334457,109.82442,-0.095612,-0.961975,0.27153,0.039525,0.033311,0.226127,90.386749,74.949692,-97.212982,,,
729717253.028929,-71.808288,14.532856,145.55936,-0.095612,-0.961975,0.27153,0.039525,0.033311,0.226127,90.386749,74.949692,-97.212982,,,
729717253.03202,-71.808297,14.532857,106.946154,-0.095612,-0.961975,0.27153,0.039525,0.033311,0.226127,90.386749,74.949692,-97.212982,,,
729717253.03284,-71.808253,14.532857,110.022987,-0.095612,-0.961975,0.27153,0.039525,0.033311,0.226127,90.386749,74.949692,-97.212982,,,
729717253.033004,-71.808288,14.532856,145.55936,-0.095612,-0.961975,0.27153,0.039525,0.033311,0.226127,90.386749,74.949692,-97.212982,,,
729717253.036894,-71.795256,14.747738,107.1588,-0.091461,-0.960373,0.266785,-0.031397,0.053436,0.234734,90.601288,75.170227,-97.403427,,,
729717253.038678,-71.795212,14.747738,110.235632,-0.091461,-0.960373,0.266785,-0.031397,0.053436,0.234734,90.601288,75.170227,-97.403427,,,
729717253.038803,-71.789629,14.974574,145.992923,-0.091461,-0.960373,0.266785,-0.031397,0.053436,0.234734,90.601288,75.170227,-97.403427,,,
729717253.039345,-71.789638,14.974575,107.37972,-0.091461,-0.960373,0.266785,-0.031397,0.053436,0.234734,90.601288,75.170227,-97.403427,,,
729717253.041291,-71.789638,14.974575,107.37972,-0.091461,-0.960373,0.266785,-0.031397,0.053436,0.234734,90.601288,75.170227,-97.403427,,,
729717253.042015,-71.789595,14.974575,110.456553,-0.091461,-0.960373,0.266785,-0.031397,0.053436,0.234734,90.601288,75.170227,-97.403427,,,
729717253.042331,-71.789629,14.974574,145.992923,-0.091461,-0.960373,0.266785,-0.031397,0.053436,0.234734,90.601288,75.170227,-97.403427,,,
729717253.045525,-71.795911,15.20898,107.604042,-0.080597,-0.950439,0.272156,-0.099751,0.084521,0.226774,90.601288,75.170227,-97.403427,,,
729717253.046485,-71.795867,15.20898,110.680874,-0.080597,-0.950439,0.272156,-0.099751,0.084521,0.226774,90.601288,75.170227,-97.403427,,,
729717253.04659,-71.795901,15.208979,146.217244,-0.080597,-0.950439,0.272156,-0.099751,0.084521,0.226774,90.601288,75.170227,-97.403427,,,
729717253.047918,-71.795911,15.20898,107.604042,-0.080597,-0.950439,0.272156,-0.099751,0.084521,0.226774,90.601288,75.170227,-97.403427,,,
729717253.048281,-71.795867,15.20898,110.680874,-0.080597,-0.950439,0.272156,-0.099751,0.084521,0.226774,90.601288,75.170227,-97.403427,,,
729717253.048934,-71.80754,15.448074,146.442946,-0.080597,-0.950439,0.272156,-0.099751,0.084521,0.226774,90.601288,75.170227,-97.403427,,,
729717253.052025,-71.807549,15.448076,107.829742,-0.080597,-0.950439,0.272156,-0.099751,0.084521,0.226774,90.601288,75.170227,-97.403427,,,
729717253.05284,-71.807505,15.448075,110.906575,-0.080597,-0.950439,0.272156,-0.099751,0.084521,0.226774,90.601288,75.170227,-97.403427,,,
729717253.052995,-71.80754,15.448074,146.442946,-0.080597,-0.950439,0.272156,-0.099751,0.084521,0.226774,90.601288,75.170227,-97.403427,,,
729717253.055434,-71.829834,15.694405,108.061048,-0.083862,-0.943665,0.273773,-0.153587,0.096627,0.220223,90.601288,75.170227,-97.403427,,,
729717253.056371,-71.82979,15.694404,111.137881,-0.083862,-0.943665,0.273773,-0.153587,0.096627,0.220223,90.601288,75.170227,-97.403427,,,
729717253.056473,-71.829825,15.694404,146.674254,-0.083862,-0.943665,0.273773,-0.153587,0.096627,0.220223,90.601288,75.170227,-97.403427,,,
729717253.057922,-71.829834,15.694405,108.061048,-0.083862,-0.943665,0.273773,-0.153587,0.096627,0.220223,90.601288,75.170227,-97.403427,,,
729717253.05827,-71.82979,15.694404,111.137881,-0.083862,-0.943665,0.273773,-0.153587,0.096627,0.220223,90.601288,75.170227,-97.403427,,,
729717253.058941,-71.85537,15.944423,146.908449,-0.083862,-0.943665,0.273773,-0.153587,0.096627,0.220223,90.601288,75.170227,-97.403427,,,
729717253.062017,-71.855379,15.944425,108.295243,-0.083862,-0.943665,0.273773,-0.153587,0.096627,0.220223,90.601288,75.170227,-97.403427,,,
729717253.062822,-71.855335,15.944423,111.372076,-0.083862,-0.943665,0.273773,-0.153587,0.096627,0.220223,90.601288,75.170227,-97.403427,,,
729717253.062994,-71.85537,15.944423,146.908449,-0.083862,-0.943665,0.273773,-0.153587,0.096627,0.220223,90.601288,75.170227,-97.403427,,,
729717253.065952,-71.890138,16.209573,108.543463,-0.098495,-0.945847,0.272781,-0.200979,0.106002,0.226605,90.601288,75.170227,-97.403427,,,
729717253.067335,-71.890093,16.209572,111.620296,-0.098495,-0.945847,0.272781,-0.200979,0.106002,0.226605,90.601288,75.170227,-97.403427,,,
729717253.06744,-71.890128,16.209571,147.156654,-0.098495,-0.945847,0.272781,-0.200979,0.106002,0.226605,90.601288,75.170227,-97.403427,,,
729717253.067768,-71.890138,16.209573,108.543463,-0.098495,-0.945847,0.272781,-0.200979,0.106002,0.226605,90.601288,75.170227,-97.403427,,,
729717253.068287,-71.890093,16.209572,111.620296,-0.098495,-0.945847,0.272781,-0.200979,0.106002,0.226605,90.601288,75.170227,-97.403427,,,
729717253.068929,-71.922326,16.472886,147.403752,-0.098495,-0.945847,0.272781,-0.200979,0.106002,0.226605,90.601288,75.170227,-97.403427,,,
729717253.07201,-71.922335,16.472888,108.790557,-0.098495,-0.945847,0.272781,-0.200979,0.106002,0.226605,90.601288,75.170227,-97.403427,,,
729717253.072822,-71.922291,16.472886,111.86739,-0.098495,-0.945847,0.272781,-0.200979,0.106002,0.226605,90.601288,75.170227,-97.403427,,,
729717253.072977,-71.922326,16.472886,147.403752,-0.098495,-0.945847,0.272781,-0.200979,0.106002,0.226605,90.601288,75.170227,-97.403427,,,
729717253.076416,-71.963308,16.756292,109.058394,-0.105637,-0.953888,0.282089,-0.223264,0.100236,0.238285,91.200821,74.922638,-96.834076,,,
729717253.077899,-71.963263,16.75629,112.135226,-0.105637,-0.953888,0.282089,-0.223264,0.100236,0.238285,91.200821,74.922638,-96.834076,,,
729717253.078025,-71.963298,16.75629,147.671582,-0.105637,-0.953888,0.282089,-0.223264,0.100236,0.238285,91.200821,74.922638,-96.834076,,,
729717253.078208,-71.963308,16.756292,109.058394,-0.105637,-0.953888,0.282089,-0.223264,0.100236,0.238285,91.200821,74.922638,-96.834076,,,
729717253.07834,-71.963263,16.75629,112.135226,-0.105637,-0.953888,0.282089,-0.223264,0.100236,0.238285,91.200821,74.922638,-96.834076,,,
729717253.078926,-72.002959,17.023147,147.926285,-0.105637,-0.953888,0.282089,-0.223264,0.100236,0.238285,91.200821,74.922638,-96.834076,,,
729717253.081795,-72.002968,17.023149,109.3131,-0.105637,-0.953888,0.282089,-0.223264,0.100236,0.238285,91.200821,74.922638,-96.834076,,,
729717253.082345,-72.002924,17.023147,112.389932,-0.105637,-0.953888,0.282089,-0.223264,0.100236,0.238285,91.200821,74.922638,-96.834076,,,
729717253.082454,-72.002959,17.023147,147.926285,-0.105637,-0.953888,0.282089,-0.223264,0.100236,0.238285,91.200821,74.922638,-96.834076,,,
729717253.086161,-72.044522,17.315621,109.595334,-0.101013,-0.959076,0.287415,-0.227423,0.081275,0.249615,91.200821,74.922638,-96.834076,,,
729717253.08771,-72.044478,17.315618,112.672167,-0.101013,-0.959076,0.287415,-0.227423,0.081275,0.249615,91.200821,74.922638,-96.834076,,,
729717253.087818,-72.044513,17.315619,148.208527,-0.101013,-0.959076,0.287415,-0.227423,0.081275,0.249615,91.200821,74.922638,-96.834076,,,
