Time (sec),Pitch (deg),Roll (deg),Yaw(deg),X-Acceleration (g),Y-Acceleration (g),Z-Acceleration (g),Pitch Rate (deg/sec),Roll Rate (deg/sec),Yaw Rate (deg/sec),Magnetic Field in X direction (uT),Magnetic Field in Y direction (uT),Magnetic Field in Z Direction (uT),Latitude (deg),Longitude (deg),Altitude (m)
729706441.251775,-3.122384,2.52636,167.047169,-0.047485,-0.052765,0.984375,-0.004213,-0.01868,0.004543,88.897964,14.669098,-146.34848,,,
729706441.255116,-3.124767,2.520845,167.049052,-0.047485,-0.052765,0.984375,-0.004213,-0.01868,0.004543,88.897964,14.669098,-146.34848,,,
729706441.258437,-3.128388,2.513678,167.050564,-0.045013,-0.049316,0.982864,-0.014783,-0.024309,0.001858,88.897964,14.669098,-146.34848,,,
729706441.261847,-3.128388,2.513678,167.050564,-0.045013,-0.049316,0.982864,-0.014783,-0.024309,0.001858,88.897964,14.669098,-146.34848,,,
729706441.265092,-3.133254,2.507115,167.052122,-0.045013,-0.049316,0.982864,-0.014783,-0.024309,0.001858,88.844879,14.756149,-146.776306,,,
729706441.268478,-3.139196,2.500989,167.053381,-0.042511,-0.052322,0.987152,-0.023646,-0.015349,-0.000308,88.844879,14.756149,-146.776306,,,
729706441.271812,-3.139196,2.500989,167.053381,-0.042511,-0.052322,0.987152,-0.023646,-0.015349,-0.000308,88.844879,14.756149,-146.776306,,,
729706441.275201,-3.146942,2.497303,167.054225,-0.042511,-0.052322,0.987152,-0.023646,-0.015349,-0.000308,88.844879,14.756149,-146.776306,,,
729706441.27853,-3.155365,2.494354,167.054472,-0.039459,-0.054916,0.990707,-0.031736,-0.00364,-0.004454,88.844879,14.756149,-146.776306,,,
729706441.281809,-3.155365,2.494354,167.054472,-0.039459,-0.054916,0.990707,-0.031736,-0.00364,-0.004454,88.844879,14.756149,-146.776306,,,
729706441.285133,-3.165125,2.494268,167.054497,-0.039459,-0.054916,0.990707,-0.031736,-0.00364,-0.004454,88.844879,14.756149,-146.776306,,,
729706441.288515,-3.173291,2.494774,167.054632,-0.036346,-0.058716,0.991577,-0.026448,0.006738,-0.003099,88.844879,14.756149,-146.776306,,,
729706441.291766,-3.173291,2.494774,167.054632,-0.036346,-0.058716,0.991577,-0.026448,0.006738,-0.003099,88.844879,14.756149,-146.776306,,,
729706441.295158,-3.181435,2.496961,167.05466,-0.036346,-0.058716,0.991577,-0.026448,0.006738,-0.003099,88.844879,14.756149,-146.776306,,,
729706441.298433,-3.187983,2.499641,167.054659,-0.035339,-0.059921,0.996735,-0.02006,0.014783,-0.002818,88.844879,14.756149,-146.776306,,,
729706441.301843,-3.187983,2.499641,167.054659,-0.035339,-0.059921,0.996735,-0.02006,0.014783,-0.002818,88.844879,14.756149,-146.776306,,,
729706441.305101,-3.193369,2.504292,167.054728,-0.035339,-0.059921,0.996735,-0.02006,0.014783,-0.002818,88.844879,14.756149,-146.776306,,,
729706441.308438,-3.1979,2.508033,167.054862,-0.03598,-0.058563,0.995132,-0.014287,0.016259,-0.001682,88.861572,14.825302,-146.472885,,,
729706441.311807,-3.1979,2.508033,167.054862,-0.03598,-0.058563,0.995132,-0.014287,0.016259,-0.001682,88.861572,14.825302,-146.472885,,,
729706441.315114,-3.201428,2.512744,167.055023,-0.03598,-0.058563,0.995132,-0.014287,0.016259,-0.001682,88.861572,14.825302,-146.472885,,,
729706441.318432,-3.204083,2.515098,167.054603,-0.037567,-0.061371,0.994339,-0.006855,0.010002,-0.004828,88.861572,14.825302,-146.472885,,,
729706441.321785,-3.204083,2.515098,167.054603,-0.037567,-0.061371,0.994339,-0.006855,0.010002,-0.004828,88.861572,14.825302,-146.472885,,,
729706441.32515,-3.205163,2.517574,167.054046,-0.037567,-0.061371,0.994339,-0.006855,0.010002,-0.004828,88.861572,14.825302,-146.472885,,,
729706441.328541,-3.205637,2.517956,167.05337,-0.03891,-0.062027,0.996689,0.0001,0.003196,-0.004927,88.861572,14.825302,-146.472885,,,
729706441.331788,-3.205637,2.517956,167.05337,-0.03891,-0.062027,0.996689,0.0001,0.003196,-0.004927,88.861572,14.825302,-146.472885,,,
729706441.335131,-3.205356,2.518489,167.051604,-0.03891,-0.062027,0.996689,0.0001,0.003196,-0.004927,88.861572,14.825302,-146.472885,,,
729706441.338437,-3.205899,2.517515,167.048941,-0.036407,-0.058914,0.996475,-0.001525,-0.003008,-0.010984,88.861572,14.825302,-146.472885,,,
729706441.341789,-3.205899,2.517515,167.048941,-0.036407,-0.058914,0.996475,-0.001525,-0.003008,-0.010984,88.861572,14.825302,-146.472885,,,
729706441.345129,-3.206123,2.515647,167.046011,-0.036407,-0.058914,0.996475,-0.001525,-0.003008,-0.010984,88.861572,14.825302,-146.472885,,,
729706441.348441,-3.207797,2.512501,167.042098,-0.037643,-0.057053,0.994446,-0.006773,-0.010054,-0.01796,89.090149,14.650833,-146.574631,,,
729706441.35184,-3.207797,2.512501,167.042098,-0.037643,-0.057053,0.994446,-0.006773,-0.010054,-0.01796,89.090149,14.650833,-146.574631,,,
729706441.355114,-3.21009,2.507687,167.037411,-0.037643,-0.057053,0.994446,-0.006773,-0.010054,-0.01796,89.090149,14.650833,-146.574631,,,
729706441.358439,-3.212738,2.502617,167.033056,-0.038239,-0.057816,0.993332,-0.008041,-0.016082,-0.015952,89.090149,14.650833,-146.574631,,,
729706441.361767,-3.212738,2.502617,167.033056,-0.038239,-0.057816,0.993332,-0.008041,-0.016082,-0.015952,89.090149,14.650833,-146.574631,,,
729706441.365109,-3.215827,2.49567,167.029054,-0.038239,-0.057816,0.993332,-0.008041,-0.016082,-0.015952,89.090149,14.650833,-146.574631,,,
729706441.368461,-3.218775,2.490307,167.025112,-0.039062,-0.060287,0.99765,-0.007488,-0.013426,-0.015964,89.090149,14.650833,-146.574631,,,
729706441.371789,-3.218775,2.490307,167.025112,-0.039062,-0.060287,0.99765,-0.007488,-0.013426,-0.015964,89.090149,14.650833,-146.574631,,,
729706441.375179,-3.221339,2.483845,167.021259,-0.039062,-0.060287,0.99765,-0.007488,-0.013426,-0.015964,89.090149,14.650833,-146.574631,,,
729706441.378434,-3.222635,2.479308,167.01771,-0.0401,-0.060654,1.00412,-0.002711,-0.010732,-0.014211,89.090149,14.650833,-146.574631,,,
729706441.381778,-3.222635,2.479308,167.01771,-0.0401,-0.060654,1.00412,-0.002711,-0.010732,-0.014211,89.090149,14.650833,-146.574631,,,
729706441.385125,-3.22365,2.473688,167.013855,-0.0401,-0.060654,1.00412,-0.002711,-0.010732,-0.014211,89.090149,14.650833,-146.574631,,,
729706441.388438,-3.223888,2.469622,167.010138,-0.038193,-0.060883,1.004349,-0.000368,-0.010259,-0.013755,88.935501,14.683319,-146.784149,,,
729706441.39178,-3.223888,2.469622,167.010138,-0.038193,-0.060883,1.004349,-0.000368,-0.010259,-0.013755,88.935501,14.683319,-146.784149,,,
729706441.395119,-3.224101,2.464318,167.006497,-0.038193,-0.060883,1.004349,-0.000368,-0.010259,-0.013755,88.935501,14.683319,-146.784149,,,
729706441.39844,-3.222582,2.46074,167.002665,-0.035736,-0.060455,1.003464,0.008668,-0.007663,-0.015226,88.935501,14.683319,-146.784149,,,
729706441.401832,-3.222582,2.46074,167.002665,-0.035736,-0.060455,1.003464,0.008668,-0.007663,-0.015226,88.935501,14.683319,-146.784149,,,
729706441.405105,-3.22187,2.457148,166.998616,-0.035736,-0.060455,1.003464,0.008668,-0.007663,-0.015226,88.935501,14.683319,-146.784149,,,
729706441.40844,-3.221316,2.454374,166.994367,-0.038391,-0.059845,1.001831,0.001768,-0.006289,-0.01713,88.935501,14.683319,-146.784149,,,
729706441.411788,-3.221316,2.454374,166.994367,-0.038391,-0.059845,1.001831,0.001768,-0.006289,-0.01713,88.935501,14.683319,-146.784149,,,
729706441.415205,-3.221632,2.44941,166.989527,-0.038391,-0.059845,1.001831,0.001768,-0.006289,-0.01713,88.935501,14.683319,-146.784149,,,
729706441.418442,-3.2214,2.44471,166.98438,-0.036423,-0.060104,0.997498,0.001941,-0.011229,-0.019632,88.935501,14.683319,-146.784149,,,
729706441.421766,-3.2214,2.44471,166.98438,-0.036423,-0.060104,0.997498,0.001941,-0.011229,-0.019632,88.935501,14.683319,-146.784149,,,
729706441.425103,-3.221504,2.439161,166.979227,-0.036423,-0.060104,0.997498,0.001941,-0.011229,-0.019632,88.935501,14.683319,-146.784149,,,
729706441.428434,-3.221823,2.434888,166.97368,-0.036392,-0.05925,1.001297,-0.001102,-0.008754,-0.022865,89.021118,14.873322,-146.44455,,,
729706441.431765,-3.221823,2.434888,166.97368,-0.036392,-0.05925,1.001297,-0.001102,-0.008754,-0.022865,89.021118,14.873322,-146.44455,,,
729706441.435119,-3.221752,2.430976,166.967777,-0.036392,-0.05925,1.001297,-0.001102,-0.008754,-0.022865,89.021118,14.873322,-146.44455,,,
729706441.438433,-3.221004,2.428484,166.962767,-0.038391,-0.062012,1.006775,0.002801,-0.004097,-0.01674,89.021118,14.873322,-146.44455,,,
729706441.441851,-3.221004,2.428484,166.962767,-0.038391,-0.062012,1.006775,0.002801,-0.004097,-0.01674,89.021118,14.873322,-146.44455,,,
729706441.445118,-3.220156,2.425091,166.958473,-0.038391,-0.062012,1.006775,0.002801,-0.004097,-0.01674,89.021118,14.873322,-146.44455,,,
729706441.448439,-3.218016,2.422107,166.954609,-0.040924,-0.061249,1.001343,0.008831,-0.007103,-0.013801,89.021118,14.873322,-146.44455,,,
729706441.451793,-3.218016,2.422107,166.954609,-0.040924,-0.061249,1.001343,0.008831,-0.007103,-0.013801,89.021118,14.873322,-146.44455,,,
729706441.455173,-3.216211,2.418049,166.950654,-0.040924,-0.061249,1.001343,0.008831,-0.007103,-0.013801,89.021118,14.873322,-146.44455,,,
729706441.458425,-3.213876,2.413434,166.946163,-0.040115,-0.058838,0.996689,0.008715,-0.013474,-0.017714,89.021118,14.873322,-146.44455,,,
729706441.461787,-3.213876,2.413434,166.946163,-0.040115,-0.058838,0.996689,0.008715,-0.013474,-0.017714,89.021118,14.873322,-146.44455,,,
729706441.465104,-3.212723,2.407437,166.94138,-0.040115,-0.058838,0.996689,0.008715,-0.013474,-0.017714,89.021118,14.873322,-146.44455,,,
729706441.468307,-3.210765,2.401265,166.935572,-0.036636,-0.056778,0.995682,0.009818,-0.017722,-0.024958,89.021118,14.873322,-146.44455,,,
729706441.471803,-3.210765,2.401265,166.935572,-0.036636,-0.056778,0.995682,0.009818,-0.017722,-0.024958,88.896408,14.792145,-146.785843,,,
729706441.475111,-3.20883,2.394157,166.92825,-0.036636,-0.056778,0.995682,0.009818,-0.017722,-0.024958,88.896408,14.792145,-146.785843,,,
729706441.478439,-3.206348,2.389332,166.920493,-0.036667,-0.061539,0.998734,0.010097,-0.009982,-0.02843,88.896408,14.792145,-146.785843,,,
729706441.481866,-3.206348,2.389332,166.920493,-0.036667,-0.061539,0.998734,0.010097,-0.009982,-0.02843,88.896408,14.792145,-146.785843,,,
729706441.485118,-3.204159,2.385666,166.912896,-0.036667,-0.061539,0.998734,0.010097,-0.009982,-0.02843,88.896408,14.792145,-146.785843,,,
729706441.488438,-3.201115,2.385669,166.906274,-0.039093,-0.062317,1.00267,0.012014,0.009098,-0.021888,88.896408,14.792145,-146.785843,,,
729706441.491804,-3.201115,2.385669,166.906274,-0.039093,-0.062317,1.00267,0.012014,0.009098,-0.021888,88.896408,14.792145,-146.785843,,,
729706441.495173,-3.198358,2.387432,166.90066,-0.039093,-0.062317,1.00267,0.012014,0.009098,-0.021888,88.896408,14.792145,-146.785843,,,
729706441.498432,-3.194198,2.392029,166.896179,-0.038757,-0.063309,1.005447,0.017269,0.023138,-0.01403,88.896408,14.792145,-146.785843,,,
729706441.501773,-3.194198,2.392029,166.896179,-0.038757,-0.063309,1.005447,0.017269,0.023138,-0.01403,88.896408,14.792145,-146.785843,,,
729706441.505107,-3.189777,2.397575,166.892563,-0.038757,-0.063309,1.005447,0.017269,0.023138,-0.01403,88.896408,14.792145,-146.785843,,,
729706441.50844,-3.184772,2.405734,166.889063,-0.041473,-0.0625,1.006592,0.017549,0.034382,-0.013592,88.896408,14.792145,-146.785843,,,
729706441.511785,-3.184772,2.405734,166.889063,-0.041473,-0.0625,1.006592,0.017549,0.034382,-0.013592,88.802231,14.790878,-146.289627,,,
729706441.515114,-3.181029,2.413597,166.88555,-0.041473,-0.0625,1.006592,0.017549,0.034382,-0.013592,88.802231,14.790878,-146.289627,,,
729706441.518444,-3.177496,2.42174,166.88219,-0.042587,-0.058777,0.99762,0.011257,0.0289,-0.01322,88.802231,14.790878,-146.289627,,,
729706441.521764,-3.177496,2.42174,166.88219,-0.042587,-0.058777,0.99762,0.011257,0.0289,-0.01322,88.802231,14.790878,-146.289627,,,
729706441.525104,-3.175723,2.427249,166.878941,-0.042587,-0.058777,0.99762,0.011257,0.0289,-0.01322,88.802231,14.790878,-146.289627,,,
729706441.528429,-3.173928,2.43055,166.875907,-0.045624,-0.057556,0.988556,0.004918,0.010539,-0.012131,88.802231,14.790878,-146.289627,,,
729706441.531785,-3.173928,2.43055,166.875907,-0.045624,-0.057556,0.988556,0.004918,0.010539,-0.012131,88.802231,14.790878,-146.289627,,,
729706441.535173,-3.174465,2.431015,166.872939,-0.045624,-0.057556,0.988556,0.004918,0.010539,-0.012131,88.802231,14.790878,-146.289627,,,
729706441.538426,-3.176114,2.429235,166.86967,-0.043732,-0.056351,0.9832,-0.007624,-0.007484,-0.014926,88.802231,14.790878,-146.289627,,,
729706441.541792,-3.176114,2.429235,166.86967,-0.043732,-0.056351,0.9832,-0.007624,-0.007484,-0.014926,88.802231,14.790878,-146.289627,,,
729706441.545104,-3.179287,2.424106,166.865892,-0.043732,-0.056351,0.9832,-0.007624,-0.007484,-0.014926,88.802231,14.790878,-146.289627,,,
729706441.548425,-3.182984,2.417878,166.862031,-0.045547,-0.05661,0.986649,-0.012727,-0.020809,-0.016079,88.802231,14.790878,-146.289627,,,
729706441.551768,-3.182984,2.417878,166.862031,-0.045547,-0.05661,0.986649,-0.012727,-0.020809,-0.016079,89.006653,14.684006,-146.068314,,,
729706441.555101,-3.187051,2.409762,166.858329,-0.045547,-0.05661,0.986649,-0.012727,-0.020809,-0.016079,89.006653,14.684006,-146.068314,,,
729706441.558425,-3.188984,2.402885,166.855076,-0.044815,-0.060562,0.995667,-0.000922,-0.019482,-0.012844,89.006653,14.684006,-146.068314,,,
729706441.561832,-3.188984,2.402885,166.855076,-0.044815,-0.060562,0.995667,-0.000922,-0.019482,-0.012844,89.006653,14.684006,-146.068314,,,
729706441.565115,-3.189502,2.396546,166.851704,-0.044815,-0.060562,0.995667,-0.000922,-0.019482,-0.012844,89.006653,14.684006,-146.068314,,,
729706441.568548,-3.187082,2.392483,166.848503,-0.037689,-0.066849,1.006439,0.012722,-0.007746,-0.011337,89.006653,14.684006,-146.068314,,,
729706441.571844,-3.187082,2.392483,166.848503,-0.037689,-0.066849,1.006439,0.012722,-0.007746,-0.011337,89.006653,14.684006,-146.068314,,,
729706441.5751,-3.18416,2.390071,166.844918,-0.037689,-0.066849,1.006439,0.012722,-0.007746,-0.011337,89.006653,14.684006,-146.068314,,,
729706441.578455,-3.179017,2.389946,166.840984,-0.038055,-0.063538,1.005295,0.021966,0.004413,-0.013579,89.006653,14.684006,-146.068314,,,
729706441.581777,-3.179017,2.389946,166.840984,-0.038055,-0.063538,1.005295,0.021966,0.004413,-0.013579,89.006653,14.684006,-146.068314,,,
729706441.584924,-3.174006,2.389581,166.836956,-0.038055,-0.063538,1.005295,0.021966,0.004413,-0.013579,89.006653,14.684006,-146.068314,,,
729706441.588463,-3.168177,2.389162,166.83299,-0.036865,-0.055847,0.996124,0.020116,0.000789,-0.013376,89.006653,14.684006,-146.068314,,,
729706441.591821,-3.168177,2.389162,166.83299,-0.036865,-0.055847,0.996124,0.020116,0.000789,-0.013376,89.006653,14.684006,-146.068314,,,
729706441.595132,-3.164131,2.386631,166.829363,-0.036865,-0.055847,0.996124,0.020116,0.000789,-0.013376,89.071289,14.868912,-146.357773,,,
729706441.598473,-3.161866,2.378773,166.825516,-0.036865,-0.055847,0.996124,0.002994,-0.036101,-0.015631,89.071289,14.868912,-146.357773,,,
729706441.60177,-3.161866,2.378773,166.825516,-0.044739,-0.054245,0.982742,0.002994,-0.036101,-0.015631,89.071289,14.868912,-146.357773,,,
729706441.6051,-3.163557,2.362143,166.822085,-0.044739,-0.054245,0.982742,0.002994,-0.036101,-0.015631,89.071289,14.868912,-146.357773,,,
729706441.608436,-3.163557,2.362143,166.822085,-0.044739,-0.054245,0.982742,-0.023466,-0.109288,-0.009588,89.071289,14.868912,-146.357773,,,
729706441.611772,-3.168573,2.334546,166.819644,-0.05571,-0.052414,0.958603,-0.023466,-0.109288,-0.009588,89.071289,14.868912,-146.357773,,,
729706441.615126,-3.177219,2.301821,166.817555,-0.05571,-0.052414,0.958603,-0.023466,-0.109288,-0.009588,89.071289,14.868912,-146.357773,,,
729706441.61846,-3.187654,2.267722,166.814626,-0.059753,-0.049973,0.975998,-0.037242,-0.1116,-0.015557,89.071289,14.868912,-146.357773,,,
729706441.621784,-3.187654,2.267722,166.814626,-0.059753,-0.049973,0.975998,-0.037242,-0.1116,-0.015557,89.071289,14.868912,-146.357773,,,
729706441.6251,-3.199015,2.235252,166.81091,-0.059753,-0.049973,0.975998,-0.037242,-0.1116,-0.015557,89.071289,14.868912,-146.357773,,,
729706441.628434,-3.209337,2.202187,166.807227,-0.059753,-0.049973,0.975998,-0.030826,-0.109077,-0.014664,89.071289,14.868912,-146.357773,,,
729706441.631825,-3.209337,2.202187,166.807227,-0.043823,-0.056824,0.997131,-0.030826,-0.109077,-0.014664,89.071289,14.868912,-146.357773,,,
729706441.635094,-3.217176,2.172753,166.804345,-0.043823,-0.056824,0.997131,-0.030826,-0.109077,-0.014664,88.721649,14.781448,-146.333572,,,
729706441.63849,-3.217176,2.145821,166.802612,-0.043823,-0.056824,0.997131,-0.009172,-0.080225,-0.005163,88.721649,14.781448,-146.333572,,,
729706441.641783,-3.221485,2.145821,166.802612,-0.044891,-0.069168,1.007553,-0.009172,-0.080225,-0.005163,88.721649,14.781448,-146.333572,,,
729706441.645102,-3.224311,2.126756,166.802297,-0.044891,-0.069168,1.007553,-0.009172,-0.080225,-0.005163,88.721649,14.781448,-146.333572,,,
729706441.648458,-3.224311,2.126756,166.802596,-0.044891,-0.069168,1.007553,0.006534,-0.012338,-9.3e-05,88.721649,14.781448,-146.333572,,,
729706441.651839,-3.223711,2.116916,166.802596,-0.04097,-0.063889,1.022873,0.006534,-0.012338,-9.3e-05,88.721649,14.781448,-146.333572,,,
729706441.655088,-3.221343,2.115913,166.804027,-0.04097,-0.063889,1.022873,0.006534,-0.012338,-9.3e-05,88.721649,14.781448,-146.333572,,,
729706441.658467,-3.221343,2.115913,166.804027,-0.04097,-0.063889,1.022873,0.006534,-0.012338,-9.3e-05,88.721649,14.781448,-146.333572,,,
729706441.661789,-3.215227,2.120679,166.807385,-0.037598,-0.060196,1.019608,0.023429,0.02739,0.013972,88.721649,14.781448,-146.333572,,,
729706441.665096,-3.208089,2.129273,166.811304,-0.037598,-0.060196,1.019608,0.023429,0.02739,0.013972,88.721649,14.781448,-146.333572,,,
729706441.668476,-3.208089,2.129273,166.811304,-0.037598,-0.060196,1.019608,0.023429,0.02739,0.013972,88.721649,14.781448,-146.333572,,,
729706441.67178,-3.199427,2.141095,166.81478,-0.039627,-0.059937,1.00415,0.03156,0.049615,0.011185,88.721649,14.781448,-146.333572,,,
729706441.675097,-3.190281,2.1562,166.817485,-0.039627,-0.059937,1.00415,0.03156,0.049615,0.011185,88.729156,14.766937,-146.388031,,,
729706441.678505,-3.190281,2.1562,166.817485,-0.039627,-0.059937,1.00415,0.03156,0.049615,0.011185,88.729156,14.766937,-146.388031,,,
729706441.681777,-3.180875,2.173124,166.819357,-0.041809,-0.055771,0.996033,0.034411,0.066339,0.005691,88.729156,14.766937,-146.388031,,,
729706441.685095,-3.171703,2.194253,166.820828,-0.041809,-0.055771,0.996033,0.034411,0.066339,0.005691,88.729156,14.766937,-146.388031,,,
729706441.688492,-3.171703,2.194253,166.820828,-0.041809,-0.055771,0.996033,0.034411,0.066339,0.005691,88.729156,14.766937,-146.388031,,,
729706441.691836,-3.163207,2.213537,166.821601,-0.049881,-0.055588,0.993301,0.029765,0.070988,0.001626,88.729156,14.766937,-146.388031,,,
729706441.695091,-3.155029,2.237529,166.822735,-0.049881,-0.055588,0.993301,0.029765,0.070988,0.001626,88.729156,14.766937,-146.388031,,,
729706441.698469,-3.155029,2.237529,166.822735,-0.049881,-0.055588,0.993301,0.029765,0.070988,0.001626,88.729156,14.766937,-146.388031,,,
729706441.701777,-3.147802,2.255618,166.824454,-0.053909,-0.05658,0.990891,0.024755,0.063099,0.007344,88.729156,14.766937,-146.388031,,,
729706441.705105,-3.140555,2.275329,166.827834,-0.053909,-0.05658,0.990891,0.024755,0.063099,0.007344,88.729156,14.766937,-146.388031,,,
729706441.708442,-3.140555,2.275329,166.827834,-0.053909,-0.05658,0.990891,0.024755,0.063099,0.007344,88.729156,14.766937,-146.388031,,,
729706441.711781,-3.134241,2.292763,166.832728,-0.059326,-0.055664,0.989243,0.021283,0.063776,0.018746,88.729156,14.766937,-146.388031,,,
729706441.715098,-3.128943,2.310913,166.839462,-0.059326,-0.055664,0.989243,0.021283,0.063776,0.018746,88.872772,14.611572,-146.411911,,,
729706441.718486,-3.128943,2.310913,166.839462,-0.059326,-0.055664,0.989243,0.021283,0.063776,0.018746,88.872772,14.611572,-146.411911,,,
729706441.721781,-3.121648,2.328842,166.848155,-0.065247,-0.0578,0.992371,0.024851,0.065647,0.032772,88.872772,14.611572,-146.411911,,,
729706441.725101,-3.115989,2.347452,166.858215,-0.065247,-0.0578,0.992371,0.024851,0.065647,0.032772,88.872772,14.611572,-146.411911,,,
729706441.728478,-3.115989,2.347452,166.858215,-0.065247,-0.0578,0.992371,0.024851,0.065647,0.032772,88.872772,14.611572,-146.411911,,,
729706441.731806,-3.107774,2.364769,166.869307,-0.063507,-0.057953,0.991608,0.030061,0.0604,0.040407,88.872772,14.611572,-146.411911,,,
729706441.735092,-3.099411,2.380568,166.880972,-0.063507,-0.057953,0.991608,0.030061,0.0604,0.040407,88.872772,14.611572,-146.411911,,,
729706441.738456,-3.099411,2.380568,166.880972,-0.063507,-0.057953,0.991608,0.030061,0.0604,0.040407,88.872772,14.611572,-146.411911,,,
729706441.741759,-3.089386,2.396061,166.892712,-0.060898,-0.0569,0.992294,0.036905,0.052942,0.040947,88.872772,14.611572,-146.411911,,,
729706441.745102,-3.078548,2.409165,166.904452,-0.060898,-0.0569,0.992294,0.036905,0.052942,0.040947,88.872772,14.611572,-146.411911,,,
729706441.748467,-3.078548,2.409165,166.904452,-0.060898,-0.0569,0.992294,0.036905,0.052942,0.040947,88.872772,14.611572,-146.411911,,,
729706441.751762,-3.065983,2.420401,166.916207,-0.060272,-0.057068,0.988541,0.043279,0.035073,0.041064,88.872772,14.611572,-146.411911,,,
729706441.755101,-3.053335,2.428506,166.927893,-0.060272,-0.057068,0.988541,0.043279,0.035073,0.041064,88.872772,14.611572,-146.411911,,,
729706441.758592,-3.053335,2.428506,166.927893,-0.060272,-0.057068,0.988541,0.043279,0.035073,0.041064,88.857635,14.59166,-146.451843,,,
729706441.761778,-3.039432,2.433722,166.939899,-0.058273,-0.054642,0.982666,0.047756,0.012373,0.043323,88.857635,14.59166,-146.451843,,,
729706441.765105,-3.026216,2.434819,166.951685,-0.058273,-0.054642,0.982666,0.047756,0.012373,0.043323,88.857635,14.59166,-146.451843,,,
729706441.768454,-3.026216,2.434819,166.951685,-0.058273,-0.054642,0.982666,0.047756,0.012373,0.043323,88.857635,14.59166,-146.451843,,,
729706441.771841,-3.013678,2.430306,166.963091,-0.056549,-0.051147,0.975479,0.040714,-0.022048,0.040566,88.857635,14.59166,-146.451843,,,
729706441.775089,-3.002951,2.423547,166.974168,-0.056549,-0.051147,0.975479,0.040714,-0.022048,0.040566,88.857635,14.59166,-146.451843,,,
729706441.778449,-3.002951,2.423547,166.974168,-0.056549,-0.051147,0.975479,0.040714,-0.022048,0.040566,88.857635,14.59166,-146.451843,,,
729706441.781753,-2.993255,2.411292,166.984483,-0.050003,-0.049072,0.96994,0.029489,-0.045594,0.035492,88.857635,14.59166,-146.451843,,,
729706441.785096,-2.985833,2.399689,166.995011,-0.050003,-0.049072,0.96994,0.029489,-0.045594,0.035492,88.857635,14.59166,-146.451843,,,
729706441.788446,-2.985833,2.399689,166.995011,-0.050003,-0.049072,0.96994,0.029489,-0.045594,0.035492,88.857635,14.59166,-146.451843,,,
729706441.791772,-2.979529,2.384582,167.005574,-0.048843,-0.050034,0.974899,0.017672,-0.051591,0.036206,88.857635,14.59166,-146.451843,,,
729706441.795099,-2.975374,2.373441,167.016099,-0.048843,-0.050034,0.974899,0.017672,-0.051591,0.036206,88.857635,14.59166,-146.451843,,,
729706441.798435,-2.975374,2.373441,167.016099,-0.048843,-0.050034,0.974899,0.017672,-0.051591,0.036206,88.770172,14.389374,-146.391235,,,
729706441.801786,-2.97252,2.35887,167.026501,-0.044174,-0.050217,0.979126,0.004456,-0.046832,0.036312,88.770172,14.389374,-146.391235,,,
729706441.805105,-2.972355,2.350685,167.037672,-0.044174,-0.050217,0.979126,0.004456,-0.046832,0.036312,88.770172,14.389374,-146.391235,,,
729706441.808507,-2.972355,2.350685,167.037672,-0.044174,-0.050217,0.979126,0.004456,-0.046832,0.036312,88.770172,14.389374,-146.391235,,,
729706441.811755,-2.971853,2.339143,167.04879,-0.038879,-0.050827,0.982361,-0.000565,-0.037666,0.037445,88.770172,14.389374,-146.391235,,,
729706441.815099,-2.973239,2.332889,167.060488,-0.038879,-0.050827,0.982361,-0.000565,-0.037666,0.037445,88.770172,14.389374,-146.391235,,,
729706441.818446,-2.973239,2.332889,167.060488,-0.038879,-0.050827,0.982361,-0.000565,-0.037666,0.037445,88.770172,14.389374,-146.391235,,,
729706441.821835,-2.975066,2.323703,167.071997,-0.032852,-0.050858,0.982117,-0.008825,-0.029506,0.037306,88.770172,14.389374,-146.391235,,,
729706441.825098,-2.978544,2.318877,167.083527,-0.032852,-0.050858,0.982117,-0.008825,-0.029506,0.037306,88.770172,14.389374,-146.391235,,,
729706441.828453,-2.978544,2.318877,167.083527,-0.032852,-0.050858,0.982117,-0.008825,-0.029506,0.037306,88.770172,14.389374,-146.391235,,,
729706441.83176,-2.981989,2.311321,167.093951,-0.031235,-0.051025,0.981323,-0.012676,-0.023246,0.030728,88.770172,14.389374,-146.391235,,,
729706441.8351,-2.985844,2.307032,167.10317,-0.031235,-0.051025,0.981323,-0.012676,-0.023246,0.030728,88.770172,14.389374,-146.391235,,,
729706441.838511,-2.985844,2.307032,167.10317,-0.031235,-0.051025,0.981323,-0.012676,-0.023246,0.030728,88.85022,14.529449,-146.558914,,,
729706441.841779,-2.989144,2.300427,167.111554,-0.02742,-0.0522,0.98407,-0.012253,-0.019186,0.025949,88.85022,14.529449,-146.558914,,,
729706441.845104,-2.991896,2.29721,167.118932,-0.02742,-0.0522,0.98407,-0.012253,-0.019186,0.025949,88.85022,14.529449,-146.558914,,,
729706441.848498,-2.991896,2.29721,167.118932,-0.02742,-0.0522,0.98407,-0.012253,-0.019186,0.025949,88.85022,14.529449,-146.558914,,,
729706441.851794,-2.99354,2.291888,167.124867,-0.026031,-0.055405,0.987991,-0.004926,-0.013583,0.017252,88.85022,14.529449,-146.558914,,,
729706441.855211,-2.995015,2.289835,167.130281,-0.026031,-0.055405,0.987991,-0.004926,-0.013583,0.017252,88.85022,14.529449,-146.558914,,,
729706441.85844,-2.995015,2.289835,167.130281,-0.026031,-0.055405,0.987991,-0.004926,-0.013583,0.017252,88.85022,14.529449,-146.558914,,,
729706441.86178,-2.996772,2.28748,167.135182,-0.022995,-0.055328,0.994156,-0.005563,-0.001936,0.014354,88.85022,14.529449,-146.558914,,,
729706441.865105,-2.99861,2.289156,167.140057,-0.022995,-0.055328,0.994156,-0.005563,-0.001936,0.014354,88.85022,14.529449,-146.558914,,,
729706441.86846,-2.99861,2.289156,167.140057,-0.022995,-0.055328,0.994156,-0.005563,-0.001936,0.014354,88.85022,14.529449,-146.558914,,,
729706441.871771,-3.000968,2.291466,167.14496,-0.025284,-0.056992,1.001724,-0.007711,0.014345,0.015063,88.85022,14.529449,-146.558914,,,
729706441.875104,-3.002909,2.296342,167.150546,-0.025284,-0.056992,1.001724,-0.007711,0.014345,0.015063,88.85022,14.529449,-146.558914,,,
729706441.878525,-3.002909,2.296342,167.150546,-0.025284,-0.056992,1.001724,-0.007711,0.014345,0.015063,88.752167,14.648499,-146.453049,,,
729706441.881801,-3.005402,2.299573,167.15695,-0.02832,-0.059113,1.001938,-0.011273,0.010853,0.021047,88.752167,14.648499,-146.453049,,,
729706441.885115,-3.007711,2.301843,167.163137,-0.02832,-0.059113,1.001938,-0.011273,0.010853,0.021047,88.752167,14.648499,-146.453049,,,
729706441.888536,-3.007711,2.301843,167.163137,-0.02832,-0.059113,1.001938,-0.011273,0.010853,0.021047,88.752167,14.648499,-146.453049,,,
729706441.891631,-3.010064,2.301725,167.16878,-0.029785,-0.05925,0.999481,-0.010072,-0.002284,0.017494,88.752167,14.648499,-146.453049,,,
729706441.895125,-3.012403,2.298537,167.174095,-0.029785,-0.05925,0.999481,-0.010072,-0.002284,0.017494,88.752167,14.648499,-146.453049,,,
729706441.89846,-3.012403,2.298537,167.174095,-0.029785,-0.05925,0.999481,-0.010072,-0.002284,0.017494,88.752167,14.648499,-146.453049,,,
729706441.901846,-3.01552,2.293235,167.178408,-0.031631,-0.05661,0.995529,-0.013889,-0.021598,0.01008,88.752167,14.648499,-146.453049,,,
729706441.905094,-3.019464,2.282846,167.180873,-0.031631,-0.05661,0.995529,-0.013889,-0.021598,0.01008,88.752167,14.648499,-146.453049,,,
729706441.908477,-3.019464,2.282846,167.180873,-0.031631,-0.05661,0.995529,-0.013889,-0.021598,0.01008,88.752167,14.648499,-146.453049,,,
729706441.911776,-3.023877,2.269823,167.182017,-0.030823,-0.050064,0.991638,-0.01608,-0.048747,0.000301,88.752167,14.648499,-146.453049,,,
729706441.915099,-3.027933,2.252031,167.18173,-0.030823,-0.050064,0.991638,-0.01608,-0.048747,0.000301,88.752167,14.648499,-146.453049,,,
729706441.918444,-3.027933,2.252031,167.18173,-0.030823,-0.050064,0.991638,-0.01608,-0.048747,0.000301,88.752167,14.648499,-146.453049,,,
729706441.921788,-3.031254,2.234195,167.180065,-0.029236,-0.04982,0.992935,-0.00945,-0.060552,-0.009666,88.733017,14.617004,-146.600342,,,
729706441.925104,-3.034605,2.21383,167.177007,-0.029236,-0.04982,0.992935,-0.00945,-0.060552,-0.009666,88.733017,14.617004,-146.600342,,,
729706441.928506,-3.034605,2.21383,167.177007,-0.029236,-0.04982,0.992935,-0.00945,-0.060552,-0.009666,88.733017,14.617004,-146.600342,,,
729706441.931774,-3.037894,2.197205,167.173071,-0.025497,-0.051071,1.001068,-0.01101,-0.049763,-0.016623,88.733017,14.617004,-146.600342,,,
729706441.935155,-3.041683,2.181104,167.168149,-0.025497,-0.051071,1.001068,-0.01101,-0.049763,-0.016623,88.733017,14.617004,-146.600342,,,
729706441.938567,-3.041683,2.181104,167.168149,-0.025497,-0.051071,1.001068,-0.01101,-0.049763,-0.016623,88.733017,14.617004,-146.600342,,,
729706441.941772,-3.044536,2.171087,167.162913,-0.020767,-0.051804,1.007599,-0.007546,-0.023693,-0.019548,88.733017,14.617004,-146.600342,,,
729706441.945118,-3.04719,2.162261,167.157955,-0.020767,-0.051804,1.007599,-0.007546,-0.023693,-0.019548,88.733017,14.617004,-146.600342,,,
729706441.948443,-3.04719,2.162261,167.157955,-0.020767,-0.051804,1.007599,-0.007546,-0.023693,-0.019548,88.733017,14.617004,-146.600342,,,
729706441.951805,-3.048321,2.160838,167.153379,-0.023544,-0.055511,1.015549,0.0001,0.007732,-0.017661,88.733017,14.617004,-146.600342,,,
729706441.955105,-3.048904,2.161752,167.148927,-0.023544,-0.055511,1.015549,0.0001,0.007732,-0.017661,88.733017,14.617004,-146.600342,,,
729706441.958436,-3.048904,2.161752,167.148927,-0.023544,-0.055511,1.015549,0.0001,0.007732,-0.017661,88.733017,14.617004,-146.600342,,,
729706441.961771,-3.047317,2.167883,167.145544,-0.026489,-0.056763,1.014709,0.009331,0.030632,-0.010585,88.826355,14.761353,-146.575775,,,
729706441.96511,-3.044682,2.175127,167.142948,-0.026489,-0.056763,1.014709,0.009331,0.030632,-0.010585,88.826355,14.761353,-146.575775,,,
729706441.968451,-3.044682,2.175127,167.142948,-0.026489,-0.056763,1.014709,0.009331,0.030632,-0.010585,88.826355,14.761353,-146.575775,,,
729706441.971774,-3.039389,2.185412,167.140708,-0.033264,-0.05719,1.009445,0.021687,0.039856,-0.008292,88.826355,14.761353,-146.575775,,,
729706441.975097,-3.034324,2.194866,167.13866,-0.033264,-0.05719,1.009445,0.021687,0.039856,-0.008292,88.826355,14.761353,-146.575775,,,
729706441.978435,-3.034324,2.194866,167.13866,-0.033264,-0.05719,1.009445,0.021687,0.039856,-0.008292,88.826355,14.761353,-146.575775,,,
729706441.981768,-3.02867,2.205828,167.137107,-0.037872,-0.052673,1.003815,0.020382,0.039845,-0.00547,88.826355,14.761353,-146.575775,,,
729706441.985101,-3.023158,2.214505,167.135724,-0.037872,-0.052673,1.003815,0.020382,0.039845,-0.00547,88.826355,14.761353,-146.575775,,,
729706441.988429,-3.023158,2.214505,167.135724,-0.037872,-0.052673,1.003815,0.020382,0.039845,-0.00547,88.826355,14.761353,-146.575775,,,
729706441.991838,-3.018256,2.223108,167.134644,-0.043137,-0.048157,0.995651,0.015842,0.030378,-0.00401,88.826355,14.761353,-146.575775,,,
729706441.995092,-3.013897,2.227875,167.133385,-0.043137,-0.048157,0.995651,0.015842,0.030378,-0.00401,88.826355,14.761353,-146.575775,,,
729706441.998433,-3.013897,2.227875,167.133385,-0.043137,-0.048157,0.995651,0.015842,0.030378,-0.00401,88.826355,14.761353,-146.575775,,,
729706442.001771,-3.010735,2.231232,167.132277,-0.047424,-0.048813,0.991608,0.010834,0.008946,-0.003757,88.708466,14.616608,-146.296371,,,
729706442.005108,-3.00808,2.229837,167.130907,-0.047424,-0.048813,0.991608,0.010834,0.008946,-0.003757,88.708466,14.616608,-146.296371,,,
729706442.008434,-3.00808,2.229837,167.130907,-0.047424,-0.048813,0.991608,0.010834,0.008946,-0.003757,88.708466,14.616608,-146.296371,,,
729706442.011769,-3.006467,2.228319,167.129505,-0.047287,-0.048706,0.988739,0.005678,-0.005801,-0.004908,88.708466,14.616608,-146.296371,,,
729706442.015101,-3.004504,2.221438,167.127919,-0.047287,-0.048706,0.988739,0.005678,-0.005801,-0.004908,88.708466,14.616608,-146.296371,,,
729706442.018429,-3.004504,2.221438,167.127919,-0.047287,-0.048706,0.988739,0.005678,-0.005801,-0.004908,88.708466,14.616608,-146.296371,,,
729706442.021764,-3.002993,2.216683,167.125953,-0.046692,-0.048538,0.989395,0.00473,-0.013286,-0.008772,88.708466,14.616608,-146.296371,,,
729706442.0251,-3.001828,2.208453,167.123846,-0.046692,-0.048538,0.989395,0.00473,-0.013286,-0.008772,88.708466,14.616608,-146.296371,,,
729706442.02843,-3.001828,2.208453,167.123846,-0.046692,-0.048538,0.989395,0.00473,-0.013286,-0.008772,88.708466,14.616608,-146.296371,,,
729706442.031864,-3.000235,2.203065,167.122247,-0.047485,-0.051697,0.992218,0.006871,-0.015744,-0.006341,88.708466,14.616608,-146.296371,,,
729706442.035099,-2.998637,2.195247,167.120626,-0.047485,-0.051697,0.992218,0.006871,-0.015744,-0.006341,88.708466,14.616608,-146.296371,,,
729706442.038435,-2.998637,2.195247,167.120626,-0.047485,-0.051697,0.992218,0.006871,-0.015744,-0.006341,88.708466,14.616608,-146.296371,,,
729706442.041768,-2.996534,2.190809,167.119587,-0.040878,-0.051559,0.994751,0.007785,-0.010415,-0.003214,88.666321,14.595428,-146.1427,,,
729706442.045102,-2.994676,2.185467,167.118764,-0.040878,-0.051559,0.994751,0.007785,-0.010415,-0.003214,88.666321,14.595428,-146.1427,,,
729706442.048429,-2.994676,2.185467,167.118764,-0.040878,-0.051559,0.994751,0.007785,-0.010415,-0.003214,88.666321,14.595428,-146.1427,,,
729706442.051778,-2.99184,2.183535,167.117811,-0.041,-0.053238,1.002411,0.011296,0.001035,-0.004619,88.666321,14.595428,-146.1427,,,
729706442.055182,-2.989343,2.18404,167.11693,-0.041,-0.053238,1.002411,0.011296,0.001035,-0.004619,88.666321,14.595428,-146.1427,,,
729706442.058528,-2.989343,2.18404,167.11693,-0.041,-0.053238,1.002411,0.011296,0.001035,-0.004619,88.666321,14.595428,-146.1427,,,
729706442.061815,-2.986569,2.187895,167.116638,-0.039536,-0.054214,1.005875,0.010134,0.020671,-0.000719,88.666321,14.595428,-146.1427,,,
729706442.065095,-2.983485,2.194141,167.117347,-0.039536,-0.054214,1.005875,0.010134,0.020671,-0.000719,88.666321,14.595428,-146.1427,,,
729706442.068515,-2.983485,2.194141,167.117347,-0.039536,-0.054214,1.005875,0.010134,0.020671,-0.000719,88.666321,14.595428,-146.1427,,,
729706442.071804,-2.980444,2.201579,167.118817,-0.041946,-0.055847,1.004074,0.011932,0.030627,0.004727,88.666321,14.595428,-146.1427,,,
729706442.075111,-2.976688,2.21088,167.121183,-0.041946,-0.055847,1.004074,0.011932,0.030627,0.004727,88.666321,14.595428,-146.1427,,,
729706442.078456,-2.976688,2.21088,167.121183,-0.041946,-0.055847,1.004074,0.011932,0.030627,0.004727,88.666321,14.595428,-146.1427,,,
729706442.081845,-2.973667,2.218653,167.124278,-0.045334,-0.054016,1.001343,0.009792,0.030199,0.010271,88.666321,14.595428,-146.1427,,,
729706442.085105,-2.970585,2.227812,167.127668,-0.045334,-0.054016,1.001343,0.009792,0.030199,0.010271,88.913101,14.457321,-146.306427,,,
729706442.088463,-2.970585,2.227812,167.127668,-0.045334,-0.054016,1.001343,0.009792,0.030199,0.010271,88.913101,14.457321,-146.306427,,,
729706442.091796,-2.968669,2.233531,167.131176,-0.045181,-0.051819,0.996231,0.004063,0.01871,0.011496,88.913101,14.457321,-146.306427,,,
729706442.095181,-2.966435,2.238773,167.134962,-0.045181,-0.051819,0.996231,0.004063,0.01871,0.011496,88.913101,14.457321,-146.306427,,,
729706442.098446,-2.966435,2.238773,167.134962,-0.045181,-0.051819,0.996231,0.004063,0.01871,0.011496,88.913101,14.457321,-146.306427,,,
729706442.101805,-2.96464,2.240841,167.138889,-0.049911,-0.050781,0.990616,0.004285,0.005994,0.012982,88.913101,14.457321,-146.306427,,,
729706442.105105,-2.963438,2.243073,167.14287,-0.049911,-0.050781,0.990616,0.004285,0.005994,0.012982,88.913101,14.457321,-146.306427,,,
729706442.108503,-2.963438,2.243073,167.14287,-0.049911,-0.050781,0.990616,0.004285,0.005994,0.012982,88.913101,14.457321,-146.306427,,,
729706442.111764,-2.963324,2.24221,167.146422,-0.047577,-0.05072,0.986771,-0.002164,-0.003231,0.01038,88.913101,14.457321,-146.306427,,,
729706442.115104,-2.964458,2.241133,167.15031,-0.047577,-0.05072,0.986771,-0.002164,-0.003231,0.01038,88.913101,14.457321,-146.306427,,,
729706442.11846,-2.964458,2.241133,167.15031,-0.047577,-0.05072,0.986771,-0.002164,-0.003231,0.01038,88.913101,14.457321,-146.306427,,,
729706442.12177,-2.966983,2.238233,167.154047,-0.044174,-0.050522,0.985077,-0.012988,-0.007065,0.009343,88.913101,14.457321,-146.306427,,,
729706442.125111,-2.970465,2.235441,167.157584,-0.044174,-0.050522,0.985077,-0.012988,-0.007065,0.009343,88.808792,14.543625,-146.171722,,,
729706442.128368,-2.970465,2.235441,167.157584,-0.044174,-0.050522,0.985077,-0.012988,-0.007065,0.009343,88.808792,14.543625,-146.171722,,,
729706442.131845,-2.973558,2.231373,167.160792,-0.040192,-0.054825,0.987091,-0.011116,-0.0139,0.00724,88.808792,14.543625,-146.171722,,,
729706442.135098,-2.975955,2.2272,167.163545,-0.040192,-0.054825,0.987091,-0.011116,-0.0139,0.00724,88.808792,14.543625,-146.171722,,,
729706442.13846,-2.975955,2.2272,167.163545,-0.040192,-0.054825,0.987091,-0.011116,-0.0139,0.00724,88.808792,14.543625,-146.171722,,,
729706442.141793,-2.976055,2.223192,167.166495,-0.037231,-0.061661,0.996048,0.003536,-0.010715,0.009305,88.808792,14.543625,-146.171722,,,
729706442.145102,-2.974796,2.220543,167.169786,-0.037231,-0.061661,0.996048,0.003536,-0.010715,0.009305,88.808792,14.543625,-146.171722,,,
729706442.14846,-2.974796,2.220543,167.169786,-0.037231,-0.061661,0.996048,0.003536,-0.010715,0.009305,88.808792,14.543625,-146.171722,,,
729706442.151776,-2.97163,2.219751,167.17346,-0.038605,-0.062546,1.003296,0.013885,0.002454,0.012372,88.808792,14.543625,-146.171722,,,
729706442.155106,-2.967458,2.221334,167.177497,-0.038605,-0.062546,1.003296,0.013885,0.002454,0.012372,88.808792,14.543625,-146.171722,,,
729706442.158503,-2.967458,2.221334,167.177497,-0.038605,-0.062546,1.003296,0.013885,0.002454,0.012372,88.808792,14.543625,-146.171722,,,
729706442.161792,-2.961735,2.223325,167.181938,-0.036072,-0.059631,1.001175,0.022066,0.010906,0.015815,88.808792,14.543625,-146.171722,,,
729706442.165103,-2.955373,2.227085,167.186783,-0.036072,-0.059631,1.001175,0.022066,0.010906,0.015815,88.730453,14.580215,-146.370255,,,
729706442.168442,-2.955373,2.227085,167.186783,-0.036072,-0.059631,1.001175,0.022066,0.010906,0.015815,88.730453,14.580215,-146.370255,,,
729706442.171806,-2.948754,2.229622,167.191632,-0.036011,-0.054001,0.998138,0.022757,0.011815,0.016409,88.730453,14.580215,-146.370255,,,
729706442.175104,-2.942498,2.233863,167.196646,-0.036011,-0.054001,0.998138,0.022757,0.011815,0.016409,88.730453,14.580215,-146.370255,,,
729706442.178468,-2.942498,2.233863,167.196646,-0.036011,-0.054001,0.998138,0.022757,0.011815,0.016409,88.730453,14.580215,-146.370255,,,
729706442.181863,-2.937396,2.236262,167.201871,-0.036469,-0.050888,0.990875,0.015551,0.010382,0.018206,88.730453,14.580215,-146.370255,,,
729706442.185091,-2.933608,2.240205,167.206989,-0.036469,-0.050888,0.990875,0.015551,0.010382,0.018206,88.730453,14.580215,-146.370255,,,
729706442.188463,-2.933608,2.240205,167.206989,-0.036469,-0.050888,0.990875,0.015551,0.010382,0.018206,88.730453,14.580215,-146.370255,,,
729706442.191769,-2.931269,2.240856,167.211291,-0.038422,-0.049469,0.984131,0.004765,0.003435,0.012889,88.730453,14.580215,-146.370255,,,
729706442.195098,-2.930614,2.241727,167.214882,-0.038422,-0.049469,0.984131,0.004765,0.003435,0.012889,88.730453,14.580215,-146.370255,,,
729706442.198435,-2.930614,2.241727,167.214882,-0.038422,-0.049469,0.984131,0.004765,0.003435,0.012889,88.730453,14.580215,-146.370255,,,
729706442.201811,-2.93103,2.23993,167.21762,-0.034348,-0.046204,0.982742,-0.002063,-0.005881,0.007127,88.730453,14.580215,-146.370255,,,
729706442.20513,-2.932732,2.23837,167.219822,-0.034348,-0.046204,0.982742,-0.002063,-0.005881,0.007127,88.730453,14.580215,-146.370255,,,
729706442.208509,-2.932732,2.23837,167.219822,-0.034348,-0.046204,0.982742,-0.002063,-0.005881,0.007127,88.65564,14.353256,-146.463455,,,
729706442.211774,-2.934742,2.236047,167.221618,-0.035416,-0.048859,0.987228,-0.006298,-0.004782,0.004474,88.65564,14.353256,-146.463455,,,
729706442.2151,-2.937908,2.233646,167.223397,-0.035416,-0.048859,0.987228,-0.006298,-0.004782,0.004474,88.65564,14.353256,-146.463455,,,
729706442.218444,-2.937908,2.233646,167.223397,-0.035416,-0.048859,0.987228,-0.006298,-0.004782,0.004474,88.65564,14.353256,-146.463455,,,
729706442.221856,-2.940331,2.231839,167.225153,-0.033951,-0.053253,0.989777,-0.008611,-0.001374,0.004161,88.65564,14.353256,-146.463455,,,
729706442.225087,-2.944604,2.230863,167.227551,-0.033951,-0.053253,0.989777,-0.008611,-0.001374,0.004161,88.65564,14.353256,-146.463455,,,
729706442.228458,-2.944604,2.230863,167.227551,-0.033951,-0.053253,0.989777,-0.008611,-0.001374,0.004161,88.65564,14.353256,-146.463455,,,
729706442.231795,-2.946681,2.231227,167.230974,-0.03595,-0.055267,0.993423,-0.004873,0.007264,0.011404,88.65564,14.353256,-146.463455,,,
729706442.235093,-2.949429,2.23202,167.234916,-0.03595,-0.055267,0.993423,-0.004873,0.007264,0.011404,88.65564,14.353256,-146.463455,,,
729706442.238534,-2.949429,2.23202,167.234916,-0.03595,-0.055267,0.993423,-0.004873,0.007264,0.011404,88.65564,14.353256,-146.463455,,,
729706442.241766,-2.950728,2.233484,167.239313,-0.035583,-0.053558,0.993927,-0.004392,0.007734,0.014361,88.65564,14.353256,-146.463455,,,
729706442.245112,-2.952834,2.234272,167.244228,-0.035583,-0.053558,0.993927,-0.004392,0.007734,0.014361,88.65564,14.353256,-146.463455,,,
729706442.248506,-2.952834,2.234272,167.244228,-0.035583,-0.053558,0.993927,-0.004392,0.007734,0.014361,88.792831,14.434189,-146.500183,,,
729706442.251774,-2.954493,2.234447,167.248796,-0.033279,-0.050583,0.991135,-0.006756,0.000674,0.01171,88.792831,14.434189,-146.500183,,,
729706442.255093,-2.955833,2.232828,167.251858,-0.033279,-0.050583,0.991135,-0.006756,0.000674,0.01171,88.792831,14.434189,-146.500183,,,
729706442.25846,-2.955833,2.232828,167.251858,-0.033279,-0.050583,0.991135,-0.006756,0.000674,0.01171,88.792831,14.434189,-146.500183,,,
729706442.261838,-2.957039,2.231401,167.253315,-0.031952,-0.050217,0.992096,-0.005347,-0.002273,0.000327,88.792831,14.434189,-146.500183,,,
729706442.265122,-2.958684,2.229626,167.252943,-0.031952,-0.050217,0.992096,-0.005347,-0.002273,0.000327,88.792831,14.434189,-146.500183,,,
729706442.268461,-2.958684,2.229626,167.252943,-0.031952,-0.050217,0.992096,-0.005347,-0.002273,0.000327,88.792831,14.434189,-146.500183,,,
729706442.271786,-2.960756,2.227649,167.25093,-0.03421,-0.047028,0.992264,-0.007285,-0.00341,-0.011206,88.792831,14.434189,-146.500183,,,
729706442.275151,-2.962851,2.224847,167.248114,-0.03421,-0.047028,0.992264,-0.007285,-0.00341,-0.011206,88.792831,14.434189,-146.500183,,,
729706442.278446,-2.962851,2.224847,167.248114,-0.03421,-0.047028,0.992264,-0.007285,-0.00341,-0.011206,88.792831,14.434189,-146.500183,,,
729706442.281772,-2.966366,2.221879,167.246064,-0.038971,-0.048218,0.990097,-0.014159,-0.007599,-0.006263,88.792831,14.434189,-146.500183,,,
729706442.285141,-2.970294,2.21848,167.24502,-0.038971,-0.048218,0.990097,-0.014159,-0.007599,-0.006263,88.792831,14.434189,-146.500183,,,
729706442.2885,-2.970294,2.21848,167.24502,-0.038971,-0.048218,0.990097,-0.014159,-0.007599,-0.006263,88.581711,14.725739,-146.348648,,,
729706442.291782,-2.975619,2.216039,167.243957,-0.037903,-0.048157,0.989777,-0.018804,-0.004702,-0.006752,88.581711,14.725739,-146.348648,,,
729706442.295112,-2.981458,2.214209,167.243777,-0.037903,-0.048157,0.989777,-0.018804,-0.004702,-0.006752,88.581711,14.725739,-146.348648,,,
729706442.298448,-2.981458,2.214209,167.243777,-0.037903,-0.048157,0.989777,-0.018804,-0.004702,-0.006752,88.581711,14.725739,-146.348648,,,
729706442.301834,-2.987438,2.214668,167.244764,-0.039688,-0.050537,0.994675,-0.020266,0.007114,0.001135,88.581711,14.725739,-146.348648,,,
729706442.305163,-2.994162,2.216029,167.246129,-0.039688,-0.050537,0.994675,-0.020266,0.007114,0.001135,88.581711,14.725739,-146.348648,,,
729706442.308447,-2.994162,2.216029,167.246129,-0.039688,-0.050537,0.994675,-0.020266,0.007114,0.001135,88.581711,14.725739,-146.348648,,,
729706442.311873,-3.000873,2.220698,167.248224,-0.039612,-0.05336,0.99675,-0.023398,0.023946,0.005767,88.581711,14.725739,-146.348648,,,
729706442.315141,-3.00817,2.227289,167.250458,-0.039612,-0.05336,0.99675,-0.023398,0.023946,0.005767,88.581711,14.725739,-146.348648,,,
729706442.318434,-3.00817,2.227289,167.250458,-0.039612,-0.05336,0.99675,-0.023398,0.023946,0.005767,88.581711,14.725739,-146.348648,,,
729706442.321766,-3.015133,2.235766,167.252692,-0.036804,-0.052765,1.001205,-0.023003,0.034337,0.0056,88.581711,14.725739,-146.348648,,,
729706442.325141,-3.022288,2.243919,167.254659,-0.036804,-0.052765,1.001205,-0.023003,0.034337,0.0056,88.581711,14.725739,-146.348648,,,
729706442.328439,-3.022288,2.243919,167.254659,-0.036804,-0.052765,1.001205,-0.023003,0.034337,0.0056,88.642151,14.559464,-146.366211,,,
729706442.33177,-3.029436,2.253777,167.256632,-0.041458,-0.055298,1.006805,-0.022724,0.039571,0.005336,88.642151,14.559464,-146.366211,,,
729706442.335135,-3.035708,2.262525,167.25811,-0.041458,-0.055298,1.006805,-0.022724,0.039571,0.005336,88.642151,14.559464,-146.366211,,,
729706442.338439,-3.035708,2.262525,167.25811,-0.041458,-0.055298,1.006805,-0.022724,0.039571,0.005336,88.642151,14.559464,-146.366211,,,
729706442.341838,-3.041738,2.271271,167.259076,-0.042267,-0.057007,1.007797,-0.018827,0.030966,0.001469,88.642151,14.559464,-146.366211,,,
729706442.345145,-3.045287,2.276321,167.260171,-0.042267,-0.057007,1.007797,-0.018827,0.030966,0.001469,88.642151,14.559464,-146.366211,,,
729706442.34845,-3.045287,2.276321,167.260171,-0.042267,-0.057007,1.007797,-0.018827,0.030966,0.001469,88.642151,14.559464,-146.366211,,,
729706442.351846,-3.047686,2.279815,167.261177,-0.047348,-0.058243,1.009262,-0.00676,0.010462,0.000812,88.642151,14.559464,-146.366211,,,
729706442.355128,-3.047047,2.280312,167.261696,-0.047348,-0.058243,1.009262,-0.00676,0.010462,0.000812,88.642151,14.559464,-146.366211,,,
729706442.35846,-3.047047,2.280312,167.261696,-0.047348,-0.058243,1.009262,-0.00676,0.010462,0.000812,88.642151,14.559464,-146.366211,,,
729706442.361769,-3.044595,2.278471,167.262208,-0.048233,-0.059067,1.00914,0.011824,-0.009288,0.001278,88.642151,14.559464,-146.366211,,,
729706442.365171,-3.040165,2.273839,167.262724,-0.048233,-0.059067,1.00914,0.011824,-0.009288,0.001278,88.642151,14.559464,-146.366211,,,
729706442.368438,-3.040165,2.273839,167.262724,-0.048233,-0.059067,1.00914,0.011824,-0.009288,0.001278,88.642151,14.559464,-146.366211,,,
729706442.371766,-3.035917,2.267612,167.262598,-0.044693,-0.055344,1.007248,0.015767,-0.020309,-0.003032,88.686798,14.725479,-146.30896,,,
729706442.375165,-3.030977,2.261039,167.261723,-0.044693,-0.055344,1.007248,0.015767,-0.020309,-0.003032,88.686798,14.725479,-146.30896,,,
729706442.378501,-3.030977,2.261039,167.261723,-0.044693,-0.055344,1.007248,0.015767,-0.020309,-0.003032,88.686798,14.725479,-146.30896,,,
729706442.38176,-3.026565,2.255475,167.260492,-0.039993,-0.053101,1.007828,0.015414,-0.014029,-0.005527,88.686798,14.725479,-146.30896,,,
729706442.385174,-3.022663,2.251032,167.259016,-0.039993,-0.053101,1.007828,0.015414,-0.014029,-0.005527,88.686798,14.725479,-146.30896,,,
729706442.388468,-3.022663,2.251032,167.259016,-0.039993,-0.053101,1.007828,0.015414,-0.014029,-0.005527,88.686798,14.725479,-146.30896,,,
729706442.391862,-3.018994,2.24711,167.257299,-0.040588,-0.055649,1.006775,0.01427,-0.00857,-0.007169,88.686798,14.725479,-146.30896,,,
729706442.395148,-3.015446,2.2441,167.255472,-0.040588,-0.055649,1.006775,0.01427,-0.00857,-0.007169,88.686798,14.725479,-146.30896,,,
729706442.398451,-3.015446,2.2441,167.255472,-0.040588,-0.055649,1.006775,0.01427,-0.00857,-0.007169,88.686798,14.725479,-146.30896,,,
729706442.401791,-3.011814,2.242433,167.25396,-0.037094,-0.05632,1.004333,0.014134,-0.001502,-0.00509,88.686798,14.725479,-146.30896,,,
729706442.405222,-3.008533,2.241996,167.253072,-0.037094,-0.05632,1.004333,0.014134,-0.001502,-0.00509,88.686798,14.725479,-146.30896,,,
729706442.408432,-3.008533,2.241996,167.253072,-0.037094,-0.05632,1.004333,0.014134,-0.001502,-0.00509,88.686798,14.725479,-146.30896,,,
729706442.411788,-3.004983,2.243262,167.252546,-0.037598,-0.057343,1.004288,0.015136,0.009726,-0.002592,88.709183,14.530487,-146.274719,,,
729706442.415146,-3.00091,2.245728,167.252707,-0.037598,-0.057343,1.004288,0.015136,0.009726,-0.002592,88.709183,14.530487,-146.274719,,,
729706442.418483,-3.00091,2.245728,167.252707,-0.037598,-0.057343,1.004288,0.015136,0.009726,-0.002592,88.709183,14.530487,-146.274719,,,
729706442.421767,-2.994929,2.247824,167.253264,-0.04071,-0.056183,1.006088,0.024829,0.010541,0.000737,88.709183,14.530487,-146.274719,,,
729706442.4251,-2.994929,2.247824,167.253264,-0.04071,-0.056183,1.006088,0.024829,0.010541,0.000737,88.709183,14.530487,-146.274719,,,
729706442.428451,-2.988095,2.250809,167.253863,-0.04071,-0.056183,1.006088,0.024829,0.010541,0.000737,88.709183,14.530487,-146.274719,,,
729706442.43185,-2.979142,2.252384,167.254215,-0.040222,-0.052277,1.003723,0.034957,0.006628,-0.000244,88.709183,14.530487,-146.274719,,,
729706442.435103,-2.979142,2.252384,167.254215,-0.040222,-0.052277,1.003723,0.034957,0.006628,-0.000244,88.709183,14.530487,-146.274719,,,
729706442.438437,-2.970239,2.254815,167.253684,-0.040222,-0.052277,1.003723,0.034957,0.006628,-0.000244,88.709183,14.530487,-146.274719,,,
729706442.441781,-2.960295,2.255354,167.251984,-0.0383,-0.047577,0.999847,0.03574,0.005032,-0.007751,88.709183,14.530487,-146.274719,,,
729706442.44517,-2.960295,2.255354,167.251984,-0.0383,-0.047577,0.999847,0.03574,0.005032,-0.007751,88.709183,14.530487,-146.274719,,,
729706442.448426,-2.951143,2.25649,167.249821,-0.0383,-0.047577,0.999847,0.03574,0.005032,-0.007751,88.709183,14.530487,-146.274719,,,
729706442.451767,-2.941869,2.255726,167.247004,-0.040375,-0.047745,0.99556,0.031889,0.000808,-0.012009,88.588318,14.597961,-146.581772,,,
729706442.455118,-2.941869,2.255726,167.247004,-0.040375,-0.047745,0.99556,0.031889,0.000808,-0.012009,88.588318,14.597961,-146.581772,,,
729706442.458497,-2.933619,2.255046,167.243838,-0.040375,-0.047745,0.99556,0.031889,0.000808,-0.012009,88.588318,14.597961,-146.581772,,,
729706442.461764,-2.925474,2.253199,167.241379,-0.039902,-0.048645,0.99295,0.028308,-0.004617,-0.007077,88.588318,14.597961,-146.581772,,,
729706442.465118,-2.925474,2.253199,167.241379,-0.039902,-0.048645,0.99295,0.028308,-0.004617,-0.007077,88.588318,14.597961,-146.581772,,,
729706442.468514,-2.918198,2.250654,167.239785,-0.039902,-0.048645,0.99295,0.028308,-0.004617,-0.007077,88.588318,14.597961,-146.581772,,,
729706442.471819,-2.911846,2.248806,167.238423,-0.039093,-0.046814,0.991013,0.019119,-0.000145,-0.00581,88.588318,14.597961,-146.581772,,,
729706442.475109,-2.911846,2.248806,167.238423,-0.039093,-0.046814,0.991013,0.019119,-0.000145,-0.00581,88.588318,14.597961,-146.581772,,,
729706442.47846,-2.907385,2.247997,167.236735,-0.039093,-0.046814,0.991013,0.019119,-0.000145,-0.00581,88.588318,14.597961,-146.581772,,,
729706442.481766,-2.902664,2.248197,167.234999,-0.035721,-0.045547,0.991516,0.015701,0.006212,-0.006289,88.588318,14.597961,-146.581772,,,
729706442.485174,-2.902664,2.248197,167.234999,-0.035721,-0.045547,0.991516,0.015701,0.006212,-0.006289,88.588318,14.597961,-146.581772,,,
729706442.488432,-2.899289,2.249288,167.23344,-0.035721,-0.045547,0.991516,0.015701,0.006212,-0.006289,88.588318,14.597961,-146.581772,,,
729706442.491767,-2.895845,2.252675,167.231951,-0.03566,-0.047165,0.991821,0.010195,0.018157,-0.006239,88.594818,14.71199,-146.393204,,,
729706442.495115,-2.895845,2.252675,167.231951,-0.03566,-0.047165,0.991821,0.010195,0.018157,-0.006239,88.594818,14.71199,-146.393204,,,
729706442.498512,-2.894068,2.257068,167.230539,-0.03566,-0.047165,0.991821,0.010195,0.018157,-0.006239,88.594818,14.71199,-146.393204,,,
729706442.501762,-2.891198,2.262637,167.22971,-0.03923,-0.048172,0.995392,0.012168,0.024467,-0.002215,88.594818,14.71199,-146.393204,,,
729706442.505114,-2.891198,2.262637,167.22971,-0.03923,-0.048172,0.995392,0.012168,0.024467,-0.002215,88.594818,14.71199,-146.393204,,,
729706442.508438,-2.887937,2.269176,167.229311,-0.03923,-0.048172,0.995392,0.012168,0.024467,-0.002215,88.594818,14.71199,-146.393204,,,
729706442.511769,-2.883708,2.275263,167.229127,-0.03952,-0.049744,0.995346,0.01472,0.024502,-0.000422,88.594818,14.71199,-146.393204,,,
729706442.51512,-2.883708,2.275263,167.229127,-0.03952,-0.049744,0.995346,0.01472,0.024502,-0.000422,88.594818,14.71199,-146.393204,,,
729706442.518449,-2.879114,2.281081,167.229451,-0.03952,-0.049744,0.995346,0.01472,0.024502,-0.000422,88.594818,14.71199,-146.393204,,,
729706442.521769,-2.874549,2.286742,167.229965,-0.041122,-0.048187,0.990082,0.015355,0.02258,0.000883,88.594818,14.71199,-146.393204,,,
729706442.525098,-2.874549,2.286742,167.229965,-0.041122,-0.048187,0.990082,0.015355,0.02258,0.000883,88.594818,14.71199,-146.393204,,,
729706442.528449,-2.870543,2.291564,167.230409,-0.041122,-0.048187,0.990082,0.015355,0.02258,0.000883,88.594818,14.71199,-146.393204,,,
729706442.531779,-2.867781,2.294995,167.230263,-0.041611,-0.0457,0.984222,0.009306,0.013163,-0.00346,88.594818,14.71199,-146.393204,,,
729706442.535111,-2.867781,2.294995,167.230263,-0.041611,-0.0457,0.984222,0.009306,0.013163,-0.00346,88.782471,14.350922,-146.576218,,,
729706442.538502,-2.865323,2.296841,167.229794,-0.041611,-0.0457,0.984222,0.009306,0.013163,-0.00346,88.782471,14.350922,-146.576218,,,
729706442.541765,-2.863659,2.296633,167.229116,-0.042328,-0.044312,0.982819,0.005475,-0.000462,-0.005051,88.782471,14.350922,-146.576218,,,
729706442.545098,-2.863659,2.296633,167.229116,-0.042328,-0.044312,0.982819,0.005475,-0.000462,-0.005051,88.782471,14.350922,-146.576218,,,
729706442.548451,-2.861774,2.295333,167.228015,-0.042328,-0.044312,0.982819,0.005475,-0.000462,-0.005051,88.782471,14.350922,-146.576218,,,
729706442.551791,-2.859955,2.293357,167.22665,-0.042328,-0.046936,0.982925,0.006765,-0.004095,-0.006776,88.782471,14.350922,-146.576218,,,
729706442.555112,-2.859955,2.293357,167.22665,-0.042328,-0.046936,0.982925,0.006765,-0.004095,-0.006776,88.782471,14.350922,-146.576218,,,
729706442.558441,-2.858128,2.290395,167.224595,-0.042328,-0.046936,0.982925,0.006765,-0.004095,-0.006776,88.782471,14.350922,-146.576218,,,
729706442.561766,-2.857641,2.288209,167.222542,-0.041595,-0.046951,0.986649,0.000667,-0.001936,-0.007122,88.782471,14.350922,-146.576218,,,
729706442.565167,-2.857641,2.288209,167.222542,-0.041595,-0.046951,0.986649,0.000667,-0.001936,-0.007122,88.782471,14.350922,-146.576218,,,
729706442.568448,-2.857306,2.286067,167.221157,-0.041595,-0.046951,0.986649,0.000667,-0.001936,-0.007122,88.782471,14.350922,-146.576218,,,
729706442.571769,-2.857948,2.284986,167.220718,-0.039734,-0.049255,0.987854,-0.003294,-0.000338,-0.000968,88.782471,14.350922,-146.576218,,,
729706442.575131,-2.857948,2.284986,167.220718,-0.039734,-0.049255,0.987854,-0.003294,-0.000338,-0.000968,88.813919,14.223602,-146.435898,,,
729706442.578435,-2.858227,2.284223,167.220892,-0.039734,-0.049255,0.987854,-0.003294,-0.000338,-0.000968,88.813919,14.223602,-146.435898,,,
729706442.581765,-2.858717,2.28519,167.221519,-0.0383,-0.047791,0.990921,-0.003039,0.008337,0.002017,88.813919,14.223602,-146.435898,,,
729706442.585096,-2.858717,2.28519,167.221519,-0.0383,-0.047791,0.990921,-0.003039,0.008337,0.002017,88.813919,14.223602,-146.435898,,,
729706442.588517,-2.85977,2.286926,167.222569,-0.0383,-0.047791,0.990921,-0.003039,0.008337,0.002017,88.813919,14.223602,-146.435898,,,
729706442.591762,-2.861549,2.288865,167.223296,-0.035019,-0.047485,0.990234,-0.007093,0.009466,-0.000438,88.813919,14.223602,-146.435898,,,
729706442.595114,-2.861549,2.288865,167.223296,-0.035019,-0.047485,0.990234,-0.007093,0.009466,-0.000438,88.813919,14.223602,-146.435898,,,
729706442.598438,-2.863957,2.290679,167.224027,-0.035019,-0.047485,0.990234,-0.007093,0.009466,-0.000438,88.813919,14.223602,-146.435898,,,
729706442.60177,-2.867132,2.291539,167.224917,-0.03476,-0.0504,0.990753,-0.012456,0.003973,0.000528,88.813919,14.223602,-146.435898,,,
729706442.605114,-2.867132,2.291539,167.224917,-0.03476,-0.0504,0.990753,-0.012456,0.003973,0.000528,88.813919,14.223602,-146.435898,,,
729706442.608449,-2.870691,2.291967,167.225146,-0.03476,-0.0504,0.990753,-0.012456,0.003973,0.000528,88.813919,14.223602,-146.435898,,,
729706442.611772,-2.875356,2.291072,167.224565,-0.032501,-0.048309,0.990891,-0.017905,-0.000889,-0.005098,88.813919,14.223602,-146.435898,,,
729706442.615115,-2.875356,2.291072,167.224565,-0.032501,-0.048309,0.990891,-0.017905,-0.000889,-0.005098,88.856247,14.430832,-146.432343,,,
729706442.61845,-2.880176,2.29046,167.223288,-0.032501,-0.048309,0.990891,-0.017905,-0.000889,-0.005098,88.856247,14.430832,-146.432343,,,
729706442.621772,-2.886717,2.289658,167.221246,-0.030716,-0.04657,0.993347,-0.025291,0.001345,-0.010566,88.856247,14.430832,-146.432343,,,
729706442.625119,-2.886717,2.289658,167.221246,-0.030716,-0.04657,0.993347,-0.025291,0.001345,-0.010566,88.856247,14.430832,-146.432343,,,
729706442.628504,-2.893679,2.289732,167.218392,-0.030716,-0.04657,0.993347,-0.025291,0.001345,-0.010566,88.856247,14.430832,-146.432343,,,
729706442.631754,-2.901482,2.289281,167.215025,-0.031799,-0.050232,0.998535,-0.027081,0.003741,-0.013904,88.856247,14.430832,-146.432343,,,
729706442.635132,-2.901482,2.289281,167.215025,-0.031799,-0.050232,0.998535,-0.027081,0.003741,-0.013904,88.856247,14.430832,-146.432343,,,
729706442.638442,-2.908925,2.290504,167.211936,-0.031799,-0.050232,0.998535,-0.027081,0.003741,-0.013904,88.856247,14.430832,-146.432343,,,
729706442.641763,-2.91653,2.29336,167.209078,-0.030182,-0.052383,1.003357,-0.025792,0.016385,-0.012154,88.856247,14.430832,-146.432343,,,
729706442.645107,-2.91653,2.29336,167.209078,-0.030182,-0.052383,1.003357,-0.025792,0.016385,-0.012154,88.856247,14.430832,-146.432343,,,
729706442.648439,-2.923415,2.297934,167.206115,-0.030182,-0.052383,1.003357,-0.025792,0.016385,-0.012154,88.856247,14.430832,-146.432343,,,
729706442.651763,-2.930053,2.303502,167.202637,-0.029449,-0.055466,1.007156,-0.021985,0.026952,-0.015448,88.856247,14.430832,-146.432343,,,
729706442.655157,-2.930053,2.303502,167.202637,-0.029449,-0.055466,1.007156,-0.021985,0.026952,-0.015448,88.789734,14.564514,-146.406265,,,
729706442.658453,-2.935294,2.310131,167.198674,-0.029449,-0.055466,1.007156,-0.021985,0.026952,-0.015448,88.789734,14.564514,-146.406265,,,
729706442.661876,-2.938673,2.317087,167.194322,-0.030411,-0.061127,1.00824,-0.007245,0.028209,-0.017641,88.789734,14.564514,-146.406265,,,
729706442.665122,-2.938673,2.317087,167.194322,-0.030411,-0.061127,1.00824,-0.007245,0.028209,-0.017641,88.789734,14.564514,-146.406265,,,
729706442.668538,-2.939211,2.323451,167.189333,-0.030411,-0.061127,1.00824,-0.007245,0.028209,-0.017641,88.789734,14.564514,-146.406265,,,
729706442.671762,-2.936998,2.330404,167.183731,-0.029938,-0.064529,1.013718,0.015067,0.028304,-0.02123,88.789734,14.564514,-146.406265,,,
729706442.675125,-2.936998,2.330404,167.183731,-0.029938,-0.064529,1.013718,0.015067,0.028304,-0.02123,88.789734,14.564514,-146.406265,,,
729706442.678449,-2.931765,2.336,167.177522,-0.029938,-0.064529,1.013718,0.015067,0.028304,-0.02123,88.789734,14.564514,-146.406265,,,
729706442.681767,-2.924472,2.342674,167.17073,-0.033936,-0.064056,1.016113,0.030945,0.028766,-0.025019,88.789734,14.564514,-146.406265,,,
729706442.68512,-2.924472,2.342674,167.17073,-0.033936,-0.064056,1.016113,0.030945,0.028766,-0.025019,88.789734,14.564514,-146.406265,,,
729706442.688441,-2.915722,2.347811,167.163328,-0.033936,-0.064056,1.016113,0.030945,0.028766,-0.025019,88.789734,14.564514,-146.406265,,,
