Time (sec),Pitch (deg),Roll (deg),Yaw(deg),X-Acceleration (g),Y-Acceleration (g),Z-Acceleration (g),Pitch Rate (deg/sec),Roll Rate (deg/sec),Yaw Rate (deg/sec),Magnetic Field in X direction (uT),Magnetic Field in Y direction (uT),Magnetic Field in Z Direction (uT),Latitude (deg),Longitude (deg),Altitude (m)
729716919.049045,2.664987,6.322167,139.702448,-0.115005,0.042099,0.993118,-0.08884,-0.04326,-0.001027,94.170792,33.476273,-148.30806,,,
729716919.050115,2.664986,6.322167,101.089244,-0.115005,0.042099,0.993118,-0.08884,-0.04326,-0.001027,94.170792,33.476273,-148.30806,,,
729716919.050532,2.664985,6.322169,104.166095,-0.115005,0.042099,0.993118,-0.08884,-0.04326,-0.001027,94.170792,33.476273,-148.30806,,,
729716919.051166,2.638629,6.31319,139.706367,-0.115005,0.042099,0.993118,-0.08884,-0.04326,-0.001027,94.170792,33.476273,-148.30806,,,
729716919.054077,2.638627,6.31319,101.093163,-0.115005,0.042099,0.993118,-0.08884,-0.04326,-0.001027,94.170792,33.476273,-148.30806,,,
729716919.054732,2.638627,6.313192,104.170014,-0.115005,0.042099,0.993118,-0.08884,-0.04326,-0.001027,94.170792,33.476273,-148.30806,,,
729716919.054885,2.638629,6.31319,139.706367,-0.115005,0.042099,0.993118,-0.08884,-0.04326,-0.001027,94.170792,33.476273,-148.30806,,,
729716919.058939,2.616768,6.304641,101.098545,-0.11409,0.03772,1.004913,-0.072763,-0.019156,0.010034,94.170792,33.476273,-148.30806,,,
729716919.0612,2.616768,6.304643,104.175395,-0.11409,0.03772,1.004913,-0.072763,-0.019156,0.010034,94.170792,33.476273,-148.30806,,,
729716919.061375,2.596564,6.301445,139.717231,-0.11409,0.03772,1.004913,-0.072763,-0.019156,0.010034,94.170792,33.476273,-148.30806,,,
729716919.061831,2.596562,6.301445,101.104027,-0.11409,0.03772,1.004913,-0.072763,-0.019156,0.010034,94.170792,33.476273,-148.30806,,,
729716919.06384,2.596562,6.301445,101.104027,-0.11409,0.03772,1.004913,-0.072763,-0.019156,0.010034,94.049454,33.454773,-148.255371,,,
729716919.064467,2.596562,6.301447,104.180877,-0.11409,0.03772,1.004913,-0.072763,-0.019156,0.010034,94.049454,33.454773,-148.255371,,,
729716919.064581,2.596564,6.301445,139.717231,-0.11409,0.03772,1.004913,-0.072763,-0.019156,0.010034,94.049454,33.454773,-148.255371,,,
729716919.067825,2.580186,6.298795,101.109221,-0.105713,0.03624,1.009186,-0.052312,-0.000849,0.009574,94.049454,33.454773,-148.255371,,,
729716919.068883,2.580186,6.298797,104.186072,-0.105713,0.03624,1.009186,-0.052312,-0.000849,0.009574,94.049454,33.454773,-148.255371,,,
729716919.069029,2.580187,6.298795,139.722426,-0.105713,0.03624,1.009186,-0.052312,-0.000849,0.009574,94.049454,33.454773,-148.255371,,,
729716919.0701,2.580186,6.298795,101.109221,-0.105713,0.03624,1.009186,-0.052312,-0.000849,0.009574,94.049454,33.454773,-148.255371,,,
729716919.070535,2.580186,6.298797,104.186072,-0.105713,0.03624,1.009186,-0.052312,-0.000849,0.009574,94.049454,33.454773,-148.255371,,,
729716919.071168,2.567482,6.301031,139.727118,-0.105713,0.03624,1.009186,-0.052312,-0.000849,0.009574,94.049454,33.454773,-148.255371,,,
729716919.073858,2.567481,6.301031,101.113915,-0.105713,0.03624,1.009186,-0.052312,-0.000849,0.009574,94.049454,33.454773,-148.255371,,,
729716919.074298,2.567481,6.301033,104.190765,-0.105713,0.03624,1.009186,-0.052312,-0.000849,0.009574,94.049454,33.454773,-148.255371,,,
729716919.074509,2.567482,6.301031,139.727118,-0.105713,0.03624,1.009186,-0.052312,-0.000849,0.009574,94.049454,33.454773,-148.255371,,,
729716919.078475,2.556934,6.301932,101.118411,-0.106155,0.034195,1.011703,-0.033178,0.008631,0.009476,94.049454,33.454773,-148.255371,,,
729716919.080151,2.556934,6.301934,104.195261,-0.106155,0.034195,1.011703,-0.033178,0.008631,0.009476,94.049454,33.454773,-148.255371,,,
729716919.080317,2.556935,6.301932,139.731614,-0.106155,0.034195,1.011703,-0.033178,0.008631,0.009476,94.049454,33.454773,-148.255371,,,
729716919.080677,2.556934,6.301932,101.118411,-0.106155,0.034195,1.011703,-0.033178,0.008631,0.009476,94.049454,33.454773,-148.255371,,,
729716919.080849,2.556934,6.301934,104.195261,-0.106155,0.034195,1.011703,-0.033178,0.008631,0.009476,94.049454,33.454773,-148.255371,,,
729716919.081095,2.550193,6.306951,139.735145,-0.106155,0.034195,1.011703,-0.033178,0.008631,0.009476,94.049454,33.454773,-148.255371,,,
729716919.08411,2.550191,6.306951,101.12194,-0.106155,0.034195,1.011703,-0.033178,0.008631,0.009476,94.049454,33.454773,-148.255371,,,
729716919.084772,2.550191,6.306953,104.198791,-0.106155,0.034195,1.011703,-0.033178,0.008631,0.009476,94.049454,33.454773,-148.255371,,,
729716919.084933,2.550193,6.306951,139.735145,-0.106155,0.034195,1.011703,-0.033178,0.008631,0.009476,94.049454,33.454773,-148.255371,,,
729716919.087592,2.544545,6.307547,101.12528,-0.111435,0.032364,1.010361,-0.017137,0.001968,0.00879,94.049454,33.454773,-148.255371,,,
729716919.088345,2.544545,6.307549,104.20213,-0.111435,0.032364,1.010361,-0.017137,0.001968,0.00879,94.049454,33.454773,-148.255371,,,
729716919.088482,2.544546,6.307547,139.738484,-0.111435,0.032364,1.010361,-0.017137,0.001968,0.00879,94.049454,33.454773,-148.255371,,,
729716919.090187,2.544545,6.307547,101.12528,-0.111435,0.032364,1.010361,-0.017137,0.001968,0.00879,94.049454,33.454773,-148.255371,,,
729716919.090526,2.544545,6.307549,104.20213,-0.111435,0.032364,1.010361,-0.017137,0.001968,0.00879,94.049454,33.454773,-148.255371,,,
729716919.091169,2.542716,6.309451,139.741204,-0.111435,0.032364,1.010361,-0.017137,0.001968,0.00879,94.049454,33.454773,-148.255371,,,
729716919.09361,2.542715,6.309451,101.128,-0.111435,0.032364,1.010361,-0.017137,0.001968,0.00879,94.049454,33.454773,-148.255371,,,
729716919.093832,2.542715,6.309453,104.204851,-0.111435,0.032364,1.010361,-0.017137,0.001968,0.00879,94.049454,33.454773,-148.255371,,,
729716919.094555,2.542716,6.309451,139.741204,-0.111435,0.032364,1.010361,-0.017137,0.001968,0.00879,94.049454,33.454773,-148.255371,,,
729716919.098256,2.538841,6.30713,101.13011,-0.114258,0.034058,1.002014,-0.014809,-0.007711,0.003885,94.049454,33.454773,-148.255371,,,
729716919.099874,2.538841,6.307132,104.206961,-0.114258,0.034058,1.002014,-0.014809,-0.007711,0.003885,94.049454,33.454773,-148.255371,,,
729716919.100034,2.538842,6.30713,139.743312,-0.114258,0.034058,1.002014,-0.014809,-0.007711,0.003885,94.049454,33.454773,-148.255371,,,
729716919.100234,2.538841,6.30713,101.13011,-0.114258,0.034058,1.002014,-0.014809,-0.007711,0.003885,94.049454,33.454773,-148.255371,,,
729716919.100508,2.538841,6.307132,104.206961,-0.114258,0.034058,1.002014,-0.014809,-0.007711,0.003885,94.049454,33.454773,-148.255371,,,
729716919.101174,2.537381,6.303815,139.745983,-0.114258,0.034058,1.002014,-0.014809,-0.007711,0.003885,94.049454,33.454773,-148.255371,,,
729716919.103864,2.53738,6.303815,101.13278,-0.114258,0.034058,1.002014,-0.014809,-0.007711,0.003885,94.049454,33.454773,-148.255371,,,
729716919.104819,2.537379,6.303817,104.209631,-0.114258,0.034058,1.002014,-0.014809,-0.007711,0.003885,93.991684,33.563812,-148.376511,,,
729716919.104985,2.537381,6.303815,139.745983,-0.114258,0.034058,1.002014,-0.014809,-0.007711,0.003885,93.991684,33.563812,-148.376511,,,
729716919.108306,2.533218,6.297587,101.136535,-0.117371,0.032532,0.996948,-0.018018,-0.019299,0.010757,93.991684,33.563812,-148.376511,,,
729716919.109371,2.533218,6.297589,104.213385,-0.117371,0.032532,0.996948,-0.018018,-0.019299,0.010757,93.991684,33.563812,-148.376511,,,
729716919.109516,2.53322,6.297587,139.749738,-0.117371,0.032532,0.996948,-0.018018,-0.019299,0.010757,93.991684,33.563812,-148.376511,,,
729716919.110042,2.533218,6.297587,101.136535,-0.117371,0.032532,0.996948,-0.018018,-0.019299,0.010757,93.991684,33.563812,-148.376511,,,
729716919.110541,2.533218,6.297589,104.213385,-0.117371,0.032532,0.996948,-0.018018,-0.019299,0.010757,93.991684,33.563812,-148.376511,,,
729716919.111215,2.529765,6.292423,139.754063,-0.117371,0.032532,0.996948,-0.018018,-0.019299,0.010757,93.991684,33.563812,-148.376511,,,
729716919.113868,2.529763,6.292423,101.140858,-0.117371,0.032532,0.996948,-0.018018,-0.019299,0.010757,93.991684,33.563812,-148.376511,,,
729716919.114468,2.529763,6.292425,104.217709,-0.117371,0.032532,0.996948,-0.018018,-0.019299,0.010757,93.991684,33.563812,-148.376511,,,
729716919.11462,2.529765,6.292423,139.754063,-0.117371,0.032532,0.996948,-0.018018,-0.019299,0.010757,93.991684,33.563812,-148.376511,,,
729716919.117801,2.523505,6.285835,101.14501,-0.112305,0.035172,0.995193,-0.026133,-0.018805,0.00819,93.991684,33.563812,-148.376511,,,
729716919.118694,2.523505,6.285837,104.22186,-0.112305,0.035172,0.995193,-0.026133,-0.018805,0.00819,93.991684,33.563812,-148.376511,,,
729716919.118835,2.523507,6.285835,139.758214,-0.112305,0.035172,0.995193,-0.026133,-0.018805,0.00819,93.991684,33.563812,-148.376511,,,
729716919.120135,2.523505,6.285835,101.14501,-0.112305,0.035172,0.995193,-0.026133,-0.018805,0.00819,93.991684,33.563812,-148.376511,,,
729716919.120529,2.523505,6.285837,104.22186,-0.112305,0.035172,0.995193,-0.026133,-0.018805,0.00819,93.991684,33.563812,-148.376511,,,
729716919.121183,2.516045,6.28066,139.761158,-0.112305,0.035172,0.995193,-0.026133,-0.018805,0.00819,93.991684,33.563812,-148.376511,,,
729716919.123855,2.516044,6.28066,101.147953,-0.112305,0.035172,0.995193,-0.026133,-0.018805,0.00819,93.991684,33.563812,-148.376511,,,
729716919.124292,2.516044,6.280662,104.224804,-0.112305,0.035172,0.995193,-0.026133,-0.018805,0.00819,93.991684,33.563812,-148.376511,,,
729716919.124504,2.516045,6.28066,139.761158,-0.112305,0.035172,0.995193,-0.026133,-0.018805,0.00819,93.991684,33.563812,-148.376511,,,
729716919.12866,2.507613,6.275723,101.149744,-0.108368,0.040634,0.996155,-0.031443,-0.009199,-0.00081,93.991684,33.563812,-148.376511,,,
729716919.130713,2.507613,6.275725,104.226594,-0.108368,0.040634,0.996155,-0.031443,-0.009199,-0.00081,93.991684,33.563812,-148.376511,,,
729716919.130928,2.507615,6.275723,139.762948,-0.108368,0.040634,0.996155,-0.031443,-0.009199,-0.00081,93.991684,33.563812,-148.376511,,,
729716919.131779,2.498073,6.273643,101.150896,-0.108368,0.040634,0.996155,-0.031443,-0.009199,-0.00081,93.991684,33.563812,-148.376511,,,
729716919.131914,2.498075,6.273643,139.764101,-0.108368,0.040634,0.996155,-0.031443,-0.009199,-0.00081,93.991684,33.563812,-148.376511,,,
729716919.133512,2.498073,6.273643,101.150896,-0.108368,0.040634,0.996155,-0.031443,-0.009199,-0.00081,93.991684,33.563812,-148.376511,,,
729716919.13431,2.498073,6.273645,104.227746,-0.108368,0.040634,0.996155,-0.031443,-0.009199,-0.00081,93.991684,33.563812,-148.376511,,,
729716919.134492,2.498075,6.273643,139.764101,-0.108368,0.040634,0.996155,-0.031443,-0.009199,-0.00081,93.991684,33.563812,-148.376511,,,
729716919.137972,2.490162,6.271984,101.151976,-0.109711,0.042618,0.999985,-0.028033,0.001515,-0.001265,93.991684,33.563812,-148.376511,,,
729716919.139207,2.490161,6.271986,104.228827,-0.109711,0.042618,0.999985,-0.028033,0.001515,-0.001265,93.991684,33.563812,-148.376511,,,
729716919.139356,2.490163,6.271984,139.765181,-0.109711,0.042618,0.999985,-0.028033,0.001515,-0.001265,93.991684,33.563812,-148.376511,,,
729716919.140063,2.490162,6.271984,101.151976,-0.109711,0.042618,0.999985,-0.028033,0.001515,-0.001265,93.991684,33.563812,-148.376511,,,
729716919.140533,2.490161,6.271986,104.228827,-0.109711,0.042618,0.999985,-0.028033,0.001515,-0.001265,93.991684,33.563812,-148.376511,,,
729716919.141167,2.481362,6.27106,139.767201,-0.109711,0.042618,0.999985,-0.028033,0.001515,-0.001265,93.991684,33.563812,-148.376511,,,
729716919.143875,2.481361,6.27106,101.153996,-0.109711,0.042618,0.999985,-0.028033,0.001515,-0.001265,93.991684,33.563812,-148.376511,,,
729716919.144327,2.481361,6.271062,104.230847,-0.109711,0.042618,0.999985,-0.028033,0.001515,-0.001265,93.991684,33.563812,-148.376511,,,
729716919.144632,2.481362,6.27106,139.767201,-0.109711,0.042618,0.999985,-0.028033,0.001515,-0.001265,93.991684,33.563812,-148.376511,,,
729716919.148864,2.476605,6.271594,101.157534,-0.113052,0.033295,0.999374,-0.012901,0.007437,0.011215,93.918869,33.768677,-148.46106,,,
729716919.150781,2.476605,6.271596,104.234385,-0.113052,0.033295,0.999374,-0.012901,0.007437,0.011215,93.918869,33.768677,-148.46106,,,
729716919.150953,2.476606,6.271594,139.770738,-0.113052,0.033295,0.999374,-0.012901,0.007437,0.011215,93.918869,33.768677,-148.46106,,,
729716919.151405,2.472577,6.271671,101.162532,-0.113052,0.033295,0.999374,-0.012901,0.007437,0.011215,93.918869,33.768677,-148.46106,,,
729716919.153583,2.472577,6.271671,101.162532,-0.113052,0.033295,0.999374,-0.012901,0.007437,0.011215,93.918869,33.768677,-148.46106,,,
729716919.154272,2.472577,6.271673,104.239382,-0.113052,0.033295,0.999374,-0.012901,0.007437,0.011215,93.918869,33.768677,-148.46106,,,
729716919.154494,2.472578,6.271671,139.775736,-0.113052,0.033295,0.999374,-0.012901,0.007437,0.011215,93.918869,33.768677,-148.46106,,,
729716919.158198,2.473329,6.273869,101.168565,-0.107437,0.024979,0.998734,0.005487,0.013466,0.020892,93.918869,33.768677,-148.46106,,,
729716919.159623,2.473329,6.273871,104.245416,-0.107437,0.024979,0.998734,0.005487,0.013466,0.020892,93.918869,33.768677,-148.46106,,,
729716919.159789,2.473331,6.273869,139.78177,-0.107437,0.024979,0.998734,0.005487,0.013466,0.020892,93.918869,33.768677,-148.46106,,,
729716919.159994,2.473329,6.273869,101.168565,-0.107437,0.024979,0.998734,0.005487,0.013466,0.020892,93.918869,33.768677,-148.46106,,,
729716919.16055,2.473329,6.273871,104.245416,-0.107437,0.024979,0.998734,0.005487,0.013466,0.020892,93.918869,33.768677,-148.46106,,,
729716919.161213,2.473518,6.276608,139.788275,-0.107437,0.024979,0.998734,0.005487,0.013466,0.020892,93.918869,33.768677,-148.46106,,,
729716919.164068,2.473517,6.276607,101.175072,-0.107437,0.024979,0.998734,0.005487,0.013466,0.020892,93.918869,33.768677,-148.46106,,,
729716919.16453,2.473517,6.27661,104.251922,-0.107437,0.024979,0.998734,0.005487,0.013466,0.020892,93.918869,33.768677,-148.46106,,,
729716919.164677,2.473518,6.276608,139.788275,-0.107437,0.024979,0.998734,0.005487,0.013466,0.020892,93.918869,33.768677,-148.46106,,,
729716919.167913,2.476665,6.27996,101.182211,-0.102066,0.031799,0.992706,0.008367,0.016621,0.025721,93.918869,33.768677,-148.46106,,,
729716919.169267,2.476664,6.279962,104.259061,-0.102066,0.031799,0.992706,0.008367,0.016621,0.025721,93.918869,33.768677,-148.46106,,,
729716919.169416,2.476666,6.27996,139.795415,-0.102066,0.031799,0.992706,0.008367,0.016621,0.025721,93.918869,33.768677,-148.46106,,,
729716919.170049,2.476665,6.27996,101.182211,-0.102066,0.031799,0.992706,0.008367,0.016621,0.025721,93.918869,33.768677,-148.46106,,,
729716919.170541,2.476664,6.279962,104.259061,-0.102066,0.031799,0.992706,0.008367,0.016621,0.025721,93.918869,33.768677,-148.46106,,,
729716919.171166,2.476113,6.284678,139.802903,-0.102066,0.031799,0.992706,0.008367,0.016621,0.025721,93.918869,33.768677,-148.46106,,,
729716919.173794,2.476112,6.284678,101.189699,-0.102066,0.031799,0.992706,0.008367,0.016621,0.025721,93.918869,33.768677,-148.46106,,,
729716919.174171,2.476112,6.28468,104.266549,-0.102066,0.031799,0.992706,0.008367,0.016621,0.025721,93.918869,33.768677,-148.46106,,,
729716919.17449,2.476113,6.284678,139.802903,-0.102066,0.031799,0.992706,0.008367,0.016621,0.025721,93.918869,33.768677,-148.46106,,,
729716919.178688,2.474642,6.2896,101.196685,-0.10202,0.041763,0.985748,-0.012026,0.023982,0.019746,93.918869,33.768677,-148.46106,,,
729716919.180497,2.474642,6.289602,104.273535,-0.10202,0.041763,0.985748,-0.012026,0.023982,0.019746,93.918869,33.768677,-148.46106,,,
729716919.180668,2.474644,6.2896,139.809888,-0.10202,0.041763,0.985748,-0.012026,0.023982,0.019746,93.918869,33.768677,-148.46106,,,
729716919.181035,2.474642,6.2896,101.196685,-0.10202,0.041763,0.985748,-0.012026,0.023982,0.019746,93.918869,33.768677,-148.46106,,,
729716919.181174,2.474644,6.2896,139.815707,-0.10202,0.041763,0.985748,-0.012026,0.023982,0.019746,93.918869,33.768677,-148.46106,,,
729716919.183894,2.468032,6.296403,101.202505,-0.10202,0.041763,0.985748,-0.012026,0.023982,0.019746,93.918869,33.768677,-148.46106,,,
729716919.184521,2.468031,6.296405,104.279355,-0.10202,0.041763,0.985748,-0.012026,0.023982,0.019746,93.918869,33.768677,-148.46106,,,
729716919.184679,2.468033,6.296403,139.815707,-0.10202,0.041763,0.985748,-0.012026,0.023982,0.019746,93.918869,33.768677,-148.46106,,,
729716919.188604,2.461279,6.300366,101.206891,-0.094421,0.053696,0.978271,-0.027397,0.013441,0.007604,93.988541,33.762344,-147.949631,,,
729716919.190365,2.461278,6.300368,104.283741,-0.094421,0.053696,0.978271,-0.027397,0.013441,0.007604,93.988541,33.762344,-147.949631,,,
729716919.190537,2.46128,6.300366,139.820094,-0.094421,0.053696,0.978271,-0.027397,0.013441,0.007604,93.988541,33.762344,-147.949631,,,
729716919.190734,2.461279,6.300366,101.206891,-0.094421,0.053696,0.978271,-0.027397,0.013441,0.007604,93.988541,33.762344,-147.949631,,,
729716919.191145,2.449998,6.302901,139.822635,-0.094421,0.053696,0.978271,-0.027397,0.013441,0.007604,93.988541,33.762344,-147.949631,,,
729716919.193904,2.449997,6.302901,101.209433,-0.094421,0.053696,0.978271,-0.027397,0.013441,0.007604,93.988541,33.762344,-147.949631,,,
729716919.194506,2.449997,6.302903,104.286283,-0.094421,0.053696,0.978271,-0.027397,0.013441,0.007604,93.988541,33.762344,-147.949631,,,
729716919.194661,2.449998,6.302901,139.822635,-0.094421,0.053696,0.978271,-0.027397,0.013441,0.007604,93.988541,33.762344,-147.949631,,,
729716919.199127,2.43839,6.301642,101.211122,-0.095169,0.053329,0.974014,-0.04267,-0.006127,-0.000386,93.988541,33.762344,-147.949631,,,
729716919.201495,2.43839,6.301644,104.287973,-0.095169,0.053329,0.974014,-0.04267,-0.006127,-0.000386,93.988541,33.762344,-147.949631,,,
729716919.201674,2.423771,6.298052,139.82608,-0.095169,0.053329,0.974014,-0.04267,-0.006127,-0.000386,93.988541,33.762344,-147.949631,,,
729716919.202168,2.42377,6.298052,101.212874,-0.095169,0.053329,0.974014,-0.04267,-0.006127,-0.000386,93.988541,33.762344,-147.949631,,,
729716919.203478,2.42377,6.298052,101.212874,-0.095169,0.053329,0.974014,-0.04267,-0.006127,-0.000386,93.988541,33.762344,-147.949631,,,
729716919.204128,2.42377,6.298054,104.289724,-0.095169,0.053329,0.974014,-0.04267,-0.006127,-0.000386,93.988541,33.762344,-147.949631,,,
729716919.20453,2.423771,6.298052,139.82608,-0.095169,0.053329,0.974014,-0.04267,-0.006127,-0.000386,93.988541,33.762344,-147.949631,,,
729716919.207871,2.407313,6.294756,101.213915,-0.101151,0.051285,0.975571,-0.059417,-0.006729,-0.007189,93.988541,33.762344,-147.949631,,,
729716919.208992,2.407313,6.294758,104.290766,-0.101151,0.051285,0.975571,-0.059417,-0.006729,-0.007189,93.988541,33.762344,-147.949631,,,
729716919.209138,2.407314,6.294756,139.827121,-0.101151,0.051285,0.975571,-0.059417,-0.006729,-0.007189,93.988541,33.762344,-147.949631,,,
729716919.210087,2.407313,6.294756,101.213915,-0.101151,0.051285,0.975571,-0.059417,-0.006729,-0.007189,93.988541,33.762344,-147.949631,,,
729716919.210536,2.407313,6.294758,104.290766,-0.101151,0.051285,0.975571,-0.059417,-0.006729,-0.007189,93.988541,33.762344,-147.949631,,,
729716919.21122,2.389413,6.290873,139.827219,-0.101151,0.051285,0.975571,-0.059417,-0.006729,-0.007189,93.988541,33.762344,-147.949631,,,
729716919.213866,2.389412,6.290873,101.214013,-0.101151,0.051285,0.975571,-0.059417,-0.006729,-0.007189,93.988541,33.762344,-147.949631,,,
729716919.214314,2.389412,6.290875,104.290864,-0.101151,0.051285,0.975571,-0.059417,-0.006729,-0.007189,93.988541,33.762344,-147.949631,,,
729716919.21448,2.389413,6.290873,139.827219,-0.101151,0.051285,0.975571,-0.059417,-0.006729,-0.007189,93.988541,33.762344,-147.949631,,,
729716919.217342,2.369637,6.286225,101.214051,-0.09671,0.053391,0.976181,-0.070261,-0.013972,-0.008731,93.988541,33.762344,-147.949631,,,
729716919.217955,2.369636,6.286227,104.290901,-0.09671,0.053391,0.976181,-0.070261,-0.013972,-0.008731,93.988541,33.762344,-147.949631,,,
729716919.218125,2.369638,6.286225,139.827256,-0.09671,0.053391,0.976181,-0.070261,-0.013972,-0.008731,93.988541,33.762344,-147.949631,,,
729716919.220244,2.369637,6.286225,101.214051,-0.09671,0.053391,0.976181,-0.070261,-0.013972,-0.008731,93.988541,33.762344,-147.949631,,,
729716919.220499,2.369636,6.286227,104.290901,-0.09671,0.053391,0.976181,-0.070261,-0.013972,-0.008731,93.988541,33.762344,-147.949631,,,
729716919.221171,2.369638,6.286225,139.827256,-0.09671,0.053391,0.976181,-0.070261,-0.013972,-0.008731,93.988541,33.762344,-147.949631,,,
729716919.22427,2.347206,6.28237,101.214345,-0.09671,0.053391,0.976181,-0.070261,-0.013972,-0.008731,93.988541,33.762344,-147.949631,,,
729716919.225163,2.347206,6.282372,104.291195,-0.09671,0.053391,0.976181,-0.070261,-0.013972,-0.008731,93.988541,33.762344,-147.949631,,,
729716919.225347,2.347207,6.28237,139.827549,-0.09671,0.053391,0.976181,-0.070261,-0.013972,-0.008731,93.988541,33.762344,-147.949631,,,
729716919.22767,2.323747,6.278786,101.21511,-0.095718,0.051682,0.976364,-0.085509,-0.007809,-0.007252,93.988541,33.762344,-147.949631,,,
729716919.229084,2.323747,6.278788,104.291961,-0.095718,0.051682,0.976364,-0.085509,-0.007809,-0.007252,93.935089,33.657761,-147.858383,,,
729716919.229309,2.323748,6.278786,139.828313,-0.095718,0.051682,0.976364,-0.085509,-0.007809,-0.007252,93.935089,33.657761,-147.858383,,,
729716919.230748,2.323747,6.278786,101.21511,-0.095718,0.051682,0.976364,-0.085509,-0.007809,-0.007252,93.935089,33.657761,-147.858383,,,
729716919.231061,2.323747,6.278788,104.291961,-0.095718,0.051682,0.976364,-0.085509,-0.007809,-0.007252,93.935089,33.657761,-147.858383,,,
729716919.23126,2.295224,6.276907,139.830208,-0.095718,0.051682,0.976364,-0.085509,-0.007809,-0.007252,93.935089,33.657761,-147.858383,,,
729716919.23399,2.295223,6.276907,101.217006,-0.095718,0.051682,0.976364,-0.085509,-0.007809,-0.007252,93.935089,33.657761,-147.858383,,,
729716919.234604,2.295223,6.276909,104.293856,-0.095718,0.051682,0.976364,-0.085509,-0.007809,-0.007252,93.935089,33.657761,-147.858383,,,
729716919.234809,2.295224,6.276907,139.830208,-0.095718,0.051682,0.976364,-0.085509,-0.007809,-0.007252,93.935089,33.657761,-147.858383,,,
729716919.2386,2.269046,6.278034,101.219647,-0.097061,0.050247,0.979248,-0.09254,0.013086,-0.002713,93.935089,33.657761,-147.858383,,,
729716919.24069,2.269046,6.278036,104.296498,-0.097061,0.050247,0.979248,-0.09254,0.013086,-0.002713,93.935089,33.657761,-147.858383,,,
729716919.240917,2.269047,6.278034,139.832853,-0.097061,0.050247,0.979248,-0.09254,0.013086,-0.002713,93.935089,33.657761,-147.858383,,,
729716919.241232,2.269046,6.278034,101.219647,-0.097061,0.050247,0.979248,-0.09254,0.013086,-0.002713,93.935089,33.657761,-147.858383,,,
729716919.241389,2.2395,6.280967,139.835835,-0.097061,0.050247,0.979248,-0.09254,0.013086,-0.002713,93.935089,33.657761,-147.858383,,,
729716919.243991,2.239499,6.280966,101.222631,-0.097061,0.050247,0.979248,-0.09254,0.013086,-0.002713,93.935089,33.657761,-147.858383,,,
729716919.244621,2.239499,6.280968,104.299481,-0.097061,0.050247,0.979248,-0.09254,0.013086,-0.002713,93.935089,33.657761,-147.858383,,,
729716919.244837,2.2395,6.280967,139.835835,-0.097061,0.050247,0.979248,-0.09254,0.013086,-0.002713,93.935089,33.657761,-147.858383,,,
729716919.249283,2.210411,6.286926,101.226156,-0.095749,0.048233,0.975464,-0.104207,0.024869,0.000186,93.935089,33.657761,-147.858383,,,
729716919.251648,2.21041,6.286928,104.303007,-0.095749,0.048233,0.975464,-0.104207,0.024869,0.000186,93.935089,33.657761,-147.858383,,,
729716919.25188,2.180496,6.291718,139.84386,-0.095749,0.048233,0.975464,-0.104207,0.024869,0.000186,93.935089,33.657761,-147.858383,,,
729716919.252325,2.180494,6.291718,101.230653,-0.095749,0.048233,0.975464,-0.104207,0.024869,0.000186,93.935089,33.657761,-147.858383,,,
729716919.253468,2.180494,6.291718,101.230653,-0.095749,0.048233,0.975464,-0.104207,0.024869,0.000186,93.935089,33.657761,-147.858383,,,
729716919.254264,2.180494,6.29172,104.307504,-0.095749,0.048233,0.975464,-0.104207,0.024869,0.000186,93.935089,33.657761,-147.858383,,,
729716919.254496,2.180496,6.291718,139.84386,-0.095749,0.048233,0.975464,-0.104207,0.024869,0.000186,93.935089,33.657761,-147.858383,,,
729716919.258589,2.150055,6.299145,101.235635,-0.10762,0.045868,0.97287,-0.107497,0.032575,0.003566,93.935089,33.657761,-147.858383,,,
729716919.260266,2.150055,6.299147,104.312486,-0.10762,0.045868,0.97287,-0.107497,0.032575,0.003566,93.935089,33.657761,-147.858383,,,
729716919.260484,2.150056,6.299145,139.848842,-0.10762,0.045868,0.97287,-0.107497,0.032575,0.003566,93.935089,33.657761,-147.858383,,,
729716919.260681,2.150055,6.299145,101.235635,-0.10762,0.045868,0.97287,-0.107497,0.032575,0.003566,93.935089,33.657761,-147.858383,,,
729716919.261195,2.150056,6.299145,139.848842,-0.10762,0.045868,0.97287,-0.107497,0.032575,0.003566,93.935089,33.657761,-147.858383,,,
729716919.263875,2.122382,6.303774,101.240968,-0.10762,0.045868,0.97287,-0.107497,0.032575,0.003566,93.935089,33.657761,-147.858383,,,
729716919.264487,2.122382,6.303776,104.317819,-0.10762,0.045868,0.97287,-0.107497,0.032575,0.003566,93.935089,33.657761,-147.858383,,,
729716919.26465,2.122383,6.303774,139.854172,-0.10762,0.045868,0.97287,-0.107497,0.032575,0.003566,93.935089,33.657761,-147.858383,,,
729716919.268736,2.090082,6.307844,101.246742,-0.112946,0.042557,0.977615,-0.116803,0.011723,0.006336,94.202133,33.910995,-147.945862,,,
729716919.27056,2.090082,6.307846,104.323593,-0.112946,0.042557,0.977615,-0.116803,0.011723,0.006336,94.202133,33.910995,-147.945862,,,
729716919.270736,2.090083,6.307844,139.859946,-0.112946,0.042557,0.977615,-0.116803,0.011723,0.006336,94.202133,33.910995,-147.945862,,,
729716919.270932,2.090082,6.307844,101.246742,-0.112946,0.042557,0.977615,-0.116803,0.011723,0.006336,94.202133,33.910995,-147.945862,,,
729716919.271104,2.090083,6.307844,139.859946,-0.112946,0.042557,0.977615,-0.116803,0.011723,0.006336,94.202133,33.910995,-147.945862,,,
729716919.273855,2.059972,6.305486,101.252139,-0.112946,0.042557,0.977615,-0.116803,0.011723,0.006336,94.202133,33.910995,-147.945862,,,
729716919.274458,2.059972,6.305488,104.32899,-0.112946,0.042557,0.977615,-0.116803,0.011723,0.006336,94.202133,33.910995,-147.945862,,,
729716919.274607,2.059974,6.305486,139.865343,-0.112946,0.042557,0.977615,-0.116803,0.011723,0.006336,94.202133,33.910995,-147.945862,,,
729716919.279272,2.024254,6.302901,101.255828,-0.114517,0.042725,0.97139,-0.126323,-0.011464,-0.00587,94.202133,33.910995,-147.945862,,,
729716919.281824,2.024254,6.302903,104.332679,-0.114517,0.042725,0.97139,-0.126323,-0.011464,-0.00587,94.202133,33.910995,-147.945862,,,
729716919.282023,1.99054,6.296108,139.871723,-0.114517,0.042725,0.97139,-0.126323,-0.011464,-0.00587,94.202133,33.910995,-147.945862,,,
729716919.282745,1.990539,6.296108,101.258518,-0.114517,0.042725,0.97139,-0.126323,-0.011464,-0.00587,94.202133,33.910995,-147.945862,,,
729716919.283401,1.990539,6.296108,101.258518,-0.114517,0.042725,0.97139,-0.126323,-0.011464,-0.00587,94.202133,33.910995,-147.945862,,,
729716919.284313,1.990539,6.29611,104.335368,-0.114517,0.042725,0.97139,-0.126323,-0.011464,-0.00587,94.202133,33.910995,-147.945862,,,
729716919.284497,1.99054,6.296108,139.871723,-0.114517,0.042725,0.97139,-0.126323,-0.011464,-0.00587,94.202133,33.910995,-147.945862,,,
729716919.287906,1.95214,6.288519,101.25998,-0.11412,0.040665,0.979767,-0.134822,-0.027177,-0.015047,94.202133,33.910995,-147.945862,,,
729716919.289044,1.95214,6.288521,104.33683,-0.11412,0.040665,0.979767,-0.134822,-0.027177,-0.015047,94.202133,33.910995,-147.945862,,,
729716919.289193,1.952141,6.288519,139.873185,-0.11412,0.040665,0.979767,-0.134822,-0.027177,-0.015047,94.202133,33.910995,-147.945862,,,
729716919.290077,1.95214,6.288519,101.25998,-0.11412,0.040665,0.979767,-0.134822,-0.027177,-0.015047,94.202133,33.910995,-147.945862,,,
729716919.290542,1.95214,6.288521,104.33683,-0.11412,0.040665,0.979767,-0.134822,-0.027177,-0.015047,94.202133,33.910995,-147.945862,,,
729716919.291165,1.952141,6.288519,139.873185,-0.11412,0.040665,0.979767,-0.134822,-0.027177,-0.015047,94.202133,33.910995,-147.945862,,,
729716919.294083,1.916609,6.276516,101.259881,-0.11412,0.040665,0.979767,-0.134822,-0.027177,-0.015047,94.202133,33.910995,-147.945862,,,
729716919.294748,1.916609,6.276518,104.336731,-0.11412,0.040665,0.979767,-0.134822,-0.027177,-0.015047,94.202133,33.910995,-147.945862,,,
729716919.294974,1.91661,6.276516,139.873087,-0.11412,0.040665,0.979767,-0.134822,-0.027177,-0.015047,94.202133,33.910995,-147.945862,,,
729716919.297795,1.87687,6.263439,101.258683,-0.114319,0.038528,0.985168,-0.137417,-0.047578,-0.022553,94.202133,33.910995,-147.945862,,,
729716919.298914,1.87687,6.263441,104.335533,-0.114319,0.038528,0.985168,-0.137417,-0.047578,-0.022553,94.202133,33.910995,-147.945862,,,
729716919.299058,1.876872,6.263439,139.871889,-0.114319,0.038528,0.985168,-0.137417,-0.047578,-0.022553,94.202133,33.910995,-147.945862,,,
729716919.300093,1.87687,6.263439,101.258683,-0.114319,0.038528,0.985168,-0.137417,-0.047578,-0.022553,94.202133,33.910995,-147.945862,,,
729716919.300533,1.87687,6.263441,104.335533,-0.114319,0.038528,0.985168,-0.137417,-0.047578,-0.022553,94.202133,33.910995,-147.945862,,,
729716919.301164,1.876872,6.263439,139.871889,-0.114319,0.038528,0.985168,-0.137417,-0.047578,-0.022553,94.202133,33.910995,-147.945862,,,
729716919.304082,1.840079,6.246106,101.256804,-0.114319,0.038528,0.985168,-0.137417,-0.047578,-0.022553,94.202133,33.910995,-147.945862,,,
729716919.304901,1.840079,6.246108,104.333654,-0.114319,0.038528,0.985168,-0.137417,-0.047578,-0.022553,94.202133,33.910995,-147.945862,,,
729716919.305057,1.840081,6.246106,139.87001,-0.114319,0.038528,0.985168,-0.137417,-0.047578,-0.022553,94.202133,33.910995,-147.945862,,,
729716919.308008,1.800242,6.230392,101.25501,-0.111374,0.034744,0.984131,-0.13582,-0.051066,-0.021237,94.202133,33.910995,-147.945862,,,
729716919.310015,1.800241,6.230395,104.33186,-0.111374,0.034744,0.984131,-0.13582,-0.051066,-0.021237,94.074127,34.153534,-147.8358,,,
729716919.310198,1.800243,6.230393,139.868216,-0.111374,0.034744,0.984131,-0.13582,-0.051066,-0.021237,94.074127,34.153534,-147.8358,,,
729716919.310864,1.800242,6.230392,101.25501,-0.111374,0.034744,0.984131,-0.13582,-0.051066,-0.021237,94.074127,34.153534,-147.8358,,,
729716919.311085,1.800241,6.230395,104.33186,-0.111374,0.034744,0.984131,-0.13582,-0.051066,-0.021237,94.074127,34.153534,-147.8358,,,
729716919.311313,1.800243,6.230393,139.868216,-0.111374,0.034744,0.984131,-0.13582,-0.051066,-0.021237,94.074127,34.153534,-147.8358,,,
729716919.314224,1.765576,6.21389,101.254653,-0.111374,0.034744,0.984131,-0.13582,-0.051066,-0.021237,94.074127,34.153534,-147.8358,,,
729716919.314907,1.765576,6.213892,104.331503,-0.111374,0.034744,0.984131,-0.13582,-0.051066,-0.021237,94.074127,34.153534,-147.8358,,,
729716919.315207,1.765577,6.21389,139.867858,-0.111374,0.034744,0.984131,-0.13582,-0.051066,-0.021237,94.074127,34.153534,-147.8358,,,
729716919.320032,1.731316,6.200295,101.257089,-0.115479,0.02565,0.996277,-0.113045,-0.040306,0.001198,94.074127,34.153534,-147.8358,,,
729716919.322249,1.731316,6.200297,104.33394,-0.115479,0.02565,0.996277,-0.113045,-0.040306,0.001198,94.074127,34.153534,-147.8358,,,
729716919.322426,1.704424,6.186675,139.876671,-0.115479,0.02565,0.996277,-0.113045,-0.040306,0.001198,94.074127,34.153534,-147.8358,,,
729716919.323943,1.704422,6.186675,101.263465,-0.115479,0.02565,0.996277,-0.113045,-0.040306,0.001198,94.074127,34.153534,-147.8358,,,
729716919.324764,1.704422,6.186677,104.340315,-0.115479,0.02565,0.996277,-0.113045,-0.040306,0.001198,94.074127,34.153534,-147.8358,,,
729716919.324936,1.704424,6.186675,139.876671,-0.115479,0.02565,0.996277,-0.113045,-0.040306,0.001198,94.074127,34.153534,-147.8358,,,
729716919.328208,1.677704,6.176248,101.273142,-0.118439,0.014145,1.00621,-0.092011,-0.030491,0.027098,94.074127,34.153534,-147.8358,,,
729716919.329858,1.677704,6.17625,104.349992,-0.118439,0.014145,1.00621,-0.092011,-0.030491,0.027098,94.074127,34.153534,-147.8358,,,
729716919.330018,1.677705,6.176248,139.886348,-0.118439,0.014145,1.00621,-0.092011,-0.030491,0.027098,94.074127,34.153534,-147.8358,,,
729716919.330378,1.677704,6.176248,101.273142,-0.118439,0.014145,1.00621,-0.092011,-0.030491,0.027098,94.074127,34.153534,-147.8358,,,
729716919.330515,1.677704,6.17625,104.349992,-0.118439,0.014145,1.00621,-0.092011,-0.030491,0.027098,94.074127,34.153534,-147.8358,,,
729716919.331147,1.677705,6.176248,139.886348,-0.118439,0.014145,1.00621,-0.092011,-0.030491,0.027098,94.074127,34.153534,-147.8358,,,
729716919.334028,1.656578,6.16741,101.285723,-0.118439,0.014145,1.00621,-0.092011,-0.030491,0.027098,94.074127,34.153534,-147.8358,,,
729716919.334599,1.656578,6.167412,104.362574,-0.118439,0.014145,1.00621,-0.092011,-0.030491,0.027098,94.074127,34.153534,-147.8358,,,
729716919.334708,1.656579,6.16741,139.898931,-0.118439,0.014145,1.00621,-0.092011,-0.030491,0.027098,94.074127,34.153534,-147.8358,,,
729716919.338232,1.633378,6.161408,101.300337,-0.114365,0.012878,0.999969,-0.084185,-0.011708,0.042164,94.074127,34.153534,-147.8358,,,
729716919.339776,1.633377,6.16141,104.377187,-0.114365,0.012878,0.999969,-0.084185,-0.011708,0.042164,94.074127,34.153534,-147.8358,,,
729716919.339944,1.633379,6.161408,139.913544,-0.114365,0.012878,0.999969,-0.084185,-0.011708,0.042164,94.074127,34.153534,-147.8358,,,
729716919.340117,1.633378,6.161408,101.300337,-0.114365,0.012878,0.999969,-0.084185,-0.011708,0.042164,94.074127,34.153534,-147.8358,,,
729716919.340472,1.633377,6.16141,104.377187,-0.114365,0.012878,0.999969,-0.084185,-0.011708,0.042164,94.074127,34.153534,-147.8358,,,
729716919.341135,1.633379,6.161408,139.913544,-0.114365,0.012878,0.999969,-0.084185,-0.011708,0.042164,94.074127,34.153534,-147.8358,,,
729716919.343854,1.61386,6.158539,101.315849,-0.114365,0.012878,0.999969,-0.084185,-0.011708,0.042164,94.074127,34.153534,-147.8358,,,
729716919.34428,1.61386,6.158541,104.392699,-0.114365,0.012878,0.999969,-0.084185,-0.011708,0.042164,94.074127,34.153534,-147.8358,,,
729716919.344486,1.613861,6.158539,139.929055,-0.114365,0.012878,0.999969,-0.084185,-0.011708,0.042164,94.074127,34.153534,-147.8358,,,
729716919.347952,1.590987,6.155236,101.331958,-0.109543,0.020844,0.997269,-0.086857,-0.005126,0.045743,94.074127,34.153534,-147.8358,,,
729716919.349284,1.590987,6.155238,104.408809,-0.109543,0.020844,0.997269,-0.086857,-0.005126,0.045743,94.074127,34.153534,-147.8358,,,
729716919.349491,1.590988,6.155236,139.945161,-0.109543,0.020844,0.997269,-0.086857,-0.005126,0.045743,94.074127,34.153534,-147.8358,,,
729716919.350536,1.590987,6.155236,101.331958,-0.109543,0.020844,0.997269,-0.086857,-0.005126,0.045743,94.114059,34.322998,-147.871231,,,
729716919.351223,1.590987,6.155238,104.408809,-0.109543,0.020844,0.997269,-0.086857,-0.005126,0.045743,94.114059,34.322998,-147.871231,,,
729716919.351386,1.590988,6.155236,139.945161,-0.109543,0.020844,0.997269,-0.086857,-0.005126,0.045743,94.114059,34.322998,-147.871231,,,
729716919.354105,1.569075,6.155596,101.347735,-0.109543,0.020844,0.997269,-0.086857,-0.005126,0.045743,94.114059,34.322998,-147.871231,,,
729716919.354752,1.569075,6.155598,104.424585,-0.109543,0.020844,0.997269,-0.086857,-0.005126,0.045743,94.114059,34.322998,-147.871231,,,
729716919.354911,1.569077,6.155596,139.960939,-0.109543,0.020844,0.997269,-0.086857,-0.005126,0.045743,94.114059,34.322998,-147.871231,,,
729716919.359001,1.540056,6.156048,101.36299,-0.101639,0.031433,0.991135,-0.111625,0.009483,0.039008,94.114059,34.322998,-147.871231,,,
729716919.360784,1.540056,6.15605,104.43984,-0.101639,0.031433,0.991135,-0.111625,0.009483,0.039008,94.114059,34.322998,-147.871231,,,
729716919.360907,1.540057,6.156048,139.976196,-0.101639,0.031433,0.991135,-0.111625,0.009483,0.039008,94.114059,34.322998,-147.871231,,,
729716919.361053,1.540056,6.156048,101.36299,-0.101639,0.031433,0.991135,-0.111625,0.009483,0.039008,94.114059,34.322998,-147.871231,,,
729716919.361292,1.540057,6.156048,139.976196,-0.101639,0.031433,0.991135,-0.111625,0.009483,0.039008,94.114059,34.322998,-147.871231,,,
729716919.363963,1.51169,6.160041,101.377038,-0.101639,0.031433,0.991135,-0.111625,0.009483,0.039008,94.114059,34.322998,-147.871231,,,
729716919.364423,1.51169,6.160043,104.453889,-0.101639,0.031433,0.991135,-0.111625,0.009483,0.039008,94.114059,34.322998,-147.871231,,,
729716919.364537,1.511691,6.160041,139.990245,-0.101639,0.031433,0.991135,-0.111625,0.009483,0.039008,94.114059,34.322998,-147.871231,,,
729716919.367957,1.478721,6.163698,101.389703,-0.093628,0.034073,0.991257,-0.120331,0.020726,0.028024,94.114059,34.322998,-147.871231,,,
729716919.369146,1.478721,6.1637,104.466553,-0.093628,0.034073,0.991257,-0.120331,0.020726,0.028024,94.114059,34.322998,-147.871231,,,
729716919.369303,1.478723,6.163698,140.00291,-0.093628,0.034073,0.991257,-0.120331,0.020726,0.028024,94.114059,34.322998,-147.871231,,,
729716919.370071,1.478721,6.163698,101.389703,-0.093628,0.034073,0.991257,-0.120331,0.020726,0.028024,94.114059,34.322998,-147.871231,,,
729716919.370535,1.478721,6.1637,104.466553,-0.093628,0.034073,0.991257,-0.120331,0.020726,0.028024,94.114059,34.322998,-147.871231,,,
729716919.371164,1.478723,6.163698,140.00291,-0.093628,0.034073,0.991257,-0.120331,0.020726,0.028024,94.114059,34.322998,-147.871231,,,
729716919.374223,1.446822,6.171175,101.401045,-0.093628,0.034073,0.991257,-0.120331,0.020726,0.028024,94.114059,34.322998,-147.871231,,,
729716919.37504,1.446822,6.171177,104.477895,-0.093628,0.034073,0.991257,-0.120331,0.020726,0.028024,94.114059,34.322998,-147.871231,,,
729716919.375196,1.446823,6.171175,140.014251,-0.093628,0.034073,0.991257,-0.120331,0.020726,0.028024,94.114059,34.322998,-147.871231,,,
729716919.378205,1.410498,6.177628,101.410767,-0.087418,0.030899,0.995071,-0.130526,0.0271,0.015165,94.114059,34.322998,-147.871231,,,
729716919.379655,1.410498,6.17763,104.487618,-0.087418,0.030899,0.995071,-0.130526,0.0271,0.015165,94.114059,34.322998,-147.871231,,,
729716919.379815,1.410499,6.177628,140.023973,-0.087418,0.030899,0.995071,-0.130526,0.0271,0.015165,94.114059,34.322998,-147.871231,,,
729716919.380126,1.410498,6.177628,101.410767,-0.087418,0.030899,0.995071,-0.130526,0.0271,0.015165,94.114059,34.322998,-147.871231,,,
729716919.380579,1.410498,6.17763,104.487618,-0.087418,0.030899,0.995071,-0.130526,0.0271,0.015165,94.114059,34.322998,-147.871231,,,
729716919.38129,1.410499,6.177628,140.023973,-0.087418,0.030899,0.995071,-0.130526,0.0271,0.015165,94.114059,34.322998,-147.871231,,,
729716919.384136,1.376158,6.184853,101.41953,-0.087418,0.030899,0.995071,-0.130526,0.0271,0.015165,94.114059,34.322998,-147.871231,,,
729716919.384792,1.376158,6.184855,104.496381,-0.087418,0.030899,0.995071,-0.130526,0.0271,0.015165,94.114059,34.322998,-147.871231,,,
729716919.384948,1.376159,6.184853,140.032736,-0.087418,0.030899,0.995071,-0.130526,0.0271,0.015165,94.114059,34.322998,-147.871231,,,
729716919.388172,1.338815,6.190349,101.428201,-0.088623,0.022263,0.990723,-0.133121,0.021898,0.014047,94.114059,34.322998,-147.871231,,,
729716919.389814,1.338815,6.190352,104.505052,-0.088623,0.022263,0.990723,-0.133121,0.021898,0.014047,94.114059,34.322998,-147.871231,,,
729716919.390004,1.338817,6.19035,140.041407,-0.088623,0.022263,0.990723,-0.133121,0.021898,0.014047,94.114059,34.322998,-147.871231,,,
729716919.390218,1.338815,6.190349,101.428201,-0.088623,0.022263,0.990723,-0.133121,0.021898,0.014047,94.114059,34.322998,-147.871231,,,
729716919.391252,1.338815,6.190352,104.505052,-0.088623,0.022263,0.990723,-0.133121,0.021898,0.014047,94.029053,34.720932,-147.576736,,,
729716919.391419,1.338817,6.19035,140.041407,-0.088623,0.022263,0.990723,-0.133121,0.021898,0.014047,94.029053,34.720932,-147.576736,,,
729716919.395006,1.303102,6.196158,101.435873,-0.088623,0.022263,0.990723,-0.133121,0.021898,0.014047,94.029053,34.720932,-147.576736,,,
729716919.395801,1.303102,6.19616,104.512724,-0.088623,0.022263,0.990723,-0.133121,0.021898,0.014047,94.029053,34.720932,-147.576736,,,
729716919.395975,1.303103,6.196158,140.049077,-0.088623,0.022263,0.990723,-0.133121,0.021898,0.014047,94.029053,34.720932,-147.576736,,,
729716919.397474,1.266895,6.198683,101.441889,-0.086823,0.020386,0.991455,-0.127994,0.007801,0.002768,94.029053,34.720932,-147.576736,,,
729716919.39844,1.266895,6.198685,104.51874,-0.086823,0.020386,0.991455,-0.127994,0.007801,0.002768,94.029053,34.720932,-147.576736,,,
729716919.398613,1.266896,6.198683,140.055094,-0.086823,0.020386,0.991455,-0.127994,0.007801,0.002768,94.029053,34.720932,-147.576736,,,
729716919.400193,1.266895,6.198683,101.441889,-0.086823,0.020386,0.991455,-0.127994,0.007801,0.002768,94.029053,34.720932,-147.576736,,,
729716919.400525,1.266895,6.198685,104.51874,-0.086823,0.020386,0.991455,-0.127994,0.007801,0.002768,94.029053,34.720932,-147.576736,,,
729716919.401167,1.266896,6.198683,140.055094,-0.086823,0.020386,0.991455,-0.127994,0.007801,0.002768,94.029053,34.720932,-147.576736,,,
729716919.404017,1.228953,6.201234,101.44598,-0.086823,0.020386,0.991455,-0.127994,0.007801,0.002768,94.029053,34.720932,-147.576736,,,
729716919.404474,1.228953,6.201236,104.52283,-0.086823,0.020386,0.991455,-0.127994,0.007801,0.002768,94.029053,34.720932,-147.576736,,,
729716919.404623,1.228954,6.201234,140.059185,-0.086823,0.020386,0.991455,-0.127994,0.007801,0.002768,94.029053,34.720932,-147.576736,,,
729716919.409028,1.193262,6.199629,101.448402,-0.085175,0.02034,0.991852,-0.119978,-0.008142,-0.008326,94.029053,34.720932,-147.576736,,,
729716919.411297,1.193262,6.199631,104.525253,-0.085175,0.02034,0.991852,-0.119978,-0.008142,-0.008326,94.029053,34.720932,-147.576736,,,
729716919.411422,1.193263,6.199629,140.061608,-0.085175,0.02034,0.991852,-0.119978,-0.008142,-0.008326,94.029053,34.720932,-147.576736,,,
729716919.411566,1.193262,6.199629,101.448402,-0.085175,0.02034,0.991852,-0.119978,-0.008142,-0.008326,94.029053,34.720932,-147.576736,,,
729716919.41374,1.157428,6.196569,101.448706,-0.085175,0.02034,0.991852,-0.119978,-0.008142,-0.008326,94.029053,34.720932,-147.576736,,,
729716919.414069,1.157428,6.196571,104.525556,-0.085175,0.02034,0.991852,-0.119978,-0.008142,-0.008326,94.029053,34.720932,-147.576736,,,
729716919.414497,1.157429,6.196569,140.061911,-0.085175,0.02034,0.991852,-0.119978,-0.008142,-0.008326,94.029053,34.720932,-147.576736,,,
729716919.417798,1.126182,6.189756,101.446837,-0.094788,0.012299,0.995865,-0.10003,-0.02412,-0.021547,94.029053,34.720932,-147.576736,,,
729716919.419229,1.126182,6.189758,104.523687,-0.094788,0.012299,0.995865,-0.10003,-0.02412,-0.021547,94.029053,34.720932,-147.576736,,,
729716919.419344,1.126184,6.189756,140.060044,-0.094788,0.012299,0.995865,-0.10003,-0.02412,-0.021547,94.029053,34.720932,-147.576736,,,
729716919.420014,1.126182,6.189756,101.446837,-0.094788,0.012299,0.995865,-0.10003,-0.02412,-0.021547,94.029053,34.720932,-147.576736,,,
729716919.420485,1.126182,6.189758,104.523687,-0.094788,0.012299,0.995865,-0.10003,-0.02412,-0.021547,94.029053,34.720932,-147.576736,,,
729716919.421135,1.126184,6.189756,140.060044,-0.094788,0.012299,0.995865,-0.10003,-0.02412,-0.021547,94.029053,34.720932,-147.576736,,,
729716919.423998,1.098152,6.18193,101.443058,-0.094788,0.012299,0.995865,-0.10003,-0.02412,-0.021547,94.029053,34.720932,-147.576736,,,
729716919.424456,1.098152,6.181933,104.519909,-0.094788,0.012299,0.995865,-0.10003,-0.02412,-0.021547,94.029053,34.720932,-147.576736,,,
729716919.424561,1.098153,6.181931,140.056265,-0.094788,0.012299,0.995865,-0.10003,-0.02412,-0.021547,94.029053,34.720932,-147.576736,,,
729716919.429014,1.072863,6.172654,101.437555,-0.102951,-0.000153,1.004425,-0.081266,-0.030061,-0.031666,94.029053,34.720932,-147.576736,,,
729716919.430664,1.072863,6.172657,104.514406,-0.102951,-0.000153,1.004425,-0.081266,-0.030061,-0.031666,94.029053,34.720932,-147.576736,,,
729716919.430789,1.072865,6.172655,140.050761,-0.102951,-0.000153,1.004425,-0.081266,-0.030061,-0.031666,94.029053,34.720932,-147.576736,,,
729716919.431085,1.072863,6.172654,101.437555,-0.102951,-0.000153,1.004425,-0.081266,-0.030061,-0.031666,94.029053,34.720932,-147.576736,,,
729716919.431179,1.072865,6.172655,140.050761,-0.102951,-0.000153,1.004425,-0.081266,-0.030061,-0.031666,94.029053,34.720932,-147.576736,,,
729716919.434326,1.052465,6.161938,101.431103,-0.102951,-0.000153,1.004425,-0.081266,-0.030061,-0.031666,93.976547,34.971497,-147.743759,,,
729716919.435094,1.052465,6.16194,104.507954,-0.102951,-0.000153,1.004425,-0.081266,-0.030061,-0.031666,93.976547,34.971497,-147.743759,,,
729716919.435196,1.052466,6.161938,140.044307,-0.102951,-0.000153,1.004425,-0.081266,-0.030061,-0.031666,93.976547,34.971497,-147.743759,,,
729716919.437788,1.033241,6.150833,101.424239,-0.1091,-0.009079,1.006516,-0.057256,-0.0388,-0.031772,93.976547,34.971497,-147.743759,,,
729716919.438853,1.033242,6.150835,104.501089,-0.1091,-0.009079,1.006516,-0.057256,-0.0388,-0.031772,93.976547,34.971497,-147.743759,,,
729716919.438965,1.033243,6.150833,140.037442,-0.1091,-0.009079,1.006516,-0.057256,-0.0388,-0.031772,93.976547,34.971497,-147.743759,,,
729716919.440092,1.033241,6.150833,101.424239,-0.1091,-0.009079,1.006516,-0.057256,-0.0388,-0.031772,93.976547,34.971497,-147.743759,,,
729716919.440477,1.033242,6.150835,104.501089,-0.1091,-0.009079,1.006516,-0.057256,-0.0388,-0.031772,93.976547,34.971497,-147.743759,,,
729716919.441135,1.033243,6.150833,140.037442,-0.1091,-0.009079,1.006516,-0.057256,-0.0388,-0.031772,93.976547,34.971497,-147.743759,,,
729716919.4439,1.020768,6.137269,101.418076,-0.1091,-0.009079,1.006516,-0.057256,-0.0388,-0.031772,93.976547,34.971497,-147.743759,,,
729716919.444493,1.020768,6.137271,104.494927,-0.1091,-0.009079,1.006516,-0.057256,-0.0388,-0.031772,93.976547,34.971497,-147.743759,,,
729716919.444603,1.020769,6.137269,140.031279,-0.1091,-0.009079,1.006516,-0.057256,-0.0388,-0.031772,93.976547,34.971497,-147.743759,,,
729716919.447503,1.007331,6.126417,101.412698,-0.112381,-0.014984,1.01088,-0.04005,-0.035906,-0.024083,93.976547,34.971497,-147.743759,,,
729716919.448214,1.007331,6.126419,104.489548,-0.112381,-0.014984,1.01088,-0.04005,-0.035906,-0.024083,93.976547,34.971497,-147.743759,,,
729716919.448412,1.007332,6.126417,140.0259,-0.112381,-0.014984,1.01088,-0.04005,-0.035906,-0.024083,93.976547,34.971497,-147.743759,,,
729716919.450174,1.007331,6.126417,101.412698,-0.112381,-0.014984,1.01088,-0.04005,-0.035906,-0.024083,93.976547,34.971497,-147.743759,,,
729716919.450467,1.007331,6.126419,104.489548,-0.112381,-0.014984,1.01088,-0.04005,-0.035906,-0.024083,93.976547,34.971497,-147.743759,,,
729716919.451137,1.007332,6.126417,140.0259,-0.112381,-0.014984,1.01088,-0.04005,-0.035906,-0.024083,93.976547,34.971497,-147.743759,,,
729716919.453898,0.998832,6.111615,101.40864,-0.112381,-0.014984,1.01088,-0.04005,-0.035906,-0.024083,93.976547,34.971497,-147.743759,,,
729716919.454346,0.998832,6.111617,104.485491,-0.112381,-0.014984,1.01088,-0.04005,-0.035906,-0.024083,93.976547,34.971497,-147.743759,,,
729716919.454481,0.998833,6.111615,140.021843,-0.112381,-0.014984,1.01088,-0.04005,-0.035906,-0.024083,93.976547,34.971497,-147.743759,,,
729716919.457522,0.98847,6.10215,101.406518,-0.113495,-0.014099,1.010956,-0.033023,-0.026214,-0.009288,93.976547,34.971497,-147.743759,,,
729716919.458381,0.98847,6.102152,104.483368,-0.113495,-0.014099,1.010956,-0.033023,-0.026214,-0.009288,93.976547,34.971497,-147.743759,,,
729716919.458495,0.988471,6.10215,140.01972,-0.113495,-0.014099,1.010956,-0.033023,-0.026214,-0.009288,93.976547,34.971497,-147.743759,,,
729716919.460156,0.98847,6.10215,101.406518,-0.113495,-0.014099,1.010956,-0.033023,-0.026214,-0.009288,93.976547,34.971497,-147.743759,,,
729716919.460471,0.98847,6.102152,104.483368,-0.113495,-0.014099,1.010956,-0.033023,-0.026214,-0.009288,93.976547,34.971497,-147.743759,,,
729716919.461269,0.988471,6.10215,140.01972,-0.113495,-0.014099,1.010956,-0.033023,-0.026214,-0.009288,93.976547,34.971497,-147.743759,,,
729716919.464139,0.979796,6.090877,101.405545,-0.113495,-0.014099,1.010956,-0.033023,-0.026214,-0.009288,93.976547,34.971497,-147.743759,,,
729716919.464833,0.979797,6.090879,104.482395,-0.113495,-0.014099,1.010956,-0.033023,-0.026214,-0.009288,93.976547,34.971497,-147.743759,,,
729716919.464988,0.979798,6.090877,140.018746,-0.113495,-0.014099,1.010956,-0.033023,-0.026214,-0.009288,93.976547,34.971497,-147.743759,,,
729716919.467474,0.969142,6.085008,101.405079,-0.113129,-0.008865,1.011551,-0.037031,-0.014987,-0.005682,93.976547,34.971497,-147.743759,,,
729716919.468249,0.969143,6.08501,104.48193,-0.113129,-0.008865,1.011551,-0.037031,-0.014987,-0.005682,93.976547,34.971497,-147.743759,,,
729716919.468405,0.969144,6.085008,140.018281,-0.113129,-0.008865,1.011551,-0.037031,-0.014987,-0.005682,93.976547,34.971497,-147.743759,,,
729716919.47021,0.969142,6.085008,101.405079,-0.113129,-0.008865,1.011551,-0.037031,-0.014987,-0.005682,93.976547,34.971497,-147.743759,,,
729716919.470509,0.969143,6.08501,104.48193,-0.113129,-0.008865,1.011551,-0.037031,-0.014987,-0.005682,93.976547,34.971497,-147.743759,,,
729716919.47117,0.969144,6.085008,140.018281,-0.113129,-0.008865,1.011551,-0.037031,-0.014987,-0.005682,93.976547,34.971497,-147.743759,,,
729716919.474675,0.958321,6.076502,101.404921,-0.113129,-0.008865,1.011551,-0.037031,-0.014987,-0.005682,93.915298,35.046768,-147.682098,,,
729716919.475793,0.958321,6.076504,104.481772,-0.113129,-0.008865,1.011551,-0.037031,-0.014987,-0.005682,93.915298,35.046768,-147.682098,,,
729716919.475939,0.958322,6.076502,140.018126,-0.113129,-0.008865,1.011551,-0.037031,-0.014987,-0.005682,93.915298,35.046768,-147.682098,,,
729716919.477433,0.958321,6.072325,101.404341,-0.108749,-0.001022,1.003021,-0.043006,-0.012257,-0.008861,93.915298,35.046768,-147.682098,,,
729716919.47847,0.945997,6.072327,104.481192,-0.108749,-0.001022,1.003021,-0.043006,-0.012257,-0.008861,93.915298,35.046768,-147.682098,,,
729716919.478723,0.945998,6.072325,140.017547,-0.108749,-0.001022,1.003021,-0.043006,-0.012257,-0.008861,93.915298,35.046768,-147.682098,,,
729716919.480431,0.945997,6.072325,101.404341,-0.108749,-0.001022,1.003021,-0.043006,-0.012257,-0.008861,93.915298,35.046768,-147.682098,,,
729716919.480643,0.945997,6.072327,104.481192,-0.108749,-0.001022,1.003021,-0.043006,-0.012257,-0.008861,93.915298,35.046768,-147.682098,,,
729716919.481168,0.945998,6.072325,140.017547,-0.108749,-0.001022,1.003021,-0.043006,-0.012257,-0.008861,93.915298,35.046768,-147.682098,,,
729716919.48412,0.933451,6.062959,101.403693,-0.108749,-0.001022,1.003021,-0.043006,-0.012257,-0.008861,93.915298,35.046768,-147.682098,,,
729716919.484797,0.933452,6.062961,104.480544,-0.108749,-0.001022,1.003021,-0.043006,-0.012257,-0.008861,93.915298,35.046768,-147.682098,,,
729716919.484954,0.933453,6.062959,140.016898,-0.108749,-0.001022,1.003021,-0.043006,-0.012257,-0.008861,93.915298,35.046768,-147.682098,,,
729716919.487017,0.933451,6.062959,101.403693,-0.108749,-0.001022,1.003021,-0.043006,-0.012257,-0.008861,93.915298,35.046768,-147.682098,,,
729716919.48955,0.916878,6.058209,104.479273,-0.103104,0.007416,0.999649,-0.062995,-0.012223,-0.014799,93.915298,35.046768,-147.682098,,,
729716919.489822,0.916879,6.058207,140.015628,-0.103104,0.007416,0.999649,-0.062995,-0.012223,-0.014799,93.915298,35.046768,-147.682098,,,
729716919.491605,0.916878,6.058207,101.402423,-0.103104,0.007416,0.999649,-0.062995,-0.012223,-0.014799,93.915298,35.046768,-147.682098,,,
729716919.492312,0.89661,6.0517,104.477031,-0.103104,0.007416,0.999649,-0.062995,-0.012223,-0.014799,93.915298,35.046768,-147.682098,,,
729716919.49245,0.896611,6.051698,140.013384,-0.103104,0.007416,0.999649,-0.062995,-0.012223,-0.014799,93.915298,35.046768,-147.682098,,,
729716919.49392,0.89661,6.051698,101.400181,-0.103104,0.007416,0.999649,-0.062995,-0.012223,-0.014799,93.915298,35.046768,-147.682098,,,
729716919.494143,0.89661,6.0517,104.477031,-0.103104,0.007416,0.999649,-0.062995,-0.012223,-0.014799,93.915298,35.046768,-147.682098,,,
729716919.494483,0.896611,6.051698,140.013384,-0.103104,0.007416,0.999649,-0.062995,-0.012223,-0.014799,93.915298,35.046768,-147.682098,,,
729716919.497975,0.873353,6.049434,101.39653,-0.098694,0.017166,0.997055,-0.083032,-0.003134,-0.026426,93.915298,35.046768,-147.682098,,,
729716919.499225,0.873353,6.049436,104.473381,-0.098694,0.017166,0.997055,-0.083032,-0.003134,-0.026426,93.915298,35.046768,-147.682098,,,
729716919.499387,0.873354,6.049434,140.009734,-0.098694,0.017166,0.997055,-0.083032,-0.003134,-0.026426,93.915298,35.046768,-147.682098,,,
729716919.50008,0.873353,6.049434,101.39653,-0.098694,0.017166,0.997055,-0.083032,-0.003134,-0.026426,93.915298,35.046768,-147.682098,,,
729716919.500541,0.873353,6.049436,104.473381,-0.098694,0.017166,0.997055,-0.083032,-0.003134,-0.026426,93.915298,35.046768,-147.682098,,,
729716919.501165,0.873354,6.049434,140.009734,-0.098694,0.017166,0.997055,-0.083032,-0.003134,-0.026426,93.915298,35.046768,-147.682098,,,
729716919.504031,0.8453,6.047597,101.391416,-0.098694,0.017166,0.997055,-0.083032,-0.003134,-0.026426,93.915298,35.046768,-147.682098,,,
729716919.504493,0.8453,6.047599,104.468267,-0.098694,0.017166,0.997055,-0.083032,-0.003134,-0.026426,93.915298,35.046768,-147.682098,,,
729716919.504645,0.845301,6.047597,140.004618,-0.098694,0.017166,0.997055,-0.083032,-0.003134,-0.026426,93.915298,35.046768,-147.682098,,,
729716919.508079,0.8453,6.047597,101.391416,-0.098694,0.017166,0.997055,-0.092329,0.015457,-0.034592,93.915298,35.046768,-147.682098,,,
729716919.509957,0.8183,6.049474,104.462107,-0.093491,0.021225,0.993591,-0.092329,0.015457,-0.034592,93.915298,35.046768,-147.682098,,,
729716919.510131,0.818301,6.049472,139.998458,-0.093491,0.021225,0.993591,-0.092329,0.015457,-0.034592,93.915298,35.046768,-147.682098,,,
729716919.510905,0.8183,6.049472,101.385256,-0.093491,0.021225,0.993591,-0.092329,0.015457,-0.034592,93.915298,35.046768,-147.682098,,,
729716919.511163,0.8183,6.049474,104.462107,-0.093491,0.021225,0.993591,-0.092329,0.015457,-0.034592,93.915298,35.046768,-147.682098,,,
729716919.511282,0.818301,6.049472,139.998458,-0.093491,0.021225,0.993591,-0.092329,0.015457,-0.034592,93.915298,35.046768,-147.682098,,,
729716919.514705,0.786992,6.055342,101.378821,-0.093491,0.021225,0.993591,-0.092329,0.015457,-0.034592,93.957092,35.183212,-147.584579,,,
729716919.516092,0.786992,6.055344,104.455672,-0.093491,0.021225,0.993591,-0.092329,0.015457,-0.034592,93.957092,35.183212,-147.584579,,,
729716919.516247,0.786994,6.055342,139.992029,-0.093491,0.021225,0.993591,-0.092329,0.015457,-0.034592,93.957092,35.183212,-147.584579,,,
729716919.516757,0.786992,6.055342,101.378821,-0.093491,0.021225,0.993591,-0.092329,0.015457,-0.034592,93.957092,35.183212,-147.584579,,,
729716919.518073,0.76233,6.064361,104.44933,-0.091873,0.018173,0.997604,-0.076975,0.038766,-0.032556,93.957092,35.183212,-147.584579,,,
729716919.518244,0.762331,6.064359,139.985685,-0.091873,0.018173,0.997604,-0.076975,0.038766,-0.032556,93.957092,35.183212,-147.584579,,,
729716919.521075,0.76233,6.064359,101.372479,-0.091873,0.018173,0.997604,-0.076975,0.038766,-0.032556,93.957092,35.183212,-147.584579,,,
729716919.521304,0.76233,6.064361,104.44933,-0.091873,0.018173,0.997604,-0.076975,0.038766,-0.032556,93.957092,35.183212,-147.584579,,,
729716919.521423,0.762331,6.064359,139.985685,-0.091873,0.018173,0.997604,-0.076975,0.038766,-0.032556,93.957092,35.183212,-147.584579,,,
729716919.524011,0.734667,6.076914,101.366259,-0.091873,0.018173,0.997604,-0.076975,0.038766,-0.032556,93.957092,35.183212,-147.584579,,,
729716919.52483,0.734667,6.076916,104.443109,-0.091873,0.018173,0.997604,-0.076975,0.038766,-0.032556,93.957092,35.183212,-147.584579,,,
729716919.524985,0.734668,6.076914,139.979464,-0.091873,0.018173,0.997604,-0.076975,0.038766,-0.032556,93.957092,35.183212,-147.584579,,,
729716919.526897,0.734667,6.076914,101.366259,-0.091873,0.018173,0.997604,-0.076975,0.038766,-0.032556,93.957092,35.183212,-147.584579,,,
729716919.528391,0.716333,6.089969,104.438522,-0.089325,0.014099,1.000671,-0.054119,0.048702,-0.018821,93.957092,35.183212,-147.584579,,,
729716919.528703,0.716335,6.089967,139.974875,-0.089325,0.014099,1.000671,-0.054119,0.048702,-0.018821,93.957092,35.183212,-147.584579,,,
729716919.531432,0.716333,6.089967,101.361671,-0.089325,0.014099,1.000671,-0.054119,0.048702,-0.018821,93.957092,35.183212,-147.584579,,,
729716919.531693,0.716333,6.089969,104.438522,-0.089325,0.014099,1.000671,-0.054119,0.048702,-0.018821,93.957092,35.183212,-147.584579,,,
729716919.531814,0.716335,6.089967,139.972945,-0.089325,0.014099,1.000671,-0.054119,0.048702,-0.018821,93.957092,35.183212,-147.584579,,,
729716919.533986,0.695987,6.104168,101.359742,-0.089325,0.014099,1.000671,-0.054119,0.048702,-0.018821,93.957092,35.183212,-147.584579,,,
729716919.534666,0.695987,6.10417,104.436592,-0.089325,0.014099,1.000671,-0.054119,0.048702,-0.018821,93.957092,35.183212,-147.584579,,,
729716919.534818,0.695988,6.104168,139.972945,-0.089325,0.014099,1.000671,-0.054119,0.048702,-0.018821,93.957092,35.183212,-147.584579,,,
729716919.536953,0.695987,6.104168,101.359742,-0.089325,0.014099,1.000671,-0.054119,0.048702,-0.018821,93.957092,35.183212,-147.584579,,,
729716919.538102,0.684001,6.117138,104.43688,-0.099365,0.008499,0.999054,-0.037253,0.046694,-0.001613,93.957092,35.183212,-147.584579,,,
729716919.538274,0.684002,6.117136,139.973232,-0.099365,0.008499,0.999054,-0.037253,0.046694,-0.001613,93.957092,35.183212,-147.584579,,,
729716919.541138,0.684,6.117136,101.360029,-0.099365,0.008499,0.999054,-0.037253,0.046694,-0.001613,93.957092,35.183212,-147.584579,,,
729716919.541368,0.684001,6.117138,104.43688,-0.099365,0.008499,0.999054,-0.037253,0.046694,-0.001613,93.957092,35.183212,-147.584579,,,
729716919.541486,0.684002,6.117136,139.973232,-0.099365,0.008499,0.999054,-0.037253,0.046694,-0.001613,93.957092,35.183212,-147.584579,,,
729716919.544225,0.669287,6.129062,101.36199,-0.099365,0.008499,0.999054,-0.037253,0.046694,-0.001613,93.957092,35.183212,-147.584579,,,
729716919.545125,0.669287,6.129064,104.43884,-0.099365,0.008499,0.999054,-0.037253,0.046694,-0.001613,93.957092,35.183212,-147.584579,,,
729716919.545315,0.669289,6.129062,139.975192,-0.099365,0.008499,0.999054,-0.037253,0.046694,-0.001613,93.957092,35.183212,-147.584579,,,
729716919.546892,0.669287,6.129062,101.36199,-0.099365,0.008499,0.999054,-0.037253,0.046694,-0.001613,93.957092,35.183212,-147.584579,,,
729716919.549757,0.660141,6.136988,104.441514,-0.104538,0.006531,0.995941,-0.031642,0.026829,0.003995,93.957092,35.183212,-147.584579,,,
729716919.55019,0.660142,6.136986,139.977869,-0.104538,0.006531,0.995941,-0.031642,0.026829,0.003995,93.957092,35.183212,-147.584579,,,
729716919.551991,0.66014,6.136986,101.364663,-0.104538,0.006531,0.995941,-0.031642,0.026829,0.003995,93.957092,35.183212,-147.584579,,,
729716919.552496,0.647697,6.143287,104.442997,-0.104538,0.006531,0.995941,-0.031642,0.026829,0.003995,93.957092,35.183212,-147.584579,,,
729716919.552629,0.647699,6.143285,139.979352,-0.104538,0.006531,0.995941,-0.031642,0.026829,0.003995,93.957092,35.183212,-147.584579,,,
729716919.553814,0.647697,6.143285,101.366147,-0.104538,0.006531,0.995941,-0.031642,0.026829,0.003995,93.957092,35.183212,-147.584579,,,
729716919.554723,0.647697,6.143287,104.442997,-0.104538,0.006531,0.995941,-0.031642,0.026829,0.003995,93.888016,35.388687,-147.707642,,,
729716919.554928,0.647699,6.143285,139.979352,-0.104538,0.006531,0.995941,-0.031642,0.026829,0.003995,93.888016,35.388687,-147.707642,,,
729716919.557468,0.647697,6.143285,101.366147,-0.104538,0.006531,0.995941,-0.031642,0.026829,0.003995,93.888016,35.388687,-147.707642,,,
729716919.559419,0.636834,6.147708,104.442213,-0.101822,0.010269,0.993744,-0.039452,0.01651,-0.012716,93.888016,35.388687,-147.707642,,,
