Time (sec),Pitch (deg),Roll (deg),Yaw(deg),X-Acceleration (g),Y-Acceleration (g),Z-Acceleration (g),Pitch Rate (deg/sec),Roll Rate (deg/sec),Yaw Rate (deg/sec),Magnetic Field in X direction (uT),Magnetic Field in Y direction (uT),Magnetic Field in Z Direction (uT),Latitude (deg),Longitude (deg),Altitude (m)
729716210.285001,-83.20988,-11.322467,-91.515467,0.066803,-1.001465,0.156342,0.023111,0.052324,-0.014005,63.17424,73.674164,-109.65686,,,
729716210.285288,-83.20976,-11.322473,-88.438513,0.066803,-1.001465,0.156342,0.023111,0.052324,-0.014005,63.17424,73.674164,-109.65686,,,
729716210.28641,-83.20988,-11.322467,-91.515467,0.066803,-1.001465,0.156342,0.023111,0.052324,-0.014005,63.17424,73.674164,-109.65686,,,
729716210.286773,-83.197939,-11.359063,-88.490093,0.05719,-1.000885,0.15921,0.023111,0.052324,-0.014005,63.17424,73.674164,-109.65686,,,
729716210.291057,-83.198058,-11.359057,-91.567048,0.05719,-1.000885,0.15921,0.023111,0.052324,-0.014005,63.17424,73.674164,-109.65686,,,
729716210.29132,-83.197939,-11.359063,-88.490093,0.05719,-1.000885,0.15921,0.023111,0.052324,-0.014005,63.17424,73.674164,-109.65686,,,
729716210.294569,-83.184277,-11.380776,-91.608645,0.05719,-1.000885,0.15921,0.067874,0.088509,-0.041478,63.17424,73.674164,-109.65686,,,
729716210.294801,-83.184158,-11.380782,-88.531691,0.05719,-1.000885,0.15921,0.067874,0.088509,-0.041478,63.17424,73.674164,-109.65686,,,
729716210.297051,-83.184277,-11.380776,-91.608645,0.05719,-0.990265,0.175827,0.067874,0.088509,-0.041478,63.17424,73.674164,-109.65686,,,
729716210.297281,-83.159231,-11.442966,-88.618687,0.056458,-0.990265,0.175827,0.067874,0.088509,-0.041478,63.17424,73.674164,-109.65686,,,
729716210.300809,-83.15935,-11.44296,-91.695641,0.056458,-0.990265,0.175827,0.067874,0.088509,-0.041478,63.17424,73.674164,-109.65686,,,
729716210.301029,-83.159231,-11.442966,-88.618687,0.056458,-0.990265,0.175827,0.067874,0.088509,-0.041478,63.17424,73.674164,-109.65686,,,
729716210.304656,-83.130592,-11.487562,-91.768624,0.056458,-0.990265,0.175827,0.114849,0.099159,-0.061416,63.17424,73.674164,-109.65686,,,
729716210.305056,-83.130473,-11.487568,-88.69167,0.056458,-0.990265,0.175827,0.114849,0.099159,-0.061416,63.17424,73.674164,-109.65686,,,
729716210.306451,-83.130592,-11.487562,-91.768624,0.056458,-0.990265,0.175827,0.114849,0.099159,-0.061416,63.17424,73.674164,-109.65686,,,
729716210.306679,-83.093795,-11.582073,-88.813821,0.048492,-0.987,0.175034,0.114849,0.099159,-0.061416,63.17424,73.674164,-109.65686,,,
729716210.311737,-83.093913,-11.582067,-91.890775,0.048492,-0.987,0.175034,0.114849,0.099159,-0.061416,62.812088,73.74826,-109.867249,,,
729716210.311994,-83.055823,-11.655963,-88.910279,0.048492,-0.987,0.175034,0.119232,0.045068,-0.074531,62.812088,73.74826,-109.867249,,,
729716210.314535,-83.055941,-11.655958,-91.987231,0.048492,-0.987,0.175034,0.119232,0.045068,-0.074531,62.812088,73.74826,-109.867249,,,
729716210.314771,-83.055823,-11.655963,-88.910279,0.048492,-0.987,0.175034,0.119232,0.045068,-0.074531,62.812088,73.74826,-109.867249,,,
729716210.316462,-83.055941,-11.655958,-91.987231,0.048492,-0.987,0.175034,0.119232,0.045068,-0.074531,62.812088,73.74826,-109.867249,,,
729716210.316717,-83.014415,-11.804451,-89.070884,0.035248,-0.993423,0.140915,0.119232,0.045068,-0.074531,62.812088,73.74826,-109.867249,,,
729716210.321283,-83.014532,-11.804446,-92.147836,0.035248,-0.993423,0.140915,0.119232,0.045068,-0.074531,62.812088,73.74826,-109.867249,,,
729716210.321563,-82.979981,-11.939155,-89.207596,0.035248,-0.993423,0.140915,0.119232,0.045068,-0.074531,62.812088,73.74826,-109.867249,,,
729716210.325562,-82.980096,-11.93915,-92.284548,0.035248,-0.993423,0.140915,0.092108,-0.019027,-0.092624,62.812088,73.74826,-109.867249,,,
729716210.325828,-82.979981,-11.939155,-89.207596,0.035248,-0.993423,0.140915,0.092108,-0.019027,-0.092624,62.812088,73.74826,-109.867249,,,
729716210.326415,-82.980096,-11.93915,-92.284548,0.035248,-0.993423,0.140915,0.092108,-0.019027,-0.092624,62.812088,73.74826,-109.867249,,,
729716210.326687,-82.945965,-12.171968,-89.435659,0.0271,-0.998947,0.101395,0.092108,-0.019027,-0.092624,62.812088,73.74826,-109.867249,,,
729716210.331426,-82.94608,-12.171963,-92.51261,0.0271,-0.998947,0.101395,0.092108,-0.019027,-0.092624,62.812088,73.74826,-109.867249,,,
729716210.33169,-82.920493,-12.376937,-89.633533,0.0271,-0.998947,0.101395,0.053805,-0.024019,-0.115464,62.812088,73.74826,-109.867249,,,
729716210.334462,-82.920608,-12.376933,-92.710484,0.0271,-0.998947,0.101395,0.053805,-0.024019,-0.115464,62.812088,73.74826,-109.867249,,,
729716210.33473,-82.920493,-12.376937,-89.633533,0.0271,-0.998947,0.101395,0.053805,-0.024019,-0.115464,62.812088,73.74826,-109.867249,,,
729716210.336498,-82.920608,-12.376933,-92.710484,0.0271,-0.998947,0.101395,0.053805,-0.024019,-0.115464,62.812088,73.74826,-109.867249,,,
729716210.336781,-82.894966,-12.666877,-89.916863,0.031998,-0.993713,0.10582,0.053805,-0.024019,-0.115464,62.812088,73.74826,-109.867249,,,
729716210.341582,-82.895081,-12.666874,-92.993813,0.031998,-0.993713,0.10582,0.053805,-0.024019,-0.115464,62.812088,73.74826,-109.867249,,,
729716210.341838,-82.877775,-12.913035,-90.16118,0.031998,-0.993713,0.10582,0.022962,0.006257,-0.11308,62.812088,73.74826,-109.867249,,,
729716210.345625,-82.877889,-12.913031,-93.23813,0.031998,-0.993713,0.10582,0.022962,0.006257,-0.11308,62.812088,73.74826,-109.867249,,,
729716210.345897,-82.877775,-12.913035,-90.16118,0.031998,-0.993713,0.10582,0.022962,0.006257,-0.11308,62.812088,73.74826,-109.867249,,,
729716210.346374,-82.877889,-12.913031,-93.23813,0.031998,-0.993713,0.10582,0.022962,0.006257,-0.11308,62.812088,73.74826,-109.867249,,,
729716210.346702,-82.856938,-13.193147,-90.444195,0.030228,-0.994675,0.118652,0.022962,0.006257,-0.11308,62.812088,73.74826,-109.867249,,,
729716210.351686,-82.857052,-13.193145,-93.521146,0.030228,-0.994675,0.118652,0.022962,0.006257,-0.11308,62.909668,73.476593,-109.679184,,,
729716210.351968,-82.845754,-13.399099,-90.657986,0.030228,-0.994675,0.118652,0.017473,0.038658,-0.082531,62.909668,73.476593,-109.679184,,,
729716210.354417,-82.845868,-13.399097,-93.734937,0.030228,-0.994675,0.118652,0.017473,0.038658,-0.082531,62.909668,73.476593,-109.679184,,,
729716210.35465,-82.845754,-13.399099,-90.657986,0.030228,-0.994675,0.118652,0.017473,0.038658,-0.082531,62.909668,73.476593,-109.679184,,,
729716210.356528,-82.845868,-13.399097,-93.734937,0.030228,-0.994675,0.118652,0.017473,0.038658,-0.082531,62.909668,73.476593,-109.679184,,,
729716210.356747,-82.82837,-13.606673,-90.876847,0.012772,-1.002441,0.131989,0.017473,0.038658,-0.082531,62.909668,73.476593,-109.679184,,,
729716210.361603,-82.828483,-13.606671,-93.953797,0.012772,-1.002441,0.131989,0.017473,0.038658,-0.082531,62.909668,73.476593,-109.679184,,,
729716210.361849,-82.81896,-13.727455,-91.012207,0.012772,-1.002441,0.131989,0.027694,0.058414,-0.050143,62.909668,73.476593,-109.679184,,,
729716210.36449,-82.819074,-13.727453,-94.089156,0.012772,-1.002441,0.131989,0.027694,0.058414,-0.050143,62.909668,73.476593,-109.679184,,,
729716210.364726,-82.81896,-13.727455,-91.012207,0.012772,-1.002441,0.131989,0.027694,0.058414,-0.050143,62.909668,73.476593,-109.679184,,,
729716210.366586,-82.819074,-13.727453,-94.089156,0.012772,-1.002441,0.131989,0.027694,0.058414,-0.050143,62.909668,73.476593,-109.679184,,,
729716210.366788,-82.798515,-13.837805,-91.139002,0.004822,-1.004013,0.142975,0.027694,0.058414,-0.050143,62.909668,73.476593,-109.679184,,,
729716210.371367,-82.798628,-13.837804,-94.215952,0.004822,-1.004013,0.142975,0.027694,0.058414,-0.050143,62.909668,73.476593,-109.679184,,,
729716210.371814,-82.784112,-13.892828,-91.211863,0.004822,-1.004013,0.142975,0.054878,0.062999,-0.040257,62.909668,73.476593,-109.679184,,,
729716210.374366,-82.784225,-13.892827,-94.288813,0.004822,-1.004013,0.142975,0.054878,0.062999,-0.040257,62.909668,73.476593,-109.679184,,,
729716210.3746,-82.784112,-13.892828,-91.211863,0.004822,-1.004013,0.142975,0.054878,0.062999,-0.040257,62.909668,73.476593,-109.679184,,,
729716210.376517,-82.784225,-13.892827,-94.288813,0.004822,-1.004013,0.142975,0.054878,0.062999,-0.040257,62.909668,73.476593,-109.679184,,,
729716210.376711,-82.784112,-13.892828,-91.211863,0.004822,-1.004013,0.142975,0.054878,0.062999,-0.040257,62.909668,73.476593,-109.679184,,,
729716210.381359,-82.753478,-13.953878,-94.367107,0.013626,-1.000641,0.156738,0.054878,0.062999,-0.040257,62.909668,73.476593,-109.679184,,,
729716210.381655,-82.7307,-13.978189,-91.330955,0.013626,-1.000641,0.156738,0.054878,0.062999,-0.040257,62.909668,73.476593,-109.679184,,,
729716210.384162,-82.730812,-13.978188,-94.407904,0.013626,-1.000641,0.156738,0.093741,0.057849,-0.036179,62.909668,73.476593,-109.679184,,,
729716210.384389,-82.7307,-13.978189,-91.330955,0.013626,-1.000641,0.156738,0.093741,0.057849,-0.036179,62.909668,73.476593,-109.679184,,,
729716210.386579,-82.730812,-13.978188,-94.407904,0.013626,-1.000641,0.156738,0.093741,0.057849,-0.036179,62.909668,73.476593,-109.679184,,,
729716210.386837,-82.69295,-13.994645,-91.363285,0.014008,-0.996597,0.155884,0.093741,0.057849,-0.036179,62.909668,73.476593,-109.679184,,,
729716210.391624,-82.693062,-13.994644,-94.440234,0.014008,-0.996597,0.155884,0.093741,0.057849,-0.036179,62.858643,73.458115,-110.133209,,,
729716210.391894,-82.659825,-14.000017,-91.384771,0.014008,-0.996597,0.155884,0.127192,0.057614,-0.042153,62.858643,73.458115,-110.133209,,,
729716210.394118,-82.659936,-14.000016,-94.461719,0.014008,-0.996597,0.155884,0.127192,0.057614,-0.042153,62.858643,73.458115,-110.133209,,,
729716210.39436,-82.659825,-14.000017,-91.384771,0.014008,-0.996597,0.155884,0.127192,0.057614,-0.042153,62.858643,73.458115,-110.133209,,,
729716210.396535,-82.659936,-14.000016,-94.461719,0.014008,-0.996597,0.155884,0.127192,0.057614,-0.042153,62.858643,73.458115,-110.133209,,,
729716210.396733,-82.659825,-14.005848,-91.406335,0.017502,-0.992615,0.162598,0.127192,0.057614,-0.042153,62.858643,73.458115,-110.133209,,,
729716210.401223,-82.621415,-14.005847,-94.483283,0.017502,-0.992615,0.162598,0.127192,0.057614,-0.042153,62.858643,73.458115,-110.133209,,,
729716210.40148,-82.621305,-14.005848,-91.406335,0.017502,-0.992615,0.162598,0.127192,0.057614,-0.042153,62.858643,73.458115,-110.133209,,,
729716210.404263,-82.580874,-14.01427,-94.504718,0.017502,-0.992615,0.162598,0.138896,0.04064,-0.048646,62.858643,73.458115,-110.133209,,,
729716210.404679,-82.580764,-14.014271,-91.427771,0.017502,-0.992615,0.162598,0.138896,0.04064,-0.048646,62.858643,73.458115,-110.133209,,,
729716210.406521,-82.580874,-14.01427,-94.504718,0.017502,-0.992615,0.162598,0.138896,0.04064,-0.048646,62.858643,73.458115,-110.133209,,,
729716210.406738,-82.580764,-14.036895,-91.460563,0.017502,-0.992615,0.162598,0.138896,0.04064,-0.048646,62.858643,73.458115,-110.133209,,,
729716210.411338,-82.545808,-14.036894,-94.537509,0.02533,-0.991333,0.147781,0.138896,0.04064,-0.048646,62.858643,73.458115,-110.133209,,,
729716210.411614,-82.545698,-14.036895,-91.460563,0.02533,-0.991333,0.147781,0.138896,0.04064,-0.048646,62.858643,73.458115,-110.133209,,,
729716210.414141,-82.502953,-14.067264,-94.577897,0.02533,-0.991333,0.147781,0.141292,0.037197,-0.064488,62.858643,73.458115,-110.133209,,,
729716210.414367,-82.502845,-14.067264,-91.500951,0.02533,-0.991333,0.147781,0.141292,0.037197,-0.064488,62.858643,73.458115,-110.133209,,,
729716210.416596,-82.502953,-14.067264,-94.577897,0.02533,-0.991333,0.147781,0.141292,0.037197,-0.064488,62.858643,73.458115,-110.133209,,,
729716210.416786,-82.463664,-14.124953,-91.569282,0.032532,-0.984512,0.137253,0.141292,0.037197,-0.064488,62.858643,73.458115,-110.133209,,,
729716210.420941,-82.463772,-14.124952,-94.646228,0.032532,-0.984512,0.137253,0.141292,0.037197,-0.064488,62.858643,73.458115,-110.133209,,,
729716210.421171,-82.463664,-14.124953,-91.569282,0.032532,-0.984512,0.137253,0.141292,0.037197,-0.064488,62.858643,73.458115,-110.133209,,,
729716210.424302,-82.420318,-14.190594,-94.722484,0.032532,-0.984512,0.137253,0.135739,0.036142,-0.083304,62.858643,73.458115,-110.133209,,,
729716210.424554,-82.42021,-14.190595,-91.645538,0.032532,-0.984512,0.137253,0.135739,0.036142,-0.083304,62.858643,73.458115,-110.133209,,,
729716210.42646,-82.420318,-14.190594,-94.722484,0.032532,-0.984512,0.137253,0.135739,0.036142,-0.083304,62.858643,73.458115,-110.133209,,,
729716210.426701,-82.42021,-14.190595,-91.645538,0.032532,-0.984512,0.137253,0.135739,0.036142,-0.083304,62.858643,73.458115,-110.133209,,,
729716210.431861,-82.378386,-14.266583,-94.808407,0.037567,-0.98056,0.13382,0.135739,0.036142,-0.083304,62.763824,73.240524,-110.449524,,,
729716210.432107,-82.335066,-14.372174,-91.845462,0.037567,-0.98056,0.13382,0.127646,0.025766,-0.099277,62.763824,73.240524,-110.449524,,,
729716210.434478,-82.335173,-14.372173,-94.922406,0.037567,-0.98056,0.13382,0.127646,0.025766,-0.099277,62.763824,73.240524,-110.449524,,,
729716210.434708,-82.335066,-14.372174,-91.845462,0.037567,-0.98056,0.13382,0.127646,0.025766,-0.099277,62.763824,73.240524,-110.449524,,,
729716210.436439,-82.335173,-14.372173,-94.922406,0.037567,-0.98056,0.13382,0.127646,0.025766,-0.099277,62.763824,73.240524,-110.449524,,,
729716210.436736,-82.335066,-14.372174,-91.845462,0.037567,-0.98056,0.13382,0.127646,0.025766,-0.099277,62.763824,73.240524,-110.449524,,,
729716210.440946,-82.29359,-14.449556,-95.007479,0.038895,-0.979019,0.125626,0.127646,0.025766,-0.099277,62.763824,73.240524,-110.449524,,,
729716210.441194,-82.293484,-14.449556,-91.930535,0.038895,-0.979019,0.125626,0.127646,0.025766,-0.099277,62.763824,73.240524,-110.449524,,,
729716210.444418,-82.251998,-14.588795,-95.15397,0.038895,-0.979019,0.125626,0.122047,0.02591,-0.107098,62.763824,73.240524,-110.449524,,,
729716210.444653,-82.251893,-14.588795,-92.077026,0.038895,-0.979019,0.125626,0.122047,0.02591,-0.107098,62.763824,73.240524,-110.449524,,,
729716210.446499,-82.251998,-14.588795,-95.15397,0.038895,-0.979019,0.125626,0.122047,0.02591,-0.107098,62.763824,73.240524,-110.449524,,,
729716210.446718,-82.251893,-14.588795,-92.077026,0.038895,-0.979019,0.125626,0.122047,0.02591,-0.107098,62.763824,73.240524,-110.449524,,,
729716210.451005,-82.209148,-14.672652,-95.246372,0.046967,-0.977921,0.132462,0.122047,0.02591,-0.107098,62.763824,73.240524,-110.449524,,,
729716210.451232,-82.209044,-14.672652,-92.169429,0.046967,-0.977921,0.132462,0.122047,0.02591,-0.107098,62.763824,73.240524,-110.449524,,,
729716210.454225,-82.16918,-14.819897,-95.40208,0.046967,-0.977921,0.132462,0.108851,0.031164,-0.105092,62.763824,73.240524,-110.449524,,,
729716210.454452,-82.169076,-14.819896,-92.325137,0.046967,-0.977921,0.132462,0.108851,0.031164,-0.105092,62.763824,73.240524,-110.449524,,,
729716210.456502,-82.16918,-14.819897,-95.40208,0.046967,-0.977921,0.132462,0.108851,0.031164,-0.105092,62.763824,73.240524,-110.449524,,,
729716210.456742,-82.169076,-14.819896,-92.325137,0.046967,-0.977921,0.132462,0.108851,0.031164,-0.105092,62.763824,73.240524,-110.449524,,,
729716210.461368,-82.12699,-14.908009,-95.499472,0.040695,-0.979172,0.135818,0.108851,0.031164,-0.105092,62.763824,73.240524,-110.449524,,,
729716210.461626,-82.126887,-14.908008,-92.42253,0.040695,-0.979172,0.135818,0.108851,0.031164,-0.105092,62.763824,73.240524,-110.449524,,,
729716210.464339,-82.091919,-15.03518,-95.635537,0.040695,-0.979172,0.135818,0.101595,0.032223,-0.086436,62.763824,73.240524,-110.449524,,,
729716210.464594,-82.091816,-15.035179,-92.558595,0.040695,-0.979172,0.135818,0.101595,0.032223,-0.086436,62.763824,73.240524,-110.449524,,,
729716210.466528,-82.091919,-15.03518,-95.635537,0.040695,-0.979172,0.135818,0.101595,0.032223,-0.086436,62.763824,73.240524,-110.449524,,,
729716210.466748,-82.091816,-15.035179,-92.558595,0.040695,-0.979172,0.135818,0.101595,0.032223,-0.086436,62.763824,73.240524,-110.449524,,,
729716210.471085,-82.053837,-15.093947,-95.704266,0.036102,-0.979675,0.130386,0.101595,0.032223,-0.086436,62.763824,73.240524,-110.449524,,,
729716210.471497,-82.053734,-15.093945,-92.627324,0.036102,-0.979675,0.130386,0.101595,0.032223,-0.086436,62.462936,73.277328,-110.748093,,,
729716210.475167,-82.020977,-15.18906,-95.810529,0.036102,-0.979675,0.130386,0.102399,0.046645,-0.072503,62.462936,73.277328,-110.748093,,,
729716210.475448,-82.020875,-15.189059,-92.733588,0.036102,-0.979675,0.130386,0.102399,0.046645,-0.072503,62.462936,73.277328,-110.748093,,,
729716210.476357,-82.020977,-15.18906,-95.810529,0.036102,-0.979675,0.130386,0.102399,0.046645,-0.072503,62.462936,73.277328,-110.748093,,,
729716210.476738,-82.020875,-15.189059,-92.733588,0.036102,-0.979675,0.130386,0.102399,0.046645,-0.072503,62.462936,73.277328,-110.748093,,,
729716210.481185,-81.981943,-15.218489,-95.854141,0.040863,-0.976776,0.146713,0.102399,0.046645,-0.072503,62.462936,73.277328,-110.748093,,,
729716210.481422,-81.981842,-15.218487,-92.7772,0.040863,-0.976776,0.146713,0.102399,0.046645,-0.072503,62.462936,73.277328,-110.748093,,,
729716210.484548,-81.946904,-15.266369,-95.919417,0.040863,-0.976776,0.146713,0.119976,0.072013,-0.055493,62.462936,73.277328,-110.748093,,,
729716210.484878,-81.946803,-15.266368,-92.842476,0.040863,-0.976776,0.146713,0.119976,0.072013,-0.055493,62.462936,73.277328,-110.748093,,,
729716210.486433,-81.946904,-15.266369,-95.919417,0.040863,-0.976776,0.146713,0.119976,0.072013,-0.055493,62.462936,73.277328,-110.748093,,,
729716210.486781,-81.946803,-15.266368,-92.842476,0.040863,-0.976776,0.146713,0.119976,0.072013,-0.055493,62.462936,73.277328,-110.748093,,,
729716210.49142,-81.908842,-15.263882,-95.93762,0.03389,-0.973511,0.160568,0.119976,0.072013,-0.055493,62.462936,73.277328,-110.748093,,,
729716210.491684,-81.908742,-15.26388,-92.86068,0.03389,-0.973511,0.160568,0.119976,0.072013,-0.055493,62.462936,73.277328,-110.748093,,,
729716210.494026,-81.870924,-15.264749,-95.959477,0.03389,-0.973511,0.160568,0.129014,0.067394,-0.03551,62.462936,73.277328,-110.748093,,,
729716210.494259,-81.870823,-15.264747,-92.882537,0.03389,-0.973511,0.160568,0.129014,0.067394,-0.03551,62.462936,73.277328,-110.748093,,,
729716210.496491,-81.870924,-15.264749,-95.959477,0.03389,-0.973511,0.160568,0.129014,0.067394,-0.03551,62.462936,73.277328,-110.748093,,,
729716210.496765,-81.870823,-15.264747,-92.882537,0.03389,-0.973511,0.160568,0.129014,0.067394,-0.03551,62.462936,73.277328,-110.748093,,,
729716210.500955,-81.832934,-15.247399,-95.960777,0.029999,-0.970551,0.1548,0.129014,0.067394,-0.03551,62.462936,73.277328,-110.748093,,,
729716210.501186,-81.832834,-15.247398,-92.883837,0.029999,-0.970551,0.1548,0.129014,0.067394,-0.03551,62.462936,73.277328,-110.748093,,,
729716210.504588,-81.796913,-15.227752,-95.955221,0.029999,-0.970551,0.1548,0.119439,0.03633,-0.030177,62.462936,73.277328,-110.748093,,,
729716210.505015,-81.796814,-15.22775,-92.878281,0.029999,-0.970551,0.1548,0.119439,0.03633,-0.030177,62.462936,73.277328,-110.748093,,,
729716210.506413,-81.796913,-15.227752,-95.955221,0.029999,-0.970551,0.1548,0.119439,0.03633,-0.030177,62.462936,73.277328,-110.748093,,,
729716210.506713,-81.796814,-15.22775,-92.878281,0.029999,-0.970551,0.1548,0.119439,0.03633,-0.030177,62.462936,73.277328,-110.748093,,,
729716210.511265,-81.763971,-15.209056,-95.946608,0.023209,-0.965424,0.129791,0.119439,0.03633,-0.030177,62.462936,73.277328,-110.748093,,,
729716210.511545,-81.763872,-15.209054,-92.869669,0.023209,-0.965424,0.129791,0.119439,0.03633,-0.030177,62.462936,73.277328,-110.748093,,,
729716210.514956,-81.731,-15.191542,-95.93664,0.023209,-0.965424,0.129791,0.11059,0.023313,-0.027583,62.529175,73.205429,-111.207169,,,
729716210.515202,-81.730901,-15.19154,-92.859701,0.023209,-0.965424,0.129791,0.11059,0.023313,-0.027583,62.529175,73.205429,-111.207169,,,
729716210.51646,-81.731,-15.191542,-95.93664,0.023209,-0.965424,0.129791,0.11059,0.023313,-0.027583,62.529175,73.205429,-111.207169,,,
729716210.516711,-81.730901,-15.19154,-92.859701,0.023209,-0.965424,0.129791,0.11059,0.023313,-0.027583,62.529175,73.205429,-111.207169,,,
729716210.520633,-81.701742,-15.192701,-95.944237,0.018723,-0.958618,0.128601,0.11059,0.023313,-0.027583,62.529175,73.205429,-111.207169,,,
729716210.520858,-81.701644,-15.192699,-92.867299,0.018723,-0.958618,0.128601,0.11059,0.023313,-0.027583,62.529175,73.205429,-111.207169,,,
729716210.524295,-81.671108,-15.192232,-95.9501,0.018723,-0.958618,0.128601,0.103187,0.02463,-0.038581,62.529175,73.205429,-111.207169,,,
729716210.52455,-81.67101,-15.192231,-92.873162,0.018723,-0.958618,0.128601,0.103187,0.02463,-0.038581,62.529175,73.205429,-111.207169,,,
729716210.526485,-81.671108,-15.192232,-95.9501,0.018723,-0.958618,0.128601,0.103187,0.02463,-0.038581,62.529175,73.205429,-111.207169,,,
729716210.526797,-81.67101,-15.192231,-92.873162,0.018723,-0.958618,0.128601,0.103187,0.02463,-0.038581,62.529175,73.205429,-111.207169,,,
729716210.531061,-81.64071,-15.216189,-95.980578,0.023712,-0.954559,0.134186,0.103187,0.02463,-0.038581,62.529175,73.205429,-111.207169,,,
729716210.531286,-81.640613,-15.216188,-92.90364,0.023712,-0.954559,0.134186,0.103187,0.02463,-0.038581,62.529175,73.205429,-111.207169,,,
729716210.534175,-81.610032,-15.229115,-96.001495,0.023712,-0.954559,0.134186,0.099907,0.036117,-0.041733,62.529175,73.205429,-111.207169,,,
729716210.534397,-81.609935,-15.229114,-92.924557,0.023712,-0.954559,0.134186,0.099907,0.036117,-0.041733,62.529175,73.205429,-111.207169,,,
729716210.53647,-81.610032,-15.229115,-96.001495,0.023712,-0.954559,0.134186,0.099907,0.036117,-0.041733,62.529175,73.205429,-111.207169,,,
729716210.536775,-81.609935,-15.229114,-92.924557,0.023712,-0.954559,0.134186,0.099907,0.036117,-0.041733,62.529175,73.205429,-111.207169,,,
729716210.54146,-81.581338,-15.248623,-96.030615,0.026779,-0.956589,0.138504,0.099907,0.036117,-0.041733,62.529175,73.205429,-111.207169,,,
729716210.541703,-81.581241,-15.248622,-92.953677,0.026779,-0.956589,0.138504,0.099907,0.036117,-0.041733,62.529175,73.205429,-111.207169,,,
729716210.544519,-81.552722,-15.261672,-96.053506,0.026779,-0.956589,0.138504,0.087775,0.029793,-0.034133,62.529175,73.205429,-111.207169,,,
729716210.544751,-81.552626,-15.261671,-92.976568,0.026779,-0.956589,0.138504,0.087775,0.029793,-0.034133,62.529175,73.205429,-111.207169,,,
729716210.546456,-81.552722,-15.261672,-96.053506,0.026779,-0.956589,0.138504,0.087775,0.029793,-0.034133,62.529175,73.205429,-111.207169,,,
729716210.546693,-81.552626,-15.261671,-92.976568,0.026779,-0.956589,0.138504,0.087775,0.029793,-0.034133,62.529175,73.205429,-111.207169,,,
729716210.550987,-81.527631,-15.273764,-96.073687,0.023468,-0.962402,0.138199,0.087775,0.029793,-0.034133,62.529175,73.205429,-111.207169,,,
729716210.551207,-81.527535,-15.273763,-92.99675,0.023468,-0.962402,0.138199,0.087775,0.029793,-0.034133,62.529175,73.205429,-111.207169,,,
729716210.555382,-81.504365,-15.280357,-96.085838,0.023468,-0.962402,0.138199,0.068499,0.012864,-0.021778,62.622116,73.082306,-111.105682,,,
729716210.555661,-81.504269,-15.280356,-93.008901,0.023468,-0.962402,0.138199,0.068499,0.012864,-0.021778,62.622116,73.082306,-111.105682,,,
729716210.556329,-81.504365,-15.280357,-96.085838,0.023468,-0.962402,0.138199,0.068499,0.012864,-0.021778,62.622116,73.082306,-111.105682,,,
729716210.556733,-81.504269,-15.280356,-93.008901,0.023468,-0.962402,0.138199,0.068499,0.012864,-0.021778,62.622116,73.082306,-111.105682,,,
729716210.560441,-81.483056,-15.279239,-96.087685,0.022217,-0.969452,0.126022,0.068499,0.012864,-0.021778,62.622116,73.082306,-111.105682,,,
729716210.560666,-81.482961,-15.279237,-93.010748,0.022217,-0.969452,0.126022,0.068499,0.012864,-0.021778,62.622116,73.082306,-111.105682,,,
729716210.564171,-81.466426,-15.27578,-96.085135,0.022217,-0.969452,0.126022,0.048892,0.00459,-0.006918,62.622116,73.082306,-111.105682,,,
729716210.564398,-81.46633,-15.275779,-93.008199,0.022217,-0.969452,0.126022,0.048892,0.00459,-0.006918,62.622116,73.082306,-111.105682,,,
729716210.56657,-81.466426,-15.27578,-96.085135,0.022217,-0.969452,0.126022,0.048892,0.00459,-0.006918,62.622116,73.082306,-111.105682,,,
729716210.566777,-81.46633,-15.275779,-93.008199,0.022217,-0.969452,0.126022,0.048892,0.00459,-0.006918,62.622116,73.082306,-111.105682,,,
729716210.570941,-81.45066,-15.252937,-96.062817,0.02063,-0.970123,0.129532,0.048892,0.00459,-0.006918,62.622116,73.082306,-111.105682,,,
729716210.571361,-81.450565,-15.252936,-92.985881,0.02063,-0.970123,0.129532,0.048892,0.00459,-0.006918,62.622116,73.082306,-111.105682,,,
729716210.575813,-81.439373,-15.225126,-96.036733,0.02063,-0.970123,0.129532,0.038501,0.01976,0.012068,62.622116,73.082306,-111.105682,,,
729716210.576108,-81.439278,-15.225125,-92.959797,0.02063,-0.970123,0.129532,0.038501,0.01976,0.012068,62.622116,73.082306,-111.105682,,,
729716210.576394,-81.439373,-15.225126,-96.036733,0.02063,-0.970123,0.129532,0.038501,0.01976,0.012068,62.622116,73.082306,-111.105682,,,
729716210.576708,-81.439278,-15.225125,-92.959797,0.02063,-0.970123,0.129532,0.038501,0.01976,0.012068,62.622116,73.082306,-111.105682,,,
729716210.581097,-81.429376,-15.168997,-95.984988,0.017624,-0.973282,0.142151,0.038501,0.01976,0.012068,62.622116,73.082306,-111.105682,,,
729716210.581323,-81.429281,-15.168996,-92.908052,0.017624,-0.973282,0.142151,0.038501,0.01976,0.012068,62.622116,73.082306,-111.105682,,,
729716210.584549,-81.422883,-15.103954,-95.926743,0.017624,-0.973282,0.142151,0.025391,0.031788,0.03104,62.622116,73.082306,-111.105682,,,
729716210.584785,-81.422788,-15.103953,-92.849807,0.017624,-0.973282,0.142151,0.025391,0.031788,0.03104,62.622116,73.082306,-111.105682,,,
729716210.586457,-81.422883,-15.103954,-95.926743,0.017624,-0.973282,0.142151,0.025391,0.031788,0.03104,62.622116,73.082306,-111.105682,,,
729716210.586814,-81.422788,-15.103953,-92.849807,0.017624,-0.973282,0.142151,0.025391,0.031788,0.03104,62.622116,73.082306,-111.105682,,,
729716210.590793,-81.421008,-15.011666,-95.841842,0.020325,-0.974243,0.148972,0.025391,0.031788,0.03104,62.622116,73.082306,-111.105682,,,
729716210.591026,-81.420913,-15.011665,-92.764905,0.020325,-0.974243,0.148972,0.025391,0.031788,0.03104,62.622116,73.082306,-111.105682,,,
729716210.594918,-81.418779,-14.921383,-95.757839,0.020325,-0.974243,0.148972,0.018654,0.022718,0.044302,62.556686,73.171341,-111.700745,,,
729716210.595173,-81.418684,-14.921382,-92.680903,0.020325,-0.974243,0.148972,0.018654,0.022718,0.044302,62.556686,73.171341,-111.700745,,,
729716210.596403,-81.418779,-14.921383,-95.757839,0.020325,-0.974243,0.148972,0.018654,0.022718,0.044302,62.556686,73.171341,-111.700745,,,
729716210.596682,-81.418684,-14.921382,-92.680903,0.020325,-0.974243,0.148972,0.018654,0.022718,0.044302,62.556686,73.171341,-111.700745,,,
729716210.60073,-81.419813,-14.813589,-95.654918,0.022491,-0.969635,0.143585,0.018654,0.022718,0.044302,62.556686,73.171341,-111.700745,,,
729716210.600967,-81.419718,-14.813588,-92.577982,0.022491,-0.969635,0.143585,0.018654,0.022718,0.044302,62.556686,73.171341,-111.700745,,,
729716210.604169,-81.420221,-14.71574,-95.56046,0.022491,-0.969635,0.143585,0.011808,0.016615,0.047053,62.556686,73.171341,-111.700745,,,
729716210.604589,-81.420126,-14.71574,-92.483524,0.022491,-0.969635,0.143585,0.011808,0.016615,0.047053,62.556686,73.171341,-111.700745,,,
729716210.606487,-81.420221,-14.71574,-95.56046,0.022491,-0.969635,0.143585,0.011808,0.016615,0.047053,62.556686,73.171341,-111.700745,,,
729716210.606718,-81.420126,-14.71574,-92.483524,0.022491,-0.969635,0.143585,0.011808,0.016615,0.047053,62.556686,73.171341,-111.700745,,,
729716210.611011,-81.421505,-14.606489,-95.454242,0.025635,-0.966339,0.1465,0.011808,0.016615,0.047053,62.556686,73.171341,-111.700745,,,
729716210.611235,-81.42141,-14.606489,-92.377306,0.025635,-0.966339,0.1465,0.011808,0.016615,0.047053,62.556686,73.171341,-111.700745,,,
729716210.613895,-81.421533,-14.503939,-95.353989,0.025635,-0.966339,0.1465,0.01412,0.011898,0.046517,62.556686,73.171341,-111.700745,,,
729716210.614124,-81.421438,-14.503939,-92.277053,0.025635,-0.966339,0.1465,0.01412,0.011898,0.046517,62.556686,73.171341,-111.700745,,,
729716210.616605,-81.421533,-14.503939,-95.353989,0.025635,-0.966339,0.1465,0.01412,0.011898,0.046517,62.556686,73.171341,-111.700745,,,
729716210.616798,-81.421438,-14.503939,-92.277053,0.025635,-0.966339,0.1465,0.01412,0.011898,0.046517,62.556686,73.171341,-111.700745,,,
729716210.620829,-81.421647,-14.401245,-95.253497,0.020996,-0.966263,0.151337,0.01412,0.011898,0.046517,62.556686,73.171341,-111.700745,,,
729716210.621068,-81.421553,-14.401245,-92.176561,0.020996,-0.966263,0.151337,0.01412,0.011898,0.046517,62.556686,73.171341,-111.700745,,,
729716210.623906,-81.421043,-14.317316,-95.170826,0.020996,-0.966263,0.151337,0.014382,0.007887,0.031736,62.556686,73.171341,-111.700745,,,
729716210.624131,-81.420948,-14.317316,-92.09389,0.020996,-0.966263,0.151337,0.014382,0.007887,0.031736,62.556686,73.171341,-111.700745,,,
729716210.62653,-81.421043,-14.317316,-95.170826,0.020996,-0.966263,0.151337,0.014382,0.007887,0.031736,62.556686,73.171341,-111.700745,,,
729716210.626725,-81.420948,-14.317316,-92.09389,0.020996,-0.966263,0.151337,0.014382,0.007887,0.031736,62.556686,73.171341,-111.700745,,,
729716210.630791,-81.420438,-14.240179,-95.093573,0.025238,-0.967026,0.147949,0.014382,0.007887,0.031736,62.556686,73.171341,-111.700745,,,
729716210.631014,-81.420343,-14.240179,-92.016637,0.025238,-0.967026,0.147949,0.014382,0.007887,0.031736,62.556686,73.171341,-111.700745,,,
729716210.635961,-81.418203,-14.186651,-95.038773,0.025238,-0.967026,0.147949,0.014623,-0.004474,0.018372,62.730103,73.342636,-111.142609,,,
729716210.636252,-81.418108,-14.186651,-91.961837,0.025238,-0.967026,0.147949,0.014623,-0.004474,0.018372,62.730103,73.342636,-111.142609,,,
729716210.636734,-81.418108,-14.186651,-91.961837,0.025238,-0.967026,0.147949,0.014623,-0.004474,0.018372,62.730103,73.342636,-111.142609,,,
729716210.640646,-81.417538,-14.140248,-94.989998,0.034622,-0.967392,0.149841,0.014623,-0.004474,0.018372,62.730103,73.342636,-111.142609,,,
729716210.640872,-81.417443,-14.140248,-91.913062,0.034622,-0.967392,0.149841,0.014623,-0.004474,0.018372,62.730103,73.342636,-111.142609,,,
729716210.644441,-81.414827,-14.111575,-94.957851,0.034622,-0.967392,0.149841,0.007793,-0.009832,0.007845,62.730103,73.342636,-111.142609,,,
729716210.644671,-81.414732,-14.111576,-91.880915,0.034622,-0.967392,0.149841,0.007793,-0.009832,0.007845,62.730103,73.342636,-111.142609,,,
729716210.646441,-81.414827,-14.111575,-94.957851,0.034622,-0.967392,0.149841,0.007793,-0.009832,0.007845,62.730103,73.342636,-111.142609,,,
729716210.646761,-81.414732,-14.111576,-91.880915,0.034622,-0.967392,0.149841,0.007793,-0.009832,0.007845,62.730103,73.342636,-111.142609,,,
729716210.650852,-81.414372,-14.083997,-94.926215,0.036179,-0.972473,0.146896,0.007793,-0.009832,0.007845,62.730103,73.342636,-111.142609,,,
729716210.651105,-81.414277,-14.083998,-91.849279,0.036179,-0.972473,0.146896,0.007793,-0.009832,0.007845,62.730103,73.342636,-111.142609,,,
729716210.655195,-81.413964,-14.076454,-94.914675,0.036179,-0.972473,0.146896,-0.003026,-0.011814,-0.003942,62.730103,73.342636,-111.142609,,,
729716210.655414,-81.413869,-14.076455,-91.837739,0.036179,-0.972473,0.146896,-0.003026,-0.011814,-0.003942,62.730103,73.342636,-111.142609,,,
729716210.656316,-81.413964,-14.076454,-94.914675,0.036179,-0.972473,0.146896,-0.003026,-0.011814,-0.003942,62.730103,73.342636,-111.142609,,,
729716210.656671,-81.413869,-14.076455,-91.837739,0.036179,-0.972473,0.146896,-0.003026,-0.011814,-0.003942,62.730103,73.342636,-111.142609,,,
729716210.661018,-81.414699,-14.068571,-94.903155,0.037598,-0.976562,0.144928,-0.003026,-0.011814,-0.003942,62.730103,73.342636,-111.142609,,,
729716210.661256,-81.414604,-14.068572,-91.826219,0.037598,-0.976562,0.144928,-0.003026,-0.011814,-0.003942,62.730103,73.342636,-111.142609,,,
729716210.664421,-81.415945,-14.086649,-94.918038,0.037598,-0.976562,0.144928,-0.004492,-0.004137,-0.00942,62.730103,73.342636,-111.142609,,,
729716210.664654,-81.41585,-14.086649,-91.841102,0.037598,-0.976562,0.144928,-0.004492,-0.004137,-0.00942,62.730103,73.342636,-111.142609,,,
729716210.666566,-81.415945,-14.086649,-94.918038,0.037598,-0.976562,0.144928,-0.004492,-0.004137,-0.00942,62.730103,73.342636,-111.142609,,,
729716210.666776,-81.41585,-14.086649,-91.841102,0.037598,-0.976562,0.144928,-0.004492,-0.004137,-0.00942,62.730103,73.342636,-111.142609,,,
729716210.670272,-81.41682,-14.094951,-94.924417,0.037872,-0.979858,0.152786,-0.004492,-0.004137,-0.00942,62.730103,73.342636,-111.142609,,,
729716210.670491,-81.416725,-14.094952,-91.847481,0.037872,-0.979858,0.152786,-0.004492,-0.004137,-0.00942,62.730103,73.342636,-111.142609,,,
729716210.676779,-81.41675,-14.113397,-94.942596,0.037872,-0.979858,0.152786,0.003601,0.002999,-0.010364,62.685928,73.030518,-110.871155,,,
729716210.67716,-81.416655,-14.113398,-91.86566,0.037872,-0.979858,0.152786,0.003601,0.002999,-0.010364,62.685928,73.030518,-110.871155,,,
729716210.68088,-81.415857,-14.121315,-94.951035,0.041077,-0.985886,0.162354,0.003601,0.002999,-0.010364,62.685928,73.030518,-110.871155,,,
729716210.681113,-81.415762,-14.121316,-91.874099,0.041077,-0.985886,0.162354,0.003601,0.002999,-0.010364,62.685928,73.030518,-110.871155,,,
729716210.685327,-81.412738,-14.137745,-94.967008,0.041077,-0.985886,0.162354,0.021972,-2.5e-05,-0.010223,62.685928,73.030518,-110.871155,,,
729716210.685623,-81.412644,-14.137746,-91.890072,0.041077,-0.985886,0.162354,0.021972,-2.5e-05,-0.010223,62.685928,73.030518,-110.871155,,,
729716210.686366,-81.412738,-14.137745,-94.967008,0.041077,-0.985886,0.162354,0.021972,-2.5e-05,-0.010223,62.685928,73.030518,-110.871155,,,
729716210.686793,-81.412644,-14.137746,-91.890072,0.041077,-0.985886,0.162354,0.021972,-2.5e-05,-0.010223,62.685928,73.030518,-110.871155,,,
729716210.691021,-81.405682,-14.133295,-94.961946,0.037247,-0.998123,0.16684,0.021972,-2.5e-05,-0.010223,62.685928,73.030518,-110.871155,,,
729716210.691258,-81.405587,-14.133296,-91.88501,0.037247,-0.998123,0.16684,0.021972,-2.5e-05,-0.010223,62.685928,73.030518,-110.871155,,,
729716210.694821,-81.395311,-14.134479,-94.963594,0.037247,-0.998123,0.16684,0.054442,0.01282,-0.0143,62.685928,73.030518,-110.871155,,,
729716210.695078,-81.395217,-14.13448,-91.886658,0.037247,-0.998123,0.16684,0.054442,0.01282,-0.0143,62.685928,73.030518,-110.871155,,,
729716210.696423,-81.395311,-14.134479,-94.963594,0.037247,-0.998123,0.16684,0.054442,0.01282,-0.0143,62.685928,73.030518,-110.871155,,,
729716210.696682,-81.395217,-14.13448,-91.886658,0.037247,-0.998123,0.16684,0.054442,0.01282,-0.0143,62.685928,73.030518,-110.871155,,,
729716210.70132,-81.378203,-14.101799,-94.93462,0.040848,-1.009949,0.17662,0.054442,0.01282,-0.0143,62.685928,73.030518,-110.871155,,,
729716210.701553,-81.378109,-14.101799,-91.857684,0.040848,-1.009949,0.17662,0.054442,0.01282,-0.0143,62.685928,73.030518,-110.871155,,,
729716210.704439,-81.354955,-14.07904,-94.919289,0.040848,-1.009949,0.17662,0.10922,0.04893,-0.01274,62.685928,73.030518,-110.871155,,,
729716210.704878,-81.35486,-14.079041,-91.842353,0.040848,-1.009949,0.17662,0.10922,0.04893,-0.01274,62.685928,73.030518,-110.871155,,,
729716210.706448,-81.354955,-14.07904,-94.919289,0.040848,-1.009949,0.17662,0.10922,0.04893,-0.01274,62.685928,73.030518,-110.871155,,,
729716210.706687,-81.35486,-14.079041,-91.842353,0.040848,-1.009949,0.17662,0.10922,0.04893,-0.01274,62.685928,73.030518,-110.871155,,,
729716210.711522,-81.323144,-14.01614,-94.869396,0.047302,-1.020172,0.197128,0.10922,0.04893,-0.01274,62.685928,73.030518,-110.871155,,,
729716210.711766,-81.32305,-14.016141,-91.792461,0.047302,-1.020172,0.197128,0.10922,0.04893,-0.01274,62.685928,73.030518,-110.871155,,,
729716210.715564,-81.284929,-13.940534,-94.812469,0.047302,-1.020172,0.197128,0.168374,0.081536,0.00121,62.685928,73.030518,-110.871155,,,
729716210.715836,-81.284835,-13.940535,-91.735534,0.047302,-1.020172,0.197128,0.168374,0.081536,0.00121,62.685928,73.030518,-110.871155,,,
729716210.716389,-81.284929,-13.940534,-94.812469,0.047302,-1.020172,0.197128,0.168374,0.081536,0.00121,62.685928,73.030518,-110.871155,,,
729716210.716754,-81.284835,-13.940535,-91.735534,0.047302,-1.020172,0.197128,0.168374,0.081536,0.00121,62.592056,73.31485,-111.486221,,,
729716210.722021,-81.237321,-13.829771,-94.723951,0.049759,-1.028915,0.211029,0.168374,0.081536,0.00121,62.592056,73.31485,-111.486221,,,
729716210.722361,-81.183492,-13.687265,-91.526942,0.049759,-1.028915,0.211029,0.168374,0.081536,0.00121,62.592056,73.31485,-111.486221,,,
729716210.724243,-81.183585,-13.687264,-94.603876,0.049759,-1.028915,0.211029,0.220763,0.078559,0.026922,62.592056,73.31485,-111.486221,,,
729716210.724488,-81.183492,-13.687265,-91.526942,0.049759,-1.028915,0.211029,0.220763,0.078559,0.026922,62.592056,73.31485,-111.486221,,,
729716210.726494,-81.183585,-13.687264,-94.603876,0.049759,-1.028915,0.211029,0.220763,0.078559,0.026922,62.592056,73.31485,-111.486221,,,
729716210.726707,-81.183492,-13.687265,-91.526942,0.049759,-1.028915,0.211029,0.220763,0.078559,0.026922,62.592056,73.31485,-111.486221,,,
729716210.731399,-81.123598,-13.513695,-94.450023,0.045517,-1.039017,0.204163,0.220763,0.078559,0.026922,62.592056,73.31485,-111.486221,,,
729716210.731669,-81.123506,-13.513696,-91.373089,0.045517,-1.039017,0.204163,0.220763,0.078559,0.026922,62.592056,73.31485,-111.486221,,,
729716210.734578,-81.057469,-13.312411,-94.264531,0.045517,-1.039017,0.204163,0.271364,0.058884,0.050967,62.592056,73.31485,-111.486221,,,
729716210.734819,-81.057378,-13.312413,-91.187598,0.045517,-1.039017,0.204163,0.271364,0.058884,0.050967,62.592056,73.31485,-111.486221,,,
729716210.736444,-81.057469,-13.312411,-94.264531,0.045517,-1.039017,0.204163,0.271364,0.058884,0.050967,62.592056,73.31485,-111.486221,,,
729716210.736732,-81.057378,-13.312413,-91.187598,0.045517,-1.039017,0.204163,0.271364,0.058884,0.050967,62.592056,73.31485,-111.486221,,,
729716210.741154,-80.985699,-13.090603,-94.055746,0.040466,-1.035492,0.200363,0.271364,0.058884,0.050967,62.592056,73.31485,-111.486221,,,
729716210.741393,-80.985608,-13.090605,-90.978814,0.040466,-1.035492,0.200363,0.271364,0.058884,0.050967,62.592056,73.31485,-111.486221,,,
729716210.744351,-80.907124,-12.849172,-93.826277,0.040466,-1.035492,0.200363,0.317448,0.062313,0.064876,62.592056,73.31485,-111.486221,,,
729716210.744589,-80.907035,-12.849174,-90.749345,0.040466,-1.035492,0.200363,0.317448,0.062313,0.064876,62.592056,73.31485,-111.486221,,,
729716210.746481,-80.907124,-12.849172,-93.826277,0.040466,-1.035492,0.200363,0.317448,0.062313,0.064876,62.592056,73.31485,-111.486221,,,
729716210.746698,-80.907035,-12.849174,-90.749345,0.040466,-1.035492,0.200363,0.317448,0.062313,0.064876,62.592056,73.31485,-111.486221,,,
729716210.751188,-80.822108,-12.592221,-93.584141,0.039307,-1.022949,0.208923,0.317448,0.062313,0.064876,62.592056,73.31485,-111.486221,,,
729716210.751413,-80.822019,-12.592224,-90.507209,0.039307,-1.022949,0.208923,0.317448,0.062313,0.064876,62.592056,73.31485,-111.486221,,,
729716210.754609,-80.730796,-12.315379,-93.328121,0.039307,-1.022949,0.208923,0.366941,0.107102,0.070696,62.592056,73.31485,-111.486221,,,
729716210.754841,-80.730708,-12.315382,-90.25119,0.039307,-1.022949,0.208923,0.366941,0.107102,0.070696,62.592056,73.31485,-111.486221,,,
729716210.756418,-80.730796,-12.315379,-93.328121,0.039307,-1.022949,0.208923,0.366941,0.107102,0.070696,62.592056,73.31485,-111.486221,,,
729716210.756681,-80.730708,-12.315382,-90.25119,0.039307,-1.022949,0.208923,0.366941,0.107102,0.070696,62.592056,73.31485,-111.486221,,,
729716210.761795,-80.631651,-12.031025,-93.070026,0.040405,-1.01358,0.220291,0.366941,0.107102,0.070696,62.933075,72.898087,-112.065521,,,
729716210.762045,-80.631564,-12.031028,-89.993096,0.040405,-1.01358,0.220291,0.366941,0.107102,0.070696,62.933075,72.898087,-112.065521,,,
729716210.764252,-80.526501,-11.733594,-92.802461,0.040405,-1.01358,0.220291,0.41682,0.126298,0.073625,62.933075,72.898087,-112.065521,,,
729716210.764478,-80.526415,-11.733598,-89.725532,0.040405,-1.01358,0.220291,0.41682,0.126298,0.073625,62.933075,72.898087,-112.065521,,,
729716210.766573,-80.526501,-11.733594,-92.802461,0.040405,-1.01358,0.220291,0.41682,0.126298,0.073625,62.933075,72.898087,-112.065521,,,
729716210.766778,-80.526415,-11.733598,-89.725532,0.040405,-1.01358,0.220291,0.41682,0.126298,0.073625,62.933075,72.898087,-112.065521,,,
729716210.771,-80.413044,-11.432103,-92.532457,0.040222,-1.007919,0.219513,0.41682,0.126298,0.073625,62.933075,72.898087,-112.065521,,,
729716210.771401,-80.41296,-11.432108,-89.455528,0.040222,-1.007919,0.219513,0.41682,0.126298,0.073625,62.933075,72.898087,-112.065521,,,
729716210.774213,-80.293366,-11.124968,-92.257843,0.040222,-1.007919,0.219513,0.463566,0.131416,0.072845,62.933075,72.898087,-112.065521,,,
729716210.77445,-80.293283,-11.124973,-89.180915,0.040222,-1.007919,0.219513,0.463566,0.131416,0.072845,62.933075,72.898087,-112.065521,,,
729716210.776512,-80.293366,-11.124968,-92.257843,0.040222,-1.007919,0.219513,0.463566,0.131416,0.072845,62.933075,72.898087,-112.065521,,,
729716210.776736,-80.293283,-11.124973,-89.180915,0.040222,-1.007919,0.219513,0.463566,0.131416,0.072845,62.933075,72.898087,-112.065521,,,
729716210.78111,-80.16629,-10.824294,-91.988949,0.037369,-1.004028,0.219162,0.463566,0.131416,0.072845,62.933075,72.898087,-112.065521,,,
729716210.781348,-80.166207,-10.824299,-88.912022,0.037369,-1.004028,0.219162,0.463566,0.131416,0.072845,62.933075,72.898087,-112.065521,,,
729716210.784367,-80.037992,-10.531645,-91.724334,0.037369,-1.004028,0.219162,0.468231,0.089002,0.066144,62.933075,72.898087,-112.065521,,,
729716210.784599,-80.03791,-10.531651,-88.647407,0.037369,-1.004028,0.219162,0.468231,0.089002,0.066144,62.933075,72.898087,-112.065521,,,
729716210.786453,-80.037992,-10.531645,-91.724334,0.037369,-1.004028,0.219162,0.468231,0.089002,0.066144,62.933075,72.898087,-112.065521,,,
729716210.786761,-80.03791,-10.531651,-88.647407,0.037369,-1.004028,0.219162,0.468231,0.089002,0.066144,62.933075,72.898087,-112.065521,,,
729716210.791183,-79.907516,-10.268616,-91.482212,0.032318,-0.999802,0.20076,0.468231,0.089002,0.066144,62.933075,72.898087,-112.065521,,,
729716210.791409,-79.907436,-10.268622,-88.405287,0.032318,-0.999802,0.20076,0.468231,0.089002,0.066144,62.933075,72.898087,-112.065521,,,
729716210.794517,-79.781928,-10.02946,-91.254786,0.032318,-0.999802,0.20076,0.437861,0.028928,0.048735,62.933075,72.898087,-112.065521,,,
729716210.794751,-79.781848,-10.029466,-88.177861,0.032318,-0.999802,0.20076,0.437861,0.028928,0.048735,62.933075,72.898087,-112.065521,,,
729716210.796446,-79.781928,-10.02946,-91.254786,0.032318,-0.999802,0.20076,0.437861,0.028928,0.048735,62.933075,72.898087,-112.065521,,,
729716210.796667,-79.781848,-10.029466,-88.177861,0.032318,-0.999802,0.20076,0.437861,0.028928,0.048735,62.933075,72.898087,-112.065521,,,
729716210.801769,-79.657928,-9.830069,-91.060616,0.029785,-0.988785,0.167267,0.437861,0.028928,0.048735,63.096512,72.674911,-113.23082,,,
729716210.802014,-79.657849,-9.830075,-87.983692,0.029785,-0.988785,0.167267,0.437861,0.028928,0.048735,63.096512,72.674911,-113.23082,,,
729716210.80446,-79.54362,-9.657584,-90.890928,0.029785,-0.988785,0.167267,0.374879,0.014905,0.022727,63.096512,72.674911,-113.23082,,,
729716210.804949,-79.543543,-9.657591,-87.814005,0.029785,-0.988785,0.167267,0.374879,0.014905,0.022727,63.096512,72.674911,-113.23082,,,
729716210.806429,-79.54362,-9.657584,-90.890928,0.029785,-0.988785,0.167267,0.374879,0.014905,0.022727,63.096512,72.674911,-113.23082,,,
729716210.806683,-79.543543,-9.657591,-87.814005,0.029785,-0.988785,0.167267,0.374879,0.014905,0.022727,63.096512,72.674911,-113.23082,,,
729716210.811546,-79.437857,-9.522715,-90.75766,0.037872,-0.970535,0.157806,0.374879,0.014905,0.022727,63.096512,72.674911,-113.23082,,,
729716210.811787,-79.437781,-9.522722,-87.680737,0.037872,-0.970535,0.157806,0.374879,0.014905,0.022727,63.096512,72.674911,-113.23082,,,
729716210.814492,-79.344426,-9.40944,-90.646633,0.037872,-0.970535,0.157806,0.299192,0.021537,0.006474,63.096512,72.674911,-113.23082,,,
729716210.814725,-79.34435,-9.409446,-87.569711,0.037872,-0.970535,0.157806,0.299192,0.021537,0.006474,63.096512,72.674911,-113.23082,,,
729716210.81643,-79.344426,-9.40944,-90.646633,0.037872,-0.970535,0.157806,0.299192,0.021537,0.006474,63.096512,72.674911,-113.23082,,,
729716210.816675,-79.34435,-9.409446,-87.569711,0.037872,-0.970535,0.157806,0.299192,0.021537,0.006474,63.096512,72.674911,-113.23082,,,
729716210.8213,-79.257956,-9.318599,-90.559817,0.032745,-0.969147,0.138367,0.299192,0.021537,0.006474,63.096512,72.674911,-113.23082,,,
729716210.821539,-79.25788,-9.318606,-87.482895,0.032745,-0.969147,0.138367,0.299192,0.021537,0.006474,63.096512,72.674911,-113.23082,,,
729716210.824518,-79.177816,-9.236521,-90.484201,0.032745,-0.969147,0.138367,0.274081,0.042743,0.003436,63.096512,72.674911,-113.23082,,,
729716210.824745,-79.177741,-9.236528,-87.407279,0.032745,-0.969147,0.138367,0.274081,0.042743,0.003436,63.096512,72.674911,-113.23082,,,
729716210.826452,-79.177816,-9.236521,-90.484201,0.032745,-0.969147,0.138367,0.274081,0.042743,0.003436,63.096512,72.674911,-113.23082,,,
729716210.826674,-79.177741,-9.236528,-87.407279,0.032745,-0.969147,0.138367,0.274081,0.042743,0.003436,63.096512,72.674911,-113.23082,,,
729716210.831194,-79.100118,-9.15365,-90.411353,0.03096,-0.965225,0.167419,0.274081,0.042743,0.003436,63.096512,72.674911,-113.23082,,,
729716210.831472,-79.100043,-9.153657,-87.334432,0.03096,-0.965225,0.167419,0.274081,0.042743,0.003436,63.096512,72.674911,-113.23082,,,
729716210.834618,-79.021524,-9.058381,-90.33097,0.03096,-0.965225,0.167419,0.295331,0.077905,0.012127,63.096512,72.674911,-113.23082,,,
729716210.834865,-79.021451,-9.058388,-87.254049,0.03096,-0.965225,0.167419,0.295331,0.077905,0.012127,63.096512,72.674911,-113.23082,,,
729716210.836419,-79.021524,-9.058381,-90.33097,0.03096,-0.965225,0.167419,0.295331,0.077905,0.012127,63.096512,72.674911,-113.23082,,,
729716210.836751,-79.021451,-9.058388,-87.254049,0.03096,-0.965225,0.167419,0.295331,0.077905,0.012127,63.096512,72.674911,-113.23082,,,
729716210.841703,-78.938474,-8.94649,-90.238299,0.025528,-0.969177,0.205109,0.295331,0.077905,0.012127,63.13562,72.336624,-114.05838,,,
729716210.841971,-78.938401,-8.946497,-87.161379,0.025528,-0.969177,0.205109,0.295331,0.077905,0.012127,63.13562,72.336624,-114.05838,,,
729716210.844543,-78.848764,-8.814138,-90.127825,0.025528,-0.969177,0.205109,0.347985,0.090858,0.03583,63.13562,72.336624,-114.05838,,,
729716210.844778,-78.848692,-8.814145,-87.050905,0.025528,-0.969177,0.205109,0.347985,0.090858,0.03583,63.13562,72.336624,-114.05838,,,
729716210.846443,-78.848764,-8.814138,-90.127825,0.025528,-0.969177,0.205109,0.347985,0.090858,0.03583,63.13562,72.336624,-114.05838,,,
729716210.84668,-78.848692,-8.814145,-87.050905,0.025528,-0.969177,0.205109,0.347985,0.090858,0.03583,63.13562,72.336624,-114.05838,,,
729716210.85147,-78.750977,-8.658414,-89.994265,0.017105,-0.979416,0.233551,0.347985,0.090858,0.03583,63.13562,72.336624,-114.05838,,,
729716210.851745,-78.750905,-8.658421,-86.917346,0.017105,-0.979416,0.233551,0.347985,0.090858,0.03583,63.13562,72.336624,-114.05838,,,
729716210.854378,-78.643723,-8.480249,-89.83708,0.017105,-0.979416,0.233551,0.423472,0.088413,0.057582,63.13562,72.336624,-114.05838,,,
729716210.854626,-78.643651,-8.480257,-86.760161,0.017105,-0.979416,0.233551,0.423472,0.088413,0.057582,63.13562,72.336624,-114.05838,,,
729716210.856482,-78.643723,-8.480249,-89.83708,0.017105,-0.979416,0.233551,0.423472,0.088413,0.057582,63.13562,72.336624,-114.05838,,,
729716210.856715,-78.643651,-8.480257,-86.760161,0.017105,-0.979416,0.233551,0.423472,0.088413,0.057582,63.13562,72.336624,-114.05838,,,
729716210.861123,-78.527098,-8.281693,-89.659694,0.017151,-0.983444,0.243469,0.423472,0.088413,0.057582,63.13562,72.336624,-114.05838,,,
729716210.861361,-78.527028,-8.281701,-86.582776,0.017151,-0.983444,0.243469,0.423472,0.088413,0.057582,63.13562,72.336624,-114.05838,,,
729716210.864563,-78.401826,-8.063083,-89.464126,0.017151,-0.983444,0.243469,0.482091,0.10501,0.079573,63.13562,72.336624,-114.05838,,,
729716210.864811,-78.401756,-8.063091,-86.387209,0.017151,-0.983444,0.243469,0.482091,0.10501,0.079573,63.13562,72.336624,-114.05838,,,
729716210.866503,-78.401826,-8.063083,-89.464126,0.017151,-0.983444,0.243469,0.482091,0.10501,0.079573,63.13562,72.336624,-114.05838,,,
729716210.86672,-78.401756,-8.063091,-86.387209,0.017151,-0.983444,0.243469,0.482091,0.10501,0.079573,63.13562,72.336624,-114.05838,,,
729716210.871262,-78.268471,-7.825306,-89.250825,0.018829,-0.987427,0.253571,0.482091,0.10501,0.079573,63.13562,72.336624,-114.05838,,,
729716210.871719,-78.268403,-7.825314,-86.173908,0.018829,-0.987427,0.253571,0.482091,0.10501,0.079573,63.13562,72.336624,-114.05838,,,
729716210.874705,-78.128805,-7.570327,-89.020689,0.018829,-0.987427,0.253571,0.523329,0.101132,0.107733,63.13562,72.336624,-114.05838,,,
729716210.874972,-78.128737,-7.570336,-85.943772,0.018829,-0.987427,0.253571,0.523329,0.101132,0.107733,63.13562,72.336624,-114.05838,,,
729716210.876458,-78.128805,-7.570327,-89.020689,0.018829,-0.987427,0.253571,0.523329,0.101132,0.107733,63.13562,72.336624,-114.05838,,,
729716210.876697,-78.128737,-7.570336,-85.943772,0.018829,-0.987427,0.253571,0.523329,0.101132,0.107733,63.13562,72.336624,-114.05838,,,
729716210.881675,-77.983395,-7.303682,-88.777547,0.015228,-0.992111,0.243484,0.523329,0.101132,0.107733,63.397858,72.136261,-114.913345,,,
729716210.881926,-77.983328,-7.303691,-85.700631,0.015228,-0.992111,0.243484,0.523329,0.101132,0.107733,63.397858,72.136261,-114.913345,,,
729716210.884454,-77.831201,-7.032404,-88.52883,0.015228,-0.992111,0.243484,0.573377,0.106786,0.116411,63.397858,72.136261,-114.913345,,,
729716210.884693,-77.831135,-7.032413,-85.451915,0.015228,-0.992111,0.243484,0.573377,0.106786,0.116411,63.397858,72.136261,-114.913345,,,
729716210.886449,-77.831201,-7.032404,-88.52883,0.015228,-0.992111,0.243484,0.573377,0.106786,0.116411,63.397858,72.136261,-114.913345,,,
729716210.886761,-77.831135,-7.032413,-85.451915,0.015228,-0.992111,0.243484,0.573377,0.106786,0.116411,63.397858,72.136261,-114.913345,,,
729716210.891014,-77.671048,-6.757375,-88.278254,0.023193,-0.988434,0.245407,0.573377,0.106786,0.116411,63.397858,72.136261,-114.913345,,,
729716210.891263,-77.670983,-6.757384,-85.20134,0.023193,-0.988434,0.245407,0.573377,0.106786,0.116411,63.397858,72.136261,-114.913345,,,
729716210.89455,-77.502332,-6.480005,-88.030642,0.023193,-0.988434,0.245407,0.637374,0.146534,0.114743,63.397858,72.136261,-114.913345,,,
729716210.894794,-77.502267,-6.480014,-84.953729,0.023193,-0.988434,0.245407,0.637374,0.146534,0.114743,63.397858,72.136261,-114.913345,,,
729716210.896442,-77.502332,-6.480005,-88.030642,0.023193,-0.988434,0.245407,0.637374,0.146534,0.114743,63.397858,72.136261,-114.913345,,,
729716210.896739,-77.502267,-6.480014,-84.953729,0.023193,-0.988434,0.245407,0.637374,0.146534,0.114743,63.397858,72.136261,-114.913345,,,
729716210.901401,-77.324593,-6.202625,-87.788783,0.03627,-0.9814,0.27475,0.637374,0.146534,0.114743,63.397858,72.136261,-114.913345,,,
729716210.90163,-77.32453,-6.202634,-84.71187,0.03627,-0.9814,0.27475,0.637374,0.146534,0.114743,63.397858,72.136261,-114.913345,,,
729716210.904586,-77.139145,-5.9309,-87.55682,0.03627,-0.9814,0.27475,0.684546,0.173666,0.102637,63.397858,72.136261,-114.913345,,,
729716210.905043,-77.139083,-5.93091,-84.479907,0.03627,-0.9814,0.27475,0.684546,0.173666,0.102637,63.397858,72.136261,-114.913345,,,
729716210.906414,-77.139145,-5.9309,-87.55682,0.03627,-0.9814,0.27475,0.684546,0.173666,0.102637,63.397858,72.136261,-114.913345,,,
729716210.906683,-77.139083,-5.93091,-84.479907,0.03627,-0.9814,0.27475,0.684546,0.173666,0.102637,63.397858,72.136261,-114.913345,,,
729716210.911129,-76.947145,-5.668205,-87.337404,0.033722,-0.978714,0.271576,0.684546,0.173666,0.102637,63.397858,72.136261,-114.913345,,,
729716210.911366,-76.947084,-5.668215,-84.260493,0.033722,-0.978714,0.271576,0.684546,0.173666,0.102637,63.397858,72.136261,-114.913345,,,
729716210.914537,-76.749222,-5.419354,-87.135141,0.033722,-0.978714,0.271576,0.717495,0.190936,0.079991,63.397858,72.136261,-114.913345,,,
729716210.914776,-76.749162,-5.419363,-84.05823,0.033722,-0.978714,0.271576,0.717495,0.190936,0.079991,63.397858,72.136261,-114.913345,,,
729716210.916432,-76.749222,-5.419354,-87.135141,0.033722,-0.978714,0.271576,0.717495,0.190936,0.079991,63.397858,72.136261,-114.913345,,,
729716210.916676,-76.749162,-5.419363,-84.05823,0.033722,-0.978714,0.271576,0.717495,0.190936,0.079991,63.397858,72.136261,-114.913345,,,
729716210.921543,-76.545921,-5.18869,-86.953151,0.036026,-0.9758,0.265137,0.717495,0.190936,0.079991,63.397858,71.790558,-116.320984,,,
729716210.921822,-76.545861,-5.1887,-83.876241,0.036026,-0.9758,0.265137,0.717495,0.190936,0.079991,63.799713,71.790558,-116.320984,,,
729716210.924496,-76.338816,-4.976221,-86.789772,0.036026,-0.9758,0.265137,0.737767,0.185372,0.06075,63.799713,71.790558,-116.320984,,,
729716210.924746,-76.338758,-4.976231,-83.712862,0.036026,-0.9758,0.265137,0.737767,0.185372,0.06075,63.799713,71.790558,-116.320984,,,
729716210.926456,-76.338816,-4.976221,-86.789772,0.036026,-0.9758,0.265137,0.737767,0.185372,0.06075,63.799713,71.790558,-116.320984,,,
729716210.926678,-76.338758,-4.976231,-83.712862,0.036026,-0.9758,0.265137,0.737767,0.185372,0.06075,63.799713,71.790558,-116.320984,,,
729716210.931153,-76.130293,-4.779432,-86.640672,0.038635,-0.97438,0.26622,0.737767,0.185372,0.06075,63.799713,71.790558,-116.320984,,,
729716210.931391,-76.130236,-4.779443,-83.563763,0.038635,-0.97438,0.26622,0.737767,0.185372,0.06075,63.799713,71.790558,-116.320984,,,
729716210.93445,-75.922553,-4.593099,-86.496695,0.038635,-0.97438,0.26622,0.725459,0.132086,0.063402,63.799713,71.790558,-116.320984,,,
729716210.934688,-75.922496,-4.593109,-83.419786,0.038635,-0.97438,0.26622,0.725459,0.132086,0.063402,63.799713,71.790558,-116.320984,,,
729716210.936455,-75.922553,-4.593099,-86.496695,0.038635,-0.97438,0.26622,0.725459,0.132086,0.063402,63.799713,71.790558,-116.320984,,,
729716210.936733,-75.922496,-4.593109,-83.419786,0.038635,-0.97438,0.26622,0.725459,0.132086,0.063402,63.799713,71.790558,-116.320984,,,
729716210.941553,-75.717183,-4.417854,-86.354823,0.0215,-0.979309,0.243958,0.725459,0.132086,0.063402,63.799713,71.790558,-116.320984,,,
729716210.941808,-75.717127,-4.417864,-83.277916,0.0215,-0.979309,0.243958,0.725459,0.132086,0.063402,63.799713,71.790558,-116.320984,,,
729716210.944681,-75.51506,-4.254392,-86.215979,0.0215,-0.979309,0.243958,0.698798,0.081674,0.069954,63.799713,71.790558,-116.320984,,,
729716210.944943,-75.515004,-4.254402,-83.139071,0.0215,-0.979309,0.243958,0.698798,0.081674,0.069954,63.799713,71.790558,-116.320984,,,
729716210.946441,-75.51506,-4.254392,-86.215979,0.0215,-0.979309,0.243958,0.698798,0.081674,0.069954,63.799713,71.790558,-116.320984,,,
729716210.946679,-75.515004,-4.254402,-83.139071,0.0215,-0.979309,0.243958,0.698798,0.081674,0.069954,63.799713,71.790558,-116.320984,,,
729716210.951337,-75.316166,-4.100054,-86.080598,0.01059,-0.975937,0.228653,0.698798,0.081674,0.069954,63.799713,71.790558,-116.320984,,,
729716210.951578,-75.316112,-4.100064,-83.003692,0.01059,-0.975937,0.228653,0.698798,0.081674,0.069954,63.799713,71.790558,-116.320984,,,
729716210.954584,-75.119903,-3.955237,-85.953175,0.01059,-0.975937,0.228653,0.685851,0.081137,0.058343,63.799713,71.790558,-116.320984,,,
729716210.954843,-75.119849,-3.955247,-82.876269,0.01059,-0.975937,0.228653,0.685851,0.081137,0.058343,63.799713,71.790558,-116.320984,,,
729716210.956431,-75.119903,-3.955237,-85.953175,0.01059,-0.975937,0.228653,0.685851,0.081137,0.058343,63.799713,71.790558,-116.320984,,,
729716210.956677,-75.119849,-3.955247,-82.876269,0.01059,-0.975937,0.228653,0.685851,0.081137,0.058343,63.799713,71.790558,-116.320984,,,
729716210.961406,-74.924506,-3.821936,-85.838522,0.020782,-0.971146,0.250214,0.685851,0.081137,0.058343,63.799713,71.790558,-116.320984,,,
729716210.961638,-74.924453,-3.821946,-82.761616,0.020782,-0.971146,0.250214,0.685851,0.081137,0.058343,63.799713,71.790558,-116.320984,,,
729716210.965065,-74.728216,-3.698805,-85.736269,0.020782,-0.971146,0.250214,0.692816,0.098332,0.036299,64.123337,71.50856,-118.344345,,,
729716210.965352,-74.728164,-3.698815,-82.659364,0.020782,-0.971146,0.250214,0.692816,0.098332,0.036299,64.123337,71.50856,-118.344345,,,
729716210.966409,-74.728216,-3.698805,-85.736269,0.020782,-0.971146,0.250214,0.692816,0.098332,0.036299,64.123337,71.50856,-118.344345,,,
729716210.966745,-74.728164,-3.698815,-82.659364,0.020782,-0.971146,0.250214,0.692816,0.098332,0.036299,64.123337,71.50856,-118.344345,,,
729716210.971477,-74.529629,-3.583347,-85.644354,0.030167,-0.973175,0.274155,0.692816,0.098332,0.036299,64.123337,71.50856,-118.344345,,,
729716210.971931,-74.529577,-3.583357,-82.567449,0.030167,-0.973175,0.274155,0.692816,0.098332,0.036299,64.123337,71.50856,-118.344345,,,
729716210.974527,-74.328202,-3.470424,-85.557205,0.030167,-0.973175,0.274155,0.714892,0.107834,0.034728,64.123337,71.50856,-118.344345,,,
729716210.974787,-74.328151,-3.470434,-82.480301,0.030167,-0.973175,0.274155,0.714892,0.107834,0.034728,64.123337,71.50856,-118.344345,,,
729716210.976489,-74.328202,-3.470424,-85.557205,0.030167,-0.973175,0.274155,0.714892,0.107834,0.034728,64.123337,71.50856,-118.344345,,,
729716210.976716,-74.328151,-3.470434,-82.480301,0.030167,-0.973175,0.274155,0.714892,0.107834,0.034728,64.123337,71.50856,-118.344345,,,
729716210.981379,-74.124173,-3.358097,-85.471273,0.024902,-0.974686,0.2957,0.714892,0.107834,0.034728,64.123337,71.50856,-118.344345,,,
729716210.981637,-74.124123,-3.358107,-82.394369,0.024902,-0.974686,0.2957,0.714892,0.107834,0.034728,64.123337,71.50856,-118.344345,,,
729716210.984708,-73.918476,-3.246893,-85.384733,0.024902,-0.974686,0.2957,0.730065,0.091737,0.048937,64.123337,71.50856,-118.344345,,,
729716210.984962,-73.918427,-3.246903,-82.30783,0.024902,-0.974686,0.2957,0.730065,0.091737,0.048937,64.123337,71.50856,-118.344345,,,
729716210.986441,-73.918476,-3.246893,-85.384733,0.024902,-0.974686,0.2957,0.730065,0.091737,0.048937,64.123337,71.50856,-118.344345,,,
729716210.986758,-73.918427,-3.246903,-82.30783,0.024902,-0.974686,0.2957,0.730065,0.091737,0.048937,64.123337,71.50856,-118.344345,,,
729716210.991201,-73.711111,-3.133223,-85.292966,0.01506,-0.976181,0.29126,0.730065,0.091737,0.048937,64.123337,71.50856,-118.344345,,,
729716210.991435,-73.711062,-3.133233,-82.216063,0.01506,-0.976181,0.29126,0.730065,0.091737,0.048937,64.123337,71.50856,-118.344345,,,
729716210.99471,-73.502342,-3.01442,-85.193985,0.01506,-0.976181,0.29126,0.736264,0.084794,0.064458,64.123337,71.50856,-118.344345,,,
729716210.994997,-73.502294,-3.01443,-82.117083,0.01506,-0.976181,0.29126,0.736264,0.084794,0.064458,64.123337,71.50856,-118.344345,,,
729716210.99643,-73.502342,-3.01442,-85.193985,0.01506,-0.976181,0.29126,0.736264,0.084794,0.064458,64.123337,71.50856,-118.344345,,,
729716210.996676,-73.502294,-3.01443,-82.117083,0.01506,-0.976181,0.29126,0.736264,0.084794,0.064458,64.123337,71.50856,-118.344345,,,
729716211.001436,-73.292454,-2.889834,-85.088829,0.007355,-0.972824,0.295807,0.736264,0.084794,0.064458,64.123337,71.50856,-118.344345,,,
729716211.001676,-73.292407,-2.889844,-82.011928,0.007355,-0.972824,0.295807,0.736264,0.084794,0.064458,64.123337,71.50856,-118.344345,,,
729716211.00512,-73.08205,-2.758221,-84.976778,0.007355,-0.972824,0.295807,0.736486,0.089311,0.086196,64.624603,70.738297,-119.7733,,,
