Time (sec),Pitch (deg),Roll (deg),Yaw(deg),X-Acceleration (g),Y-Acceleration (g),Z-Acceleration (g),Pitch Rate (deg/sec),Roll Rate (deg/sec),Yaw Rate (deg/sec),Magnetic Field in X direction (uT),Magnetic Field in Y direction (uT),Magnetic Field in Z Direction (uT),Latitude (deg),Longitude (deg),Altitude (m)
729705840.312976,-1.531345,3.288962,73.756072,-0.052856,-0.033951,0.990845,-0.207926,0.154044,0.040011,89.967163,36.522552,-148.774628,,,
729705840.316318,-1.531345,3.288962,73.756072,-0.052856,-0.033951,0.990845,-0.207926,0.154044,0.040011,89.967163,36.522552,-148.774628,,,
729705840.31948,-1.598725,3.335561,73.778154,-0.053436,-0.033569,0.981293,-0.247463,0.161896,0.068244,90.171478,36.760025,-148.36731,,,
729705840.322993,-1.67141,3.380998,73.804067,-0.053436,-0.033569,0.981293,-0.247463,0.161896,0.068244,90.171478,36.760025,-148.36731,,,
729705840.326301,-1.67141,3.380998,73.804067,-0.053436,-0.033569,0.981293,-0.247463,0.161896,0.068244,90.171478,36.760025,-148.36731,,,
729705840.329638,-1.748105,3.428618,73.832736,-0.062698,-0.034698,0.966965,-0.27564,0.166196,0.085114,90.171478,36.760025,-148.36731,,,
729705840.332971,-1.826107,3.473786,73.862358,-0.062698,-0.034698,0.966965,-0.27564,0.166196,0.085114,90.171478,36.760025,-148.36731,,,
729705840.336388,-1.826107,3.473786,73.862358,-0.062698,-0.034698,0.966965,-0.27564,0.166196,0.085114,90.171478,36.760025,-148.36731,,,
729705840.339647,-1.904334,3.521779,73.8914,-0.062927,-0.031433,0.97876,-0.272943,0.165824,0.08012,90.171478,36.760025,-148.36731,,,
729705840.342976,-1.97771,3.564528,73.916934,-0.062927,-0.031433,0.97876,-0.272943,0.165824,0.08012,90.171478,36.760025,-148.36731,,,
729705840.346313,-1.97771,3.564528,73.916934,-0.062927,-0.031433,0.97876,-0.272943,0.165824,0.08012,90.171478,36.760025,-148.36731,,,
729705840.349707,-2.045382,3.604881,73.936517,-0.058014,-0.027176,0.987244,-0.225406,0.131581,0.040532,90.171478,36.760025,-148.36731,,,
729705840.353062,-2.104071,3.63422,73.94932,-0.058014,-0.027176,0.987244,-0.225406,0.131581,0.040532,90.171478,36.760025,-148.36731,,,
729705840.356312,-2.104071,3.63422,73.94932,-0.058014,-0.027176,0.987244,-0.225406,0.131581,0.040532,90.171478,36.760025,-148.36731,,,
729705840.359638,-2.155856,3.658382,73.95617,-0.06424,-0.026459,0.989563,-0.164661,0.070215,0.001712,90.55191,37.424454,-148.024033,,,
729705840.362969,-2.1974,3.666754,73.957221,-0.06424,-0.026459,0.989563,-0.164661,0.070215,0.001712,90.55191,37.424454,-148.024033,,,
729705840.366319,-2.1974,3.666754,73.957221,-0.06424,-0.026459,0.989563,-0.164661,0.070215,0.001712,90.55191,37.424454,-148.024033,,,
729705840.369654,-2.235287,3.671391,73.954036,-0.075806,-0.031372,0.988373,-0.120207,0.004902,-0.026604,90.55191,37.424454,-148.024033,,,
729705840.372969,-2.26556,3.661884,73.947694,-0.075806,-0.031372,0.988373,-0.120207,0.004902,-0.026604,90.55191,37.424454,-148.024033,,,
729705840.37633,-2.26556,3.661884,73.947694,-0.075806,-0.031372,0.988373,-0.120207,0.004902,-0.026604,90.55191,37.424454,-148.024033,,,
729705840.379629,-2.295903,3.651409,73.93967,-0.074356,-0.037613,0.987946,-0.099836,-0.042969,-0.038622,90.55191,37.424454,-148.024033,,,
729705840.38297,-2.323082,3.633097,73.930857,-0.074356,-0.037613,0.987946,-0.099836,-0.042969,-0.038622,90.55191,37.424454,-148.024033,,,
729705840.38638,-2.323082,3.633097,73.930857,-0.074356,-0.037613,0.987946,-0.099836,-0.042969,-0.038622,90.55191,37.424454,-148.024033,,,
729705840.389645,-2.352058,3.615766,73.922603,-0.064316,-0.039566,0.988785,-0.100725,-0.057723,-0.035565,90.55191,37.424454,-148.024033,,,
729705840.392968,-2.380656,3.595404,73.914951,-0.064316,-0.039566,0.988785,-0.100725,-0.057723,-0.035565,90.55191,37.424454,-148.024033,,,
729705840.396311,-2.380656,3.595404,73.914951,-0.064316,-0.039566,0.988785,-0.100725,-0.057723,-0.035565,90.55191,37.424454,-148.024033,,,
729705840.399636,-2.412716,3.580286,73.908348,-0.059402,-0.040695,0.991821,-0.112607,-0.043021,-0.029792,90.416122,37.702774,-147.987259,,,
729705840.402966,-2.445162,3.567933,73.903051,-0.059402,-0.040695,0.991821,-0.112607,-0.043021,-0.029792,90.416122,37.702774,-147.987259,,,
729705840.406332,-2.445162,3.567933,73.903051,-0.059402,-0.040695,0.991821,-0.112607,-0.043021,-0.029792,90.416122,37.702774,-147.987259,,,
729705840.409651,-2.482524,3.560874,73.899506,-0.055573,-0.039978,0.9953,-0.134595,-0.012285,-0.019095,90.416122,37.702774,-147.987259,,,
729705840.412973,-2.520318,3.56012,73.897002,-0.055573,-0.039978,0.9953,-0.134595,-0.012285,-0.019095,90.416122,37.702774,-147.987259,,,
729705840.416317,-2.520318,3.56012,73.897002,-0.055573,-0.039978,0.9953,-0.134595,-0.012285,-0.019095,90.416122,37.702774,-147.987259,,,
729705840.419646,-2.56224,3.563858,73.894658,-0.053223,-0.039307,0.997711,-0.147616,0.025749,-0.018507,90.416122,37.702774,-147.987259,,,
729705840.422972,-2.60187,3.571853,73.892432,-0.053223,-0.039307,0.997711,-0.147616,0.025749,-0.018507,90.416122,37.702774,-147.987259,,,
729705840.426407,-2.60187,3.571853,73.892432,-0.053223,-0.039307,0.997711,-0.147616,0.025749,-0.018507,90.416122,37.702774,-147.987259,,,
729705840.429657,-2.645825,3.583588,73.890155,-0.05513,-0.038574,0.997345,-0.150442,0.049532,-0.019193,90.416122,37.702774,-147.987259,,,
729705840.433002,-2.683748,3.59721,73.887944,-0.05513,-0.038574,0.997345,-0.150442,0.049532,-0.019193,90.416122,37.702774,-147.987259,,,
729705840.436339,-2.683748,3.59721,73.887944,-0.05513,-0.038574,0.997345,-0.150442,0.049532,-0.019193,90.416122,37.702774,-147.987259,,,
729705840.439741,-2.72456,3.611572,73.886289,-0.063797,-0.046432,0.998734,-0.135688,0.05104,-0.014721,90.416122,37.702774,-147.987259,,,
729705840.44302,-2.757138,3.627243,73.885822,-0.063797,-0.046432,0.998734,-0.135688,0.05104,-0.014721,90.56662,37.979919,-147.823303,,,
729705840.446402,-2.757138,3.627243,73.885822,-0.063797,-0.046432,0.998734,-0.135688,0.05104,-0.014721,90.56662,37.979919,-147.823303,,,
729705840.449649,-2.79176,3.640796,73.886711,-0.066895,-0.053726,0.997986,-0.114897,0.050515,-0.003332,90.56662,37.979919,-147.823303,,,
729705840.453007,-2.819516,3.657378,73.888598,-0.066895,-0.053726,0.997986,-0.114897,0.050515,-0.003332,90.56662,37.979919,-147.823303,,,
729705840.456311,-2.819516,3.657378,73.888598,-0.066895,-0.053726,0.997986,-0.114897,0.050515,-0.003332,90.56662,37.979919,-147.823303,,,
729705840.459653,-2.846943,3.666753,73.890678,-0.067383,-0.052536,0.99942,-0.089384,0.029099,0.001024,90.56662,37.979919,-147.823303,,,
729705840.462988,-2.869002,3.673297,73.892729,-0.067383,-0.052536,0.99942,-0.089384,0.029099,0.001024,90.56662,37.979919,-147.823303,,,
729705840.466386,-2.869002,3.673297,73.892729,-0.067383,-0.052536,0.99942,-0.089384,0.029099,0.001024,90.56662,37.979919,-147.823303,,,
729705840.469755,-2.891665,3.674417,73.89403,-0.067139,-0.047913,0.988342,-0.074786,0.001271,-0.002661,90.56662,37.979919,-147.823303,,,
729705840.472958,-2.910696,3.67317,73.894708,-0.067139,-0.047913,0.988342,-0.074786,0.001271,-0.002661,90.56662,37.979919,-147.823303,,,
729705840.476339,-2.910696,3.67317,73.894708,-0.067139,-0.047913,0.988342,-0.074786,0.001271,-0.002661,90.56662,37.979919,-147.823303,,,
729705840.479649,-2.932489,3.673777,73.894287,-0.061005,-0.043808,0.993423,-0.076511,0.010933,-0.010582,90.56662,37.979919,-147.823303,,,
729705840.483062,-2.952577,3.674877,73.892602,-0.061005,-0.043808,0.993423,-0.076511,0.010933,-0.010582,90.467316,38.324554,-147.31958,,,
729705840.486314,-2.952577,3.674877,73.892602,-0.061005,-0.043808,0.993423,-0.076511,0.010933,-0.010582,90.467316,38.324554,-147.31958,,,
729705840.489671,-2.97695,3.679452,73.890309,-0.058884,-0.043823,0.992798,-0.087293,0.022316,-0.016246,90.467316,38.324554,-147.31958,,,
729705840.493066,-3.00013,3.68268,73.887814,-0.058884,-0.043823,0.992798,-0.087293,0.022316,-0.016246,90.467316,38.324554,-147.31958,,,
729705840.496322,-3.00013,3.68268,73.887814,-0.058884,-0.043823,0.992798,-0.087293,0.022316,-0.016246,90.467316,38.324554,-147.31958,,,
729705840.499651,-3.028289,3.689951,73.885449,-0.059967,-0.046494,0.988251,-0.099361,0.031107,-0.017154,90.467316,38.324554,-147.31958,,,
729705840.503021,-3.054269,3.695869,73.882932,-0.059967,-0.046494,0.988251,-0.099361,0.031107,-0.017154,90.467316,38.324554,-147.31958,,,
729705840.506407,-3.054269,3.695869,73.882932,-0.059967,-0.046494,0.988251,-0.099361,0.031107,-0.017154,90.467316,38.324554,-147.31958,,,
729705840.509645,-3.084621,3.706983,73.881156,-0.061722,-0.048843,0.992767,-0.103198,0.046521,-0.013281,90.467316,38.324554,-147.31958,,,
729705840.513101,-3.111558,3.718349,73.880283,-0.061722,-0.048843,0.992767,-0.103198,0.046521,-0.013281,90.467316,38.324554,-147.31958,,,
729705840.516302,-3.111558,3.718349,73.880283,-0.061722,-0.048843,0.992767,-0.103198,0.046521,-0.013281,90.467316,38.324554,-147.31958,,,
729705840.519714,-3.142715,3.732496,73.880462,-0.06752,-0.05336,0.993301,-0.110325,0.054106,-0.00707,90.467316,38.324554,-147.31958,,,
729705840.522981,-3.142715,3.747444,73.88194,-0.06752,-0.05336,0.993301,-0.110325,0.054106,-0.00707,90.602112,38.198975,-147.890091,,,
729705840.526308,-3.173523,3.747444,73.88194,-0.06752,-0.05336,0.993301,-0.110325,0.054106,-0.00707,90.602112,38.198975,-147.890091,,,
729705840.529659,-3.204752,3.762547,73.884392,-0.070633,-0.055954,0.990295,-0.107445,0.056825,-4.7e-05,90.602112,38.198975,-147.890091,,,
729705840.533051,-3.234767,3.778867,73.887362,-0.070633,-0.055954,0.990295,-0.107445,0.056825,-4.7e-05,90.602112,38.198975,-147.890091,,,
729705840.536333,-3.234767,3.778867,73.887362,-0.070633,-0.055954,0.990295,-0.107445,0.056825,-4.7e-05,90.602112,38.198975,-147.890091,,,
729705840.539653,-3.265401,3.795679,73.890157,-0.069534,-0.056946,0.995392,-0.10674,0.061754,-0.00128,90.602112,38.198975,-147.890091,,,
729705840.543026,-3.265401,3.812941,73.891862,-0.069534,-0.056946,0.995392,-0.10674,0.061754,-0.00128,90.602112,38.198975,-147.890091,,,
729705840.546382,-3.294929,3.812941,73.891862,-0.069534,-0.056946,0.995392,-0.10674,0.061754,-0.00128,90.602112,38.198975,-147.890091,,,
729705840.549643,-3.328142,3.828346,73.892612,-0.072372,-0.057236,0.988525,-0.120976,0.053116,-0.008722,90.602112,38.198975,-147.890091,,,
729705840.553027,-3.361749,3.842143,73.892044,-0.072372,-0.057236,0.988525,-0.120976,0.053116,-0.008722,90.602112,38.198975,-147.890091,,,
729705840.556295,-3.361749,3.842143,73.892044,-0.072372,-0.057236,0.988525,-0.120976,0.053116,-0.008722,90.602112,38.198975,-147.890091,,,
729705840.559636,-3.402886,3.855695,73.889774,-0.074188,-0.056427,0.98288,-0.15091,0.048035,-0.02293,90.602112,38.198975,-147.890091,,,
729705840.562966,-3.402886,3.855695,73.889774,-0.074188,-0.056427,0.98288,-0.15091,0.048035,-0.02293,90.954056,38.761292,-147.749115,,,
729705840.566332,-3.444707,3.865292,73.886339,-0.074188,-0.056427,0.98288,-0.15091,0.048035,-0.02293,90.954056,38.761292,-147.749115,,,
729705840.569688,-3.496362,3.876769,73.882444,-0.072556,-0.053467,0.982117,-0.188686,0.046014,-0.029681,90.954056,38.761292,-147.749115,,,
729705840.57276,-3.496362,3.876769,73.882444,-0.072556,-0.053467,0.982117,-0.188686,0.046014,-0.029681,90.954056,38.761292,-147.749115,,,
729705840.576342,-3.54924,3.886057,73.878188,-0.072556,-0.053467,0.982117,-0.188686,0.046014,-0.029681,90.954056,38.761292,-147.749115,,,
729705840.579432,-3.609617,3.894426,73.874961,-0.072647,-0.048767,0.985672,-0.213412,0.025425,-0.025117,90.954056,38.761292,-147.749115,,,
729705840.582995,-3.609617,3.894426,73.874961,-0.072647,-0.048767,0.985672,-0.213412,0.025425,-0.025117,90.954056,38.761292,-147.749115,,,
729705840.58632,-3.668468,3.89668,73.873722,-0.072647,-0.048767,0.985672,-0.213412,0.025425,-0.025117,90.954056,38.761292,-147.749115,,,
729705840.589762,-3.733013,3.897292,73.875043,-0.07724,-0.056122,0.984985,-0.22678,-0.000753,-0.009097,90.954056,38.761292,-147.749115,,,
729705840.592995,-3.733013,3.897292,73.875043,-0.07724,-0.056122,0.984985,-0.22678,-0.000753,-0.009097,90.954056,38.761292,-147.749115,,,
729705840.596318,-3.795096,3.895218,73.877414,-0.07724,-0.056122,0.984985,-0.22678,-0.000753,-0.009097,90.954056,38.761292,-147.749115,,,
729705840.59965,-3.86111,3.895433,73.87894,-0.064392,-0.067429,0.990204,-0.228948,0.007535,-0.015665,90.954056,38.761292,-147.749115,,,
729705840.602997,-3.86111,3.895433,73.87894,-0.064392,-0.067429,0.990204,-0.228948,0.007535,-0.015665,90.954056,38.761292,-147.749115,,,
729705840.606414,-3.923266,3.898819,73.878369,-0.064392,-0.067429,0.990204,-0.228948,0.007535,-0.015665,90.759338,39.130722,-147.409225,,,
729705840.609639,-3.986978,3.903732,73.875652,-0.050323,-0.077911,0.999557,-0.216264,0.025809,-0.029357,90.759338,39.130722,-147.409225,,,
729705840.612992,-3.986978,3.903732,73.875652,-0.050323,-0.077911,0.999557,-0.216264,0.025809,-0.029357,90.759338,39.130722,-147.409225,,,
729705840.616322,-4.043693,3.911309,73.872165,-0.050323,-0.077911,0.999557,-0.216264,0.025809,-0.029357,90.759338,39.130722,-147.409225,,,
729705840.619742,-4.098544,3.91854,73.868538,-0.060898,-0.080597,1.016617,-0.180908,0.028874,-0.027557,90.759338,39.130722,-147.409225,,,
729705840.622988,-4.098544,3.91854,73.868538,-0.060898,-0.080597,1.016617,-0.180908,0.028874,-0.027557,90.759338,39.130722,-147.409225,,,
729705840.626312,-4.144931,3.925449,73.865638,-0.060898,-0.080597,1.016617,-0.180908,0.028874,-0.027557,90.759338,39.130722,-147.409225,,,
729705840.629657,-4.191065,3.930158,73.864382,-0.064972,-0.077866,1.010437,-0.153708,0.016978,-0.013961,90.759338,39.130722,-147.409225,,,
729705840.633033,-4.191065,3.930158,73.864382,-0.064972,-0.077866,1.010437,-0.153708,0.016978,-0.013961,90.759338,39.130722,-147.409225,,,
729705840.63631,-4.23051,3.937322,73.863933,-0.064972,-0.077866,1.010437,-0.153708,0.016978,-0.013961,90.759338,39.130722,-147.409225,,,
729705840.639639,-4.271762,3.945823,73.863734,-0.063721,-0.079041,1.014572,-0.139572,0.038752,-0.010343,90.759338,39.130722,-147.409225,,,
729705840.642979,-4.271762,3.945823,73.863734,-0.063721,-0.079041,1.014572,-0.139572,0.038752,-0.010343,90.759338,39.130722,-147.409225,,,
729705840.646372,-4.306781,3.958477,73.864559,-0.063721,-0.079041,1.014572,-0.139572,0.038752,-0.010343,90.941345,39.3172,-147.49585,,,
729705840.649627,-4.345815,3.969929,73.866188,-0.062866,-0.081497,1.016022,-0.134797,0.040176,-0.003672,90.941345,39.3172,-147.49585,,,
729705840.652966,-4.345815,3.969929,73.866188,-0.062866,-0.081497,1.016022,-0.134797,0.040176,-0.003672,90.941345,39.3172,-147.49585,,,
729705840.656318,-4.378705,3.981758,73.868188,-0.062866,-0.081497,1.016022,-0.134797,0.040176,-0.003672,90.941345,39.3172,-147.49585,,,
729705840.659633,-4.418646,3.991342,73.868718,-0.06041,-0.078796,1.001923,-0.138946,0.033914,-0.013569,90.941345,39.3172,-147.49585,,,
729705840.662998,-4.418646,3.991342,73.868718,-0.06041,-0.078796,1.001923,-0.138946,0.033914,-0.013569,90.941345,39.3172,-147.49585,,,
729705840.666314,-4.452733,4.001644,73.867285,-0.06041,-0.078796,1.001923,-0.138946,0.033914,-0.013569,90.941345,39.3172,-147.49585,,,
729705840.669635,-4.49501,4.00944,73.863505,-0.058151,-0.074615,0.998749,-0.148189,0.030522,-0.029674,90.941345,39.3172,-147.49585,,,
729705840.673066,-4.49501,4.00944,73.863505,-0.058151,-0.074615,0.998749,-0.148189,0.030522,-0.029674,90.941345,39.3172,-147.49585,,,
729705840.676356,-4.534815,4.017447,73.8575,-0.058151,-0.074615,0.998749,-0.148189,0.030522,-0.029674,90.941345,39.3172,-147.49585,,,
729705840.679636,-4.579613,4.022563,73.849682,-0.068954,-0.077927,0.996582,-0.153221,0.021064,-0.04184,90.941345,39.3172,-147.49585,,,
729705840.682993,-4.579613,4.022563,73.849682,-0.068954,-0.077927,0.996582,-0.153221,0.021064,-0.04184,90.941345,39.3172,-147.49585,,,
729705840.686314,-4.622755,4.021301,73.840339,-0.068954,-0.077927,0.996582,-0.153221,0.021064,-0.04184,90.844223,39.596237,-147.078857,,,
729705840.689647,-4.66665,4.021383,73.830527,-0.073334,-0.085434,1.001099,-0.146438,-6.1e-05,-0.04707,90.844223,39.596237,-147.078857,,,
729705840.692984,-4.66665,4.021383,73.830527,-0.073334,-0.085434,1.001099,-0.146438,-6.1e-05,-0.04707,90.844223,39.596237,-147.078857,,,
729705840.696392,-4.706938,4.014597,73.819974,-0.073334,-0.085434,1.001099,-0.146438,-6.1e-05,-0.04707,90.844223,39.596237,-147.078857,,,
729705840.699717,-4.74344,4.011863,73.810115,-0.079498,-0.090591,1.009201,-0.116639,-0.005182,-0.0428,90.844223,39.596237,-147.078857,,,
729705840.702956,-4.74344,4.011863,73.810115,-0.079498,-0.090591,1.009201,-0.116639,-0.005182,-0.0428,90.844223,39.596237,-147.078857,,,
729705840.706327,-4.773901,4.00717,73.801113,-0.079498,-0.090591,1.009201,-0.116639,-0.005182,-0.0428,90.844223,39.596237,-147.078857,,,
729705840.709639,-4.800626,4.004823,73.79446,-0.085754,-0.097931,1.01741,-0.082366,-0.003552,-0.025133,90.844223,39.596237,-147.078857,,,
729705840.712987,-4.800626,4.004823,73.79446,-0.085754,-0.097931,1.01741,-0.082366,-0.003552,-0.025133,90.844223,39.596237,-147.078857,,,
729705840.716312,-4.820012,4.000576,73.79052,-0.085754,-0.097931,1.01741,-0.082366,-0.003552,-0.025133,90.844223,39.596237,-147.078857,,,
729705840.719638,-4.835528,3.996575,73.789185,-0.088959,-0.104111,1.015091,-0.044353,-0.014412,-0.005295,90.844223,39.596237,-147.078857,,,
729705840.723036,-4.835528,3.996575,73.789185,-0.088959,-0.104111,1.015091,-0.044353,-0.014412,-0.005295,90.844223,39.596237,-147.078857,,,
729705840.7263,-4.845628,3.989925,73.78955,-0.088959,-0.104111,1.015091,-0.044353,-0.014412,-0.005295,90.896057,39.587631,-146.894592,,,
729705840.729631,-4.854756,3.987587,73.791208,-0.082092,-0.104019,1.012436,-0.027733,-0.000291,0.003584,90.896057,39.587631,-146.894592,,,
729705840.733024,-4.854756,3.987587,73.791208,-0.082092,-0.104019,1.012436,-0.027733,-0.000291,0.003584,90.896057,39.587631,-146.894592,,,
729705840.736375,-4.860561,3.986971,73.793109,-0.082092,-0.104019,1.012436,-0.027733,-0.000291,0.003584,90.896057,39.587631,-146.894592,,,
729705840.739631,-4.866529,3.991494,73.795407,-0.077377,-0.097229,1.013077,-0.021818,0.021519,0.005588,90.896057,39.587631,-146.894592,,,
729705840.743006,-4.866529,3.991494,73.795407,-0.077377,-0.097229,1.013077,-0.021818,0.021519,0.005588,90.896057,39.587631,-146.894592,,,
729705840.746316,-4.870702,3.994787,73.797634,-0.077377,-0.097229,1.013077,-0.021818,0.021519,0.005588,90.896057,39.587631,-146.894592,,,
729705840.749638,-4.876362,4.000273,73.799449,-0.07019,-0.087479,0.998886,-0.019717,0.019745,0.001382,90.896057,39.587631,-146.894592,,,
729705840.752964,-4.876362,4.000273,73.799449,-0.07019,-0.087479,0.998886,-0.019717,0.019745,0.001382,90.896057,39.587631,-146.894592,,,
729705840.756323,-4.880694,4.003837,73.799956,-0.07019,-0.087479,0.998886,-0.019717,0.019745,0.001382,90.896057,39.587631,-146.894592,,,
729705840.759644,-4.888357,4.009746,73.799239,-0.065369,-0.086182,0.989883,-0.028004,0.025955,-0.008611,90.896057,39.587631,-146.894592,,,
729705840.763032,-4.888357,4.009746,73.799239,-0.065369,-0.086182,0.989883,-0.028004,0.025955,-0.008611,90.896057,39.587631,-146.894592,,,
729705840.766311,-4.896789,4.017237,73.797183,-0.065369,-0.086182,0.989883,-0.028004,0.025955,-0.008611,90.896057,39.587631,-146.894592,,,
729705840.76964,-4.907246,4.024446,73.794365,-0.07103,-0.089523,0.986023,-0.037855,0.027235,-0.014385,91.035004,39.895248,-147.173019,,,
729705840.772977,-4.907246,4.024446,73.794365,-0.07103,-0.089523,0.986023,-0.037855,0.027235,-0.014385,91.035004,39.895248,-147.173019,,,
729705840.776368,-4.919215,4.03188,73.791286,-0.07103,-0.089523,0.986023,-0.037855,0.027235,-0.014385,91.035004,39.895248,-147.173019,,,
729705840.779632,-4.933049,4.03589,73.787858,-0.073486,-0.087326,0.974701,-0.052637,0.012334,-0.017124,91.035004,39.895248,-147.173019,,,
729705840.782965,-4.933049,4.03589,73.787858,-0.073486,-0.087326,0.974701,-0.052637,0.012334,-0.017124,91.035004,39.895248,-147.173019,,,
729705840.786357,-4.951764,4.040673,73.784359,-0.073486,-0.087326,0.974701,-0.052637,0.012334,-0.017124,91.035004,39.895248,-147.173019,,,
729705840.789636,-4.971566,4.041413,73.78027,-0.068161,-0.085312,0.970673,-0.071181,0.005248,-0.020801,91.035004,39.895248,-147.173019,,,
729705840.792999,-4.971566,4.041413,73.78027,-0.068161,-0.085312,0.970673,-0.071181,0.005248,-0.020801,91.035004,39.895248,-147.173019,,,
729705840.796324,-4.996861,4.045963,73.776697,-0.068161,-0.085312,0.970673,-0.071181,0.005248,-0.020801,91.035004,39.895248,-147.173019,,,
729705840.79964,-5.022017,4.04573,73.773314,-0.06842,-0.085861,0.971176,-0.0913,0.00245,-0.018264,91.035004,39.895248,-147.173019,,,
729705840.803,-5.022017,4.04573,73.773314,-0.06842,-0.085861,0.971176,-0.0913,0.00245,-0.018264,91.035004,39.895248,-147.173019,,,
729705840.806313,-5.054787,4.048235,73.770312,-0.06842,-0.085861,0.971176,-0.0913,0.00245,-0.018264,91.035004,39.895248,-147.173019,,,
729705840.80964,-5.087449,4.04565,73.766347,-0.064362,-0.087402,0.964737,-0.119035,-0.006174,-0.024532,91.071198,39.955215,-147.305573,,,
729705840.812962,-5.087449,4.04565,73.766347,-0.064362,-0.087402,0.964737,-0.119035,-0.006174,-0.024532,91.071198,39.955215,-147.305573,,,
729705840.816329,-5.126511,4.045358,73.761765,-0.064362,-0.087402,0.964737,-0.119035,-0.006174,-0.024532,91.071198,39.955215,-147.305573,,,
729705840.819634,-5.165486,4.043735,73.755859,-0.062943,-0.088287,0.966492,-0.136833,0.001156,-0.03358,91.071198,39.955215,-147.305573,,,
729705840.822975,-5.165486,4.043735,73.755859,-0.062943,-0.088287,0.966492,-0.136833,0.001156,-0.03358,91.071198,39.955215,-147.305573,,,
729705840.826396,-5.20724,4.04312,73.749216,-0.062943,-0.088287,0.966492,-0.136833,0.001156,-0.03358,91.071198,39.955215,-147.305573,,,
729705840.829624,-5.250772,4.041448,73.741329,-0.061707,-0.090347,0.9646,-0.151339,-0.000605,-0.042823,91.071198,39.955215,-147.305573,,,
729705840.832965,-5.250772,4.041448,73.741329,-0.061707,-0.090347,0.9646,-0.151339,-0.000605,-0.042823,91.071198,39.955215,-147.305573,,,
729705840.836321,-5.293759,4.038564,73.731529,-0.061707,-0.090347,0.9646,-0.151339,-0.000605,-0.042823,91.071198,39.955215,-147.305573,,,
729705840.839632,-5.338525,4.03698,73.720701,-0.062653,-0.094269,0.97049,-0.152145,0.003922,-0.050448,91.071198,39.955215,-147.305573,,,
729705840.843024,-5.338525,4.03698,73.720701,-0.062653,-0.094269,0.97049,-0.152145,0.003922,-0.050448,91.071198,39.955215,-147.305573,,,
729705840.846303,-5.382944,4.03604,73.709632,-0.062653,-0.094269,0.97049,-0.152145,0.003922,-0.050448,91.071198,39.955215,-147.305573,,,
729705840.849636,-5.429385,4.036157,73.698908,-0.068161,-0.098953,0.980072,-0.157976,0.004977,-0.049098,91.124695,40.200592,-146.938477,,,
729705840.852962,-5.429385,4.036157,73.698908,-0.068161,-0.098953,0.980072,-0.157976,0.004977,-0.049098,91.124695,40.200592,-146.938477,,,
729705840.856318,-5.475646,4.03717,73.688852,-0.068161,-0.098953,0.980072,-0.157976,0.004977,-0.049098,91.124695,40.200592,-146.938477,,,
729705840.859631,-5.524663,4.036957,73.678536,-0.065598,-0.09819,0.974747,-0.169686,0.005519,-0.050897,91.124695,40.200592,-146.938477,,,
729705840.863028,-5.524663,4.036957,73.678536,-0.065598,-0.09819,0.974747,-0.169686,0.005519,-0.050897,91.124695,40.200592,-146.938477,,,
729705840.866345,-5.572599,4.037315,73.668044,-0.065598,-0.09819,0.974747,-0.169686,0.005519,-0.050897,91.124695,40.200592,-146.938477,,,
729705840.869653,-5.623636,4.037899,73.658499,-0.061432,-0.097,0.978958,-0.176296,0.011503,-0.044367,91.124695,40.200592,-146.938477,,,
729705840.872963,-5.623636,4.037899,73.658499,-0.061432,-0.097,0.978958,-0.176296,0.011503,-0.044367,91.124695,40.200592,-146.938477,,,
729705840.876374,-5.673177,4.040277,73.650533,-0.061432,-0.097,0.978958,-0.176296,0.011503,-0.044367,91.124695,40.200592,-146.938477,,,
729705840.879626,-5.727533,4.043086,73.64368,-0.068176,-0.104141,0.979019,-0.193634,0.012596,-0.037982,91.124695,40.200592,-146.938477,,,
729705840.882981,-5.727533,4.043086,73.64368,-0.068176,-0.104141,0.979019,-0.193634,0.012596,-0.037982,91.124695,40.200592,-146.938477,,,
729705840.88631,-5.783231,4.04459,73.637246,-0.068176,-0.104141,0.979019,-0.193634,0.012596,-0.037982,91.124695,40.200592,-146.938477,,,
729705840.88964,-5.842951,4.045228,73.63101,-0.065292,-0.105164,0.975067,-0.207367,0.003545,-0.037938,90.821091,40.842468,-146.810425,,,
729705840.892977,-5.842951,4.045228,73.63101,-0.065292,-0.105164,0.975067,-0.207367,0.003545,-0.037938,90.821091,40.842468,-146.810425,,,
729705840.896317,-5.902592,4.042995,73.62436,-0.065292,-0.105164,0.975067,-0.207367,0.003545,-0.037938,90.821091,40.842468,-146.810425,,,
729705840.899634,-5.966028,4.040555,73.617581,-0.064041,-0.100098,0.978195,-0.221959,-0.004096,-0.040408,90.821091,40.842468,-146.810425,,,
729705840.902963,-5.966028,4.040555,73.617581,-0.064041,-0.100098,0.978195,-0.221959,-0.004096,-0.040408,90.821091,40.842468,-146.810425,,,
729705840.906319,-6.02976,4.03588,73.610272,-0.064041,-0.100098,0.978195,-0.221959,-0.004096,-0.040408,90.821091,40.842468,-146.810425,,,
729705840.909631,-6.097068,4.030632,73.602673,-0.069595,-0.099426,0.982117,-0.233784,-0.01388,-0.043803,90.821091,40.842468,-146.810425,,,
729705840.913012,-6.097068,4.030632,73.602673,-0.069595,-0.099426,0.982117,-0.233784,-0.01388,-0.043803,90.821091,40.842468,-146.810425,,,
729705840.916298,-6.163772,4.023411,73.595133,-0.069595,-0.099426,0.982117,-0.233784,-0.01388,-0.043803,90.821091,40.842468,-146.810425,,,
729705840.919637,-6.231427,4.016317,73.587786,-0.072891,-0.104538,0.98497,-0.231347,-0.020174,-0.04301,90.821091,40.842468,-146.810425,,,
729705840.922985,-6.231427,4.016317,73.587786,-0.072891,-0.104538,0.98497,-0.231347,-0.020174,-0.04301,90.821091,40.842468,-146.810425,,,
729705840.926386,-6.297163,4.008126,73.580646,-0.072891,-0.104538,0.98497,-0.231347,-0.020174,-0.04301,90.821091,40.842468,-146.810425,,,
729705840.929627,-6.363198,3.999809,73.573768,-0.068375,-0.110703,0.988388,-0.223761,-0.025285,-0.041047,90.821091,40.842468,-146.810425,,,
729705840.932988,-6.363198,3.999809,73.573768,-0.068375,-0.110703,0.988388,-0.223761,-0.025285,-0.041047,91.039642,41.218063,-146.864334,,,
729705840.936399,-6.427805,3.991419,73.566775,-0.068375,-0.110703,0.988388,-0.223761,-0.025285,-0.041047,91.039642,41.218063,-146.864334,,,
729705840.939619,-6.494174,3.982905,73.559201,-0.069641,-0.111313,0.99263,-0.226632,-0.024194,-0.045046,91.039642,41.218063,-146.864334,,,
729705840.942986,-6.494174,3.982905,73.559201,-0.069641,-0.111313,0.99263,-0.226632,-0.024194,-0.045046,91.039642,41.218063,-146.864334,,,
729705840.946302,-6.556579,3.97482,73.551242,-0.069641,-0.111313,0.99263,-0.226632,-0.024194,-0.045046,91.039642,41.218063,-146.864334,,,
729705840.949635,-6.61883,3.9705,73.543126,-0.069687,-0.111771,1.003967,-0.209013,-0.004413,-0.045515,91.039642,41.218063,-146.864334,,,
729705840.952961,-6.61883,3.9705,73.543126,-0.069687,-0.111771,1.003967,-0.209013,-0.004413,-0.045515,91.039642,41.218063,-146.864334,,,
729705840.956322,-6.675762,3.967913,73.533691,-0.069687,-0.111771,1.003967,-0.209013,-0.004413,-0.045515,91.039642,41.218063,-146.864334,,,
729705840.959629,-6.732731,3.967324,73.522448,-0.069244,-0.115067,1.01004,-0.190045,0.006423,-0.057233,91.039642,41.218063,-146.864334,,,
729705840.963054,-6.732731,3.967324,73.522448,-0.069244,-0.115067,1.01004,-0.190045,0.006423,-0.057233,91.039642,41.218063,-146.864334,,,
729705840.966332,-6.785647,3.966258,73.509376,-0.069244,-0.115067,1.01004,-0.190045,0.006423,-0.057233,91.039642,41.218063,-146.864334,,,
729705840.969633,-6.840324,3.964571,73.49435,-0.070663,-0.114075,1.00061,-0.184008,0.00285,-0.070412,91.039642,41.218063,-146.864334,,,
729705840.972968,-6.840324,3.964571,73.49435,-0.070663,-0.114075,1.00061,-0.184008,0.00285,-0.070412,90.682678,41.614258,-146.974487,,,
729705840.976324,-6.890539,3.961507,73.478417,-0.070663,-0.114075,1.00061,-0.184008,0.00285,-0.070412,90.682678,41.614258,-146.974487,,,
729705840.979632,-6.943936,3.958928,73.462848,-0.078903,-0.116699,1.000473,-0.180421,-0.000385,-0.068407,90.682678,41.614258,-146.974487,,,
729705840.982974,-6.943936,3.958928,73.462848,-0.078903,-0.116699,1.000473,-0.180421,-0.000385,-0.068407,90.682678,41.614258,-146.974487,,,
729705840.986376,-6.992089,3.954477,73.447303,-0.078903,-0.116699,1.000473,-0.180421,-0.000385,-0.068407,90.682678,41.614258,-146.974487,,,
729705840.989624,-7.045427,3.947439,73.433063,-0.083145,-0.123749,0.99263,-0.179456,-0.022682,-0.059599,90.682678,41.614258,-146.974487,,,
729705840.992997,-7.045427,3.947439,73.433063,-0.083145,-0.123749,0.99263,-0.179456,-0.022682,-0.059599,90.682678,41.614258,-146.974487,,,
729705840.996304,-7.092247,3.938084,73.420095,-0.083145,-0.123749,0.99263,-0.179456,-0.022682,-0.059599,90.682678,41.614258,-146.974487,,,
729705840.999631,-7.142938,3.925838,73.407819,-0.082336,-0.131653,0.993164,-0.170292,-0.033747,-0.052851,90.682678,41.614258,-146.974487,,,
729705841.002958,-7.142938,3.925838,73.407819,-0.082336,-0.131653,0.993164,-0.170292,-0.033747,-0.052851,90.682678,41.614258,-146.974487,,,
729705841.006298,-7.187057,3.915429,73.396898,-0.082336,-0.131653,0.993164,-0.170292,-0.033747,-0.052851,90.682678,41.614258,-146.974487,,,
729705841.009631,-7.23179,3.906317,73.386299,-0.081329,-0.133865,1.01207,-0.147005,-0.01935,-0.048247,90.682678,41.614258,-146.974487,,,
729705841.012964,-7.23179,3.906317,73.386299,-0.081329,-0.133865,1.01207,-0.147005,-0.01935,-0.048247,90.608398,42.007553,-146.334503,,,
729705841.016319,-7.269554,3.89935,73.376239,-0.081329,-0.133865,1.01207,-0.147005,-0.01935,-0.048247,90.608398,42.007553,-146.334503,,,
729705841.019636,-7.307416,3.893132,73.366893,-0.080658,-0.130249,1.010635,-0.121279,-0.013651,-0.041361,90.608398,42.007553,-146.334503,,,
729705841.022983,-7.307416,3.893132,73.366893,-0.080658,-0.130249,1.010635,-0.121279,-0.013651,-0.041361,90.608398,42.007553,-146.334503,,,
729705841.026381,-7.337534,3.888452,73.356845,-0.080658,-0.130249,1.010635,-0.121279,-0.013651,-0.041361,90.608398,42.007553,-146.334503,,,
729705841.029625,-7.370326,3.884035,73.345203,-0.073303,-0.131912,1.005341,-0.107929,-0.00507,-0.05079,90.608398,42.007553,-146.334503,,,
729705841.032979,-7.370326,3.884035,73.345203,-0.073303,-0.131912,1.005341,-0.107929,-0.00507,-0.05079,90.608398,42.007553,-146.334503,,,
729705841.036342,-7.39688,3.880905,73.333185,-0.073303,-0.131912,1.005341,-0.107929,-0.00507,-0.05079,90.608398,42.007553,-146.334503,,,
729705841.039636,-7.427017,3.878394,73.321106,-0.08075,-0.140121,1.004288,-0.103008,0.000788,-0.050773,90.608398,42.007553,-146.334503,,,
729705841.042976,-7.427017,3.878394,73.321106,-0.08075,-0.140121,1.004288,-0.103008,0.000788,-0.050773,90.608398,42.007553,-146.334503,,,
729705841.04631,-7.453359,3.8761,73.309089,-0.08075,-0.140121,1.004288,-0.103008,0.000788,-0.050773,90.608398,42.007553,-146.334503,,,
729705841.049653,-7.484084,3.873082,73.297219,-0.084564,-0.143799,0.996002,-0.105219,-0.003337,-0.049796,90.608398,42.007553,-146.334503,,,
729705841.052992,-7.484084,3.873082,73.297219,-0.084564,-0.143799,0.996002,-0.105219,-0.003337,-0.049796,90.608398,42.007553,-146.334503,,,
729705841.056313,-7.512092,3.871256,73.2857,-0.084564,-0.143799,0.996002,-0.105219,-0.003337,-0.049796,90.511688,42.100967,-146.710938,,,
729705841.059637,-7.545953,3.866901,73.274504,-0.079376,-0.143143,0.989471,-0.117102,-0.008913,-0.046718,90.511688,42.100967,-146.710938,,,
729705841.063036,-7.545953,3.866901,73.274504,-0.079376,-0.143143,0.989471,-0.117102,-0.008913,-0.046718,90.511688,42.100967,-146.710938,,,
729705841.066307,-7.579166,3.865592,73.264624,-0.079376,-0.143143,0.989471,-0.117102,-0.008913,-0.046718,90.511688,42.100967,-146.710938,,,
729705841.069637,-7.618428,3.85908,73.255146,-0.079376,-0.142136,0.984131,-0.137848,-0.017133,-0.041549,90.511688,42.100967,-146.710938,,,
729705841.072975,-7.618428,3.85908,73.255146,-0.079376,-0.142136,0.984131,-0.137848,-0.017133,-0.041549,90.511688,42.100967,-146.710938,,,
729705841.076381,-7.658763,3.855848,73.24751,-0.079376,-0.142136,0.984131,-0.137848,-0.017133,-0.041549,90.511688,42.100967,-146.710938,,,
729705841.079625,-7.701564,3.846269,73.240969,-0.079559,-0.142471,0.981964,-0.146698,-0.031593,-0.0304,90.511688,42.100967,-146.710938,,,
729705841.083016,-7.701564,3.846269,73.240969,-0.079559,-0.142471,0.981964,-0.146698,-0.031593,-0.0304,90.511688,42.100967,-146.710938,,,
729705841.086354,-7.743956,3.839444,73.236556,-0.079559,-0.142471,0.981964,-0.146698,-0.031593,-0.0304,90.511688,42.100967,-146.710938,,,
729705841.089632,-7.787316,3.828493,73.233441,-0.077255,-0.144699,0.985138,-0.150671,-0.03372,-0.017865,90.511688,42.100967,-146.710938,,,
729705841.092967,-7.787316,3.828493,73.233441,-0.077255,-0.144699,0.985138,-0.150671,-0.03372,-0.017865,90.511688,42.100967,-146.710938,,,
729705841.096307,-7.828687,3.821794,73.232851,-0.077255,-0.144699,0.985138,-0.150671,-0.03372,-0.017865,90.434555,42.441711,-146.336746,,,
729705841.099637,-7.871118,3.812464,73.233018,-0.070068,-0.147797,0.988953,-0.145402,-0.027057,-0.008695,90.434555,42.441711,-146.336746,,,
729705841.103003,-7.871118,3.812464,73.233018,-0.070068,-0.147797,0.988953,-0.145402,-0.027057,-0.008695,90.434555,42.441711,-146.336746,,,
729705841.106325,-7.909852,3.808004,73.235,-0.070068,-0.147797,0.988953,-0.145402,-0.027057,-0.008695,90.434555,42.441711,-146.336746,,,
729705841.109638,-7.950437,3.803437,73.238372,-0.0681,-0.150452,0.993744,-0.142072,-0.011746,0.003482,90.434555,42.441711,-146.336746,,,
729705841.113069,-7.950437,3.803437,73.238372,-0.0681,-0.150452,0.993744,-0.142072,-0.011746,0.003482,90.434555,42.441711,-146.336746,,,
729705841.116299,-7.990252,3.803202,73.242804,-0.0681,-0.150452,0.993744,-0.142072,-0.011746,0.003482,90.434555,42.441711,-146.336746,,,
729705841.119643,-8.031667,3.802233,73.246668,-0.059006,-0.144302,0.98439,-0.144812,0.000843,0.0018,90.434555,42.441711,-146.336746,,,
729705841.122976,-8.031667,3.802233,73.246668,-0.059006,-0.144302,0.98439,-0.144812,0.000843,0.0018,90.434555,42.441711,-146.336746,,,
729705841.126346,-8.074026,3.808935,73.250946,-0.059006,-0.144302,0.98439,-0.144812,0.000843,0.0018,90.434555,42.441711,-146.336746,,,
729705841.129631,-8.117003,3.813684,73.253157,-0.052078,-0.137268,0.976349,-0.150019,0.024572,-0.00783,90.434555,42.441711,-146.336746,,,
729705841.132979,-8.117003,3.813684,73.253157,-0.052078,-0.137268,0.976349,-0.150019,0.024572,-0.00783,90.434555,42.441711,-146.336746,,,
729705841.136318,-8.161303,3.82547,73.253941,-0.052078,-0.137268,0.976349,-0.150019,0.024572,-0.00783,90.416397,42.803207,-146.190689,,,
729705841.139634,-8.206288,3.83534,73.253345,-0.048553,-0.135941,0.970764,-0.156515,0.042338,-0.013598,90.416397,42.803207,-146.190689,,,
729705841.142987,-8.206288,3.83534,73.253345,-0.048553,-0.135941,0.970764,-0.156515,0.042338,-0.013598,90.416397,42.803207,-146.190689,,,
729705841.146319,-8.252521,3.851379,73.253387,-0.048553,-0.135941,0.970764,-0.156515,0.042338,-0.013598,90.416397,42.803207,-146.190689,,,
729705841.149634,-8.300645,3.86451,73.252965,-0.054321,-0.138214,0.965042,-0.169745,0.04876,-0.01391,90.416397,42.803207,-146.190689,,,
729705841.153046,-8.300645,3.86451,73.252965,-0.054321,-0.138214,0.965042,-0.169745,0.04876,-0.01391,90.416397,42.803207,-146.190689,,,
729705841.156311,-8.349657,3.88063,73.254035,-0.054321,-0.138214,0.965042,-0.169745,0.04876,-0.01391,90.416397,42.803207,-146.190689,,,
729705841.159631,-8.399995,3.891834,73.255198,-0.05751,-0.144363,0.961624,-0.175179,0.03907,-0.010075,90.416397,42.803207,-146.190689,,,
729705841.162978,-8.399995,3.891834,73.255198,-0.05751,-0.144363,0.961624,-0.175179,0.03907,-0.010075,90.416397,42.803207,-146.190689,,,
729705841.166355,-8.450301,3.904523,73.256353,-0.05751,-0.144363,0.961624,-0.175179,0.03907,-0.010075,90.416397,42.803207,-146.190689,,,
729705841.169621,-8.502086,3.910922,73.255962,-0.058243,-0.145691,0.96312,-0.180804,0.022031,-0.017427,90.416397,42.803207,-146.190689,,,
729705841.172964,-8.502086,3.910922,73.255962,-0.058243,-0.145691,0.96312,-0.180804,0.022031,-0.017427,90.416397,42.803207,-146.190689,,,
729705841.176298,-8.554903,3.916356,73.25435,-0.058243,-0.145691,0.96312,-0.180804,0.022031,-0.017427,90.689713,43.083084,-146.106552,,,
729705841.179626,-8.611191,3.916779,73.25041,-0.061661,-0.140762,0.961578,-0.199858,0.001251,-0.033057,90.689713,43.083084,-146.106552,,,
729705841.182962,-8.611191,3.916779,73.25041,-0.061661,-0.140762,0.961578,-0.199858,0.001251,-0.033057,90.689713,43.083084,-146.106552,,,
729705841.186377,-8.670443,3.914428,73.244191,-0.061661,-0.140762,0.961578,-0.199858,0.001251,-0.033057,90.689713,43.083084,-146.106552,,,
729705841.18962,-8.733221,3.909469,73.234667,-0.060898,-0.141464,0.963928,-0.222028,-0.01027,-0.056824,90.689713,43.083084,-146.106552,,,
729705841.193046,-8.733221,3.909469,73.234667,-0.060898,-0.141464,0.963928,-0.222028,-0.01027,-0.056824,90.689713,43.083084,-146.106552,,,
729705841.196309,-8.799156,3.90247,73.222158,-0.060898,-0.141464,0.963928,-0.222028,-0.01027,-0.056824,90.689713,43.083084,-146.106552,,,
729705841.199634,-8.870241,3.895228,73.207802,-0.060379,-0.146042,0.96669,-0.248916,-0.016866,-0.072464,90.689713,43.083084,-146.106552,,,
729705841.202999,-8.870241,3.895228,73.207802,-0.060379,-0.146042,0.96669,-0.248916,-0.016866,-0.072464,90.689713,43.083084,-146.106552,,,
729705841.206368,-8.941957,3.88319,73.190673,-0.060379,-0.146042,0.96669,-0.248916,-0.016866,-0.072464,90.689713,43.083084,-146.106552,,,
729705841.209618,-9.020685,3.872772,73.172379,-0.06105,-0.151474,0.965012,-0.276432,-0.023631,-0.085306,90.689713,43.083084,-146.106552,,,
729705841.212973,-9.020685,3.872772,73.172379,-0.06105,-0.151474,0.965012,-0.276432,-0.023631,-0.085306,90.689713,43.083084,-146.106552,,,
729705841.216315,-9.099832,3.858182,73.153236,-0.06105,-0.151474,0.965012,-0.276432,-0.023631,-0.085306,90.689713,43.083084,-146.106552,,,
729705841.219648,-9.186893,3.847007,73.135171,-0.064896,-0.158386,0.965576,-0.30597,-0.025767,-0.083595,90.735046,43.701599,-145.941727,,,
729705841.222972,-9.186893,3.847007,73.135171,-0.064896,-0.158386,0.965576,-0.30597,-0.025767,-0.083595,90.735046,43.701599,-145.941727,,,
729705841.226303,-9.275087,3.833925,73.117505,-0.064896,-0.158386,0.965576,-0.30597,-0.025767,-0.083595,90.735046,43.701599,-145.941727,,,
729705841.229623,-9.371415,3.825717,73.101777,-0.068924,-0.166748,0.96666,-0.337627,-0.013892,-0.07552,90.735046,43.701599,-145.941727,,,
729705841.23303,-9.371415,3.825717,73.101777,-0.068924,-0.166748,0.96666,-0.337627,-0.013892,-0.07552,90.735046,43.701599,-145.941727,,,
729705841.236316,-9.469357,3.817891,73.087295,-0.068924,-0.166748,0.96666,-0.337627,-0.013892,-0.07552,90.735046,43.701599,-145.941727,,,
729705841.239628,-9.573037,3.81453,73.074736,-0.06543,-0.171371,0.968521,-0.357824,0.00523,-0.065147,90.735046,43.701599,-145.941727,,,
729705841.242972,-9.573037,3.81453,73.074736,-0.06543,-0.171371,0.968521,-0.357824,0.00523,-0.065147,90.735046,43.701599,-145.941727,,,
729705841.246381,-9.673178,3.815027,73.063879,-0.06543,-0.171371,0.968521,-0.357824,0.00523,-0.065147,90.735046,43.701599,-145.941727,,,
729705841.249624,-9.773886,3.823553,73.055444,-0.063538,-0.176163,0.992264,-0.342141,0.049425,-0.049013,90.735046,43.701599,-145.941727,,,
729705841.252991,-9.773886,3.823553,73.055444,-0.063538,-0.176163,0.992264,-0.342141,0.049425,-0.049013,90.735046,43.701599,-145.941727,,,
729705841.256322,-9.86663,3.836606,73.049707,-0.063538,-0.176163,0.992264,-0.342141,0.049425,-0.049013,90.735046,43.701599,-145.941727,,,
729705841.259632,-9.958848,3.853549,73.047123,-0.067093,-0.181763,1.003433,-0.311261,0.066708,-0.026431,90.692932,44.438156,-145.521652,,,
729705841.26298,-9.958848,3.853549,73.047123,-0.067093,-0.181763,1.003433,-0.311261,0.066708,-0.026431,90.692932,44.438156,-145.521652,,,
729705841.266311,-10.041101,3.872196,73.048567,-0.067093,-0.181763,1.003433,-0.311261,0.066708,-0.026431,90.692932,44.438156,-145.521652,,,
729705841.269623,-10.125594,3.896283,73.054326,-0.071548,-0.184799,1.005524,-0.28834,0.095096,0.003815,90.692932,44.438156,-145.521652,,,
729705841.273025,-10.125594,3.896283,73.054326,-0.071548,-0.184799,1.005524,-0.28834,0.095096,0.003815,90.692932,44.438156,-145.521652,,,
729705841.276307,-10.19976,3.925406,73.0641,-0.071548,-0.184799,1.005524,-0.28834,0.095096,0.003815,90.692932,44.438156,-145.521652,,,
729705841.279635,-10.278115,3.960571,73.079495,-0.079193,-0.187485,1.018829,-0.271138,0.1203,0.041527,90.692932,44.438156,-145.521652,,,
729705841.282992,-10.278115,3.960571,73.079495,-0.079193,-0.187485,1.018829,-0.271138,0.1203,0.041527,90.692932,44.438156,-145.521652,,,
729705841.286379,-10.347923,3.995937,73.099677,-0.079193,-0.187485,1.018829,-0.271138,0.1203,0.041527,90.692932,44.438156,-145.521652,,,
729705841.289654,-10.421175,4.032533,73.123945,-0.077652,-0.191147,1.007172,-0.256056,0.112332,0.068189,90.692932,44.438156,-145.521652,,,
729705841.292974,-10.421175,4.032533,73.123945,-0.077652,-0.191147,1.007172,-0.256056,0.112332,0.068189,90.692932,44.438156,-145.521652,,,
729705841.296291,-10.491732,4.067048,73.150735,-0.077652,-0.191147,1.007172,-0.256056,0.112332,0.068189,90.692932,44.438156,-145.521652,,,
729705841.29963,-10.559033,4.09857,73.178922,-0.071915,-0.193375,1.005447,-0.234912,0.08969,0.078948,91.138092,45.010406,-145.406052,,,
729705841.303004,-10.559033,4.09857,73.178922,-0.071915,-0.193375,1.005447,-0.234912,0.08969,0.078948,91.138092,45.010406,-145.406052,,,
729705841.306323,-10.623125,4.127786,73.207082,-0.071915,-0.193375,1.005447,-0.234912,0.08969,0.078948,91.138092,45.010406,-145.406052,,,
729705841.309628,-10.683681,4.154858,73.233617,-0.071716,-0.189438,1.008072,-0.21045,0.076893,0.06934,91.138092,45.010406,-145.406052,,,
729705841.312976,-10.683681,4.154858,73.233617,-0.071716,-0.189438,1.008072,-0.21045,0.076893,0.06934,91.138092,45.010406,-145.406052,,,
729705841.316306,-10.74129,4.179349,73.257955,-0.071716,-0.189438,1.008072,-0.21045,0.076893,0.06934,91.138092,45.010406,-145.406052,,,
729705841.319633,-10.796235,4.200731,73.279531,-0.072876,-0.1828,1.003525,-0.191528,0.058947,0.051579,91.138092,45.010406,-145.406052,,,
729705841.323044,-10.796235,4.200731,73.279531,-0.072876,-0.1828,1.003525,-0.191528,0.058947,0.051579,91.138092,45.010406,-145.406052,,,
729705841.326292,-10.848499,4.219398,73.297544,-0.072876,-0.1828,1.003525,-0.191528,0.058947,0.051579,91.138092,45.010406,-145.406052,,,
729705841.329635,-10.897607,4.235888,73.313448,-0.072876,-0.1828,1.003525,-0.191528,0.058947,0.051579,91.138092,45.010406,-145.406052,,,
729705841.33296,-10.897607,4.235888,73.313448,-0.073334,-0.180664,0.99971,-0.169347,0.046692,0.038617,91.138092,45.010406,-145.406052,,,
729705841.336306,-10.944293,4.250623,73.328052,-0.073334,-0.180664,0.99971,-0.169347,0.046692,0.038617,91.138092,45.010406,-145.406052,,,
729705841.339662,-10.988354,4.264354,73.341601,-0.077194,-0.185562,0.994064,-0.151457,0.041298,0.032608,90.948608,45.348999,-145.020477,,,
729705841.342983,-10.988354,4.264354,73.341601,-0.077194,-0.185562,0.994064,-0.151457,0.041298,0.032608,90.948608,45.348999,-145.020477,,,
729705841.346299,-11.03008,4.276823,73.355331,-0.077194,-0.185562,0.994064,-0.151457,0.041298,0.032608,90.948608,45.348999,-145.020477,,,
729705841.349637,-11.068806,4.287395,73.370031,-0.077194,-0.185562,0.994064,-0.132067,0.027006,0.040688,90.948608,45.348999,-145.020477,,,
729705841.353063,-11.068806,4.287395,73.370031,-0.078751,-0.190155,0.987701,-0.132067,0.027006,0.040688,90.948608,45.348999,-145.020477,,,
729705841.356289,-11.103696,4.297008,73.385795,-0.078751,-0.190155,0.987701,-0.132067,0.027006,0.040688,90.948608,45.348999,-145.020477,,,
729705841.359646,-11.103696,4.297008,73.385795,-0.078751,-0.190155,0.987701,-0.101721,0.028924,0.04836,90.948608,45.348999,-145.020477,,,
729705841.362991,-11.134038,4.307021,73.402346,-0.075836,-0.190262,0.992386,-0.101721,0.028924,0.04836,90.948608,45.348999,-145.020477,,,
729705841.366296,-11.159234,4.318623,73.418668,-0.075836,-0.190262,0.992386,-0.101721,0.028924,0.04836,90.948608,45.348999,-145.020477,,,
729705841.369633,-11.159234,4.318623,73.418668,-0.075836,-0.190262,0.992386,-0.101721,0.028924,0.04836,90.948608,45.348999,-145.020477,,,
729705841.37298,-11.177811,4.332056,73.433624,-0.073273,-0.191162,1.004196,-0.055959,0.043755,0.042499,90.948608,45.348999,-145.020477,,,
729705841.376295,-11.188833,4.345881,73.44623,-0.073273,-0.191162,1.004196,-0.055959,0.043755,0.042499,90.948608,45.348999,-145.020477,,,
729705841.379695,-11.188833,4.359345,73.456134,-0.073273,-0.191162,1.004196,-0.017315,0.042969,0.026451,90.948608,45.348999,-145.020477,,,
729705841.382978,-11.195406,4.359345,73.456134,-0.0672,-0.188934,1.002472,-0.017315,0.042969,0.026451,91.125092,45.483932,-145.236435,,,
729705841.386298,-11.19747,4.372201,73.46313,-0.0672,-0.188934,1.002472,-0.017315,0.042969,0.026451,91.125092,45.483932,-145.236435,,,
729705841.389748,-11.198425,4.388002,73.467895,-0.0672,-0.188934,1.002472,-0.001896,0.061538,0.01136,91.125092,45.483932,-145.236435,,,
729705841.392984,-11.198425,4.388002,73.467895,-0.068359,-0.185333,0.992783,-0.001896,0.061538,0.01136,91.125092,45.483932,-145.236435,,,
729705841.396299,-11.19763,4.405378,73.472026,-0.068359,-0.185333,0.992783,-0.001896,0.061538,0.01136,91.125092,45.483932,-145.236435,,,
729705841.399777,-11.19763,4.422314,73.477126,-0.068359,-0.185333,0.992783,-0.001896,0.061538,0.01136,91.125092,45.483932,-145.236435,,,
729705841.402956,-11.199137,4.422314,73.477126,-0.079437,-0.185867,0.984543,-0.007031,0.051998,0.016561,91.125092,45.483932,-145.236435,,,
729705841.406298,-11.199814,4.433769,73.482627,-0.079437,-0.185867,0.984543,-0.007031,0.051998,0.016561,91.125092,45.483932,-145.236435,,,
729705841.409691,-11.199814,4.433769,73.482627,-0.079437,-0.185867,0.984543,-0.007031,0.051998,0.016561,91.125092,45.483932,-145.236435,,,
729705841.413026,-11.205601,4.439436,73.488049,-0.074097,-0.183914,0.961212,-0.027673,0.007833,0.013633,91.125092,45.483932,-145.236435,,,
729705841.416299,-11.213287,4.438524,73.492672,-0.074097,-0.183914,0.961212,-0.027673,0.007833,0.013633,91.125092,45.483932,-145.236435,,,
729705841.4197,-11.213287,4.438524,73.492672,-0.074097,-0.183914,0.961212,-0.027673,0.007833,0.013633,91.125092,45.483932,-145.236435,,,
729705841.422959,-11.227542,4.433533,73.49641,-0.064392,-0.181488,0.95343,-0.056698,-0.022581,0.004678,91.072693,45.52211,-145.139359,,,
729705841.426321,-11.244624,4.425213,73.498747,-0.064392,-0.181488,0.95343,-0.056698,-0.022581,0.004678,91.072693,45.52211,-145.139359,,,
729705841.429655,-11.244624,4.425213,73.498747,-0.064392,-0.181488,0.95343,-0.056698,-0.022581,0.004678,91.072693,45.52211,-145.139359,,,
729705841.432981,-11.268324,4.412995,73.498606,-0.068909,-0.175201,0.956085,-0.090143,-0.043695,-0.014342,91.072693,45.52211,-145.139359,,,
729705841.436307,-11.294795,4.39771,73.494555,-0.068909,-0.175201,0.956085,-0.090143,-0.043695,-0.014342,91.072693,45.52211,-145.139359,,,
729705841.439701,-11.294795,4.39771,73.494555,-0.068909,-0.175201,0.956085,-0.090143,-0.043695,-0.014342,91.072693,45.52211,-145.139359,,,
729705841.442969,-11.326299,4.37891,73.486109,-0.062485,-0.16983,0.950317,-0.109622,-0.061018,-0.045643,91.072693,45.52211,-145.139359,,,
729705841.446363,-11.355987,4.358045,73.474583,-0.062485,-0.16983,0.950317,-0.109622,-0.061018,-0.045643,91.072693,45.52211,-145.139359,,,
729705841.449645,-11.355987,4.358045,73.474583,-0.062485,-0.16983,0.950317,-0.109622,-0.061018,-0.045643,91.072693,45.52211,-145.139359,,,
729705841.453049,-11.387791,4.336918,73.46092,-0.064987,-0.176361,0.95874,-0.105262,-0.060678,-0.060028,91.072693,45.52211,-145.139359,,,
729705841.456287,-11.415184,4.313605,73.44546,-0.064987,-0.176361,0.95874,-0.105262,-0.060678,-0.060028,91.072693,45.52211,-145.139359,,,
729705841.459691,-11.415184,4.313605,73.44546,-0.064987,-0.176361,0.95874,-0.105262,-0.060678,-0.060028,91.072693,45.52211,-145.139359,,,
729705841.46296,-11.44422,4.291647,73.430061,-0.070724,-0.189163,0.96524,-0.093766,-0.062647,-0.061014,91.196198,45.675766,-144.917557,,,
729705841.466297,-11.466872,4.268165,73.415519,-0.070724,-0.189163,0.96524,-0.093766,-0.062647,-0.061014,91.196198,45.675766,-144.917557,,,
729705841.469657,-11.466872,4.268165,73.415519,-0.070724,-0.189163,0.96524,-0.093766,-0.062647,-0.061014,91.196198,45.675766,-144.917557,,,
729705841.472969,-11.490728,4.248617,73.404875,-0.076981,-0.200256,0.966614,-0.075203,-0.057238,-0.036265,91.196198,45.675766,-144.917557,,,
729705841.476294,-11.507408,4.231285,73.397864,-0.076981,-0.200256,0.966614,-0.075203,-0.057238,-0.036265,91.196198,45.675766,-144.917557,,,
729705841.479783,-11.507408,4.231285,73.397864,-0.076981,-0.200256,0.966614,-0.075203,-0.057238,-0.036265,91.196198,45.675766,-144.917557,,,
729705841.482968,-11.525837,4.21675,73.394254,-0.074722,-0.204269,0.969971,-0.060003,-0.041332,-0.011605,91.196198,45.675766,-144.917557,,,
729705841.486292,-11.538927,4.207889,73.394612,-0.074722,-0.204269,0.969971,-0.060003,-0.041332,-0.011605,91.196198,45.675766,-144.917557,,,
729705841.489767,-11.538927,4.207889,73.394612,-0.074722,-0.204269,0.969971,-0.060003,-0.041332,-0.011605,91.196198,45.675766,-144.917557,,,
729705841.492975,-11.554824,4.200622,73.397345,-0.07431,-0.207352,0.969955,-0.055053,-0.017248,0.008449,91.196198,45.675766,-144.917557,,,
729705841.496299,-11.567435,4.19695,73.402537,-0.07431,-0.207352,0.969955,-0.055053,-0.017248,0.008449,91.196198,45.675766,-144.917557,,,
729705841.49966,-11.567435,4.19695,73.402537,-0.07431,-0.207352,0.969955,-0.055053,-0.017248,0.008449,91.196198,45.675766,-144.917557,,,
729705841.502964,-11.584386,4.199149,73.409509,-0.078842,-0.206238,0.971909,-0.062591,0.013744,0.018556,91.196198,45.675766,-144.917557,,,
729705841.506293,-11.599438,4.204474,73.416651,-0.078842,-0.206238,0.971909,-0.062591,0.013744,0.018556,91.102753,45.839371,-145.094925,,,
729705841.509647,-11.599438,4.204474,73.416651,-0.078842,-0.206238,0.971909,-0.062591,0.013744,0.018556,91.102753,45.839371,-145.094925,,,
729705841.512991,-11.622177,4.213812,73.424243,-0.074951,-0.201462,0.964218,-0.085556,0.035261,0.018691,91.102753,45.839371,-145.094925,,,
729705841.516295,-11.641384,4.2242,73.431612,-0.074951,-0.201462,0.964218,-0.085556,0.035261,0.018691,91.102753,45.839371,-145.094925,,,
729705841.519641,-11.641384,4.2242,73.431612,-0.074951,-0.201462,0.964218,-0.085556,0.035261,0.018691,91.102753,45.839371,-145.094925,,,
729705841.522964,-11.670951,4.238367,73.439277,-0.081284,-0.201401,0.961136,-0.110324,0.052808,0.017143,91.102753,45.839371,-145.094925,,,
729705841.526299,-11.697298,4.251702,73.44693,-0.081284,-0.201401,0.961136,-0.110324,0.052808,0.017143,91.102753,45.839371,-145.094925,,,
729705841.52974,-11.697298,4.251702,73.44693,-0.081284,-0.201401,0.961136,-0.110324,0.052808,0.017143,91.102753,45.839371,-145.094925,,,
729705841.532965,-11.733739,4.267384,73.455705,-0.085312,-0.206802,0.956726,-0.134438,0.051484,0.019607,91.102753,45.839371,-145.094925,,,
729705841.536293,-11.769756,4.281424,73.464564,-0.085312,-0.206802,0.956726,-0.134438,0.051484,0.019607,91.102753,45.839371,-145.094925,,,
729705841.539652,-11.769756,4.281424,73.464564,-0.085312,-0.206802,0.956726,-0.134438,0.051484,0.019607,91.102753,45.839371,-145.094925,,,
729705841.542966,-11.811929,4.294728,73.473216,-0.079239,-0.209625,0.951492,-0.150365,0.039439,0.015362,91.102753,45.839371,-145.094925,,,
729705841.54629,-11.854597,4.306314,73.480752,-0.079239,-0.209625,0.951492,-0.150365,0.039439,0.015362,91.167358,45.923859,-144.757416,,,
729705841.549644,-11.854597,4.306314,73.480752,-0.079239,-0.209625,0.951492,-0.150365,0.039439,0.015362,91.167358,45.923859,-144.757416,,,
729705841.553043,-11.899808,4.315256,73.487244,-0.080215,-0.211578,0.955582,-0.159248,0.023636,0.007678,91.167358,45.923859,-144.757416,,,
729705841.556287,-11.945777,4.321614,73.493478,-0.080215,-0.211578,0.955582,-0.159248,0.023636,0.007678,91.167358,45.923859,-144.757416,,,
729705841.559648,-11.945777,4.321614,73.493478,-0.080215,-0.211578,0.955582,-0.159248,0.023636,0.007678,91.167358,45.923859,-144.757416,,,
729705841.562977,-11.993626,4.324568,73.499666,-0.085968,-0.210342,0.955429,-0.170549,0.004835,0.007502,91.167358,45.923859,-144.757416,,,
729705841.5663,-12.04249,4.325639,73.50639,-0.085968,-0.210342,0.955429,-0.170549,0.004835,0.007502,91.167358,45.923859,-144.757416,,,
729705841.569644,-12.04249,4.325639,73.50639,-0.085968,-0.210342,0.955429,-0.170549,0.004835,0.007502,91.167358,45.923859,-144.757416,,,
729705841.57301,-12.092597,4.326318,73.513352,-0.083664,-0.211395,0.958115,-0.178106,0.000372,0.008232,91.167358,45.923859,-144.757416,,,
729705841.576294,-12.143079,4.32865,73.521131,-0.083664,-0.211395,0.958115,-0.178106,0.000372,0.008232,91.167358,45.923859,-144.757416,,,
729705841.579705,-12.143079,4.32865,73.521131,-0.083664,-0.211395,0.958115,-0.178106,0.000372,0.008232,91.167358,45.923859,-144.757416,,,
729705841.582966,-12.193909,4.331528,73.529545,-0.076889,-0.21344,0.965424,-0.179165,0.009017,0.013663,91.167358,45.923859,-144.757416,,,
729705841.586299,-12.243951,4.335861,73.538932,-0.076889,-0.21344,0.965424,-0.179165,0.009017,0.013663,91.41069,46.306259,-144.570984,,,
729705841.589643,-12.243951,4.335861,73.538932,-0.076889,-0.21344,0.965424,-0.179165,0.009017,0.013663,91.41069,46.306259,-144.570984,,,
729705841.593018,-12.295246,4.340786,73.549153,-0.067169,-0.214752,0.968323,-0.180681,0.015065,0.019911,91.41069,46.306259,-144.570984,,,
729705841.596284,-12.344534,4.348453,73.560453,-0.067169,-0.214752,0.968323,-0.180681,0.015065,0.019911,91.41069,46.306259,-144.570984,,,
729705841.599637,-12.344534,4.348453,73.560453,-0.067169,-0.214752,0.968323,-0.180681,0.015065,0.019911,91.41069,46.306259,-144.570984,,,
729705841.602972,-12.395926,4.357405,73.572297,-0.063766,-0.217133,0.972717,-0.182667,0.02981,0.024891,91.41069,46.306259,-144.570984,,,
729705841.60629,-12.44662,4.370859,73.584433,-0.063766,-0.217133,0.972717,-0.182667,0.02981,0.024891,91.41069,46.306259,-144.570984,,,
729705841.609621,-12.44662,4.370859,73.584433,-0.063766,-0.217133,0.972717,-0.182667,0.02981,0.024891,91.41069,46.306259,-144.570984,,,
729705841.612979,-12.499164,4.381686,73.595398,-0.058365,-0.219101,0.975998,-0.183289,0.032565,0.021074,91.41069,46.306259,-144.570984,,,
729705841.616297,-12.550034,4.395106,73.605637,-0.058365,-0.219101,0.975998,-0.183289,0.032565,0.021074,91.41069,46.306259,-144.570984,,,
729705841.619692,-12.550034,4.395106,73.605637,-0.058365,-0.219101,0.975998,-0.183289,0.032565,0.021074,91.41069,46.306259,-144.570984,,,
729705841.622963,-12.600548,4.403747,73.613603,-0.058411,-0.224197,0.977646,-0.173546,0.02315,0.010774,91.41069,46.306259,-144.570984,,,
729705841.626289,-12.647833,4.412342,73.621228,-0.058411,-0.224197,0.977646,-0.173546,0.02315,0.010774,91.353973,46.593826,-144.647552,,,
729705841.629641,-12.647833,4.412342,73.621228,-0.058411,-0.224197,0.977646,-0.173546,0.02315,0.010774,91.353973,46.593826,-144.647552,,,
729705841.63302,-12.692549,4.418037,73.627615,-0.062393,-0.23291,0.981918,-0.149922,0.013866,0.006083,91.353973,46.593826,-144.647552,,,
729705841.636306,-12.73257,4.42432,73.6326,-0.062393,-0.23291,0.981918,-0.149922,0.013866,0.006083,91.353973,46.593826,-144.647552,,,
729705841.639487,-12.73257,4.42432,73.6326,-0.062393,-0.23291,0.981918,-0.149922,0.013866,0.006083,91.353973,46.593826,-144.647552,,,
729705841.643009,-12.771258,4.425581,73.634276,-0.062454,-0.233612,0.984528,-0.128505,0.003972,-0.01031,91.353973,46.593826,-144.647552,,,
729705841.646293,-12.805824,4.427869,73.634206,-0.062454,-0.233612,0.984528,-0.128505,0.003972,-0.01031,91.353973,46.593826,-144.647552,,,
729705841.649625,-12.805824,4.427869,73.634206,-0.062454,-0.233612,0.984528,-0.128505,0.003972,-0.01031,91.353973,46.593826,-144.647552,,,
729705841.652962,-12.840777,4.424893,73.630859,-0.059784,-0.229385,0.984024,-0.117523,-0.004501,-0.026533,91.353973,46.593826,-144.647552,,,
729705841.656293,-12.872098,4.4239,73.626188,-0.059784,-0.229385,0.984024,-0.117523,-0.004501,-0.026533,91.353973,46.593826,-144.647552,,,
729705841.659629,-12.872098,4.4239,73.626188,-0.059784,-0.229385,0.984024,-0.117523,-0.004501,-0.026533,91.353973,46.593826,-144.647552,,,
729705841.66298,-12.904021,4.421407,73.619887,-0.064499,-0.228989,0.982834,-0.10519,0.001802,-0.03347,91.353973,46.593826,-144.647552,,,
729705841.666293,-12.932977,4.419706,73.613051,-0.064499,-0.228989,0.982834,-0.10519,0.001802,-0.03347,91.414871,46.626419,-144.556427,,,
729705841.669652,-12.932977,4.419706,73.613051,-0.064499,-0.228989,0.982834,-0.10519,0.001802,-0.03347,91.414871,46.626419,-144.556427,,,
729705841.673023,-12.964328,4.421892,73.607919,-0.070801,-0.231171,0.983536,-0.10926,0.020222,-0.023575,91.414871,46.626419,-144.556427,,,
729705841.676288,-12.994851,4.424368,73.604788,-0.070801,-0.231171,0.983536,-0.10926,0.020222,-0.023575,91.414871,46.626419,-144.556427,,,
729705841.679624,-12.994851,4.424368,73.604788,-0.070801,-0.231171,0.983536,-0.10926,0.020222,-0.023575,91.414871,46.626419,-144.556427,,,
729705841.682972,-13.02977,4.431553,73.604372,-0.070862,-0.231308,0.975067,-0.125555,0.029231,-0.010919,91.414871,46.626419,-144.556427,,,
729705841.686289,-13.066883,4.434792,73.604772,-0.070862,-0.231308,0.975067,-0.125555,0.029231,-0.010919,91.414871,46.626419,-144.556427,,,
729705841.689671,-13.066883,4.434792,73.604772,-0.070862,-0.231308,0.975067,-0.125555,0.029231,-0.010919,91.414871,46.626419,-144.556427,,,
729705841.692974,-13.111026,4.442462,73.607422,-0.063736,-0.225708,0.959442,-0.161854,0.027689,-0.005137,91.414871,46.626419,-144.556427,,,
729705841.696291,-13.158425,4.444741,73.608555,-0.063736,-0.225708,0.959442,-0.161854,0.027689,-0.005137,91.414871,46.626419,-144.556427,,,
729705841.699692,-13.158425,4.444741,73.608555,-0.063736,-0.225708,0.959442,-0.161854,0.027689,-0.005137,91.414871,46.626419,-144.556427,,,
729705841.702978,-13.212342,4.453493,73.610547,-0.064392,-0.223694,0.955475,-0.19525,0.033977,-0.010719,91.414871,46.626419,-144.556427,,,
729705841.706297,-13.269997,4.458984,73.611076,-0.064392,-0.223694,0.955475,-0.19525,0.033977,-0.010719,91.414871,46.626419,-144.556427,,,
729705841.709643,-13.269997,4.458984,73.611076,-0.064392,-0.223694,0.955475,-0.19525,0.033977,-0.010719,91.177628,47.253647,-144.307816,,,
729705841.713052,-13.331133,4.470865,73.611939,-0.070526,-0.22229,0.954697,-0.214684,0.046809,-0.017421,91.177628,47.253647,-144.307816,,,
729705841.716289,-13.393489,4.479837,73.610262,-0.070526,-0.22229,0.954697,-0.214684,0.046809,-0.017421,91.177628,47.253647,-144.307816,,,
729705841.719655,-13.393489,4.479837,73.610262,-0.070526,-0.22229,0.954697,-0.214684,0.046809,-0.017421,91.177628,47.253647,-144.307816,,,
729705841.722971,-13.454738,4.493368,73.607681,-0.069885,-0.224762,0.961319,-0.208895,0.05361,-0.029569,91.177628,47.253647,-144.307816,,,
729705841.7263,-13.512048,4.50141,73.6031,-0.069885,-0.224762,0.961319,-0.208895,0.05361,-0.029569,91.177628,47.253647,-144.307816,,,
729705841.729641,-13.512048,4.50141,73.6031,-0.069885,-0.224762,0.961319,-0.208895,0.05361,-0.029569,91.177628,47.253647,-144.307816,,,
729705841.732982,-13.565387,4.51273,73.59964,-0.07663,-0.233063,0.96344,-0.173625,0.041555,-0.027161,91.177628,47.253647,-144.307816,,,
729705841.7363,-13.611463,4.51657,73.595141,-0.07663,-0.233063,0.96344,-0.173625,0.041555,-0.027161,91.177628,47.253647,-144.307816,,,
729705841.739712,-13.611463,4.51657,73.595141,-0.07663,-0.233063,0.96344,-0.173625,0.041555,-0.027161,91.177628,47.253647,-144.307816,,,
729705841.742969,-13.656314,4.521905,73.591572,-0.08165,-0.237167,0.963257,-0.149804,0.018207,-0.026836,91.177628,47.253647,-144.307816,,,
729705841.746295,-13.696115,4.520436,73.587263,-0.08165,-0.237167,0.963257,-0.149804,0.018207,-0.026836,91.177628,47.253647,-144.307816,,,
729705841.749725,-13.696115,4.520436,73.587263,-0.08165,-0.237167,0.963257,-0.149804,0.018207,-0.026836,91.280289,47.547073,-144.365372,,,
729705841.752972,-13.737183,4.518509,73.584716,-0.088242,-0.24054,0.957367,-0.141244,-0.008375,-0.019203,91.280289,47.547073,-144.365372,,,
