Time (sec),Pitch (deg),Roll (deg),Yaw(deg),X-Acceleration (g),Y-Acceleration (g),Z-Acceleration (g),Pitch Rate (deg/sec),Roll Rate (deg/sec),Yaw Rate (deg/sec),Magnetic Field in X direction (uT),Magnetic Field in Y direction (uT),Magnetic Field in Z Direction (uT),Latitude (deg),Longitude (deg),Altitude (m)
729706695.13898,-30.263601,0.845628,-30.866889,-0.003647,-0.498764,0.877899,-0.570635,0.074132,-0.11978,58.655243,52.276489,-136.272598,,,
729706695.14008,-30.428288,0.849414,113.007641,-0.003647,-0.498764,0.877899,-0.570635,0.074132,-0.11978,58.655243,52.276489,-136.272598,,,
729706695.141798,-30.428297,0.849374,-30.902561,-0.003647,-0.498764,0.877899,-0.570635,0.074132,-0.11978,58.655243,52.276489,-136.272598,,,
729706695.143633,-30.428288,0.849414,113.007641,-0.003647,-0.498764,0.877899,-0.570635,0.074132,-0.11978,58.655243,52.276489,-136.272598,,,
729706695.144497,-30.428297,0.849374,-30.902561,-0.003647,-0.498764,0.877899,-0.570635,0.074132,-0.11978,58.655243,52.276489,-136.272598,,,
729706695.146961,-30.593058,0.855691,112.97341,-0.010391,-0.504517,0.872757,-0.571268,0.087321,-0.110899,58.655243,52.276489,-136.272598,,,
729706695.149403,-30.593067,0.855651,-30.936799,-0.010391,-0.504517,0.872757,-0.571268,0.087321,-0.110899,58.655243,52.276489,-136.272598,,,
729706695.150298,-30.758009,0.863967,112.940663,-0.010391,-0.504517,0.872757,-0.571268,0.087321,-0.110899,58.655243,52.276489,-136.272598,,,
729706695.151644,-30.758019,0.863927,-30.969549,-0.010391,-0.504517,0.872757,-0.571268,0.087321,-0.110899,58.655243,52.276489,-136.272598,,,
729706695.153628,-30.758009,0.863967,112.940663,-0.010391,-0.504517,0.872757,-0.571268,0.087321,-0.110899,58.655243,52.276489,-136.272598,,,
729706695.154846,-30.758019,0.863927,-30.969549,-0.010391,-0.504517,0.872757,-0.572479,0.090284,-0.09961,58.655243,52.276489,-136.272598,,,
729706695.156938,-30.923147,0.873537,112.909766,-0.014191,-0.509537,0.869308,-0.572479,0.090284,-0.09961,58.655243,52.276489,-136.272598,,,
729706695.158796,-30.923156,0.873497,-31.000449,-0.014191,-0.509537,0.869308,-0.572479,0.090284,-0.09961,58.655243,52.276489,-136.272598,,,
729706695.1603,-31.08786,0.882531,112.880646,-0.014191,-0.509537,0.869308,-0.572479,0.090284,-0.09961,58.655243,52.276489,-136.272598,,,
729706695.161916,-31.087869,0.88249,-31.02955,-0.014191,-0.509537,0.869308,-0.572479,0.090284,-0.09961,58.655243,52.276489,-136.272598,,,
729706695.163637,-31.08786,0.882531,112.880646,-0.014191,-0.509537,0.869308,-0.572479,0.090284,-0.09961,58.655243,52.276489,-136.272598,,,
729706695.164458,-31.087869,0.88249,-31.02955,-0.014191,-0.509537,0.869308,-0.572479,0.090284,-0.09961,58.655243,52.276489,-136.272598,,,
729706695.167016,-31.251821,0.888888,112.852635,-0.016113,-0.518524,0.862503,-0.56752,0.068511,-0.092846,58.655243,52.276489,-136.272598,,,
729706695.170184,-31.25183,0.888848,-31.057555,-0.016113,-0.518524,0.862503,-0.56752,0.068511,-0.092846,58.983994,52.895554,-135.419159,,,
729706695.170446,-31.414286,0.890479,112.825261,-0.016113,-0.518524,0.862503,-0.56752,0.068511,-0.092846,58.983994,52.895554,-135.419159,,,
729706695.171621,-31.414295,0.890438,-31.08494,-0.016113,-0.518524,0.862503,-0.56752,0.068511,-0.092846,58.983994,52.895554,-135.419159,,,
729706695.173647,-31.414286,0.890479,112.825261,-0.016113,-0.518524,0.862503,-0.56752,0.068511,-0.092846,58.983994,52.895554,-135.419159,,,
729706695.174486,-31.414295,0.890438,-31.08494,-0.016113,-0.518524,0.862503,-0.56752,0.068511,-0.092846,58.983994,52.895554,-135.419159,,,
729706695.176981,-31.575197,0.887181,112.798543,-0.01976,-0.527664,0.860947,-0.556802,0.032517,-0.088452,58.983994,52.895554,-135.419159,,,
729706695.178908,-31.575206,0.887141,-31.111657,-0.01976,-0.527664,0.860947,-0.556802,0.032517,-0.088452,58.983994,52.895554,-135.419159,,,
729706695.180295,-31.734887,0.879534,112.77217,-0.01976,-0.527664,0.860947,-0.556802,0.032517,-0.088452,58.983994,52.895554,-135.419159,,,
729706695.181914,-31.734896,0.879493,-31.13803,-0.01976,-0.527664,0.860947,-0.556802,0.032517,-0.088452,58.983994,52.895554,-135.419159,,,
729706695.183646,-31.734887,0.879534,112.77217,-0.01976,-0.527664,0.860947,-0.556802,0.032517,-0.088452,58.983994,52.895554,-135.419159,,,
729706695.184482,-31.734896,0.879493,-31.13803,-0.01976,-0.527664,0.860947,-0.556802,0.032517,-0.088452,58.983994,52.895554,-135.419159,,,
729706695.186973,-31.893229,0.867534,112.745712,-0.021408,-0.53183,0.859818,-0.547227,0.002958,-0.088341,58.983994,52.895554,-135.419159,,,
729706695.18897,-31.893238,0.867494,-31.164489,-0.021408,-0.53183,0.859818,-0.547227,0.002958,-0.088341,58.983994,52.895554,-135.419159,,,
729706695.190299,-32.050622,0.851542,112.71885,-0.021408,-0.53183,0.859818,-0.547227,0.002958,-0.088341,58.983994,52.895554,-135.419159,,,
729706695.191924,-32.050632,0.851501,-31.191352,-0.021408,-0.53183,0.859818,-0.547227,0.002958,-0.088341,58.983994,52.895554,-135.419159,,,
729706695.193631,-32.050622,0.851542,112.71885,-0.021408,-0.53183,0.859818,-0.547227,0.002958,-0.088341,58.983994,52.895554,-135.419159,,,
729706695.194471,-32.050632,0.851501,-31.191352,-0.021408,-0.53183,0.859818,-0.547227,0.002958,-0.088341,58.983994,52.895554,-135.419159,,,
729706695.196973,-32.207586,0.832642,112.690384,-0.017242,-0.534592,0.857285,-0.544374,-0.010903,-0.097216,58.983994,52.895554,-135.419159,,,
729706695.200277,-32.207596,0.832601,-31.219819,-0.017242,-0.534592,0.857285,-0.544374,-0.010903,-0.097216,58.983994,52.895554,-135.419159,,,
729706695.200551,-32.364645,0.812739,112.659201,-0.017242,-0.534592,0.857285,-0.544374,-0.010903,-0.097216,58.983994,52.895554,-135.419159,,,
729706695.201958,-32.364654,0.812698,-31.251004,-0.017242,-0.534592,0.857285,-0.544374,-0.010903,-0.097216,58.983994,52.895554,-135.419159,,,
729706695.203636,-32.364645,0.812739,112.659201,-0.017242,-0.534592,0.857285,-0.544374,-0.010903,-0.097216,58.983994,52.895554,-135.419159,,,
729706695.204458,-32.364654,0.812698,-31.251004,-0.017242,-0.534592,0.857285,-0.544374,-0.010903,-0.097216,58.983994,52.895554,-135.419159,,,
729706695.206954,-32.522301,0.79285,112.625094,-0.011688,-0.534393,0.854675,-0.548388,0.000662,-0.113758,58.983994,52.895554,-135.419159,,,
729706695.21114,-32.52231,0.792809,-31.28511,-0.011688,-0.534393,0.854675,-0.548388,0.000662,-0.113758,58.700134,53.654343,-134.493378,,,
729706695.211638,-32.681307,0.77375,112.58801,-0.011688,-0.534393,0.854675,-0.548388,0.000662,-0.113758,58.700134,53.654343,-134.493378,,,
729706695.213534,-32.681307,0.77375,112.58801,-0.011688,-0.534393,0.854675,-0.548388,0.000662,-0.113758,58.700134,53.654343,-134.493378,,,
729706695.216336,-32.681317,0.773709,-31.322199,-0.003128,-0.538757,0.850662,-0.557389,0.020226,-0.128004,58.700134,53.654343,-134.493378,,,
729706695.217039,-32.841651,0.755995,112.548386,-0.003128,-0.538757,0.850662,-0.557389,0.020226,-0.128004,58.700134,53.654343,-134.493378,,,
729706695.218609,-32.84166,0.755954,-31.361828,-0.003128,-0.538757,0.850662,-0.557389,0.020226,-0.128004,58.700134,53.654343,-134.493378,,,
729706695.220319,-33.001895,0.739894,112.507026,-0.003128,-0.538757,0.850662,-0.557389,0.020226,-0.128004,58.700134,53.654343,-134.493378,,,
729706695.221987,-33.001904,0.739853,-31.40319,-0.003128,-0.538757,0.850662,-0.557389,0.020226,-0.128004,58.700134,53.654343,-134.493378,,,
729706695.223669,-33.001895,0.739894,112.507026,-0.003128,-0.538757,0.850662,-0.557389,0.020226,-0.128004,58.700134,53.654343,-134.493378,,,
729706695.224501,-33.001904,0.739853,-31.40319,-0.003128,-0.538757,0.850662,-0.557389,0.020226,-0.128004,58.700134,53.654343,-134.493378,,,
729706695.226979,-33.162115,0.725913,112.465159,-0.006454,-0.544037,0.847748,-0.557564,0.037567,-0.130181,58.700134,53.654343,-134.493378,,,
729706695.229236,-33.162124,0.725872,-31.445034,-0.006454,-0.544037,0.847748,-0.557564,0.037567,-0.130181,58.700134,53.654343,-134.493378,,,
729706695.23029,-33.322524,0.714516,112.424141,-0.006454,-0.544037,0.847748,-0.557564,0.037567,-0.130181,58.700134,53.654343,-134.493378,,,
729706695.231734,-33.322533,0.714475,-31.486051,-0.006454,-0.544037,0.847748,-0.557564,0.037567,-0.130181,58.700134,53.654343,-134.493378,,,
729706695.233649,-33.322524,0.714516,112.424141,-0.006454,-0.544037,0.847748,-0.557564,0.037567,-0.130181,58.700134,53.654343,-134.493378,,,
729706695.234444,-33.322533,0.714475,-31.486051,-0.006454,-0.544037,0.847748,-0.557564,0.037567,-0.130181,58.700134,53.654343,-134.493378,,,
729706695.236969,-33.482794,0.70568,112.38479,-0.01152,-0.548859,0.84433,-0.556784,0.049689,-0.119802,58.700134,53.654343,-134.493378,,,
729706695.239137,-33.482804,0.705638,-31.5254,-0.01152,-0.548859,0.84433,-0.556784,0.049689,-0.119802,58.700134,53.654343,-134.493378,,,
729706695.2403,-33.643357,0.700011,112.347705,-0.01152,-0.548859,0.84433,-0.556784,0.049689,-0.119802,58.700134,53.654343,-134.493378,,,
729706695.241943,-33.643366,0.699969,-31.562485,-0.01152,-0.548859,0.84433,-0.556784,0.049689,-0.119802,58.700134,53.654343,-134.493378,,,
729706695.243636,-33.643357,0.700011,112.347705,-0.01152,-0.548859,0.84433,-0.556784,0.049689,-0.119802,58.700134,53.654343,-134.493378,,,
729706695.244443,-33.643366,0.699969,-31.562485,-0.01152,-0.548859,0.84433,-0.556784,0.049689,-0.119802,58.700134,53.654343,-134.493378,,,
729706695.246953,-33.804005,0.696162,112.3125,-0.007111,-0.551605,0.840012,-0.557335,0.055705,-0.108342,58.700134,53.654343,-134.493378,,,
729706695.248741,-33.804015,0.696121,-31.597695,-0.007111,-0.551605,0.840012,-0.557335,0.055705,-0.108342,58.700134,53.654343,-134.493378,,,
729706695.250296,-33.965033,0.692369,112.278316,-0.007111,-0.551605,0.840012,-0.557335,0.055705,-0.108342,58.722412,54.362701,-133.788437,,,
729706695.25257,-33.965042,0.692327,-31.631875,-0.007111,-0.551605,0.840012,-0.557335,0.055705,-0.108342,58.722412,54.362701,-133.788437,,,
729706695.253664,-33.965033,0.692369,112.278316,-0.007111,-0.551605,0.840012,-0.557335,0.055705,-0.108342,58.722412,54.362701,-133.788437,,,
729706695.25444,-33.965042,0.692327,-31.631875,-0.007111,-0.551605,0.840012,-0.557335,0.055705,-0.108342,58.722412,54.362701,-133.788437,,,
729706695.256957,-34.126537,0.688907,112.244081,-0.001984,-0.552948,0.836121,-0.560873,0.058843,-0.1083,58.722412,54.362701,-133.788437,,,
729706695.258544,-34.126546,0.688865,-31.666119,-0.001984,-0.552948,0.836121,-0.560873,0.058843,-0.1083,58.722412,54.362701,-133.788437,,,
729706695.260297,-34.28766,0.68477,112.208906,-0.001984,-0.552948,0.836121,-0.560873,0.058843,-0.1083,58.722412,54.362701,-133.788437,,,
729706695.261953,-34.287669,0.684728,-31.701297,-0.001984,-0.552948,0.836121,-0.560873,0.058843,-0.1083,58.722412,54.362701,-133.788437,,,
729706695.263631,-34.28766,0.68477,112.208906,-0.001984,-0.552948,0.836121,-0.560873,0.058843,-0.1083,58.722412,54.362701,-133.788437,,,
729706695.26444,-34.287669,0.684728,-31.701297,-0.001984,-0.552948,0.836121,-0.560873,0.058843,-0.1083,58.722412,54.362701,-133.788437,,,
729706695.266954,-34.447796,0.679362,112.172684,-0.002075,-0.55574,0.831421,-0.553962,0.054686,-0.11377,58.722412,54.362701,-133.788437,,,
729706695.269105,-34.447806,0.67932,-31.73752,-0.002075,-0.55574,0.831421,-0.553962,0.054686,-0.11377,58.722412,54.362701,-133.788437,,,
729706695.270302,-34.606996,0.672955,112.135051,-0.002075,-0.55574,0.831421,-0.553962,0.054686,-0.11377,58.722412,54.362701,-133.788437,,,
729706695.271917,-34.607006,0.672913,-31.775148,-0.002075,-0.55574,0.831421,-0.553962,0.054686,-0.11377,58.722412,54.362701,-133.788437,,,
729706695.273647,-34.606996,0.672955,112.135051,-0.002075,-0.55574,0.831421,-0.553962,0.054686,-0.11377,58.722412,54.362701,-133.788437,,,
729706695.274436,-34.607006,0.672913,-31.775148,-0.002075,-0.55574,0.831421,-0.553962,0.054686,-0.11377,58.722412,54.362701,-133.788437,,,
729706695.277034,-34.76564,0.665885,112.095766,-0.001724,-0.55983,0.826172,-0.54981,0.057216,-0.122603,58.722412,54.362701,-133.788437,,,
729706695.278704,-34.765649,0.665843,-31.814431,-0.001724,-0.55983,0.826172,-0.54981,0.057216,-0.122603,58.722412,54.362701,-133.788437,,,
729706695.280297,-34.923107,0.657644,112.055147,-0.001724,-0.55983,0.826172,-0.54981,0.057216,-0.122603,58.722412,54.362701,-133.788437,,,
729706695.281924,-34.923116,0.657602,-31.855057,-0.001724,-0.55983,0.826172,-0.54981,0.057216,-0.122603,58.722412,54.362701,-133.788437,,,
729706695.283644,-34.923107,0.657644,112.055147,-0.001724,-0.55983,0.826172,-0.54981,0.057216,-0.122603,58.722412,54.362701,-133.788437,,,
729706695.284436,-34.923116,0.657602,-31.855057,-0.001724,-0.55983,0.826172,-0.54981,0.057216,-0.122603,58.722412,54.362701,-133.788437,,,
729706695.28697,-35.079314,0.647334,112.013666,-0.008087,-0.566315,0.81871,-0.541017,0.046908,-0.126817,58.722412,54.362701,-133.788437,,,
729706695.289779,-35.079324,0.647292,-31.896548,-0.008087,-0.566315,0.81871,-0.541017,0.046908,-0.126817,58.722412,54.362701,-133.788437,,,
729706695.290296,-35.234811,0.635068,111.971587,-0.008087,-0.566315,0.81871,-0.541017,0.046908,-0.126817,58.722412,54.362701,-133.788437,,,
729706695.292535,-35.23482,0.635026,-31.938627,-0.008087,-0.566315,0.81871,-0.541017,0.046908,-0.126817,58.597488,55.27504,-133.014648,,,
729706695.293635,-35.234811,0.635068,111.971587,-0.008087,-0.566315,0.81871,-0.541017,0.046908,-0.126817,58.597488,55.27504,-133.014648,,,
729706695.294439,-35.23482,0.635026,-31.938627,-0.008087,-0.566315,0.81871,-0.541017,0.046908,-0.126817,58.597488,55.27504,-133.014648,,,
729706695.296954,-35.389358,0.621471,111.929127,-0.012253,-0.570908,0.813004,-0.534243,0.039827,-0.128172,58.597488,55.27504,-133.014648,,,
729706695.299168,-35.389367,0.621428,-31.981086,-0.012253,-0.570908,0.813004,-0.534243,0.039827,-0.128172,58.597488,55.27504,-133.014648,,,
729706695.300333,-35.542736,0.607493,111.887031,-0.012253,-0.570908,0.813004,-0.534243,0.039827,-0.128172,58.597488,55.27504,-133.014648,,,
729706695.302056,-35.542745,0.607451,-32.023184,-0.012253,-0.570908,0.813004,-0.534243,0.039827,-0.128172,58.597488,55.27504,-133.014648,,,
729706695.303724,-35.542736,0.607493,111.887031,-0.012253,-0.570908,0.813004,-0.534243,0.039827,-0.128172,58.597488,55.27504,-133.014648,,,
729706695.304444,-35.542745,0.607451,-32.023184,-0.012253,-0.570908,0.813004,-0.534243,0.039827,-0.128172,58.597488,55.27504,-133.014648,,,
729706695.306984,-35.69576,0.593888,111.845496,-0.01149,-0.573257,0.808426,-0.532111,0.040799,-0.124269,58.597488,55.27504,-133.014648,,,
729706695.30894,-35.695769,0.593845,-32.064716,-0.01149,-0.573257,0.808426,-0.532111,0.040799,-0.124269,58.597488,55.27504,-133.014648,,,
729706695.310382,-35.848658,0.581925,111.804983,-0.01149,-0.573257,0.808426,-0.532111,0.040799,-0.124269,58.597488,55.27504,-133.014648,,,
729706695.311988,-35.848667,0.581882,-32.105218,-0.01149,-0.573257,0.808426,-0.532111,0.040799,-0.124269,58.597488,55.27504,-133.014648,,,
729706695.313686,-35.848658,0.581925,111.804983,-0.01149,-0.573257,0.808426,-0.532111,0.040799,-0.124269,58.597488,55.27504,-133.014648,,,
729706695.314467,-35.848667,0.581882,-32.105218,-0.01149,-0.573257,0.808426,-0.532111,0.040799,-0.124269,58.597488,55.27504,-133.014648,,,
729706695.31693,-36.001306,0.572863,111.766014,-0.010391,-0.573257,0.805984,-0.530507,0.055338,-0.114925,58.597488,55.27504,-133.014648,,,
729706695.318445,-36.001315,0.57282,-32.144186,-0.010391,-0.573257,0.805984,-0.530507,0.055338,-0.114925,58.597488,55.27504,-133.014648,,,
729706695.320338,-36.153631,0.567159,111.728933,-0.010391,-0.573257,0.805984,-0.530507,0.055338,-0.114925,58.597488,55.27504,-133.014648,,,
729706695.32159,-36.15364,0.567116,-32.181264,-0.010391,-0.573257,0.805984,-0.530507,0.055338,-0.114925,58.597488,55.27504,-133.014648,,,
729706695.323643,-36.153631,0.567159,111.728933,-0.010391,-0.573257,0.805984,-0.530507,0.055338,-0.114925,58.597488,55.27504,-133.014648,,,
729706695.324442,-36.15364,0.567116,-32.181264,-0.010391,-0.573257,0.805984,-0.530507,0.055338,-0.114925,58.597488,55.27504,-133.014648,,,
729706695.327054,-36.305724,0.564923,111.694561,-0.01178,-0.578003,0.807144,-0.528839,0.068909,-0.099212,58.597488,55.27504,-133.014648,,,
729706695.32933,-36.305734,0.56488,-32.215645,-0.01178,-0.578003,0.807144,-0.528839,0.068909,-0.099212,58.597488,55.27504,-133.014648,,,
729706695.33043,-36.457965,0.564583,111.663255,-0.01178,-0.578003,0.807144,-0.528839,0.068909,-0.099212,58.597488,55.27504,-133.014648,,,
729706695.331666,-36.457975,0.56454,-32.246951,-0.01178,-0.578003,0.807144,-0.528839,0.068909,-0.099212,58.597488,55.27504,-133.014648,,,
729706695.333677,-36.457965,0.564583,111.663255,-0.01178,-0.578003,0.807144,-0.528839,0.068909,-0.099212,58.607803,55.819702,-132.376099,,,
729706695.335254,-36.457975,0.56454,-32.246951,-0.01178,-0.578003,0.807144,-0.528839,0.068909,-0.099212,58.607803,55.819702,-132.376099,,,
729706695.336977,-36.609562,0.564299,111.634948,-0.015747,-0.587677,0.80307,-0.524759,0.057328,-0.082021,58.607803,55.819702,-132.376099,,,
729706695.339551,-36.609571,0.564256,-32.275255,-0.015747,-0.587677,0.80307,-0.524759,0.057328,-0.082021,58.607803,55.819702,-132.376099,,,
729706695.340307,-36.760223,0.563966,111.609314,-0.015747,-0.587677,0.80307,-0.524759,0.057328,-0.082021,58.607803,55.819702,-132.376099,,,
729706695.341651,-36.760233,0.563922,-32.300887,-0.015747,-0.587677,0.80307,-0.524759,0.057328,-0.082021,58.607803,55.819702,-132.376099,,,
729706695.343731,-36.760223,0.563966,111.609314,-0.015747,-0.587677,0.80307,-0.524759,0.057328,-0.082021,58.607803,55.819702,-132.376099,,,
729706695.344518,-36.760233,0.563922,-32.300887,-0.015747,-0.587677,0.80307,-0.524759,0.057328,-0.082021,58.607803,55.819702,-132.376099,,,
729706695.346972,-36.910185,0.56491,111.586525,-0.01799,-0.596466,0.799454,-0.520048,0.054734,-0.065814,58.607803,55.819702,-132.376099,,,
729706695.34908,-36.910194,0.564867,-32.323677,-0.01799,-0.596466,0.799454,-0.520048,0.054734,-0.065814,58.607803,55.819702,-132.376099,,,
729706695.350338,-37.059451,0.568038,111.566011,-0.01799,-0.596466,0.799454,-0.520048,0.054734,-0.065814,58.607803,55.819702,-132.376099,,,
729706695.352075,-37.05946,0.567995,-32.344187,-0.01799,-0.596466,0.799454,-0.520048,0.054734,-0.065814,58.607803,55.819702,-132.376099,,,
729706695.353727,-37.059451,0.568038,111.566011,-0.01799,-0.596466,0.799454,-0.520048,0.054734,-0.065814,58.607803,55.819702,-132.376099,,,
729706695.354446,-37.05946,0.567995,-32.344187,-0.01799,-0.596466,0.799454,-0.520048,0.054734,-0.065814,58.607803,55.819702,-132.376099,,,
729706695.356992,-37.207635,0.573327,111.546309,-0.013336,-0.59697,0.803009,-0.512301,0.066714,-0.061146,58.607803,55.819702,-132.376099,,,
729706695.359389,-37.207645,0.573284,-32.3639,-0.013336,-0.59697,0.803009,-0.512301,0.066714,-0.061146,58.607803,55.819702,-132.376099,,,
729706695.36043,-37.354135,0.580069,111.526595,-0.013336,-0.59697,0.803009,-0.512301,0.066714,-0.061146,58.607803,55.819702,-132.376099,,,
729706695.36217,-37.354144,0.580026,-32.383617,-0.013336,-0.59697,0.803009,-0.512301,0.066714,-0.061146,58.607803,55.819702,-132.376099,,,
729706695.363679,-37.354135,0.580069,111.526595,-0.013336,-0.59697,0.803009,-0.512301,0.066714,-0.061146,58.607803,55.819702,-132.376099,,,
729706695.364443,-37.354144,0.580026,-32.383617,-0.013336,-0.59697,0.803009,-0.512301,0.066714,-0.061146,58.607803,55.819702,-132.376099,,,
729706695.36706,-37.498423,0.587285,111.506496,-0.009018,-0.597717,0.802841,-0.497091,0.071938,-0.063035,58.607803,55.819702,-132.376099,,,
729706695.368871,-37.498433,0.587241,-32.403713,-0.009018,-0.597717,0.802841,-0.497091,0.071938,-0.063035,58.607803,55.819702,-132.376099,,,
729706695.37031,-37.640287,0.59584,111.48652,-0.009018,-0.597717,0.802841,-0.497091,0.071938,-0.063035,58.607803,55.819702,-132.376099,,,
729706695.371967,-37.640297,0.595796,-32.423693,-0.009018,-0.597717,0.802841,-0.497091,0.071938,-0.063035,58.607803,55.819702,-132.376099,,,
729706695.373631,-37.640287,0.59584,111.48652,-0.009018,-0.597717,0.802841,-0.497091,0.071938,-0.063035,58.627884,56.430954,-131.906204,,,
729706695.375161,-37.640297,0.595796,-32.423693,-0.009018,-0.597717,0.802841,-0.497091,0.071938,-0.063035,58.627884,56.430954,-131.906204,,,
729706695.377069,-37.77918,0.604955,111.466313,-0.010742,-0.599716,0.801468,-0.476419,0.077103,-0.064067,58.627884,56.430954,-131.906204,,,
729706695.378915,-37.77919,0.604911,-32.443896,-0.010742,-0.599716,0.801468,-0.476419,0.077103,-0.064067,58.627884,56.430954,-131.906204,,,
729706695.38039,-37.915365,0.613808,111.444962,-0.010742,-0.599716,0.801468,-0.476419,0.077103,-0.064067,58.627884,56.430954,-131.906204,,,
729706695.381961,-37.915375,0.613764,-32.465247,-0.010742,-0.599716,0.801468,-0.476419,0.077103,-0.064067,58.627884,56.430954,-131.906204,,,
729706695.383657,-37.915365,0.613808,111.444962,-0.010742,-0.599716,0.801468,-0.476419,0.077103,-0.064067,58.627884,56.430954,-131.906204,,,
729706695.384438,-37.915375,0.613764,-32.465247,-0.010742,-0.599716,0.801468,-0.476419,0.077103,-0.064067,58.627884,56.430954,-131.906204,,,
729706695.386959,-38.049702,0.622247,111.422185,-0.011124,-0.604462,0.800003,-0.463256,0.080582,-0.07165,58.627884,56.430954,-131.906204,,,
729706695.389035,-38.049712,0.622203,-32.488027,-0.011124,-0.604462,0.800003,-0.463256,0.080582,-0.07165,58.627884,56.430954,-131.906204,,,
729706695.390409,-38.181717,0.628953,111.397911,-0.011124,-0.604462,0.800003,-0.463256,0.080582,-0.07165,58.627884,56.430954,-131.906204,,,
729706695.392023,-38.181727,0.628909,-32.512298,-0.011124,-0.604462,0.800003,-0.463256,0.080582,-0.07165,58.627884,56.430954,-131.906204,,,
729706695.393647,-38.181717,0.628953,111.397911,-0.011124,-0.604462,0.800003,-0.463256,0.080582,-0.07165,58.627884,56.430954,-131.906204,,,
729706695.394489,-38.181727,0.628909,-32.512298,-0.011124,-0.604462,0.800003,-0.463256,0.080582,-0.07165,58.627884,56.430954,-131.906204,,,
729706695.39698,-38.311715,0.633695,111.372486,-0.008728,-0.609985,0.794006,-0.449293,0.072236,-0.07769,58.627884,56.430954,-131.906204,,,
729706695.399371,-38.311725,0.633651,-32.537727,-0.008728,-0.609985,0.794006,-0.449293,0.072236,-0.07769,58.627884,56.430954,-131.906204,,,
729706695.400356,-38.440355,0.636933,111.346098,-0.008728,-0.609985,0.794006,-0.449293,0.072236,-0.07769,58.627884,56.430954,-131.906204,,,
729706695.401931,-38.440365,0.636888,-32.564114,-0.008728,-0.609985,0.794006,-0.449293,0.072236,-0.07769,58.627884,56.430954,-131.906204,,,
729706695.403629,-38.440355,0.636933,111.346098,-0.008728,-0.609985,0.794006,-0.449293,0.072236,-0.07769,58.627884,56.430954,-131.906204,,,
729706695.40444,-38.440365,0.636888,-32.564114,-0.008728,-0.609985,0.794006,-0.449293,0.072236,-0.07769,58.627884,56.430954,-131.906204,,,
729706695.406958,-38.56707,0.63827,111.318859,-0.010162,-0.616516,0.791153,-0.435827,0.063021,-0.081943,58.627884,56.430954,-131.906204,,,
729706695.40895,-38.567079,0.638225,-32.591355,-0.010162,-0.616516,0.791153,-0.435827,0.063021,-0.081943,58.627884,56.430954,-131.906204,,,
729706695.410414,-38.691445,0.636592,111.290401,-0.010162,-0.616516,0.791153,-0.435827,0.063021,-0.081943,58.627884,56.430954,-131.906204,,,
729706695.411814,-38.691454,0.636548,-32.61981,-0.010162,-0.616516,0.791153,-0.435827,0.063021,-0.081943,58.627884,56.430954,-131.906204,,,
729706695.413704,-38.691445,0.636592,111.290401,-0.010162,-0.616516,0.791153,-0.435827,0.063021,-0.081943,58.627884,56.430954,-131.906204,,,
729706695.41512,-38.691454,0.636548,-32.61981,-0.010162,-0.616516,0.791153,-0.435827,0.063021,-0.081943,58.553909,57.019669,-130.893829,,,
729706695.417052,-38.813711,0.63134,111.26011,-0.011108,-0.621552,0.787506,-0.420861,0.046443,-0.091386,58.553909,57.019669,-130.893829,,,
729706695.419246,-38.813721,0.631296,-32.650108,-0.011108,-0.621552,0.787506,-0.420861,0.046443,-0.091386,58.553909,57.019669,-130.893829,,,
729706695.420365,-38.933678,0.623113,111.228229,-0.011108,-0.621552,0.787506,-0.420861,0.046443,-0.091386,58.553909,57.019669,-130.893829,,,
729706695.421928,-38.933688,0.623068,-32.681995,-0.011108,-0.621552,0.787506,-0.420861,0.046443,-0.091386,58.553909,57.019669,-130.893829,,,
729706695.423718,-38.933678,0.623113,111.228229,-0.011108,-0.621552,0.787506,-0.420861,0.046443,-0.091386,58.553909,57.019669,-130.893829,,,
729706695.424432,-38.933688,0.623068,-32.681995,-0.011108,-0.621552,0.787506,-0.420861,0.046443,-0.091386,58.553909,57.019669,-130.893829,,,
729706695.427004,-39.050897,0.611399,111.194841,-0.012222,-0.626404,0.786087,-0.401839,0.029129,-0.098946,58.553909,57.019669,-130.893829,,,
729706695.429576,-39.050907,0.611354,-32.715383,-0.012222,-0.626404,0.786087,-0.401839,0.029129,-0.098946,58.553909,57.019669,-130.893829,,,
729706695.430437,-39.165462,0.595771,111.15989,-0.012222,-0.626404,0.786087,-0.401839,0.029129,-0.098946,58.553909,57.019669,-130.893829,,,
729706695.432036,-39.165472,0.595726,-32.750336,-0.012222,-0.626404,0.786087,-0.401839,0.029129,-0.098946,58.553909,57.019669,-130.893829,,,
729706695.433664,-39.165462,0.595771,111.15989,-0.012222,-0.626404,0.786087,-0.401839,0.029129,-0.098946,58.553909,57.019669,-130.893829,,,
729706695.434441,-39.165472,0.595726,-32.750336,-0.012222,-0.626404,0.786087,-0.401839,0.029129,-0.098946,58.553909,57.019669,-130.893829,,,
729706695.436991,-39.277699,0.576897,111.12343,-0.012207,-0.62825,0.784393,-0.385641,0.013523,-0.106335,58.553909,57.019669,-130.893829,,,
729706695.439434,-39.277709,0.576852,-32.786787,-0.012207,-0.62825,0.784393,-0.385641,0.013523,-0.106335,58.553909,57.019669,-130.893829,,,
729706695.440354,-39.38773,0.55543,111.085719,-0.012207,-0.62825,0.784393,-0.385641,0.013523,-0.106335,58.553909,57.019669,-130.893829,,,
729706695.441957,-39.387739,0.555385,-32.824479,-0.012207,-0.62825,0.784393,-0.385641,0.013523,-0.106335,58.553909,57.019669,-130.893829,,,
729706695.443731,-39.38773,0.55543,111.085719,-0.012207,-0.62825,0.784393,-0.385641,0.013523,-0.106335,58.553909,57.019669,-130.893829,,,
729706695.444459,-39.387739,0.555385,-32.824479,-0.012207,-0.62825,0.784393,-0.385641,0.013523,-0.106335,58.553909,57.019669,-130.893829,,,
729706695.446961,-39.495432,0.532847,111.04747,-0.010895,-0.634171,0.786224,-0.369564,0.008584,-0.10861,58.553909,57.019669,-130.893829,,,
729706695.449108,-39.495441,0.532802,-32.862729,-0.010895,-0.634171,0.786224,-0.369564,0.008584,-0.10861,58.553909,57.019669,-130.893829,,,
729706695.45036,-39.600745,0.509396,111.009652,-0.010895,-0.634171,0.786224,-0.369564,0.008584,-0.10861,58.553909,57.019669,-130.893829,,,
729706695.451932,-39.600754,0.509351,-32.900549,-0.010895,-0.634171,0.786224,-0.369564,0.008584,-0.10861,58.553909,57.019669,-130.893829,,,
729706695.453627,-39.600745,0.509396,111.009652,-0.010895,-0.634171,0.786224,-0.369564,0.008584,-0.10861,58.553909,57.019669,-130.893829,,,
729706695.454484,-39.600754,0.509351,-32.900549,-0.010895,-0.634171,0.786224,-0.369564,0.008584,-0.10861,58.553909,57.019669,-130.893829,,,
729706695.456954,-39.703751,0.484564,110.973484,-0.012192,-0.642197,0.785782,-0.353679,-0.008003,-0.098991,58.398758,57.558014,-130.808807,,,
729706695.461545,-39.703761,0.484519,-32.936712,-0.012192,-0.642197,0.785782,-0.353679,-0.008003,-0.098991,58.398758,57.558014,-130.808807,,,
729706695.462083,-39.804788,0.459557,110.939628,-0.012192,-0.642197,0.785782,-0.353679,-0.008003,-0.098991,58.398758,57.558014,-130.808807,,,
729706695.463499,-39.804788,0.459557,110.939628,-0.012192,-0.642197,0.785782,-0.353679,-0.008003,-0.098991,58.398758,57.558014,-130.808807,,,
729706695.465843,-39.804798,0.459512,-32.970567,-0.012192,-0.642197,0.785721,-0.337166,-0.010063,-0.081823,58.398758,57.558014,-130.808807,,,
729706695.467038,-39.903449,0.436176,110.908846,-0.013184,-0.650467,0.785721,-0.337166,-0.010063,-0.081823,58.398758,57.558014,-130.808807,,,
729706695.468818,-39.903458,0.436131,-33.001352,-0.013184,-0.650467,0.785721,-0.337166,-0.010063,-0.081823,58.398758,57.558014,-130.808807,,,
729706695.470398,-39.999629,0.415741,110.881581,-0.013184,-0.650467,0.785721,-0.337166,-0.010063,-0.081823,58.398758,57.558014,-130.808807,,,
729706695.472054,-39.999639,0.415696,-33.028621,-0.013184,-0.650467,0.785721,-0.337166,-0.010063,-0.081823,58.398758,57.558014,-130.808807,,,
729706695.473658,-39.999629,0.415741,110.881581,-0.013184,-0.650467,0.785721,-0.337166,-0.010063,-0.081823,58.398758,57.558014,-130.808807,,,
729706695.474556,-39.999639,0.415696,-33.028621,-0.013184,-0.650467,0.785721,-0.337166,-0.010063,-0.081823,58.398758,57.558014,-130.808807,,,
729706695.476976,-40.093103,0.399113,110.858088,-0.013046,-0.654831,0.787811,-0.318654,-0.000204,-0.061158,58.398758,57.558014,-130.808807,,,
729706695.479379,-40.093113,0.399068,-33.05211,-0.013046,-0.654831,0.787811,-0.318654,-0.000204,-0.061158,58.398758,57.558014,-130.808807,,,
729706695.480308,-40.093103,0.399113,110.838067,-0.013046,-0.654831,0.787811,-0.318654,-0.000204,-0.061158,58.398758,57.558014,-130.808807,,,
729706695.482158,-40.18377,0.386135,-33.07213,-0.013046,-0.654831,0.787811,-0.318654,-0.000204,-0.061158,58.398758,57.558014,-130.808807,,,
729706695.483637,-40.183761,0.38618,110.838067,-0.013046,-0.654831,0.787811,-0.318654,-0.000204,-0.061158,58.398758,57.558014,-130.808807,,,
729706695.484446,-40.18377,0.386135,-33.07213,-0.013046,-0.654831,0.787811,-0.318654,-0.000204,-0.061158,58.398758,57.558014,-130.808807,,,
729706695.487002,-40.27125,0.376994,110.820548,-0.008026,-0.656876,0.785919,-0.296693,0.014802,-0.047411,58.398758,57.558014,-130.808807,,,
729706695.490609,-40.27126,0.376948,-33.089646,-0.008026,-0.656876,0.785919,-0.296693,0.014802,-0.047411,58.398758,57.558014,-130.808807,,,
729706695.4909,-40.35508,0.371344,110.804865,-0.008026,-0.656876,0.785919,-0.296693,0.014802,-0.047411,58.398758,57.558014,-130.808807,,,
729706695.492109,-40.35509,0.371298,-33.105355,-0.008026,-0.656876,0.785919,-0.296693,0.014802,-0.047411,58.398758,57.558014,-130.808807,,,
729706695.493749,-40.35508,0.371344,110.804865,-0.008026,-0.656876,0.785919,-0.296693,0.014802,-0.047411,58.398758,57.558014,-130.808807,,,
729706695.494476,-40.35509,0.371298,-33.105355,-0.008026,-0.656876,0.785919,-0.296693,0.014802,-0.047411,58.398758,57.558014,-130.808807,,,
729706695.496976,-40.435631,0.369049,110.791013,-0.004074,-0.657898,0.787064,-0.273827,0.029977,-0.037238,58.423965,58.167877,-130.146988,,,
729706695.499873,-40.435641,0.369004,-33.119207,-0.004074,-0.657898,0.787064,-0.273827,0.029977,-0.037238,58.423965,58.167877,-130.146988,,,
729706695.500311,-40.435631,0.369049,110.791013,-0.004074,-0.657898,0.787064,-0.273827,0.029977,-0.037238,58.423965,58.167877,-130.146988,,,
729706695.501762,-40.512594,0.370021,-33.131744,-0.004074,-0.657898,0.787064,-0.273827,0.029977,-0.037238,58.423965,58.167877,-130.146988,,,
729706695.503681,-40.512584,0.370066,110.778467,-0.004074,-0.657898,0.787064,-0.273827,0.029977,-0.037238,58.423965,58.167877,-130.146988,,,
729706695.504451,-40.512594,0.370021,-33.131744,-0.004074,-0.657898,0.787064,-0.273827,0.029977,-0.037238,58.423965,58.167877,-130.146988,,,
729706695.506962,-40.586751,0.374312,110.767587,6.1e-05,-0.653763,0.783051,-0.254587,0.045044,-0.028224,58.423965,58.167877,-130.146988,,,
729706695.51126,-40.586761,0.374266,-33.142613,6.1e-05,-0.653763,0.783051,-0.254587,0.045044,-0.028224,58.423965,58.167877,-130.146988,,,
729706695.511806,-40.659043,0.381486,110.757807,6.1e-05,-0.653763,0.783051,-0.254587,0.045044,-0.028224,58.423965,58.167877,-130.146988,,,
729706695.513626,-40.659043,0.381486,110.757807,6.1e-05,-0.653763,0.783051,-0.254587,0.045044,-0.028224,58.423965,58.167877,-130.146988,,,
729706695.515484,-40.659053,0.38144,-33.152395,6.1e-05,-0.653763,0.783051,-0.254587,0.045044,-0.028224,58.423965,58.167877,-130.146988,,,
729706695.516982,-40.729471,0.390993,110.748799,0.000458,-0.649582,0.776093,-0.241572,0.057905,-0.024076,58.423965,58.167877,-130.146988,,,
729706695.519253,-40.729481,0.390947,-33.16141,0.000458,-0.649582,0.776093,-0.241572,0.057905,-0.024076,58.423965,58.167877,-130.146988,,,
729706695.520317,-40.729471,0.390993,110.748799,0.000458,-0.649582,0.776093,-0.241572,0.057905,-0.024076,58.423965,58.167877,-130.146988,,,
729706695.521993,-40.798427,0.403579,-33.16886,0.000458,-0.649582,0.776093,-0.241572,0.057905,-0.024076,58.423965,58.167877,-130.146988,,,
729706695.523653,-40.798417,0.403625,110.741353,0.000458,-0.649582,0.776093,-0.241572,0.057905,-0.024076,58.423965,58.167877,-130.146988,,,
729706695.524445,-40.798427,0.403579,-33.16886,0.000458,-0.649582,0.776093,-0.241572,0.057905,-0.024076,58.423965,58.167877,-130.146988,,,
729706695.526973,-40.866547,0.420735,110.735353,0.000244,-0.648361,0.771652,-0.235813,0.082599,-0.016519,58.423965,58.167877,-130.146988,,,
729706695.529004,-40.866557,0.420689,-33.174868,0.000244,-0.648361,0.771652,-0.235813,0.082599,-0.016519,58.423965,58.167877,-130.146988,,,
729706695.530396,-40.866547,0.420735,110.735353,0.000244,-0.648361,0.771652,-0.235813,0.082599,-0.016519,58.423965,58.167877,-130.146988,,,
729706695.532039,-40.935118,0.442542,-33.17869,0.000244,-0.648361,0.771652,-0.235813,0.082599,-0.016519,58.423965,58.167877,-130.146988,,,
729706695.533668,-40.935108,0.442588,110.731537,0.000244,-0.648361,0.771652,-0.235813,0.082599,-0.016519,58.423965,58.167877,-130.146988,,,
729706695.534459,-40.935118,0.442542,-33.17869,0.000244,-0.648361,0.771652,-0.235813,0.082599,-0.016519,58.423965,58.167877,-130.146988,,,
729706695.536971,-41.005394,0.468245,110.730023,0.000748,-0.650955,0.764328,-0.248071,0.098619,-0.004644,58.402557,58.306122,-130.05423,,,
729706695.53981,-41.005404,0.468199,-33.18019,0.000748,-0.650955,0.764328,-0.248071,0.098619,-0.004644,58.402557,58.306122,-130.05423,,,
729706695.540303,-41.005394,0.468245,110.730023,0.000748,-0.650955,0.764328,-0.248071,0.098619,-0.004644,58.402557,58.306122,-130.05423,,,
729706695.541773,-41.079188,0.4975,-33.179529,0.000748,-0.650955,0.764328,-0.248071,0.098619,-0.004644,58.402557,58.306122,-130.05423,,,
729706695.543694,-41.079178,0.497546,110.730689,0.000748,-0.650955,0.764328,-0.248071,0.098619,-0.004644,58.402557,58.306122,-130.05423,,,
729706695.544507,-41.079188,0.4975,-33.179529,0.000748,-0.650955,0.764328,-0.248071,0.098619,-0.004644,58.402557,58.306122,-130.05423,,,
729706695.546982,-41.156877,0.530774,110.733918,-0.001724,-0.656113,0.752747,-0.275474,0.11423,0.008297,58.402557,58.306122,-130.05423,,,
729706695.551787,-41.156887,0.530728,-33.176304,-0.001724,-0.656113,0.752747,-0.275474,0.11423,0.008297,58.402557,58.306122,-130.05423,,,
729706695.552098,-41.23812,0.567961,110.739782,-0.001724,-0.656113,0.752747,-0.275474,0.11423,0.008297,58.402557,58.306122,-130.05423,,,
729706695.553505,-41.23812,0.567961,110.739782,-0.001724,-0.656113,0.752747,-0.275474,0.11423,0.008297,58.402557,58.306122,-130.05423,,,
729706695.555401,-41.23813,0.567915,-33.170427,-0.001724,-0.656113,0.752747,-0.275474,0.11423,0.008297,58.402557,58.306122,-130.05423,,,
729706695.556968,-41.323594,0.608118,110.746985,-0.004593,-0.656876,0.748596,-0.304839,0.12875,0.014503,58.402557,58.306122,-130.05423,,,
729706695.559096,-41.323604,0.608071,-33.163232,-0.004593,-0.656876,0.748596,-0.304839,0.12875,0.014503,58.402557,58.306122,-130.05423,,,
729706695.560302,-41.323594,0.608118,110.746985,-0.004593,-0.656876,0.748596,-0.304839,0.12875,0.014503,58.402557,58.306122,-130.05423,,,
729706695.561752,-41.412761,0.649742,-33.155163,-0.004593,-0.656876,0.748596,-0.304839,0.12875,0.014503,58.402557,58.306122,-130.05423,,,
729706695.563648,-41.412751,0.649788,110.755051,-0.004593,-0.656876,0.748596,-0.304839,0.12875,0.014503,58.402557,58.306122,-130.05423,,,
729706695.564438,-41.412761,0.649742,-33.155163,-0.004593,-0.656876,0.748596,-0.304839,0.12875,0.014503,58.402557,58.306122,-130.05423,,,
729706695.566953,-41.505631,0.691654,110.763031,-0.002472,-0.655228,0.741882,-0.330867,0.130548,0.013245,58.402557,58.306122,-130.05423,,,
729706695.5692,-41.505641,0.691607,-33.147197,-0.002472,-0.655228,0.741882,-0.330867,0.130548,0.013245,58.402557,58.306122,-130.05423,,,
729706695.57029,-41.505631,0.691654,110.763031,-0.002472,-0.655228,0.741882,-0.330867,0.130548,0.013245,58.402557,58.306122,-130.05423,,,
729706695.571966,-41.602414,0.733134,-33.139766,-0.002472,-0.655228,0.741882,-0.330867,0.130548,0.013245,58.402557,58.306122,-130.05423,,,
729706695.573648,-41.602404,0.73318,110.770462,-0.002472,-0.655228,0.741882,-0.330867,0.130548,0.013245,58.402557,58.306122,-130.05423,,,
729706695.574438,-41.602414,0.733134,-33.139766,-0.002472,-0.655228,0.741882,-0.330867,0.130548,0.013245,58.402557,58.306122,-130.05423,,,
729706695.57713,-41.702203,0.773817,110.777282,-0.004166,-0.652451,0.738098,-0.351958,0.127086,0.009346,58.402557,58.306122,-130.05423,,,
729706695.579757,-41.702212,0.77377,-33.132923,-0.004166,-0.652451,0.738098,-0.351958,0.127086,0.009346,58.695145,58.630234,-129.379089,,,
729706695.580336,-41.702203,0.773817,110.777282,-0.004166,-0.652451,0.738098,-0.351958,0.127086,0.009346,58.695145,58.630234,-129.379089,,,
729706695.58174,-41.804912,0.81229,-33.127974,-0.004166,-0.652451,0.738098,-0.351958,0.127086,0.009346,58.695145,58.630234,-129.379089,,,
729706695.583642,-41.804902,0.812336,110.78222,-0.004166,-0.652451,0.738098,-0.351958,0.127086,0.009346,58.695145,58.630234,-129.379089,,,
729706695.584438,-41.804912,0.81229,-33.127974,-0.004166,-0.652451,0.738098,-0.351958,0.127086,0.009346,58.695145,58.630234,-129.379089,,,
729706695.586957,-41.910159,0.848513,110.784847,-0.004852,-0.650589,0.737503,-0.369342,0.121545,-0.00357,58.695145,58.630234,-129.379089,,,
729706695.590098,-41.910169,0.848466,-33.125376,-0.004852,-0.650589,0.737503,-0.369342,0.121545,-0.00357,58.695145,58.630234,-129.379089,,,
729706695.590371,-41.910159,0.848513,110.784847,-0.004852,-0.650589,0.737503,-0.369342,0.121545,-0.00357,58.695145,58.630234,-129.379089,,,
729706695.59181,-42.017777,0.881882,-33.125956,-0.004852,-0.650589,0.737503,-0.369342,0.121545,-0.00357,58.695145,58.630234,-129.379089,,,
729706695.593705,-42.017767,0.881928,110.78427,-0.004852,-0.650589,0.737503,-0.369342,0.121545,-0.00357,58.695145,58.630234,-129.379089,,,
729706695.594436,-42.017777,0.881882,-33.125956,-0.004852,-0.650589,0.737503,-0.369342,0.121545,-0.00357,58.695145,58.630234,-129.379089,,,
729706695.596957,-42.127314,0.912547,110.780291,6.1e-05,-0.65184,0.734802,-0.382574,0.117997,-0.021839,58.695145,58.630234,-129.379089,,,
729706695.600176,-42.127324,0.912501,-33.129942,6.1e-05,-0.65184,0.734802,-0.382574,0.117997,-0.021839,58.695145,58.630234,-129.379089,,,
729706695.600445,-42.127314,0.912547,110.780291,6.1e-05,-0.65184,0.734802,-0.382574,0.117997,-0.021839,58.695145,58.630234,-129.379089,,,
729706695.601913,-42.238555,0.939876,-33.137711,6.1e-05,-0.65184,0.734802,-0.382574,0.117997,-0.021839,58.695145,58.630234,-129.379089,,,
729706695.603658,-42.238545,0.939923,110.772519,6.1e-05,-0.65184,0.734802,-0.382574,0.117997,-0.021839,58.695145,58.630234,-129.379089,,,
729706695.60444,-42.238555,0.939876,-33.137711,6.1e-05,-0.65184,0.734802,-0.382574,0.117997,-0.021839,58.695145,58.630234,-129.379089,,,
729706695.606955,-42.3518,0.963346,110.760985,0.001022,-0.653885,0.730942,-0.396177,0.108143,-0.041718,58.695145,58.630234,-129.379089,,,
729706695.6092,-42.35181,0.963299,-33.149245,0.001022,-0.653885,0.730942,-0.396177,0.108143,-0.041718,58.695145,58.630234,-129.379089,,,
729706695.610337,-42.3518,0.963346,110.760985,0.001022,-0.653885,0.730942,-0.396177,0.108143,-0.041718,58.695145,58.630234,-129.379089,,,
729706695.61195,-42.467037,0.982863,-33.164134,0.001022,-0.653885,0.730942,-0.396177,0.108143,-0.041718,58.695145,58.630234,-129.379089,,,
729706695.613654,-42.467026,0.98291,110.746073,0.001022,-0.653885,0.730942,-0.396177,0.108143,-0.041718,58.695145,58.630234,-129.379089,,,
729706695.614439,-42.467037,0.982863,-33.164134,0.001022,-0.653885,0.730942,-0.396177,0.108143,-0.041718,58.695145,58.630234,-129.379089,,,
729706695.616958,-42.585125,0.998776,110.727209,0.000412,-0.656723,0.724396,-0.415918,0.101268,-0.062613,58.695145,58.630234,-129.379089,,,
729706695.620453,-42.585135,0.998729,-33.182993,0.000412,-0.656723,0.724396,-0.415918,0.101268,-0.062613,58.45903,59.253021,-129.092499,,,
729706695.62078,-42.706789,1.01095,110.704226,0.000412,-0.656723,0.724396,-0.415918,0.101268,-0.062613,58.45903,59.253021,-129.092499,,,
729706695.621883,-42.706799,1.010903,-33.205977,0.000412,-0.656723,0.724396,-0.415918,0.101268,-0.062613,58.45903,59.253021,-129.092499,,,
729706695.623668,-42.706789,1.01095,110.704226,0.000412,-0.656723,0.724396,-0.415918,0.101268,-0.062613,58.45903,59.253021,-129.092499,,,
729706695.624441,-42.706799,1.010903,-33.205977,0.000412,-0.656723,0.724396,-0.415918,0.101268,-0.062613,58.45903,59.253021,-129.092499,,,
729706695.626974,-42.8324,1.019572,110.677564,0.000275,-0.661148,0.722549,-0.44298,0.094269,-0.081928,58.45903,59.253021,-129.092499,,,
729706695.629282,-42.83241,1.019525,-33.232662,0.000275,-0.661148,0.722549,-0.44298,0.094269,-0.081928,58.45903,59.253021,-129.092499,,,
729706695.630358,-42.8324,1.019572,110.677564,0.000275,-0.661148,0.722549,-0.44298,0.094269,-0.081928,58.45903,59.253021,-129.092499,,,
729706695.631678,-42.962968,1.024896,-33.26246,0.000275,-0.661148,0.722549,-0.44298,0.094269,-0.081928,58.45903,59.253021,-129.092499,,,
729706695.633655,-42.962958,1.024943,110.647756,0.000275,-0.661148,0.722549,-0.44298,0.094269,-0.081928,58.45903,59.253021,-129.092499,,,
729706695.634441,-42.962968,1.024896,-33.26246,0.000275,-0.661148,0.722549,-0.44298,0.094269,-0.081928,58.45903,59.253021,-129.092499,,,
729706695.636965,-43.099602,1.027165,110.615224,3.1e-05,-0.665146,0.713745,-0.484921,0.085609,-0.096247,58.45903,59.253021,-129.092499,,,
729706695.639398,-43.099613,1.027117,-33.294981,3.1e-05,-0.665146,0.713745,-0.484921,0.085609,-0.096247,58.45903,59.253021,-129.092499,,,
729706695.640295,-43.099602,1.027165,110.615224,3.1e-05,-0.665146,0.713745,-0.484921,0.085609,-0.096247,58.45903,59.253021,-129.092499,,,
729706695.641724,-43.242318,1.02625,-33.330816,3.1e-05,-0.665146,0.713745,-0.484921,0.085609,-0.096247,58.45903,59.253021,-129.092499,,,
729706695.643699,-43.242308,1.026298,110.579408,3.1e-05,-0.665146,0.713745,-0.484921,0.085609,-0.096247,58.45903,59.253021,-129.092499,,,
729706695.644435,-43.242318,1.02625,-33.330816,3.1e-05,-0.665146,0.713745,-0.484921,0.085609,-0.096247,58.45903,59.253021,-129.092499,,,
729706695.64696,-43.391768,1.023425,110.541155,0.003143,-0.665924,0.705917,-0.53199,0.083755,-0.10893,58.45903,59.253021,-129.092499,,,
729706695.649228,-43.391778,1.023377,-33.369074,0.003143,-0.665924,0.705917,-0.53199,0.083755,-0.10893,58.45903,59.253021,-129.092499,,,
729706695.650298,-43.391768,1.023425,110.541155,0.003143,-0.665924,0.705917,-0.53199,0.083755,-0.10893,58.45903,59.253021,-129.092499,,,
729706695.651644,-43.549324,1.01939,-33.410011,0.003143,-0.665924,0.705917,-0.53199,0.083755,-0.10893,58.45903,59.253021,-129.092499,,,
729706695.653624,-43.549314,1.019438,110.50022,0.003143,-0.665924,0.705917,-0.53199,0.083755,-0.10893,58.45903,59.253021,-129.092499,,,
729706695.654436,-43.549324,1.01939,-33.410011,0.003143,-0.665924,0.705917,-0.53199,0.083755,-0.10893,58.45903,59.253021,-129.092499,,,
729706695.657046,-43.715367,1.014593,110.455278,0.009842,-0.666168,0.69986,-0.590938,0.097609,-0.129536,58.45903,59.253021,-129.092499,,,
729706695.660279,-43.715377,1.014545,-33.454947,0.009842,-0.666168,0.69986,-0.590938,0.097609,-0.129536,58.706421,59.816406,-128.319992,,,
729706695.660647,-43.715367,1.014593,110.455278,0.009842,-0.666168,0.69986,-0.590938,0.097609,-0.129536,58.706421,59.816406,-128.319992,,,
729706695.661691,-43.890563,1.009183,-33.503578,0.009842,-0.666168,0.69986,-0.590938,0.097609,-0.129536,58.706421,59.816406,-128.319992,,,
729706695.663622,-43.890553,1.009231,110.406638,0.009842,-0.666168,0.69986,-0.590938,0.097609,-0.129536,58.706421,59.816406,-128.319992,,,
729706695.664438,-43.890563,1.009183,-33.503578,0.009842,-0.666168,0.69986,-0.590938,0.097609,-0.129536,58.706421,59.816406,-128.319992,,,
729706695.666958,-44.076109,1.002939,110.352971,0.014069,-0.665588,0.692886,-0.662503,0.116188,-0.155081,58.706421,59.816406,-128.319992,,,
729706695.669384,-44.076119,1.002891,-33.557243,0.014069,-0.665588,0.692886,-0.662503,0.116188,-0.155081,58.706421,59.816406,-128.319992,,,
729706695.670295,-44.076109,1.002939,110.352971,0.014069,-0.665588,0.692886,-0.662503,0.116188,-0.155081,58.706421,59.816406,-128.319992,,,
729706695.671641,-44.272856,0.995332,-33.616375,0.014069,-0.665588,0.692886,-0.662503,0.116188,-0.155081,58.706421,59.816406,-128.319992,,,
729706695.673624,-44.272846,0.99538,110.29383,0.014069,-0.665588,0.692886,-0.662503,0.116188,-0.155081,58.706421,59.816406,-128.319992,,,
729706695.674437,-44.272856,0.995332,-33.616375,0.014069,-0.665588,0.692886,-0.662503,0.116188,-0.155081,58.706421,59.816406,-128.319992,,,
729706695.67696,-44.480875,0.986042,110.229361,0.018814,-0.669815,0.685181,-0.741026,0.130848,-0.181833,58.706421,59.816406,-128.319992,,,
729706695.679374,-44.480885,0.985993,-33.680839,0.018814,-0.669815,0.685181,-0.741026,0.130848,-0.181833,58.706421,59.816406,-128.319992,,,
729706695.680359,-44.480875,0.986042,110.229361,0.018814,-0.669815,0.685181,-0.741026,0.130848,-0.181833,58.706421,59.816406,-128.319992,,,
729706695.681918,-44.700612,0.973967,-33.751141,0.018814,-0.669815,0.685181,-0.741026,0.130848,-0.181833,58.706421,59.816406,-128.319992,,,
729706695.683646,-44.700602,0.974015,110.159063,0.018814,-0.669815,0.685181,-0.741026,0.130848,-0.181833,58.706421,59.816406,-128.319992,,,
729706695.684433,-44.700612,0.973967,-33.751141,0.018814,-0.669815,0.685181,-0.741026,0.130848,-0.181833,58.706421,59.816406,-128.319992,,,
729706695.686957,-44.931066,0.959353,110.083182,0.0186,-0.67337,0.676758,-0.815475,0.141245,-0.20896,58.706421,59.816406,-128.319992,,,
729706695.689398,-44.931076,0.959304,-33.827022,0.0186,-0.67337,0.676758,-0.815475,0.141245,-0.20896,58.706421,59.816406,-128.319992,,,
729706695.690284,-44.931066,0.959353,110.083182,0.0186,-0.67337,0.676758,-0.815475,0.141245,-0.20896,58.706421,59.816406,-128.319992,,,
729706695.691931,-45.171203,0.942597,-33.907371,0.0186,-0.67337,0.676758,-0.815475,0.141245,-0.20896,58.706421,59.816406,-128.319992,,,
729706695.693632,-45.171193,0.942646,110.002835,0.0186,-0.67337,0.676758,-0.815475,0.141245,-0.20896,58.706421,59.816406,-128.319992,,,
729706695.694431,-45.171203,0.942597,-33.907371,0.0186,-0.67337,0.676758,-0.815475,0.141245,-0.20896,58.706421,59.816406,-128.319992,,,
729706695.696973,-45.421738,0.923941,109.918572,0.016663,-0.678345,0.668274,-0.887517,0.148387,-0.227103,58.706421,59.816406,-128.319992,,,
729706695.699552,-45.421748,0.923891,-33.991644,0.016663,-0.678345,0.668274,-0.887517,0.148387,-0.227103,58.706421,59.816406,-128.319992,,,
729706695.700299,-45.421738,0.923941,109.918572,0.016663,-0.678345,0.668274,-0.887517,0.148387,-0.227103,58.425018,60.531876,-127.113693,,,
729706695.702568,-45.682231,0.902507,-34.080299,0.016663,-0.678345,0.668274,-0.887517,0.148387,-0.227103,58.425018,60.531876,-127.113693,,,
729706695.703635,-45.682221,0.902556,109.829912,0.016663,-0.678345,0.668274,-0.887517,0.148387,-0.227103,58.425018,60.531876,-127.113693,,,
729706695.704479,-45.682231,0.902507,-34.080299,0.016663,-0.678345,0.668274,-0.887517,0.148387,-0.227103,58.425018,60.531876,-127.113693,,,
729706695.706976,-45.95132,0.877724,109.737191,0.012848,-0.687469,0.661758,-0.947798,0.146734,-0.245082,58.425018,60.531876,-127.113693,,,
729706695.709547,-45.95133,0.877675,-34.173018,0.012848,-0.687469,0.661758,-0.947798,0.146734,-0.245082,58.425018,60.531876,-127.113693,,,
729706695.710343,-45.95132,0.877724,109.737191,0.012848,-0.687469,0.661758,-0.947798,0.146734,-0.245082,58.425018,60.531876,-127.113693,,,
729706695.711927,-46.227552,0.848971,-34.26981,0.012848,-0.687469,0.661758,-0.947798,0.146734,-0.245082,58.425018,60.531876,-127.113693,,,
729706695.713648,-46.227542,0.849021,109.64041,0.012848,-0.687469,0.661758,-0.947798,0.146734,-0.245082,58.425018,60.531876,-127.113693,,,
729706695.714434,-46.227552,0.848971,-34.26981,0.012848,-0.687469,0.661758,-0.947798,0.146734,-0.245082,58.425018,60.531876,-127.113693,,,
729706695.716959,-46.508531,0.815841,109.539762,0.009995,-0.692383,0.655823,-0.981116,0.137247,-0.260716,58.425018,60.531876,-127.113693,,,
729706695.719187,-46.508541,0.815791,-34.370446,0.009995,-0.692383,0.655823,-0.981116,0.137247,-0.260716,58.425018,60.531876,-127.113693,,,
729706695.720293,-46.508531,0.815841,109.539762,0.009995,-0.692383,0.655823,-0.981116,0.137247,-0.260716,58.425018,60.531876,-127.113693,,,
729706695.721914,-46.792583,0.777389,-34.475006,0.009995,-0.692383,0.655823,-0.981116,0.137247,-0.260716,58.425018,60.531876,-127.113693,,,
729706695.723649,-46.792573,0.77744,109.435217,0.009995,-0.692383,0.655823,-0.981116,0.137247,-0.260716,58.425018,60.531876,-127.113693,,,
729706695.724436,-46.792583,0.777389,-34.475006,0.009995,-0.692383,0.655823,-0.981116,0.137247,-0.260716,58.425018,60.531876,-127.113693,,,
729706695.726967,-47.077376,0.732983,109.326207,0.002289,-0.701324,0.657318,-0.986223,0.12017,-0.277827,58.425018,60.531876,-127.113693,,,
729706695.729579,-47.077386,0.732932,-34.584012,0.002289,-0.701324,0.657318,-0.986223,0.12017,-0.277827,58.425018,60.531876,-127.113693,,,
729706695.73033,-47.077376,0.732983,109.326207,0.002289,-0.701324,0.657318,-0.986223,0.12017,-0.277827,58.425018,60.531876,-127.113693,,,
729706695.731918,-47.359636,0.682662,-34.695607,0.002289,-0.701324,0.657318,-0.986223,0.12017,-0.277827,58.425018,60.531876,-127.113693,,,
729706695.733657,-47.359625,0.682714,109.214615,0.002289,-0.701324,0.657318,-0.986223,0.12017,-0.277827,58.425018,60.531876,-127.113693,,,
729706695.734494,-47.359636,0.682662,-34.695607,0.002289,-0.701324,0.657318,-0.986223,0.12017,-0.277827,58.425018,60.531876,-127.113693,,,
729706695.736956,-47.636662,0.626413,109.102326,-0.009354,-0.712997,0.665802,-0.950825,0.084316,-0.276192,58.425018,60.531876,-127.113693,,,
729706695.740706,-47.636673,0.626361,-34.807896,-0.009354,-0.712997,0.665802,-0.950825,0.084316,-0.276192,58.425018,60.531876,-127.113693,,,
729706695.741021,-47.904942,0.561488,108.989033,-0.009354,-0.712997,0.665802,-0.950825,0.084316,-0.276192,58.425018,60.531876,-127.113693,,,
729706695.743701,-47.904942,0.561488,108.989033,-0.009354,-0.712997,0.665802,-0.950825,0.084316,-0.276192,57.951645,61.749023,-125.83049,,,
729706695.74604,-47.904952,0.561436,-34.921188,-0.009354,-0.712997,0.665802,-0.950825,0.084316,-0.276192,57.951645,61.749023,-125.83049,,,
729706695.746971,-48.161874,0.486389,108.875158,-0.020599,-0.729446,0.670914,-0.872423,0.01891,-0.273244,57.951645,61.749023,-125.83049,,,
729706695.749556,-48.161884,0.486337,-35.035065,-0.020599,-0.729446,0.670914,-0.872423,0.01891,-0.273244,57.951645,61.749023,-125.83049,,,
729706695.750318,-48.161874,0.486389,108.875158,-0.020599,-0.729446,0.670914,-0.872423,0.01891,-0.273244,57.951645,61.749023,-125.83049,,,
729706695.751957,-48.406361,0.400801,-35.149428,-0.020599,-0.729446,0.670914,-0.872423,0.01891,-0.273244,57.951645,61.749023,-125.83049,,,
729706695.753713,-48.40635,0.400853,108.760794,-0.020599,-0.729446,0.670914,-0.872423,0.01891,-0.273244,57.951645,61.749023,-125.83049,,,
729706695.754456,-48.406361,0.400801,-35.149428,-0.020599,-0.729446,0.670914,-0.872423,0.01891,-0.273244,57.951645,61.749023,-125.83049,,,
729706695.756956,-48.636728,0.305792,108.645664,-0.024582,-0.740524,0.677505,-0.775416,-0.041268,-0.271156,57.951645,61.749023,-125.83049,,,
729706695.760624,-48.636739,0.305739,-35.264553,-0.024582,-0.740524,0.677505,-0.775416,-0.041268,-0.271156,57.951645,61.749023,-125.83049,,,
729706695.761161,-48.851489,0.2033,108.529862,-0.024582,-0.740524,0.677505,-0.775416,-0.041268,-0.271156,57.951645,61.749023,-125.83049,,,
729706695.762261,-48.851499,0.203247,-35.380358,-0.024582,-0.740524,0.677505,-0.775416,-0.041268,-0.271156,57.951645,61.749023,-125.83049,,,
729706695.763453,-48.851489,0.2033,108.529862,-0.024582,-0.740524,0.677505,-0.775416,-0.041268,-0.271156,57.951645,61.749023,-125.83049,,,
729706695.764469,-48.851499,0.203247,-35.380358,-0.024582,-0.740524,0.677505,-0.775416,-0.041268,-0.271156,57.951645,61.749023,-125.83049,,,
729706695.766961,-49.049339,0.095267,108.414004,-0.022018,-0.748764,0.688599,-0.65863,-0.077698,-0.266151,57.951645,61.749023,-125.83049,,,
729706695.769402,-49.04935,0.095213,-35.496218,-0.022018,-0.748764,0.688599,-0.65863,-0.077698,-0.266151,57.951645,61.749023,-125.83049,,,
729706695.770296,-49.049339,0.095267,108.414004,-0.022018,-0.748764,0.688599,-0.65863,-0.077698,-0.266151,57.951645,61.749023,-125.83049,,,
729706695.77196,-49.229985,-0.015843,-35.611136,-0.022018,-0.748764,0.688599,-0.65863,-0.077698,-0.266151,57.951645,61.749023,-125.83049,,,
729706695.773646,-49.229975,-0.015789,108.299081,-0.022018,-0.748764,0.688599,-0.65863,-0.077698,-0.266151,57.951645,61.749023,-125.83049,,,
729706695.774436,-49.229985,-0.015843,-35.611136,-0.022018,-0.748764,0.688599,-0.65863,-0.077698,-0.266151,57.951645,61.749023,-125.83049,,,
729706695.776977,-49.393128,-0.12785,108.185202,-0.01889,-0.759583,0.696793,-0.537595,-0.088596,-0.257197,57.951645,61.749023,-125.83049,,,
729706695.779661,-49.393138,-0.127904,-35.725013,-0.01889,-0.759583,0.696793,-0.537595,-0.088596,-0.257197,57.951645,61.749023,-125.83049,,,
729706695.780392,-49.393128,-0.12785,108.185202,-0.01889,-0.759583,0.696793,-0.537595,-0.088596,-0.257197,57.951645,61.749023,-125.83049,,,
729706695.782702,-49.538757,-0.238306,-35.836185,-0.01889,-0.759583,0.696793,-0.537595,-0.088596,-0.257197,57.621597,62.205994,-124.398773,,,
729706695.783661,-49.538747,-0.238252,108.074021,-0.01889,-0.759583,0.696793,-0.537595,-0.088596,-0.257197,57.621597,62.205994,-124.398773,,,
729706695.784443,-49.538757,-0.238306,-35.836185,-0.01889,-0.759583,0.696793,-0.537595,-0.088596,-0.257197,57.621597,62.205994,-124.398773,,,
729706695.786964,-49.66743,-0.344871,107.966875,-0.013596,-0.769348,0.699692,-0.420586,-0.082437,-0.236368,57.621597,62.205994,-124.398773,,,
729706695.789586,-49.66744,-0.344925,-35.94333,-0.013596,-0.769348,0.699692,-0.420586,-0.082437,-0.236368,57.621597,62.205994,-124.398773,,,
729706695.790318,-49.66743,-0.344871,107.966875,-0.013596,-0.769348,0.699692,-0.420586,-0.082437,-0.236368,57.621597,62.205994,-124.398773,,,
729706695.791979,-49.780419,-0.445536,-36.044497,-0.013596,-0.769348,0.699692,-0.420586,-0.082437,-0.236368,57.621597,62.205994,-124.398773,,,
729706695.793631,-49.780409,-0.445481,107.865733,-0.013596,-0.769348,0.699692,-0.420586,-0.082437,-0.236368,57.621597,62.205994,-124.398773,,,
729706695.79444,-49.780419,-0.445536,-36.044497,-0.013596,-0.769348,0.699692,-0.420586,-0.082437,-0.236368,57.621597,62.205994,-124.398773,,,
729706695.796959,-49.87896,-0.537102,107.772646,-0.009232,-0.777267,0.697693,-0.320575,-0.061923,-0.19862,57.621597,62.205994,-124.398773,,,
729706695.799369,-49.87897,-0.537157,-36.137588,-0.009232,-0.777267,0.697693,-0.320575,-0.061923,-0.19862,57.621597,62.205994,-124.398773,,,
729706695.800311,-49.87896,-0.537102,107.772646,-0.009232,-0.777267,0.697693,-0.320575,-0.061923,-0.19862,57.621597,62.205994,-124.398773,,,
729706695.801358,-49.87897,-0.537157,-36.221599,-0.009232,-0.777267,0.697693,-0.320575,-0.061923,-0.19862,57.621597,62.205994,-124.398773,,,
729706695.803621,-49.964396,-0.618112,107.688627,-0.009232,-0.777267,0.697693,-0.320575,-0.061923,-0.19862,57.621597,62.205994,-124.398773,,,
729706695.805051,-49.964406,-0.618167,-36.221599,-0.009232,-0.777267,0.697693,-0.320575,-0.061923,-0.19862,57.621597,62.205994,-124.398773,,,
729706695.806966,-50.038698,-0.687216,107.615098,-0.00853,-0.782349,0.692627,-0.242775,-0.034374,-0.151095,57.621597,62.205994,-124.398773,,,
729706695.809368,-50.038708,-0.687271,-36.295128,-0.00853,-0.782349,0.692627,-0.242775,-0.034374,-0.151095,57.621597,62.205994,-124.398773,,,
729706695.810301,-50.038698,-0.687216,107.615098,-0.00853,-0.782349,0.692627,-0.242775,-0.034374,-0.151095,57.621597,62.205994,-124.398773,,,
729706695.811983,-50.103903,-0.743887,-36.357792,-0.00853,-0.782349,0.692627,-0.242775,-0.034374,-0.151095,57.621597,62.205994,-124.398773,,,
729706695.813621,-50.103892,-0.743832,107.552434,-0.00853,-0.782349,0.692627,-0.242775,-0.034374,-0.151095,57.621597,62.205994,-124.398773,,,
729706695.814436,-50.103903,-0.743887,-36.357792,-0.00853,-0.782349,0.692627,-0.242775,-0.034374,-0.151095,57.621597,62.205994,-124.398773,,,
729706695.816959,-50.161605,-0.787799,107.500941,-0.004364,-0.781601,0.683426,-0.190272,-0.005726,-0.101186,57.621597,62.205994,-124.398773,,,
729706695.819547,-50.161615,-0.787854,-36.409287,-0.004364,-0.781601,0.683426,-0.190272,-0.005726,-0.101186,57.621597,62.205994,-124.398773,,,
729706695.820294,-50.161605,-0.787799,107.500941,-0.004364,-0.781601,0.683426,-0.190272,-0.005726,-0.101186,57.621597,62.205994,-124.398773,,,
729706695.821144,-50.161615,-0.787854,-36.409287,-0.004364,-0.781601,0.683426,-0.190272,-0.005726,-0.101186,57.621597,62.205994,-124.398773,,,
729706695.823622,-50.214192,-0.818534,107.460535,-0.004364,-0.781601,0.683426,-0.190272,-0.005726,-0.101186,57.374817,62.291336,-123.784164,,,
729706695.825922,-50.214202,-0.818588,-36.449698,-0.004364,-0.781601,0.683426,-0.190272,-0.005726,-0.101186,57.374817,62.291336,-123.784164,,,
729706695.826967,-50.264154,-0.836487,107.43043,-0.005096,-0.78093,0.670746,-0.171399,0.028249,-0.055161,57.374817,62.291336,-123.784164,,,
729706695.830589,-50.264164,-0.836542,-36.479799,-0.005096,-0.78093,0.670746,-0.171399,0.028249,-0.055161,57.374817,62.291336,-123.784164,,,
729706695.830881,-50.264154,-0.836487,107.43043,-0.005096,-0.78093,0.670746,-0.171399,0.028249,-0.055161,57.374817,62.291336,-123.784164,,,
729706695.831776,-50.313738,-0.843703,-36.500597,-0.005096,-0.78093,0.670746,-0.171399,0.028249,-0.055161,57.374817,62.291336,-123.784164,,,
729706695.833628,-50.313728,-0.843649,107.409626,-0.005096,-0.78093,0.670746,-0.171399,0.028249,-0.055161,57.374817,62.291336,-123.784164,,,
729706695.834435,-50.313738,-0.843703,-36.500597,-0.005096,-0.78093,0.670746,-0.171399,0.028249,-0.055161,57.374817,62.291336,-123.784164,,,
729706695.83698,-50.36471,-0.840586,107.397495,-0.004272,-0.779007,0.656509,-0.180492,0.053037,-0.016363,57.374817,62.291336,-123.784164,,,
729706695.839323,-50.364721,-0.840641,-36.512725,-0.004272,-0.779007,0.656509,-0.180492,0.053037,-0.016363,57.374817,62.291336,-123.784164,,,
729706695.840309,-50.36471,-0.840586,107.397495,-0.004272,-0.779007,0.656509,-0.180492,0.053037,-0.016363,57.374817,62.291336,-123.784164,,,
729706695.841134,-50.364721,-0.840641,-36.512725,-0.004272,-0.779007,0.656509,-0.180492,0.053037,-0.016363,57.374817,62.291336,-123.784164,,,
729706695.843719,-50.417692,-0.828265,107.392313,-0.004272,-0.779007,0.656509,-0.180492,0.053037,-0.016363,57.374817,62.291336,-123.784164,,,
729706695.845331,-50.417702,-0.82832,-36.517894,-0.004272,-0.779007,0.656509,-0.180492,0.053037,-0.016363,57.374817,62.291336,-123.784164,,,
729706695.846968,-50.47345,-0.808419,107.391828,0.000565,-0.776245,0.647491,-0.199503,0.080332,0.004616,57.374817,62.291336,-123.784164,,,
729706695.851182,-50.47346,-0.808474,-36.518387,0.000565,-0.776245,0.647491,-0.199503,0.080332,0.004616,57.374817,62.291336,-123.784164,,,
729706695.851466,-50.533048,-0.782652,107.394153,0.000565,-0.776245,0.647491,-0.199503,0.080332,0.004616,57.374817,62.291336,-123.784164,,,
729706695.853599,-50.533048,-0.782652,107.394153,0.000565,-0.776245,0.647491,-0.199503,0.080332,0.004616,57.374817,62.291336,-123.784164,,,
729706695.855115,-50.533058,-0.782707,-36.516076,0.000565,-0.776245,0.647491,-0.199503,0.080332,0.004616,57.374817,62.291336,-123.784164,,,
729706695.856967,-50.596523,-0.751953,107.397717,0.00441,-0.771912,0.642731,-0.22649,0.107928,0.010306,57.374817,62.291336,-123.784164,,,
729706695.859592,-50.596533,-0.752008,-36.512503,0.00441,-0.771912,0.642731,-0.22649,0.107928,0.010306,57.374817,62.291336,-123.784164,,,
