Time (sec),Pitch (deg),Roll (deg),Yaw(deg),X-Acceleration (g),Y-Acceleration (g),Z-Acceleration (g),Pitch Rate (deg/sec),Roll Rate (deg/sec),Yaw Rate (deg/sec),Magnetic Field in X direction (uT),Magnetic Field in Y direction (uT),Magnetic Field in Z Direction (uT),Latitude (deg),Longitude (deg),Altitude (m)
729717138.504462,-20.282122,7.470469,110.979782,-0.089615,-0.316956,0.908966,-1.064257,0.217113,0.035332,95.66066,51.821426,-140.182083,,,
729717138.504607,-20.282126,7.470467,146.516136,-0.089615,-0.316956,0.908966,-1.064257,0.217113,0.035332,95.66066,51.821426,-140.182083,,,
729717138.50532,-20.282128,7.470468,107.90293,-0.089615,-0.316956,0.908966,-1.064257,0.217113,0.035332,95.66066,51.821426,-140.182083,,,
729717138.506806,-20.593413,7.556996,111.030292,-0.089615,-0.316956,0.908966,-1.106501,0.252451,0.014104,95.66066,51.821426,-140.182083,,,
729717138.506977,-20.593417,7.556994,146.566645,-0.089615,-0.316956,0.908966,-1.106501,0.252451,0.014104,95.66066,51.821426,-140.182083,,,
729717138.509871,-20.593419,7.556994,107.953441,-0.089615,-0.316956,0.908966,-1.106501,0.252451,0.014104,95.66066,51.821426,-140.182083,,,
729717138.510261,-20.593413,7.556996,111.030292,-0.089615,-0.316956,0.908966,-1.106501,0.252451,0.014104,95.66066,51.821426,-140.182083,,,
729717138.510427,-20.593417,7.556994,146.615381,-0.089615,-0.316956,0.908966,-1.106501,0.252451,0.014104,95.66066,51.821426,-140.182083,,,
729717138.512549,-20.911066,7.647595,108.002178,-0.089127,-0.324219,0.910416,-1.106501,0.252451,0.014104,95.66066,51.821426,-140.182083,,,
729717138.513144,-20.91106,7.647596,111.079029,-0.089127,-0.324219,0.910416,-1.106501,0.252451,0.014104,95.66066,51.821426,-140.182083,,,
729717138.513256,-20.911064,7.647594,146.615381,-0.089127,-0.324219,0.910416,-1.106501,0.252451,0.014104,95.66066,51.821426,-140.182083,,,
729717138.516811,-20.911066,7.647595,108.002178,-0.089127,-0.324219,0.910416,-1.156724,0.270322,-0.005282,95.66066,51.821426,-140.182083,,,
729717138.518737,-21.236216,7.740597,111.126518,-0.089127,-0.324219,0.910416,-1.156724,0.270322,-0.005282,95.66066,51.821426,-140.182083,,,
729717138.51891,-21.23622,7.740595,146.662868,-0.089127,-0.324219,0.910416,-1.156724,0.270322,-0.005282,95.66066,51.821426,-140.182083,,,
729717138.519492,-21.236222,7.740595,108.049667,-0.089127,-0.324219,0.910416,-1.156724,0.270322,-0.005282,95.66066,51.821426,-140.182083,,,
729717138.519631,-21.236216,7.740597,111.126518,-0.089127,-0.324219,0.910416,-1.156724,0.270322,-0.005282,95.66066,51.821426,-140.182083,,,
729717138.519725,-21.23622,7.740595,146.662868,-0.089127,-0.324219,0.910416,-1.156724,0.270322,-0.005282,95.66066,51.821426,-140.182083,,,
729717138.522746,-21.569981,7.834414,108.095716,-0.091461,-0.338058,0.895874,-1.156724,0.270322,-0.005282,95.66066,51.821426,-140.182083,,,
729717138.523508,-21.569974,7.834415,111.172568,-0.091461,-0.338058,0.895874,-1.156724,0.270322,-0.005282,95.66066,51.821426,-140.182083,,,
729717138.523623,-21.569978,7.834414,146.708917,-0.091461,-0.338058,0.895874,-1.156724,0.270322,-0.005282,95.66066,51.821426,-140.182083,,,
729717138.525863,-21.569981,7.834414,108.095716,-0.091461,-0.338058,0.895874,-1.209789,0.267406,-0.023437,95.66066,51.821426,-140.182083,,,
729717138.527017,-21.911562,7.927728,111.217652,-0.091461,-0.338058,0.895874,-1.209789,0.267406,-0.023437,95.66066,51.821426,-140.182083,,,
729717138.527184,-21.911566,7.927726,146.754005,-0.091461,-0.338058,0.895874,-1.209789,0.267406,-0.023437,95.66066,51.821426,-140.182083,,,
729717138.529369,-21.911569,7.927726,108.1408,-0.091461,-0.338058,0.895874,-1.209789,0.267406,-0.023437,95.66066,51.821426,-140.182083,,,
729717138.529598,-21.911562,7.927728,111.217652,-0.091461,-0.338058,0.895874,-1.209789,0.267406,-0.023437,95.66066,51.821426,-140.182083,,,
729717138.529739,-21.911566,7.927726,146.754005,-0.091461,-0.338058,0.895874,-1.209789,0.267406,-0.023437,95.66066,51.821426,-140.182083,,,
729717138.533674,-22.259468,8.020471,108.184932,-0.102554,-0.354797,0.88237,-1.209789,0.267406,-0.023437,95.999176,53.653809,-138.76001,,,
729717138.535188,-22.259461,8.020472,111.261783,-0.102554,-0.354797,0.88237,-1.209789,0.267406,-0.023437,95.999176,53.653809,-138.76001,,,
729717138.535323,-22.259465,8.020471,146.798136,-0.102554,-0.354797,0.88237,-1.209789,0.267406,-0.023437,95.999176,53.653809,-138.76001,,,
729717138.535676,-22.259468,8.020471,108.184932,-0.102554,-0.354797,0.88237,-1.253511,0.265702,-0.045469,95.999176,53.653809,-138.76001,,,
729717138.536432,-22.614024,8.112604,111.30421,-0.102554,-0.354797,0.88237,-1.253511,0.265702,-0.045469,95.999176,53.653809,-138.76001,,,
729717138.536545,-22.614028,8.112602,146.840563,-0.102554,-0.354797,0.88237,-1.253511,0.265702,-0.045469,95.999176,53.653809,-138.76001,,,
729717138.539369,-22.61403,8.112602,108.227359,-0.102554,-0.354797,0.88237,-1.253511,0.265702,-0.045469,95.999176,53.653809,-138.76001,,,
729717138.539591,-22.614024,8.112604,111.30421,-0.102554,-0.354797,0.88237,-1.253511,0.265702,-0.045469,95.999176,53.653809,-138.76001,,,
729717138.539727,-22.614028,8.112602,146.840563,-0.102554,-0.354797,0.88237,-1.253511,0.265702,-0.045469,95.999176,53.653809,-138.76001,,,
729717138.54331,-22.975405,8.204071,108.267573,-0.115082,-0.366623,0.888718,-1.253511,0.265702,-0.045469,95.999176,53.653809,-138.76001,,,
729717138.544955,-22.975399,8.204072,111.344425,-0.115082,-0.366623,0.888718,-1.253511,0.265702,-0.045469,95.999176,53.653809,-138.76001,,,
729717138.545078,-22.975403,8.20407,146.880778,-0.115082,-0.366623,0.888718,-1.253511,0.265702,-0.045469,95.999176,53.653809,-138.76001,,,
729717138.545327,-22.975405,8.204071,108.267573,-0.115082,-0.366623,0.888718,-1.253511,0.265702,-0.045469,95.999176,53.653809,-138.76001,,,
729717138.546442,-23.343459,8.293733,111.380991,-0.115082,-0.366623,0.888718,-1.296451,0.261468,-0.080043,95.999176,53.653809,-138.76001,,,
729717138.546568,-23.343463,8.293731,146.917342,-0.115082,-0.366623,0.888718,-1.296451,0.261468,-0.080043,95.999176,53.653809,-138.76001,,,
729717138.549813,-23.343466,8.293731,108.30414,-0.115082,-0.366623,0.888718,-1.296451,0.261468,-0.080043,95.999176,53.653809,-138.76001,,,
729717138.55004,-23.343459,8.293733,111.380991,-0.115082,-0.366623,0.888718,-1.296451,0.261468,-0.080043,95.999176,53.653809,-138.76001,,,
729717138.550165,-23.343463,8.293731,146.917342,-0.115082,-0.366623,0.888718,-1.296451,0.261468,-0.080043,95.999176,53.653809,-138.76001,,,
729717138.552688,-23.717665,8.379056,108.334729,-0.107376,-0.374023,0.880325,-1.296451,0.261468,-0.080043,95.999176,53.653809,-138.76001,,,
729717138.553441,-23.717658,8.379058,111.411581,-0.107376,-0.374023,0.880325,-1.296451,0.261468,-0.080043,95.999176,53.653809,-138.76001,,,
729717138.553553,-23.717662,8.379056,146.947931,-0.107376,-0.374023,0.880325,-1.296451,0.261468,-0.080043,95.999176,53.653809,-138.76001,,,
729717138.55543,-23.717665,8.379056,108.334729,-0.107376,-0.374023,0.880325,-1.296451,0.261468,-0.080043,95.999176,53.653809,-138.76001,,,
729717138.556386,-24.096829,8.460704,111.436209,-0.107376,-0.374023,0.880325,-1.324836,0.251279,-0.127006,95.999176,53.653809,-138.76001,,,
729717138.556499,-24.096834,8.460702,146.972563,-0.107376,-0.374023,0.880325,-1.324836,0.251279,-0.127006,95.999176,53.653809,-138.76001,,,
729717138.559979,-24.096836,8.460702,108.359358,-0.107376,-0.374023,0.880325,-1.324836,0.251279,-0.127006,95.999176,53.653809,-138.76001,,,
729717138.56021,-24.096829,8.460704,111.436209,-0.107376,-0.374023,0.880325,-1.324836,0.251279,-0.127006,95.999176,53.653809,-138.76001,,,
729717138.560353,-24.096834,8.460702,146.972563,-0.107376,-0.374023,0.880325,-1.324836,0.251279,-0.127006,95.999176,53.653809,-138.76001,,,
729717138.563108,-24.479939,8.5398,108.378857,-0.104752,-0.388672,0.871384,-1.324836,0.251279,-0.127006,95.999176,53.653809,-138.76001,,,
729717138.564361,-24.479932,8.539801,111.455708,-0.104752,-0.388672,0.871384,-1.324836,0.251279,-0.127006,95.999176,53.653809,-138.76001,,,
729717138.564496,-24.479937,8.539799,146.992061,-0.104752,-0.388672,0.871384,-1.324836,0.251279,-0.127006,95.999176,53.653809,-138.76001,,,
729717138.565238,-24.479939,8.5398,108.378857,-0.104752,-0.388672,0.871384,-1.324836,0.251279,-0.127006,95.999176,53.653809,-138.76001,,,
729717138.565978,-24.479932,8.539801,111.455708,-0.104752,-0.388672,0.871384,-1.335497,0.249719,-0.164122,95.999176,53.653809,-138.76001,,,
729717138.566356,-24.8654,8.616771,147.006652,-0.104752,-0.388672,0.871384,-1.335497,0.249719,-0.164122,95.999176,53.653809,-138.76001,,,
729717138.569741,-24.865403,8.616771,108.39345,-0.104752,-0.388672,0.871384,-1.335497,0.249719,-0.164122,95.999176,53.653809,-138.76001,,,
729717138.570606,-24.865395,8.616773,111.470301,-0.104752,-0.388672,0.871384,-1.335497,0.249719,-0.164122,95.999176,53.653809,-138.76001,,,
729717138.570746,-25.250881,8.691867,147.016855,-0.116287,-0.406342,0.879669,-1.335497,0.249719,-0.164122,95.999176,53.653809,-138.76001,,,
729717138.573049,-25.250883,8.691868,108.403654,-0.116287,-0.406342,0.879669,-1.335497,0.249719,-0.164122,95.999176,53.653809,-138.76001,,,
729717138.574633,-25.250876,8.691869,111.480505,-0.116287,-0.406342,0.879669,-1.335497,0.249719,-0.164122,96.159302,55.966034,-136.220917,,,
729717138.574745,-25.250881,8.691867,147.016855,-0.116287,-0.406342,0.879669,-1.335497,0.249719,-0.164122,96.159302,55.966034,-136.220917,,,
729717138.575563,-25.250883,8.691868,108.403654,-0.116287,-0.406342,0.879669,-1.335497,0.249719,-0.164122,96.159302,55.966034,-136.220917,,,
729717138.576648,-25.633172,8.764494,111.486709,-0.116287,-0.406342,0.879669,-1.309809,0.244035,-0.189353,96.159302,55.966034,-136.220917,,,
729717138.576912,-25.633177,8.764492,147.02306,-0.116287,-0.406342,0.879669,-1.309809,0.244035,-0.189353,96.159302,55.966034,-136.220917,,,
729717138.579538,-25.633179,8.764492,108.409858,-0.116287,-0.406342,0.879669,-1.309809,0.244035,-0.189353,96.159302,55.966034,-136.220917,,,
729717138.579718,-25.633172,8.764494,111.486709,-0.116287,-0.406342,0.879669,-1.309809,0.244035,-0.189353,96.159302,55.966034,-136.220917,,,
729717138.5798,-25.633177,8.764492,147.02306,-0.116287,-0.406342,0.879669,-1.309809,0.244035,-0.189353,96.159302,55.966034,-136.220917,,,
729717138.58294,-26.01028,8.833635,108.41253,-0.123795,-0.425552,0.888748,-1.309809,0.244035,-0.189353,96.159302,55.966034,-136.220917,,,
729717138.58392,-26.010272,8.833636,111.489381,-0.123795,-0.425552,0.888748,-1.309809,0.244035,-0.189353,96.159302,55.966034,-136.220917,,,
729717138.584062,-26.010277,8.833635,147.025731,-0.123795,-0.425552,0.888748,-1.309809,0.244035,-0.189353,96.159302,55.966034,-136.220917,,,
729717138.585415,-26.01028,8.833635,108.41253,-0.123795,-0.425552,0.888748,-1.309809,0.244035,-0.189353,96.159302,55.966034,-136.220917,,,
729717138.586694,-26.381634,8.898101,111.48883,-0.123795,-0.425552,0.888748,-1.266747,0.221154,-0.206183,96.159302,55.966034,-136.220917,,,
729717138.586866,-26.381639,8.8981,147.025181,-0.123795,-0.425552,0.888748,-1.266747,0.221154,-0.206183,96.159302,55.966034,-136.220917,,,
729717138.589686,-26.381642,8.8981,108.411979,-0.123795,-0.425552,0.888748,-1.266747,0.221154,-0.206183,96.159302,55.966034,-136.220917,,,
729717138.589914,-26.381634,8.898101,111.48883,-0.123795,-0.425552,0.888748,-1.266747,0.221154,-0.206183,96.159302,55.966034,-136.220917,,,
729717138.590045,-26.381639,8.8981,147.025181,-0.123795,-0.425552,0.888748,-1.266747,0.221154,-0.206183,96.159302,55.966034,-136.220917,,,
729717138.593118,-26.748495,8.95682,108.409448,-0.130661,-0.445312,0.88382,-1.266747,0.221154,-0.206183,96.159302,55.966034,-136.220917,,,
729717138.594228,-26.748487,8.956822,111.486299,-0.130661,-0.445312,0.88382,-1.266747,0.221154,-0.206183,96.159302,55.966034,-136.220917,,,
729717138.59437,-26.748492,8.95682,147.022648,-0.130661,-0.445312,0.88382,-1.266747,0.221154,-0.206183,96.159302,55.966034,-136.220917,,,
729717138.595299,-26.748495,8.95682,108.409448,-0.130661,-0.445312,0.88382,-1.266747,0.221154,-0.206183,96.159302,55.966034,-136.220917,,,
729717138.596673,-27.113062,9.010654,111.483208,-0.130661,-0.445312,0.88382,-1.249706,0.188758,-0.209412,96.159302,55.966034,-136.220917,,,
729717138.596845,-27.113067,9.010652,147.019564,-0.130661,-0.445312,0.88382,-1.249706,0.188758,-0.209412,96.159302,55.966034,-136.220917,,,
729717138.599539,-27.11307,9.010653,108.406357,-0.130661,-0.445312,0.88382,-1.249706,0.188758,-0.209412,96.159302,55.966034,-136.220917,,,
729717138.599763,-27.113062,9.010654,111.483208,-0.130661,-0.445312,0.88382,-1.249706,0.188758,-0.209412,96.159302,55.966034,-136.220917,,,
729717138.599878,-27.113067,9.010652,147.019564,-0.130661,-0.445312,0.88382,-1.249706,0.188758,-0.209412,96.159302,55.966034,-136.220917,,,
729717138.603203,-27.476684,9.061627,108.403139,-0.141678,-0.463715,0.867371,-1.249706,0.188758,-0.209412,96.159302,55.966034,-136.220917,,,
729717138.60432,-27.476676,9.061629,111.479991,-0.141678,-0.463715,0.867371,-1.249706,0.188758,-0.209412,96.159302,55.966034,-136.220917,,,
729717138.604475,-27.476681,9.061627,147.016346,-0.141678,-0.463715,0.867371,-1.249706,0.188758,-0.209412,96.159302,55.966034,-136.220917,,,
729717138.605291,-27.476684,9.061627,108.403139,-0.141678,-0.463715,0.867371,-1.249706,0.188758,-0.209412,96.159302,55.966034,-136.220917,,,
729717138.605934,-27.476676,9.061629,111.479991,-0.141678,-0.463715,0.867371,-1.248528,0.184915,-0.209169,96.159302,55.966034,-136.220917,,,
729717138.606392,-27.840054,9.112206,147.013497,-0.141678,-0.463715,0.867371,-1.248528,0.184915,-0.209169,96.159302,55.966034,-136.220917,,,
729717138.60961,-27.840056,9.112206,108.400292,-0.141678,-0.463715,0.867371,-1.248528,0.184915,-0.209169,96.159302,55.966034,-136.220917,,,
729717138.610532,-27.840048,9.112207,111.477143,-0.141678,-0.463715,0.867371,-1.248528,0.184915,-0.209169,96.159302,55.966034,-136.220917,,,
729717138.610676,-28.203765,9.164381,147.012234,-0.141678,-0.463715,0.867371,-1.248528,0.184915,-0.209169,96.159302,55.966034,-136.220917,,,
729717138.612693,-28.203767,9.164381,108.399029,-0.139633,-0.477768,0.869553,-1.248528,0.184915,-0.209169,96.159302,55.966034,-136.220917,,,
729717138.613529,-28.203759,9.164383,111.475881,-0.139633,-0.477768,0.869553,-1.248528,0.184915,-0.209169,96.159302,55.966034,-136.220917,,,
729717138.613688,-28.203765,9.164381,147.012234,-0.139633,-0.477768,0.869553,-1.248528,0.184915,-0.209169,96.159302,55.966034,-136.220917,,,
729717138.615897,-28.203767,9.164381,108.399029,-0.139633,-0.477768,0.869553,-1.248528,0.184915,-0.209169,96.343262,58.330078,-134.324615,,,
729717138.617449,-28.569622,9.219568,111.476984,-0.139633,-0.477768,0.869553,-1.265242,0.198024,-0.199619,96.343262,58.330078,-134.324615,,,
729717138.617641,-28.569628,9.219566,147.013335,-0.139633,-0.477768,0.869553,-1.265242,0.198024,-0.199619,96.343262,58.330078,-134.324615,,,
729717138.619538,-28.569631,9.219567,108.400133,-0.139633,-0.477768,0.869553,-1.265242,0.198024,-0.199619,96.343262,58.330078,-134.324615,,,
729717138.619761,-28.569622,9.219568,111.476984,-0.139633,-0.477768,0.869553,-1.265242,0.198024,-0.199619,96.343262,58.330078,-134.324615,,,
729717138.619873,-28.569628,9.219566,147.013335,-0.139633,-0.477768,0.869553,-1.265242,0.198024,-0.199619,96.343262,58.330078,-134.324615,,,
729717138.622732,-28.939444,9.278591,108.404477,-0.138,-0.487411,0.866318,-1.265242,0.198024,-0.199619,96.343262,58.330078,-134.324615,,,
729717138.623547,-28.939436,9.278593,111.481328,-0.138,-0.487411,0.866318,-1.265242,0.198024,-0.199619,96.343262,58.330078,-134.324615,,,
729717138.623701,-28.939442,9.278591,147.017677,-0.138,-0.487411,0.866318,-1.265242,0.198024,-0.199619,96.343262,58.330078,-134.324615,,,
729717138.625557,-28.939444,9.278591,108.404477,-0.138,-0.487411,0.866318,-1.265242,0.198024,-0.199619,96.343262,58.330078,-134.324615,,,
729717138.62634,-28.939436,9.278593,111.481328,-0.138,-0.487411,0.866318,-1.305699,0.211029,-0.18733,96.343262,58.330078,-134.324615,,,
729717138.626525,-29.314763,9.341251,147.025552,-0.138,-0.487411,0.866318,-1.305699,0.211029,-0.18733,96.343262,58.330078,-134.324615,,,
729717138.630505,-29.314765,9.341252,108.412346,-0.138,-0.487411,0.866318,-1.305699,0.211029,-0.18733,96.343262,58.330078,-134.324615,,,
729717138.631966,-29.697847,9.408215,111.5004,-0.135666,-0.493973,0.860291,-1.305699,0.211029,-0.18733,96.343262,58.330078,-134.324615,,,
729717138.632176,-29.697853,9.408213,147.036755,-0.135666,-0.493973,0.860291,-1.305699,0.211029,-0.18733,96.343262,58.330078,-134.324615,,,
729717138.633465,-29.697856,9.408213,108.423548,-0.135666,-0.493973,0.860291,-1.305699,0.211029,-0.18733,96.343262,58.330078,-134.324615,,,
729717138.63374,-29.697847,9.408215,111.5004,-0.135666,-0.493973,0.860291,-1.305699,0.211029,-0.18733,96.343262,58.330078,-134.324615,,,
729717138.633881,-29.697853,9.408213,147.036755,-0.135666,-0.493973,0.860291,-1.305699,0.211029,-0.18733,96.343262,58.330078,-134.324615,,,
729717138.635396,-29.697856,9.408213,108.423548,-0.135666,-0.493973,0.860291,-1.305699,0.211029,-0.18733,96.343262,58.330078,-134.324615,,,
729717138.636148,-29.697847,9.408215,111.5004,-0.135666,-0.493973,0.860291,-1.366846,0.228498,-0.185211,96.343262,58.330078,-134.324615,,,
729717138.636379,-30.089464,9.479036,147.050543,-0.135666,-0.493973,0.860291,-1.366846,0.228498,-0.185211,96.343262,58.330078,-134.324615,,,
729717138.639744,-30.089467,9.479036,108.437338,-0.135666,-0.493973,0.860291,-1.366846,0.228498,-0.185211,96.343262,58.330078,-134.324615,,,
729717138.640584,-30.089458,9.479038,111.514189,-0.135666,-0.493973,0.860291,-1.366846,0.228498,-0.185211,96.343262,58.330078,-134.324615,,,
729717138.640723,-30.490345,9.552468,147.065342,-0.135666,-0.493973,0.860291,-1.366846,0.228498,-0.185211,96.343262,58.330078,-134.324615,,,
729717138.643211,-30.490348,9.552469,108.452135,-0.126358,-0.501556,0.844849,-1.366846,0.228498,-0.185211,96.343262,58.330078,-134.324615,,,
729717138.644923,-30.490339,9.55247,111.528986,-0.126358,-0.501556,0.844849,-1.366846,0.228498,-0.185211,96.343262,58.330078,-134.324615,,,
729717138.645118,-30.490345,9.552468,147.065342,-0.126358,-0.501556,0.844849,-1.366846,0.228498,-0.185211,96.343262,58.330078,-134.324615,,,
729717138.645421,-30.490348,9.552469,108.452135,-0.126358,-0.501556,0.844849,-1.366846,0.228498,-0.185211,96.343262,58.330078,-134.324615,,,
729717138.64573,-30.490339,9.55247,111.528986,-0.126358,-0.501556,0.844849,-1.366846,0.228498,-0.185211,96.343262,58.330078,-134.324615,,,
729717138.646396,-30.90184,9.628251,147.080455,-0.126358,-0.501556,0.844849,-1.43945,0.243054,-0.199715,96.343262,58.330078,-134.324615,,,
729717138.64993,-30.901843,9.628251,108.46725,-0.126358,-0.501556,0.844849,-1.43945,0.243054,-0.199715,96.343262,58.330078,-134.324615,,,
729717138.651237,-30.901833,9.628252,111.544101,-0.126358,-0.501556,0.844849,-1.43945,0.243054,-0.199715,96.343262,58.330078,-134.324615,,,
729717138.6514,-31.324797,9.704813,147.094595,-0.120407,-0.51088,0.828659,-1.43945,0.243054,-0.199715,96.343262,58.330078,-134.324615,,,
729717138.652971,-31.3248,9.704813,108.481391,-0.120407,-0.51088,0.828659,-1.43945,0.243054,-0.199715,96.343262,58.330078,-134.324615,,,
729717138.65423,-31.32479,9.704814,111.558242,-0.120407,-0.51088,0.828659,-1.43945,0.243054,-0.199715,96.343262,58.330078,-134.324615,,,
729717138.654385,-31.324797,9.704813,147.094595,-0.120407,-0.51088,0.828659,-1.43945,0.243054,-0.199715,96.343262,58.330078,-134.324615,,,
729717138.655356,-31.3248,9.704813,108.481391,-0.120407,-0.51088,0.828659,-1.43945,0.243054,-0.199715,96.343262,58.330078,-134.324615,,,
729717138.657062,-31.32479,9.781651,111.570632,-0.120407,-0.51088,0.828659,-1.525679,0.250557,-0.229492,96.455399,60.510956,-132.317307,,,
729717138.65725,-31.760739,9.781649,147.106984,-0.120407,-0.51088,0.828659,-1.525679,0.250557,-0.229492,96.455399,60.510956,-132.317307,,,
729717138.66032,-31.760742,9.78165,108.493781,-0.120407,-0.51088,0.828659,-1.525679,0.250557,-0.229492,96.455399,60.510956,-132.317307,,,
729717138.660834,-31.760732,9.781651,111.570632,-0.120407,-0.51088,0.828659,-1.525679,0.250557,-0.229492,96.455399,60.510956,-132.317307,,,
729717138.660967,-32.208713,9.858455,147.115635,-0.122009,-0.525513,0.809296,-1.525679,0.250557,-0.229492,96.455399,60.510956,-132.317307,,,
729717138.662564,-32.208716,9.858456,108.502432,-0.122009,-0.525513,0.809296,-1.525679,0.250557,-0.229492,96.455399,60.510956,-132.317307,,,
729717138.663319,-32.208706,9.858457,111.579283,-0.122009,-0.525513,0.809296,-1.525679,0.250557,-0.229492,96.455399,60.510956,-132.317307,,,
729717138.663433,-32.208713,9.858455,147.115635,-0.122009,-0.525513,0.809296,-1.525679,0.250557,-0.229492,96.455399,60.510956,-132.317307,,,
729717138.665453,-32.208716,9.858456,108.502432,-0.122009,-0.525513,0.809296,-1.525679,0.250557,-0.229492,96.455399,60.510956,-132.317307,,,
729717138.666191,-32.208706,9.858457,111.579283,-0.122009,-0.525513,0.809296,-1.581634,0.27092,-0.279598,96.455399,60.510956,-132.317307,,,
729717138.666379,-32.66574,9.935021,147.118288,-0.122009,-0.525513,0.809296,-1.581634,0.27092,-0.279598,96.455399,60.510956,-132.317307,,,
729717138.669863,-32.665743,9.935022,108.505087,-0.122009,-0.525513,0.809296,-1.581634,0.27092,-0.279598,96.455399,60.510956,-132.317307,,,
729717138.670525,-32.665734,9.935023,111.581938,-0.122009,-0.525513,0.809296,-1.581634,0.27092,-0.279598,96.455399,60.510956,-132.317307,,,
729717138.670706,-32.66574,9.935021,147.118288,-0.122009,-0.525513,0.809296,-1.581634,0.27092,-0.279598,96.455399,60.510956,-132.317307,,,
729717138.672409,-33.130503,10.009473,108.499648,-0.122086,-0.532532,0.814407,-1.581634,0.27092,-0.279598,96.455399,60.510956,-132.317307,,,
729717138.672859,-33.130493,10.009474,111.576499,-0.122086,-0.532532,0.814407,-1.581634,0.27092,-0.279598,96.455399,60.510956,-132.317307,,,
729717138.672994,-33.1305,10.009472,147.11285,-0.122086,-0.532532,0.814407,-1.581634,0.27092,-0.279598,96.455399,60.510956,-132.317307,,,
729717138.675569,-33.130503,10.009473,108.499648,-0.122086,-0.532532,0.814407,-1.581634,0.27092,-0.279598,96.455399,60.510956,-132.317307,,,
729717138.676223,-33.130493,10.009474,111.576499,-0.122086,-0.532532,0.814407,-1.612475,0.267419,-0.345776,96.455399,60.510956,-132.317307,,,
729717138.676404,-33.601288,10.078113,147.097815,-0.122086,-0.532532,0.814407,-1.612475,0.267419,-0.345776,96.455399,60.510956,-132.317307,,,
729717138.679897,-33.601291,10.078113,108.484615,-0.122086,-0.532532,0.814407,-1.612475,0.267419,-0.345776,96.455399,60.510956,-132.317307,,,
729717138.680793,-33.601281,10.078114,111.561466,-0.122086,-0.532532,0.814407,-1.612475,0.267419,-0.345776,96.455399,60.510956,-132.317307,,,
729717138.680935,-34.073788,10.140964,147.073184,-0.123642,-0.548019,0.806961,-1.612475,0.267419,-0.345776,96.455399,60.510956,-132.317307,,,
729717138.682766,-34.073791,10.140964,108.459982,-0.123642,-0.548019,0.806961,-1.612475,0.267419,-0.345776,96.455399,60.510956,-132.317307,,,
729717138.683733,-34.07378,10.140966,111.536833,-0.123642,-0.548019,0.806961,-1.612475,0.267419,-0.345776,96.455399,60.510956,-132.317307,,,
729717138.683894,-34.073788,10.140964,147.073184,-0.123642,-0.548019,0.806961,-1.612475,0.267419,-0.345776,96.455399,60.510956,-132.317307,,,
729717138.685391,-34.073791,10.140964,108.459982,-0.123642,-0.548019,0.806961,-1.612475,0.267419,-0.345776,96.455399,60.510956,-132.317307,,,
729717138.685779,-34.07378,10.140966,111.536833,-0.123642,-0.548019,0.806961,-1.612475,0.267419,-0.345776,96.455399,60.510956,-132.317307,,,
729717138.686379,-34.542503,10.200188,147.038868,-0.123642,-0.548019,0.806961,-1.575436,0.281184,-0.398502,96.455399,60.510956,-132.317307,,,
729717138.68987,-34.542506,10.200189,108.425664,-0.123642,-0.548019,0.806961,-1.575436,0.281184,-0.398502,96.455399,60.510956,-132.317307,,,
729717138.691145,-34.542496,10.20019,111.502515,-0.123642,-0.548019,0.806961,-1.575436,0.281184,-0.398502,96.455399,60.510956,-132.317307,,,
729717138.691292,-35.00228,10.25659,146.994979,-0.134186,-0.567261,0.824173,-1.575436,0.281184,-0.398502,96.455399,60.510956,-132.317307,,,
729717138.693086,-35.002283,10.25659,108.381775,-0.134186,-0.567261,0.824173,-1.575436,0.281184,-0.398502,96.455399,60.510956,-132.317307,,,
729717138.69433,-35.002272,10.256592,111.458626,-0.134186,-0.567261,0.824173,-1.575436,0.281184,-0.398502,96.455399,60.510956,-132.317307,,,
729717138.694481,-35.00228,10.25659,146.994979,-0.134186,-0.567261,0.824173,-1.575436,0.281184,-0.398502,96.455399,60.510956,-132.317307,,,
729717138.695249,-35.002283,10.25659,108.381775,-0.134186,-0.567261,0.824173,-1.575436,0.281184,-0.398502,96.455399,60.510956,-132.317307,,,
729717138.695707,-35.002272,10.256592,111.458626,-0.134186,-0.567261,0.824173,-1.575436,0.281184,-0.398502,96.455399,60.510956,-132.317307,,,
729717138.696353,-35.447865,10.308127,146.941678,-0.134186,-0.567261,0.824173,-1.46864,0.287152,-0.435345,95.962875,63.049744,-129.424225,,,
729717138.699783,-35.447868,10.308127,108.328478,-0.134186,-0.567261,0.824173,-1.46864,0.287152,-0.435345,95.962875,63.049744,-129.424225,,,
729717138.700968,-35.447857,10.308128,111.405329,-0.134186,-0.567261,0.824173,-1.46864,0.287152,-0.435345,95.962875,63.049744,-129.424225,,,
729717138.701106,-35.876323,10.349322,146.880479,-0.144104,-0.585602,0.856384,-1.46864,0.287152,-0.435345,95.962875,63.049744,-129.424225,,,
729717138.702641,-35.876326,10.349323,108.267276,-0.144104,-0.585602,0.856384,-1.46864,0.287152,-0.435345,95.962875,63.049744,-129.424225,,,
729717138.703493,-35.876315,10.349324,111.344127,-0.144104,-0.585602,0.856384,-1.46864,0.287152,-0.435345,95.962875,63.049744,-129.424225,,,
729717138.70361,-35.876323,10.349322,146.880479,-0.144104,-0.585602,0.856384,-1.46864,0.287152,-0.435345,95.962875,63.049744,-129.424225,,,
729717138.705397,-35.876326,10.349323,108.267276,-0.144104,-0.585602,0.856384,-1.46864,0.287152,-0.435345,95.962875,63.049744,-129.424225,,,
729717138.705713,-35.876315,10.349324,111.344127,-0.144104,-0.585602,0.856384,-1.46864,0.287152,-0.435345,95.962875,63.049744,-129.424225,,,
729717138.706356,-36.286888,10.37416,146.814345,-0.144104,-0.585602,0.856384,-1.340819,0.195946,-0.440197,95.962875,63.049744,-129.424225,,,
729717138.709623,-36.286891,10.37416,108.201144,-0.144104,-0.585602,0.856384,-1.340819,0.195946,-0.440197,95.962875,63.049744,-129.424225,,,
729717138.710574,-36.28688,10.374162,111.277994,-0.144104,-0.585602,0.856384,-1.340819,0.195946,-0.440197,95.962875,63.049744,-129.424225,,,
729717138.71068,-36.286888,10.37416,146.814345,-0.144104,-0.585602,0.856384,-1.340819,0.195946,-0.440197,95.962875,63.049744,-129.424225,,,
729717138.712931,-36.678951,10.37952,108.132352,-0.157227,-0.602142,0.83046,-1.340819,0.195946,-0.440197,95.962875,63.049744,-129.424225,,,
729717138.713941,-36.678939,10.379521,111.209202,-0.157227,-0.602142,0.83046,-1.340819,0.195946,-0.440197,95.962875,63.049744,-129.424225,,,
729717138.714053,-36.678947,10.37952,146.745555,-0.157227,-0.602142,0.83046,-1.340819,0.195946,-0.440197,95.962875,63.049744,-129.424225,,,
729717138.715353,-36.678951,10.37952,108.132352,-0.157227,-0.602142,0.83046,-1.340819,0.195946,-0.440197,95.962875,63.049744,-129.424225,,,
729717138.715767,-36.678939,10.379521,111.209202,-0.157227,-0.602142,0.83046,-1.340819,0.195946,-0.440197,95.962875,63.049744,-129.424225,,,
729717138.716383,-37.053203,10.367997,146.675808,-0.157227,-0.602142,0.83046,-1.217727,0.084784,-0.420952,95.962875,63.049744,-129.424225,,,
729717138.719523,-37.053207,10.367997,108.062606,-0.157227,-0.602142,0.83046,-1.217727,0.084784,-0.420952,95.962875,63.049744,-129.424225,,,
729717138.720375,-37.053195,10.367999,111.139456,-0.157227,-0.602142,0.83046,-1.217727,0.084784,-0.420952,95.962875,63.049744,-129.424225,,,
729717138.720481,-37.053203,10.367997,146.675808,-0.157227,-0.602142,0.83046,-1.217727,0.084784,-0.420952,95.962875,63.049744,-129.424225,,,
729717138.72276,-37.411044,10.343604,107.994066,-0.166214,-0.616989,0.816086,-1.217727,0.084784,-0.420952,95.962875,63.049744,-129.424225,,,
729717138.72392,-37.411032,10.343605,111.070916,-0.166214,-0.616989,0.816086,-1.217727,0.084784,-0.420952,95.962875,63.049744,-129.424225,,,
729717138.724109,-37.41104,10.343604,146.607269,-0.166214,-0.616989,0.816086,-1.217727,0.084784,-0.420952,95.962875,63.049744,-129.424225,,,
729717138.725412,-37.411044,10.343604,107.994066,-0.166214,-0.616989,0.816086,-1.217727,0.084784,-0.420952,95.962875,63.049744,-129.424225,,,
729717138.72573,-37.411032,10.343605,111.070916,-0.166214,-0.616989,0.816086,-1.217727,0.084784,-0.420952,95.962875,63.049744,-129.424225,,,
729717138.726371,-37.75416,10.308983,146.540974,-0.166214,-0.616989,0.816086,-1.120287,0.006281,-0.387614,95.962875,63.049744,-129.424225,,,
729717138.729634,-37.754164,10.308984,107.927771,-0.166214,-0.616989,0.816086,-1.120287,0.006281,-0.387614,95.962875,63.049744,-129.424225,,,
729717138.730519,-37.754152,10.308985,111.004621,-0.166214,-0.616989,0.816086,-1.120287,0.006281,-0.387614,95.962875,63.049744,-129.424225,,,
729717138.730624,-37.75416,10.308983,146.540974,-0.166214,-0.616989,0.816086,-1.120287,0.006281,-0.387614,95.962875,63.049744,-129.424225,,,
729717138.732697,-38.084463,10.266051,107.863423,-0.164719,-0.627853,0.813187,-1.120287,0.006281,-0.387614,95.962875,63.049744,-129.424225,,,
729717138.733828,-38.084451,10.266053,110.940273,-0.164719,-0.627853,0.813187,-1.120287,0.006281,-0.387614,95.962875,63.049744,-129.424225,,,
729717138.734001,-38.084459,10.266051,146.476625,-0.164719,-0.627853,0.813187,-1.120287,0.006281,-0.387614,95.962875,63.049744,-129.424225,,,
729717138.735344,-38.084463,10.266051,107.863423,-0.164719,-0.627853,0.813187,-1.120287,0.006281,-0.387614,95.962875,63.049744,-129.424225,,,
729717138.735722,-38.084451,10.266053,110.940273,-0.164719,-0.627853,0.813187,-1.120287,0.006281,-0.387614,95.962875,63.049744,-129.424225,,,
729717138.736355,-38.402834,10.214584,146.413081,-0.164719,-0.627853,0.813187,-1.040217,-0.054713,-0.365224,95.962875,63.049744,-129.424225,,,
729717138.740524,-38.402837,10.214584,107.799881,-0.164719,-0.627853,0.813187,-1.040217,-0.054713,-0.365224,95.452271,64.693604,-127.390198,,,
729717138.742575,-38.402825,10.214585,110.876731,-0.151398,-0.636017,0.80455,-1.040217,-0.054713,-0.365224,95.452271,64.693604,-127.390198,,,
729717138.742762,-38.710978,10.153828,146.348439,-0.151398,-0.636017,0.80455,-1.040217,-0.054713,-0.365224,95.452271,64.693604,-127.390198,,,
729717138.743834,-38.710981,10.153829,107.735238,-0.151398,-0.636017,0.80455,-1.040217,-0.054713,-0.365224,95.452271,64.693604,-127.390198,,,
729717138.744232,-38.710978,10.153828,146.348439,-0.151398,-0.636017,0.80455,-1.040217,-0.054713,-0.365224,95.452271,64.693604,-127.390198,,,
729717138.745332,-38.710981,10.153829,107.735238,-0.151398,-0.636017,0.80455,-1.040217,-0.054713,-0.365224,95.452271,64.693604,-127.390198,,,
729717138.746414,-38.710969,10.15383,110.812088,-0.151398,-0.636017,0.80455,-0.98632,-0.109424,-0.369419,95.452271,64.693604,-127.390198,,,
729717138.746538,-39.011605,10.08292,146.280549,-0.151398,-0.636017,0.80455,-0.98632,-0.109424,-0.369419,95.452271,64.693604,-127.390198,,,
729717138.749403,-39.011608,10.082921,107.667344,-0.151398,-0.636017,0.80455,-0.98632,-0.109424,-0.369419,95.452271,64.693604,-127.390198,,,
729717138.749962,-39.011596,10.082922,110.744194,-0.151398,-0.636017,0.80455,-0.98632,-0.109424,-0.369419,95.452271,64.693604,-127.390198,,,
729717138.750068,-39.011605,10.08292,146.280549,-0.151398,-0.636017,0.80455,-0.98632,-0.109424,-0.369419,95.452271,64.693604,-127.390198,,,
729717138.752697,-39.306332,10.003625,107.595448,-0.136658,-0.638,0.788116,-0.98632,-0.109424,-0.369419,95.452271,64.693604,-127.390198,,,
729717138.753466,-39.30632,10.003626,110.672298,-0.136658,-0.638,0.788116,-0.98632,-0.109424,-0.369419,95.452271,64.693604,-127.390198,,,
729717138.753585,-39.306328,10.003624,146.208652,-0.136658,-0.638,0.788116,-0.98632,-0.109424,-0.369419,95.452271,64.693604,-127.390198,,,
729717138.755396,-39.306332,10.003625,107.595448,-0.136658,-0.638,0.788116,-0.98632,-0.109424,-0.369419,95.452271,64.693604,-127.390198,,,
729717138.755686,-39.30632,10.003626,110.672298,-0.136658,-0.638,0.788116,-0.98632,-0.109424,-0.369419,95.452271,64.693604,-127.390198,,,
729717138.756358,-39.596983,9.919638,146.132349,-0.136658,-0.638,0.788116,-0.956043,-0.120733,-0.383669,95.452271,64.693604,-127.390198,,,
729717138.759603,-39.596986,9.919638,107.519146,-0.136658,-0.638,0.788116,-0.956043,-0.120733,-0.383669,95.452271,64.693604,-127.390198,,,
729717138.760454,-39.596974,9.919639,110.595996,-0.136658,-0.638,0.788116,-0.956043,-0.120733,-0.383669,95.452271,64.693604,-127.390198,,,
729717138.760556,-39.596983,9.919638,146.132349,-0.136658,-0.638,0.788116,-0.956043,-0.120733,-0.383669,95.452271,64.693604,-127.390198,,,
729717138.762706,-39.885938,9.832896,107.437387,-0.129974,-0.641647,0.781799,-0.956043,-0.120733,-0.383669,95.452271,64.693604,-127.390198,,,
729717138.763788,-39.885926,9.832897,110.514237,-0.129974,-0.641647,0.781799,-0.956043,-0.120733,-0.383669,95.452271,64.693604,-127.390198,,,
729717138.763899,-39.885935,9.832895,146.050593,-0.129974,-0.641647,0.781799,-0.956043,-0.120733,-0.383669,95.452271,64.693604,-127.390198,,,
729717138.765353,-39.885938,9.832896,107.437387,-0.129974,-0.641647,0.781799,-0.956043,-0.120733,-0.383669,95.452271,64.693604,-127.390198,,,
729717138.76569,-39.885926,9.832897,110.514237,-0.129974,-0.641647,0.781799,-0.956043,-0.120733,-0.383669,95.452271,64.693604,-127.390198,,,
729717138.766406,-40.173119,9.74531,145.962652,-0.129974,-0.641647,0.781799,-0.939734,-0.096757,-0.409444,95.452271,64.693604,-127.390198,,,
729717138.77006,-40.173123,9.74531,107.349447,-0.129974,-0.641647,0.781799,-0.939734,-0.096757,-0.409444,95.452271,64.693604,-127.390198,,,
729717138.771407,-40.17311,9.745312,110.426297,-0.129974,-0.641647,0.781799,-0.939734,-0.096757,-0.409444,95.452271,64.693604,-127.390198,,,
729717138.771564,-40.458394,9.657886,145.868986,-0.128265,-0.644608,0.78479,-0.939734,-0.096757,-0.409444,95.452271,64.693604,-127.390198,,,
729717138.772453,-40.458398,9.657887,107.255779,-0.128265,-0.644608,0.78479,-0.939734,-0.096757,-0.409444,95.452271,64.693604,-127.390198,,,
729717138.773007,-40.458385,9.657888,110.332629,-0.128265,-0.644608,0.78479,-0.939734,-0.096757,-0.409444,95.452271,64.693604,-127.390198,,,
729717138.773116,-40.458394,9.657886,145.868986,-0.128265,-0.644608,0.78479,-0.939734,-0.096757,-0.409444,95.452271,64.693604,-127.390198,,,
729717138.775495,-40.458398,9.657887,107.255779,-0.128265,-0.644608,0.78479,-0.939734,-0.096757,-0.409444,95.452271,64.693604,-127.390198,,,
729717138.775671,-40.458385,9.657888,110.332629,-0.128265,-0.644608,0.78479,-0.939734,-0.096757,-0.409444,95.452271,64.693604,-127.390198,,,
729717138.776382,-40.743418,9.570744,145.770306,-0.128265,-0.644608,0.78479,-0.934786,-0.069643,-0.430234,95.452271,64.693604,-127.390198,,,
729717138.780485,-40.743422,9.570744,107.157101,-0.128265,-0.644608,0.78479,-0.934786,-0.069643,-0.430234,94.799011,65.942245,-125.738998,,,
729717138.782345,-40.743409,9.570746,110.233951,-0.12648,-0.653549,0.77774,-0.934786,-0.069643,-0.430234,94.799011,65.942245,-125.738998,,,
729717138.782462,-41.02971,9.484619,145.667818,-0.12648,-0.653549,0.77774,-0.934786,-0.069643,-0.430234,94.799011,65.942245,-125.738998,,,
729717138.783108,-41.029714,9.484619,107.054614,-0.12648,-0.653549,0.77774,-0.934786,-0.069643,-0.430234,94.799011,65.942245,-125.738998,,,
729717138.783221,-41.02971,9.484619,145.667818,-0.12648,-0.653549,0.77774,-0.934786,-0.069643,-0.430234,94.799011,65.942245,-125.738998,,,
729717138.785444,-41.029714,9.484619,107.054614,-0.12648,-0.653549,0.77774,-0.934786,-0.069643,-0.430234,94.799011,65.942245,-125.738998,,,
729717138.786319,-41.029701,9.484621,110.131464,-0.12648,-0.653549,0.77774,-0.948478,-0.044593,-0.43486,94.799011,65.942245,-125.738998,,,
729717138.786438,-41.31787,9.400779,145.563906,-0.12648,-0.653549,0.77774,-0.948478,-0.044593,-0.43486,94.799011,65.942245,-125.738998,,,
729717138.78972,-41.317874,9.400779,106.950702,-0.12648,-0.653549,0.77774,-0.948478,-0.044593,-0.43486,94.799011,65.942245,-125.738998,,,
729717138.790523,-41.317861,9.400781,110.027552,-0.12648,-0.653549,0.77774,-0.948478,-0.044593,-0.43486,94.799011,65.942245,-125.738998,,,
729717138.790662,-41.31787,9.400779,145.563906,-0.12648,-0.653549,0.77774,-0.948478,-0.044593,-0.43486,94.799011,65.942245,-125.738998,,,
729717138.793018,-41.608889,9.320801,106.847268,-0.125916,-0.666321,0.759247,-0.948478,-0.044593,-0.43486,94.799011,65.942245,-125.738998,,,
729717138.794087,-41.608876,9.320802,109.924117,-0.125916,-0.666321,0.759247,-0.948478,-0.044593,-0.43486,94.799011,65.942245,-125.738998,,,
729717138.794188,-41.608886,9.3208,145.460473,-0.125916,-0.666321,0.759247,-0.948478,-0.044593,-0.43486,94.799011,65.942245,-125.738998,,,
729717138.795299,-41.608889,9.320801,106.847268,-0.125916,-0.666321,0.759247,-0.948478,-0.044593,-0.43486,94.799011,65.942245,-125.738998,,,
729717138.795698,-41.608876,9.320802,109.924117,-0.125916,-0.666321,0.759247,-0.948478,-0.044593,-0.43486,94.799011,65.942245,-125.738998,,,
729717138.796358,-41.903631,9.246764,145.359838,-0.125916,-0.666321,0.759247,-0.97801,-0.01351,-0.419781,94.799011,65.942245,-125.738998,,,
729717138.799889,-41.903634,9.246764,106.746633,-0.125916,-0.666321,0.759247,-0.97801,-0.01351,-0.419781,94.799011,65.942245,-125.738998,,,
729717138.80117,-41.903621,9.246766,109.823482,-0.125916,-0.666321,0.759247,-0.97801,-0.01351,-0.419781,94.799011,65.942245,-125.738998,,,
729717138.80132,-42.202722,9.180307,145.263364,-0.125076,-0.680573,0.746597,-0.97801,-0.01351,-0.419781,94.799011,65.942245,-125.738998,,,
729717138.80283,-42.202726,9.180307,106.65016,-0.125076,-0.680573,0.746597,-0.97801,-0.01351,-0.419781,94.799011,65.942245,-125.738998,,,
729717138.803924,-42.202712,9.180309,109.727009,-0.125076,-0.680573,0.746597,-0.97801,-0.01351,-0.419781,94.799011,65.942245,-125.738998,,,
729717138.804025,-42.202722,9.180307,145.263364,-0.125076,-0.680573,0.746597,-0.97801,-0.01351,-0.419781,94.799011,65.942245,-125.738998,,,
729717138.805322,-42.202726,9.180307,106.65016,-0.125076,-0.680573,0.746597,-0.97801,-0.01351,-0.419781,94.799011,65.942245,-125.738998,,,
729717138.805692,-42.202712,9.180309,109.727009,-0.125076,-0.680573,0.746597,-0.97801,-0.01351,-0.419781,94.799011,65.942245,-125.738998,,,
729717138.806357,-42.506327,9.123376,145.171979,-0.125076,-0.680573,0.746597,-1.01417,0.031513,-0.394328,94.799011,65.942245,-125.738998,,,
729717138.810357,-42.506331,9.123376,106.558773,-0.125076,-0.680573,0.746597,-1.01417,0.031513,-0.394328,94.799011,65.942245,-125.738998,,,
729717138.812732,-42.506317,9.123378,109.635622,-0.125229,-0.691727,0.737793,-1.01417,0.031513,-0.394328,94.799011,65.942245,-125.738998,,,
729717138.812878,-42.813351,9.077209,145.086824,-0.125229,-0.691727,0.737793,-1.01417,0.031513,-0.394328,94.799011,65.942245,-125.738998,,,
729717138.813814,-42.813355,9.077209,106.473618,-0.125229,-0.691727,0.737793,-1.01417,0.031513,-0.394328,94.799011,65.942245,-125.738998,,,
729717138.815387,-42.813355,9.077209,106.473618,-0.125229,-0.691727,0.737793,-1.01417,0.031513,-0.394328,94.799011,65.942245,-125.738998,,,
729717138.816458,-42.813341,9.077211,109.550467,-0.125229,-0.691727,0.737793,-1.038432,0.070445,-0.359949,94.799011,65.942245,-125.738998,,,
729717138.816578,-43.122928,9.040874,145.008379,-0.125229,-0.691727,0.737793,-1.038432,0.070445,-0.359949,94.799011,65.942245,-125.738998,,,
729717138.8198,-43.122932,9.040874,106.395172,-0.125229,-0.691727,0.737793,-1.038432,0.070445,-0.359949,94.356705,67.457016,-124.075592,,,
729717138.820672,-43.122918,9.040876,109.472022,-0.125229,-0.691727,0.737793,-1.038432,0.070445,-0.359949,94.356705,67.457016,-124.075592,,,
729717138.820777,-43.122928,9.040874,145.008379,-0.125229,-0.691727,0.737793,-1.038432,0.070445,-0.359949,94.356705,67.457016,-124.075592,,,
729717138.822656,-43.434873,9.011583,106.322441,-0.122101,-0.696732,0.733139,-1.038432,0.070445,-0.359949,94.356705,67.457016,-124.075592,,,
729717138.8235,-43.434859,9.011585,109.399291,-0.122101,-0.696732,0.733139,-1.038432,0.070445,-0.359949,94.356705,67.457016,-124.075592,,,
729717138.823618,-43.434869,9.011583,144.935646,-0.122101,-0.696732,0.733139,-1.038432,0.070445,-0.359949,94.356705,67.457016,-124.075592,,,
729717138.825459,-43.434873,9.011583,106.322441,-0.122101,-0.696732,0.733139,-1.038432,0.070445,-0.359949,94.356705,67.457016,-124.075592,,,
729717138.825678,-43.434859,9.011585,109.399291,-0.122101,-0.696732,0.733139,-1.038432,0.070445,-0.359949,94.356705,67.457016,-124.075592,,,
729717138.826378,-43.749045,8.986604,144.867771,-0.122101,-0.696732,0.733139,-1.058319,0.079108,-0.335368,94.356705,67.457016,-124.075592,,,
729717138.82961,-43.749049,8.986605,106.254567,-0.122101,-0.696732,0.733139,-1.058319,0.079108,-0.335368,94.356705,67.457016,-124.075592,,,
729717138.830494,-43.749035,8.986606,109.331416,-0.122101,-0.696732,0.733139,-1.058319,0.079108,-0.335368,94.356705,67.457016,-124.075592,,,
729717138.830603,-43.749045,8.986604,144.867771,-0.122101,-0.696732,0.733139,-1.058319,0.079108,-0.335368,94.356705,67.457016,-124.075592,,,
729717138.832732,-44.065108,8.964512,106.190527,-0.114868,-0.698334,0.71936,-1.058319,0.079108,-0.335368,94.356705,67.457016,-124.075592,,,
729717138.833868,-44.065094,8.964514,109.267377,-0.114868,-0.698334,0.71936,-1.058319,0.079108,-0.335368,94.356705,67.457016,-124.075592,,,
729717138.834047,-44.065104,8.964512,144.803732,-0.114868,-0.698334,0.71936,-1.058319,0.079108,-0.335368,94.356705,67.457016,-124.075592,,,
729717138.835389,-44.065108,8.964512,106.190527,-0.114868,-0.698334,0.71936,-1.058319,0.079108,-0.335368,94.356705,67.457016,-124.075592,,,
729717138.835741,-44.065094,8.964514,109.267377,-0.114868,-0.698334,0.71936,-1.058319,0.079108,-0.335368,94.356705,67.457016,-124.075592,,,
729717138.836384,-44.382505,8.94447,144.741419,-0.114868,-0.698334,0.71936,-1.069027,0.08668,-0.325773,94.356705,67.457016,-124.075592,,,
729717138.839873,-44.382509,8.94447,106.128217,-0.114868,-0.698334,0.71936,-1.069027,0.08668,-0.325773,94.356705,67.457016,-124.075592,,,
729717138.841175,-44.382494,8.944472,109.205066,-0.114868,-0.698334,0.71936,-1.069027,0.08668,-0.325773,94.356705,67.457016,-124.075592,,,
729717138.841324,-44.700172,8.926444,144.678944,-0.112686,-0.695587,0.712738,-1.069027,0.08668,-0.325773,94.356705,67.457016,-124.075592,,,
729717138.842446,-44.700176,8.926444,106.065743,-0.112686,-0.695587,0.712738,-1.069027,0.08668,-0.325773,94.356705,67.457016,-124.075592,,,
729717138.84339,-44.700161,8.926446,109.142592,-0.112686,-0.695587,0.712738,-1.069027,0.08668,-0.325773,94.356705,67.457016,-124.075592,,,
729717138.843618,-44.700172,8.926444,144.678944,-0.112686,-0.695587,0.712738,-1.069027,0.08668,-0.325773,94.356705,67.457016,-124.075592,,,
729717138.845411,-44.700176,8.926444,106.065743,-0.112686,-0.695587,0.712738,-1.069027,0.08668,-0.325773,94.356705,67.457016,-124.075592,,,
729717138.845692,-44.700161,8.926446,109.142592,-0.112686,-0.695587,0.712738,-1.069027,0.08668,-0.325773,94.356705,67.457016,-124.075592,,,
729717138.84639,-45.016577,8.911893,144.615917,-0.112686,-0.695587,0.712738,-1.060819,0.115269,-0.325012,94.356705,67.457016,-124.075592,,,
729717138.849847,-45.01658,8.911893,106.002717,-0.112686,-0.695587,0.712738,-1.060819,0.115269,-0.325012,94.356705,67.457016,-124.075592,,,
729717138.850982,-45.016566,8.911895,109.079566,-0.112686,-0.695587,0.712738,-1.060819,0.115269,-0.325012,94.356705,67.457016,-124.075592,,,
729717138.851179,-45.331742,8.902001,144.552592,-0.112686,-0.695587,0.712738,-1.060819,0.115269,-0.325012,94.356705,67.457016,-124.075592,,,
729717138.852518,-45.331746,8.902001,105.939389,-0.116837,-0.698517,0.71843,-1.060819,0.115269,-0.325012,94.356705,67.457016,-124.075592,,,
729717138.853294,-45.331731,8.902003,109.016238,-0.116837,-0.698517,0.71843,-1.060819,0.115269,-0.325012,94.356705,67.457016,-124.075592,,,
729717138.853413,-45.331742,8.902001,144.552592,-0.116837,-0.698517,0.71843,-1.060819,0.115269,-0.325012,94.356705,67.457016,-124.075592,,,
729717138.855456,-45.331746,8.902001,105.939389,-0.116837,-0.698517,0.71843,-1.060819,0.115269,-0.325012,94.356705,67.457016,-124.075592,,,
729717138.855719,-45.331731,8.902003,109.016238,-0.116837,-0.698517,0.71843,-1.060819,0.115269,-0.325012,94.356705,67.457016,-124.075592,,,
729717138.85639,-45.644981,8.896048,144.487986,-0.116837,-0.698517,0.71843,-1.046917,0.150726,-0.327217,94.356705,67.457016,-124.075592,,,
729717138.85963,-45.644985,8.896048,105.874786,-0.116837,-0.698517,0.71843,-1.046917,0.150726,-0.327217,94.356705,67.457016,-124.075592,,,
729717138.861021,-45.64497,8.89605,108.951635,-0.116837,-0.698517,0.71843,-1.046917,0.150726,-0.327217,93.930862,68.735779,-122.123627,,,
729717138.861163,-45.955933,8.893722,144.422469,-0.119781,-0.703491,0.712875,-1.046917,0.150726,-0.327217,93.930862,68.735779,-122.123627,,,
729717138.862711,-45.955937,8.893722,105.809269,-0.119781,-0.703491,0.712875,-1.046917,0.150726,-0.327217,93.930862,68.735779,-122.123627,,,
729717138.863368,-45.955922,8.893724,108.886117,-0.119781,-0.703491,0.712875,-1.046917,0.150726,-0.327217,93.930862,68.735779,-122.123627,,,
729717138.863475,-45.955933,8.893722,144.422469,-0.119781,-0.703491,0.712875,-1.046917,0.150726,-0.327217,93.930862,68.735779,-122.123627,,,
729717138.865446,-45.955937,8.893722,105.809269,-0.119781,-0.703491,0.712875,-1.046917,0.150726,-0.327217,93.930862,68.735779,-122.123627,,,
729717138.865734,-45.955922,8.893724,108.886117,-0.119781,-0.703491,0.712875,-1.046917,0.150726,-0.327217,93.930862,68.735779,-122.123627,,,
729717138.866382,-46.266934,8.895946,144.35858,-0.119781,-0.703491,0.712875,-1.048414,0.175839,-0.317669,93.930862,68.735779,-122.123627,,,
729717138.869738,-46.266938,8.895946,105.745379,-0.119781,-0.703491,0.712875,-1.048414,0.175839,-0.317669,93.930862,68.735779,-122.123627,,,
729717138.870871,-46.266923,8.895948,108.822227,-0.119781,-0.703491,0.712875,-1.048414,0.175839,-0.317669,93.930862,68.735779,-122.123627,,,
729717138.871041,-46.266934,8.895946,144.35858,-0.119781,-0.703491,0.712875,-1.048414,0.175839,-0.317669,93.930862,68.735779,-122.123627,,,
729717138.872387,-46.580611,8.902789,105.685371,-0.121964,-0.715179,0.690002,-1.048414,0.175839,-0.317669,93.930862,68.735779,-122.123627,,,
729717138.873,-46.580595,8.902791,108.762219,-0.121964,-0.715179,0.690002,-1.048414,0.175839,-0.317669,93.930862,68.735779,-122.123627,,,
729717138.873113,-46.580607,8.902789,144.298573,-0.121964,-0.715179,0.690002,-1.048414,0.175839,-0.317669,93.930862,68.735779,-122.123627,,,
729717138.875546,-46.580611,8.902789,105.685371,-0.121964,-0.715179,0.690002,-1.048414,0.175839,-0.317669,93.930862,68.735779,-122.123627,,,
729717138.875749,-46.580595,8.902791,108.762219,-0.121964,-0.715179,0.690002,-1.048414,0.175839,-0.317669,93.930862,68.735779,-122.123627,,,
729717138.876422,-46.899566,8.915749,144.245108,-0.121964,-0.715179,0.690002,-1.090268,0.186861,-0.291426,93.930862,68.735779,-122.123627,,,
729717138.880086,-46.89957,8.915749,105.631904,-0.121964,-0.715179,0.690002,-1.090268,0.186861,-0.291426,93.930862,68.735779,-122.123627,,,
729717138.881445,-46.899555,8.915751,108.708752,-0.121964,-0.715179,0.690002,-1.090268,0.186861,-0.291426,93.930862,68.735779,-122.123627,,,
729717138.881603,-47.225562,8.937334,144.200281,-0.119461,-0.727509,0.663513,-1.090268,0.186861,-0.291426,93.930862,68.735779,-122.123627,,,
729717138.882772,-47.225566,8.937334,105.587078,-0.119461,-0.727509,0.663513,-1.090268,0.186861,-0.291426,93.930862,68.735779,-122.123627,,,
729717138.883588,-47.22555,8.937336,108.663926,-0.119461,-0.727509,0.663513,-1.090268,0.186861,-0.291426,93.930862,68.735779,-122.123627,,,
729717138.8837,-47.225562,8.937334,144.200281,-0.119461,-0.727509,0.663513,-1.090268,0.186861,-0.291426,93.930862,68.735779,-122.123627,,,
729717138.885383,-47.225566,8.937334,105.587078,-0.119461,-0.727509,0.663513,-1.090268,0.186861,-0.291426,93.930862,68.735779,-122.123627,,,
729717138.885698,-47.22555,8.937336,108.663926,-0.119461,-0.727509,0.663513,-1.090268,0.186861,-0.291426,93.930862,68.735779,-122.123627,,,
729717138.886357,-47.560504,8.969728,144.164836,-0.119461,-0.727509,0.663513,-1.158703,0.215203,-0.257246,93.930862,68.735779,-122.123627,,,
729717138.889474,-47.560508,8.969728,105.551632,-0.119461,-0.727509,0.663513,-1.158703,0.215203,-0.257246,93.930862,68.735779,-122.123627,,,
729717138.890323,-47.560492,8.96973,108.628481,-0.119461,-0.727509,0.663513,-1.158703,0.215203,-0.257246,93.930862,68.735779,-122.123627,,,
729717138.890439,-47.560504,8.969728,144.164836,-0.119461,-0.727509,0.663513,-1.158703,0.215203,-0.257246,93.930862,68.735779,-122.123627,,,
729717138.892924,-47.90762,9.014676,105.525977,-0.116241,-0.734482,0.646072,-1.158703,0.215203,-0.257246,93.930862,68.735779,-122.123627,,,
729717138.893892,-47.907604,9.014678,108.602825,-0.116241,-0.734482,0.646072,-1.158703,0.215203,-0.257246,93.930862,68.735779,-122.123627,,,
729717138.894035,-47.907616,9.014675,144.139182,-0.116241,-0.734482,0.646072,-1.158703,0.215203,-0.257246,93.930862,68.735779,-122.123627,,,
729717138.895352,-47.90762,9.014676,105.525977,-0.116241,-0.734482,0.646072,-1.158703,0.215203,-0.257246,93.930862,68.735779,-122.123627,,,
729717138.895747,-47.907604,9.014678,108.602825,-0.116241,-0.734482,0.646072,-1.158703,0.215203,-0.257246,93.930862,68.735779,-122.123627,,,
729717138.896388,-48.270307,9.073011,144.124367,-0.116241,-0.734482,0.646072,-1.273982,0.25303,-0.225988,93.930862,68.735779,-122.123627,,,
729717138.899886,-48.270312,9.073012,105.511164,-0.116241,-0.734482,0.646072,-1.273982,0.25303,-0.225988,93.930862,68.735779,-122.123627,,,
729717138.901023,-48.270295,9.073014,108.588012,-0.116241,-0.734482,0.646072,-1.273982,0.25303,-0.225988,93.930862,68.735779,-122.123627,,,
729717138.901127,-48.270307,9.073011,144.124367,-0.116241,-0.734482,0.646072,-1.273982,0.25303,-0.225988,93.89183,69.936005,-119.846008,,,
729717138.902724,-48.65194,9.145502,105.507518,-0.105621,-0.731949,0.609818,-1.273982,0.25303,-0.225988,93.89183,69.936005,-119.846008,,,
729717138.903777,-48.651924,9.145504,108.584366,-0.105621,-0.731949,0.609818,-1.273982,0.25303,-0.225988,93.89183,69.936005,-119.846008,,,
729717138.903897,-48.651936,9.145502,144.120722,-0.105621,-0.731949,0.609818,-1.273982,0.25303,-0.225988,93.89183,69.936005,-119.846008,,,
729717138.905393,-48.65194,9.145502,105.507518,-0.105621,-0.731949,0.609818,-1.273982,0.25303,-0.225988,93.89183,69.936005,-119.846008,,,
729717138.90574,-48.651924,9.145504,108.584366,-0.105621,-0.731949,0.609818,-1.273982,0.25303,-0.225988,93.89183,69.936005,-119.846008,,,
729717138.906382,-48.651936,9.145502,144.120722,-0.105621,-0.731949,0.609818,-1.436893,0.301263,-0.203747,93.89183,69.936005,-119.846008,,,
729717138.910057,-49.056141,9.233396,105.515143,-0.105621,-0.731949,0.609818,-1.436893,0.301263,-0.203747,93.89183,69.936005,-119.846008,,,
729717138.911711,-49.056124,9.233398,108.591991,-0.105621,-0.731949,0.609818,-1.436893,0.301263,-0.203747,93.89183,69.936005,-119.846008,,,
729717138.91187,-49.486163,9.335943,144.148264,-0.1026,-0.735443,0.574326,-1.436893,0.301263,-0.203747,93.89183,69.936005,-119.846008,,,
729717138.912974,-49.486168,9.335943,105.535061,-0.1026,-0.735443,0.574326,-1.436893,0.301263,-0.203747,93.89183,69.936005,-119.846008,,,
729717138.913824,-49.48615,9.335945,108.611909,-0.1026,-0.735443,0.574326,-1.436893,0.301263,-0.203747,93.89183,69.936005,-119.846008,,,
729717138.913937,-49.486163,9.335943,144.148264,-0.1026,-0.735443,0.574326,-1.436893,0.301263,-0.203747,93.89183,69.936005,-119.846008,,,
729717138.915345,-49.486168,9.335943,105.535061,-0.1026,-0.735443,0.574326,-1.436893,0.301263,-0.203747,93.89183,69.936005,-119.846008,,,
729717138.915693,-49.48615,9.335945,108.611909,-0.1026,-0.735443,0.574326,-1.436893,0.301263,-0.203747,93.89183,69.936005,-119.846008,,,
729717138.916356,-49.943051,9.450071,144.18049,-0.1026,-0.735443,0.574326,-1.629125,0.315621,-0.186018,93.89183,69.936005,-119.846008,,,
729717138.919876,-49.943056,9.450071,105.567286,-0.1026,-0.735443,0.574326,-1.629125,0.315621,-0.186018,93.89183,69.936005,-119.846008,,,
729717138.921149,-49.943038,9.450073,108.644134,-0.1026,-0.735443,0.574326,-1.629125,0.315621,-0.186018,93.89183,69.936005,-119.846008,,,
729717138.9213,-49.943051,9.450071,144.18049,-0.1026,-0.735443,0.574326,-1.629125,0.315621,-0.186018,93.89183,69.936005,-119.846008,,,
729717138.92269,-50.426952,9.57207,105.611023,-0.104294,-0.743683,0.537186,-1.629125,0.315621,-0.186018,93.89183,69.936005,-119.846008,,,
729717138.923648,-50.426934,9.572072,108.68787,-0.104294,-0.743683,0.537186,-1.629125,0.315621,-0.186018,93.89183,69.936005,-119.846008,,,
729717138.923807,-50.426948,9.57207,144.224225,-0.104294,-0.743683,0.537186,-1.629125,0.315621,-0.186018,93.89183,69.936005,-119.846008,,,
729717138.925461,-50.426952,9.57207,105.611023,-0.104294,-0.743683,0.537186,-1.629125,0.315621,-0.186018,93.89183,69.936005,-119.846008,,,
729717138.925746,-50.426934,9.572072,108.68787,-0.104294,-0.743683,0.537186,-1.629125,0.315621,-0.186018,93.89183,69.936005,-119.846008,,,
729717138.926391,-50.426948,9.57207,144.224225,-0.104294,-0.743683,0.537186,-1.818362,0.297674,-0.183616,93.89183,69.936005,-119.846008,,,
729717138.930087,-50.937399,9.699342,105.664598,-0.104294,-0.743683,0.537186,-1.818362,0.297674,-0.183616,93.89183,69.936005,-119.846008,,,
729717138.931431,-50.937381,9.699344,108.741446,-0.104294,-0.743683,0.537186,-1.818362,0.297674,-0.183616,93.89183,69.936005,-119.846008,,,
729717138.931595,-51.473536,9.830085,144.338993,-0.104767,-0.75029,0.506104,-1.818362,0.297674,-0.183616,93.89183,69.936005,-119.846008,,,
729717138.932951,-51.473541,9.830086,105.725789,-0.104767,-0.75029,0.506104,-1.818362,0.297674,-0.183616,93.89183,69.936005,-119.846008,,,
729717138.934115,-51.473522,9.830087,108.802636,-0.104767,-0.75029,0.506104,-1.818362,0.297674,-0.183616,93.89183,69.936005,-119.846008,,,
729717138.934269,-51.473536,9.830085,144.338993,-0.104767,-0.75029,0.506104,-1.818362,0.297674,-0.183616,93.89183,69.936005,-119.846008,,,
729717138.935306,-51.473541,9.830086,105.725789,-0.104767,-0.75029,0.506104,-1.818362,0.297674,-0.183616,93.89183,69.936005,-119.846008,,,
729717138.9357,-51.473522,9.830087,108.802636,-0.104767,-0.75029,0.506104,-1.818362,0.297674,-0.183616,93.89183,69.936005,-119.846008,,,
729717138.936352,-51.473536,9.830085,144.338993,-0.104767,-0.75029,0.506104,-1.989983,0.277046,-0.207099,93.89183,69.936005,-119.846008,,,
729717138.9399,-52.034438,9.961548,105.791194,-0.104767,-0.75029,0.506104,-1.989983,0.277046,-0.207099,93.89183,69.936005,-119.846008,,,
729717138.941151,-52.034419,9.961549,108.868041,-0.104767,-0.75029,0.506104,-1.989983,0.277046,-0.207099,93.89183,69.936005,-119.846008,,,
729717138.941304,-52.619179,10.090513,144.468679,-0.104767,-0.75029,0.506104,-1.989983,0.277046,-0.207099,93.89183,69.936005,-119.846008,,,
729717138.943214,-52.619183,10.090513,105.855481,-0.098328,-0.745163,0.495911,-1.989983,0.277046,-0.207099,93.770294,71.439301,-115.735428,,,
729717138.944581,-52.619164,10.090515,108.932328,-0.098328,-0.745163,0.495911,-1.989983,0.277046,-0.207099,93.770294,71.439301,-115.735428,,,
729717138.944693,-52.619179,10.090513,144.468679,-0.098328,-0.745163,0.495911,-1.989983,0.277046,-0.207099,93.770294,71.439301,-115.735428,,,
729717138.945286,-52.619183,10.090513,105.855481,-0.098328,-0.745163,0.495911,-1.989983,0.277046,-0.207099,93.770294,71.439301,-115.735428,,,
729717138.945729,-52.619164,10.090515,108.932328,-0.098328,-0.745163,0.495911,-1.989983,0.277046,-0.207099,93.770294,71.439301,-115.735428,,,
729717138.946371,-52.619179,10.090513,144.468679,-0.098328,-0.745163,0.495911,-2.128471,0.262765,-0.271999,93.770294,71.439301,-115.735428,,,
729717138.94969,-53.225158,10.212784,105.913399,-0.098328,-0.745163,0.495911,-2.128471,0.262765,-0.271999,93.770294,71.439301,-115.735428,,,
729717138.950609,-53.225138,10.212786,108.990246,-0.098328,-0.745163,0.495911,-2.128471,0.262765,-0.271999,93.770294,71.439301,-115.735428,,,
729717138.950719,-53.225153,10.212783,144.526599,-0.098328,-0.745163,0.495911,-2.128471,0.262765,-0.271999,93.770294,71.439301,-115.735428,,,
729717138.952703,-53.848812,10.324969,105.961023,-0.083389,-0.739471,0.491928,-2.128471,0.262765,-0.271999,93.770294,71.439301,-115.735428,,,
729717138.95386,-53.848791,10.324971,109.037869,-0.083389,-0.739471,0.491928,-2.128471,0.262765,-0.271999,93.770294,71.439301,-115.735428,,,
729717138.954034,-53.848807,10.324969,144.57422,-0.083389,-0.739471,0.491928,-2.128471,0.262765,-0.271999,93.770294,71.439301,-115.735428,,,
729717138.955339,-53.848812,10.324969,105.961023,-0.083389,-0.739471,0.491928,-2.128471,0.262765,-0.271999,93.770294,71.439301,-115.735428,,,
729717138.955693,-53.848791,10.324971,109.037869,-0.083389,-0.739471,0.491928,-2.128471,0.262765,-0.271999,93.770294,71.439301,-115.735428,,,
729717138.956351,-53.848807,10.324969,144.57422,-0.083389,-0.739471,0.491928,-2.214509,0.258287,-0.354123,93.770294,71.439301,-115.735428,,,
729717138.959488,-54.486543,10.426038,105.995344,-0.083389,-0.739471,0.491928,-2.214509,0.258287,-0.354123,93.770294,71.439301,-115.735428,,,
729717138.96027,-54.486522,10.42604,109.072191,-0.083389,-0.739471,0.491928,-2.214509,0.258287,-0.354123,93.770294,71.439301,-115.735428,,,
729717138.960367,-54.486538,10.426038,144.608545,-0.083389,-0.739471,0.491928,-2.214509,0.258287,-0.354123,93.770294,71.439301,-115.735428,,,
729717138.962527,-55.135407,10.516239,106.013521,-0.078827,-0.745438,0.494781,-2.214509,0.258287,-0.354123,93.770294,71.439301,-115.735428,,,
729717138.96329,-55.135386,10.51624,109.090367,-0.078827,-0.745438,0.494781,-2.214509,0.258287,-0.354123,93.770294,71.439301,-115.735428,,,
729717138.963454,-55.135402,10.516238,144.626722,-0.078827,-0.745438,0.494781,-2.214509,0.258287,-0.354123,93.770294,71.439301,-115.735428,,,
729717138.965444,-55.135407,10.516239,106.013521,-0.078827,-0.745438,0.494781,-2.214509,0.258287,-0.354123,93.770294,71.439301,-115.735428,,,
729717138.965731,-55.135386,10.51624,109.090367,-0.078827,-0.745438,0.494781,-2.214509,0.258287,-0.354123,93.770294,71.439301,-115.735428,,,
729717138.966431,-55.135402,10.516238,144.626722,-0.078827,-0.745438,0.494781,-2.252104,0.302801,-0.448392,93.770294,71.439301,-115.735428,,,
729717138.969757,-55.79203,10.596734,106.012,-0.078827,-0.745438,0.494781,-2.252104,0.302801,-0.448392,93.770294,71.439301,-115.735428,,,
729717138.970864,-55.792009,10.596735,109.088846,-0.078827,-0.745438,0.494781,-2.252104,0.302801,-0.448392,93.770294,71.439301,-115.735428,,,
729717138.971013,-55.792025,10.596733,144.625205,-0.078827,-0.745438,0.494781,-2.252104,0.302801,-0.448392,93.770294,71.439301,-115.735428,,,
729717138.972876,-56.452589,10.670212,105.988755,-0.076584,-0.761017,0.504303,-2.252104,0.302801,-0.448392,93.770294,71.439301,-115.735428,,,
729717138.973982,-56.452567,10.670214,109.065601,-0.076584,-0.761017,0.504303,-2.252104,0.302801,-0.448392,93.770294,71.439301,-115.735428,,,
729717138.974124,-56.452583,10.670212,144.601957,-0.076584,-0.761017,0.504303,-2.252104,0.302801,-0.448392,93.770294,71.439301,-115.735428,,,
729717138.975405,-56.452589,10.670212,105.988755,-0.076584,-0.761017,0.504303,-2.252104,0.302801,-0.448392,93.770294,71.439301,-115.735428,,,
729717138.97575,-56.452567,10.670214,109.065601,-0.076584,-0.761017,0.504303,-2.252104,0.302801,-0.448392,93.770294,71.439301,-115.735428,,,
729717138.976417,-56.452583,10.670212,144.601957,-0.076584,-0.761017,0.504303,-2.256999,0.410949,-0.534064,93.770294,71.439301,-115.735428,,,
729717138.980089,-57.116264,10.741792,105.944823,-0.076584,-0.761017,0.504303,-2.256999,0.410949,-0.534064,93.770294,71.439301,-115.735428,,,
729717138.981444,-57.116242,10.741794,109.021668,-0.076584,-0.761017,0.504303,-2.256999,0.410949,-0.534064,93.770294,71.439301,-115.735428,,,
