Time (sec),Pitch (deg),Roll (deg),Yaw(deg),X-Acceleration (g),Y-Acceleration (g),Z-Acceleration (g),Pitch Rate (deg/sec),Roll Rate (deg/sec),Yaw Rate (deg/sec),Magnetic Field in X direction (uT),Magnetic Field in Y direction (uT),Magnetic Field in Z Direction (uT),Latitude (deg),Longitude (deg),Altitude (m)
729706539.534973,-2.751739,-1.020435,165.870788,0.000458,-0.044464,0.98053,0.050779,-0.067973,-0.017904,86.544296,14.709473,-147.438965,,,
729706539.538205,-2.751739,-1.020435,165.870788,0.000458,-0.044464,0.98053,0.050779,-0.067973,-0.017904,86.544296,14.709473,-147.438965,,,
729706539.541573,-2.737615,-1.042953,165.865595,0.000458,-0.044464,0.98053,0.050779,-0.067973,-0.017904,86.544296,14.709473,-147.438965,,,
729706539.544872,-2.725471,-1.066078,165.859545,0.007278,-0.043472,0.973343,0.038531,-0.078614,-0.02402,86.544296,14.709473,-147.438965,,,
729706539.54821,-2.725471,-1.066078,165.859545,0.007278,-0.043472,0.973343,0.038531,-0.078614,-0.02402,86.544296,14.709473,-147.438965,,,
729706539.551583,-2.716434,-1.089975,165.852974,0.007278,-0.043472,0.973343,0.038531,-0.078614,-0.02402,86.544296,14.709473,-147.438965,,,
729706539.554974,-2.709544,-1.110854,165.845925,0.014816,-0.042313,0.973999,0.020101,-0.064124,-0.027315,86.544296,14.709473,-147.438965,,,
729706539.558199,-2.709544,-1.110854,165.845925,0.014816,-0.042313,0.973999,0.020101,-0.064124,-0.027315,86.544296,14.709473,-147.438965,,,
729706539.561554,-2.706676,-1.12826,165.838753,0.014816,-0.042313,0.973999,0.020101,-0.064124,-0.027315,86.544296,14.709473,-147.438965,,,
729706539.564886,-2.706011,-1.141433,165.831278,0.022125,-0.041641,0.978775,-0.003209,-0.032532,-0.028848,86.544296,14.709473,-147.438965,,,
729706539.568214,-2.706011,-1.141433,165.831278,0.022125,-0.041641,0.978775,-0.003209,-0.032532,-0.028848,86.544296,14.709473,-147.438965,,,
729706539.571561,-2.709867,-1.147132,165.823895,0.022125,-0.041641,0.978775,-0.003209,-0.032532,-0.028848,86.544296,14.709473,-147.438965,,,
729706539.574955,-2.714616,-1.148599,165.817323,0.022949,-0.044693,0.98851,-0.021017,0.009282,-0.022281,86.215256,15.004669,-147.19342,,,
729706539.578205,-2.714616,-1.148599,165.817323,0.022949,-0.044693,0.98851,-0.021017,0.009282,-0.022281,86.215256,15.004669,-147.19342,,,
729706539.581547,-2.723936,-1.140738,165.812022,0.022949,-0.044693,0.98851,-0.021017,0.009282,-0.022281,86.215256,15.004669,-147.19342,,,
729706539.584884,-2.73205,-1.131839,165.808087,0.018646,-0.048645,0.991776,-0.029144,0.040794,-0.011431,86.215256,15.004669,-147.19342,,,
729706539.588245,-2.73205,-1.131839,165.808087,0.018646,-0.048645,0.991776,-0.029144,0.040794,-0.011431,86.215256,15.004669,-147.19342,,,
729706539.591564,-2.742926,-1.114001,165.80597,0.018646,-0.048645,0.991776,-0.029144,0.040794,-0.011431,86.215256,15.004669,-147.19342,,,
729706539.594881,-2.752855,-1.100562,165.804893,0.012726,-0.052063,0.988586,-0.036382,0.051008,-0.002103,86.215256,15.004669,-147.19342,,,
729706539.598216,-2.752855,-1.100562,165.804893,0.012726,-0.052063,0.988586,-0.036382,0.051008,-0.002103,86.215256,15.004669,-147.19342,,,
729706539.601547,-2.764698,-1.081359,165.805601,0.012726,-0.052063,0.988586,-0.036382,0.051008,-0.002103,86.215256,15.004669,-147.19342,,,
729706539.604874,-2.775051,-1.070087,165.807296,0.005188,-0.051376,0.981903,-0.034602,0.03654,0.006702,86.215256,15.004669,-147.19342,,,
729706539.608308,-2.775051,-1.070087,165.807296,0.005188,-0.051376,0.981903,-0.034602,0.03654,0.006702,86.215256,15.004669,-147.19342,,,
729706539.61154,-2.784498,-1.057577,165.810098,0.005188,-0.051376,0.981903,-0.034602,0.03654,0.006702,86.215256,15.004669,-147.19342,,,
729706539.614878,-2.793027,-1.053574,165.812636,0.001801,-0.051025,0.977966,-0.028326,0.010181,0.006326,86.426285,14.845078,-147.361572,,,
729706539.618212,-2.793027,-1.053574,165.812636,0.001801,-0.051025,0.977966,-0.028326,0.010181,0.006326,86.426285,14.845078,-147.361572,,,
729706539.621541,-2.799961,-1.050365,165.814312,0.001801,-0.051025,0.977966,-0.028326,0.010181,0.006326,86.426285,14.845078,-147.361572,,,
729706539.624973,-2.807585,-1.053939,165.814462,0.004166,-0.045609,0.974503,-0.027253,-0.014244,-0.003201,86.426285,14.845078,-147.361572,,,
729706539.628202,-2.807585,-1.053939,165.814462,0.004166,-0.045609,0.974503,-0.027253,-0.014244,-0.003201,86.426285,14.845078,-147.361572,,,
729706539.631555,-2.815388,-1.058492,165.812604,0.004166,-0.045609,0.974503,-0.027253,-0.014244,-0.003201,86.426285,14.845078,-147.361572,,,
729706539.634887,-2.825219,-1.065882,165.808728,0.009628,-0.04512,0.97525,-0.036202,-0.022423,-0.016551,86.426285,14.845078,-147.361572,,,
729706539.638186,-2.825219,-1.065882,165.808728,0.009628,-0.04512,0.97525,-0.036202,-0.022423,-0.016551,86.426285,14.845078,-147.361572,,,
729706539.641561,-2.835028,-1.073012,165.802966,0.009628,-0.04512,0.97525,-0.036202,-0.022423,-0.016551,86.426285,14.845078,-147.361572,,,
729706539.644878,-2.847626,-1.07836,165.795744,0.013062,-0.046204,0.980392,-0.047517,-0.01082,-0.026582,86.426285,14.845078,-147.361572,,,
729706539.648113,-2.847626,-1.07836,165.795744,0.013062,-0.046204,0.980392,-0.047517,-0.01082,-0.026582,86.426285,14.845078,-147.361572,,,
729706539.65156,-2.861308,-1.081771,165.788288,0.013062,-0.046204,0.980392,-0.047517,-0.01082,-0.026582,86.426285,14.845078,-147.361572,,,
729706539.654896,-2.861308,-1.081771,165.788288,0.012283,-0.05188,0.992126,-0.062177,0.009215,-0.023858,86.429535,15.120987,-147.478073,,,
729706539.658218,-2.877897,-1.081555,165.781219,0.012283,-0.05188,0.992126,-0.062177,0.009215,-0.023858,86.429535,15.120987,-147.478073,,,
729706539.661544,-2.895946,-1.078815,165.775868,0.012283,-0.05188,0.992126,-0.062177,0.009215,-0.023858,86.429535,15.120987,-147.478073,,,
729706539.664874,-2.895946,-1.078815,165.775868,0.008255,-0.057419,1.00087,-0.068455,0.029027,-0.003318,86.429535,15.120987,-147.478073,,,
729706539.66822,-2.915368,-1.072739,165.773469,0.008255,-0.057419,1.00087,-0.068455,0.029027,-0.003318,86.429535,15.120987,-147.478073,,,
729706539.671584,-2.935194,-1.064331,165.774139,0.008255,-0.057419,1.00087,-0.068455,0.029027,-0.003318,86.429535,15.120987,-147.478073,,,
729706539.674889,-2.935194,-1.064331,165.774139,0.004425,-0.060211,1.004517,-0.069928,0.032568,0.014497,86.429535,15.120987,-147.478073,,,
729706539.678214,-2.955263,-1.055838,165.777338,0.004425,-0.060211,1.004517,-0.069928,0.032568,0.014497,86.429535,15.120987,-147.478073,,,
729706539.681543,-2.975389,-1.045798,165.782557,0.004425,-0.060211,1.004517,-0.069928,0.032568,0.014497,86.429535,15.120987,-147.478073,,,
729706539.68489,-2.975389,-1.045798,165.782557,0.004257,-0.062988,1.000549,-0.069352,0.02322,0.026274,86.429535,15.120987,-147.478073,,,
729706539.688233,-2.995357,-1.038391,165.789404,0.004257,-0.062988,1.000549,-0.069352,0.02322,0.026274,86.429535,15.120987,-147.478073,,,
729706539.691548,-3.015749,-1.030644,165.797247,0.004257,-0.062988,1.000549,-0.069352,0.02322,0.026274,86.429535,15.120987,-147.478073,,,
729706539.69489,-3.015749,-1.030644,165.797247,0.004257,-0.062988,1.000549,-0.069352,0.02322,0.026274,86.429535,15.120987,-147.478073,,,
729706539.698217,-3.036757,-1.027566,165.804762,0.003357,-0.057297,0.99469,-0.07391,0.008628,0.025008,86.493881,14.919373,-147.362396,,,
729706539.701338,-3.058276,-1.024158,165.812129,0.003357,-0.057297,0.99469,-0.07391,0.008628,0.025008,86.493881,14.919373,-147.362396,,,
729706539.704969,-3.058276,-1.024158,165.812129,0.003357,-0.057297,0.99469,-0.080251,-0.014717,0.02198,86.493881,14.919373,-147.362396,,,
729706539.708207,-3.081124,-1.027034,165.818897,0.004059,-0.051498,0.987503,-0.080251,-0.014717,0.02198,86.493881,14.919373,-147.362396,,,
729706539.711554,-3.103728,-1.030326,165.8251,0.004059,-0.051498,0.987503,-0.080251,-0.014717,0.02198,86.493881,14.919373,-147.362396,,,
729706539.714939,-3.103728,-1.030326,165.8251,0.004059,-0.051498,0.987503,-0.095726,-0.025958,0.017555,86.493881,14.919373,-147.362396,,,
729706539.718219,-3.129896,-1.037507,165.830505,0.008621,-0.052841,0.988968,-0.095726,-0.025958,0.017555,86.493881,14.919373,-147.362396,,,
729706539.721547,-3.156039,-1.043583,165.835093,0.008621,-0.052841,0.988968,-0.095726,-0.025958,0.017555,86.493881,14.919373,-147.362396,,,
729706539.724907,-3.156039,-1.043583,165.835093,0.008621,-0.052841,0.988968,-0.093978,-0.018718,0.013846,86.493881,14.919373,-147.362396,,,
729706539.728213,-3.183445,-1.050227,165.839065,0.015244,-0.060837,1.00029,-0.093978,-0.018718,0.013846,86.493881,14.919373,-147.362396,,,
729706539.73154,-3.208718,-1.053362,165.843189,0.015244,-0.060837,1.00029,-0.093978,-0.018718,0.013846,86.493881,14.919373,-147.362396,,,
729706539.734959,-3.208718,-1.053362,165.843189,0.015244,-0.060837,1.00029,-0.093978,-0.018718,0.013846,86.493881,14.919373,-147.362396,,,
729706539.738204,-3.232419,-1.054177,165.847083,0.016403,-0.066864,1.019409,-0.075696,0.005548,0.012349,86.425919,15.428055,-147.553696,,,
729706539.741547,-3.252183,-1.050565,165.851537,0.016403,-0.066864,1.019409,-0.075696,0.005548,0.012349,86.425919,15.428055,-147.553696,,,
729706539.744839,-3.252183,-1.050565,165.851537,0.016403,-0.066864,1.019409,-0.075696,0.005548,0.012349,86.425919,15.428055,-147.553696,,,
729706539.748219,-3.267366,-1.046637,165.856213,0.018784,-0.068039,1.030014,-0.043079,0.018933,0.01395,86.425919,15.428055,-147.553696,,,
729706539.751566,-3.278342,-1.0384,165.861726,0.018784,-0.068039,1.030014,-0.043079,0.018933,0.01395,86.425919,15.428055,-147.553696,,,
729706539.754938,-3.278342,-1.0384,165.861726,0.018784,-0.068039,1.030014,-0.01924,0.030256,0.024227,86.425919,15.428055,-147.553696,,,
729706539.758281,-3.285646,-1.031111,165.868627,0.016525,-0.067993,1.02861,-0.01924,0.030256,0.024227,86.425919,15.428055,-147.553696,,,
729706539.761537,-3.291146,-1.019768,165.876558,0.016525,-0.067993,1.02861,-0.01924,0.030256,0.024227,86.425919,15.428055,-147.553696,,,
729706539.764521,-3.291146,-1.019768,165.876558,0.016525,-0.067993,1.02861,-0.01924,0.030256,0.024227,86.425919,15.428055,-147.553696,,,
729706539.76829,-3.294104,-1.01228,165.885145,0.013199,-0.063904,1.019058,-0.007698,0.025358,0.029848,86.425919,15.428055,-147.553696,,,
729706539.771573,-3.296523,-1.003308,165.894127,0.013199,-0.063904,1.019058,-0.007698,0.025358,0.029848,86.425919,15.428055,-147.553696,,,
729706539.774913,-3.296523,-1.003308,165.894127,0.013199,-0.063904,1.019058,-0.007698,0.025358,0.029848,86.425919,15.428055,-147.553696,,,
729706539.778161,-3.297813,-1.000274,165.90277,0.011963,-0.058441,1.005157,-0.003636,0.005544,0.028688,86.344757,15.424164,-147.291641,,,
729706539.781643,-3.298443,-0.996946,165.91168,0.011963,-0.058441,1.005157,-0.003636,0.005544,0.028688,86.344757,15.424164,-147.291641,,,
729706539.784973,-3.298443,-0.996946,165.91168,0.011963,-0.058441,1.005157,-0.003636,0.005544,0.028688,86.344757,15.424164,-147.291641,,,
729706539.788013,-3.299896,-0.999052,165.919626,0.013504,-0.057632,0.999298,-0.004833,-0.009424,0.023323,86.344757,15.424164,-147.291641,,,
729706539.791574,-3.300418,-1.000484,165.926956,0.013504,-0.057632,0.999298,-0.004833,-0.009424,0.023323,86.344757,15.424164,-147.291641,,,
729706539.794878,-3.300418,-1.000484,165.926956,0.013504,-0.057632,0.999298,-0.004833,-0.009424,0.023323,86.344757,15.424164,-147.291641,,,
729706539.797911,-3.300858,-1.005913,165.933795,0.017441,-0.061005,0.999237,0.001566,-0.019459,0.020818,86.344757,15.424164,-147.291641,,,
729706539.801684,-3.29914,-1.010724,165.939441,0.017441,-0.061005,0.999237,0.001566,-0.019459,0.020818,86.344757,15.424164,-147.291641,,,
729706539.804862,-3.29914,-1.010724,165.939441,0.017441,-0.061005,0.999237,0.001566,-0.019459,0.020818,86.344757,15.424164,-147.291641,,,
729706539.808237,-3.296243,-1.016104,165.944201,0.022141,-0.060791,1.004471,0.012228,-0.014472,0.014949,86.344757,15.424164,-147.291641,,,
729706539.811551,-3.294047,-1.019441,165.948854,0.022141,-0.060791,1.004471,0.012228,-0.014472,0.014949,86.344757,15.424164,-147.291641,,,
729706539.814898,-3.294047,-1.019441,165.948854,0.022141,-0.060791,1.004471,0.012228,-0.014472,0.014949,86.344757,15.424164,-147.291641,,,
729706539.81823,-3.29074,-1.021057,165.953466,0.025726,-0.056396,1.00856,0.011271,0.000596,0.014837,86.344757,15.424164,-147.291641,,,
729706539.821545,-3.29026,-1.02044,165.958601,0.025726,-0.056396,1.00856,0.011271,0.000596,0.014837,86.278732,15.457001,-147.367004,,,
729706539.824875,-3.29026,-1.02044,165.958601,0.025726,-0.056396,1.00856,0.011271,0.000596,0.014837,86.278732,15.457001,-147.367004,,,
729706539.828217,-3.289886,-1.018354,165.963792,0.02562,-0.054642,1.004288,-0.000745,0.01149,0.015456,86.278732,15.457001,-147.367004,,,
729706539.831554,-3.29228,-1.015345,165.96871,0.02562,-0.054642,1.004288,-0.000745,0.01149,0.015456,86.278732,15.457001,-147.367004,,,
729706539.834874,-3.29228,-1.015345,165.96871,0.02562,-0.054642,1.004288,-0.000745,0.01149,0.015456,86.278732,15.457001,-147.367004,,,
729706539.838216,-3.293151,-1.011209,165.97346,0.021713,-0.057281,1.000778,-0.001595,0.01854,0.014227,86.278732,15.457001,-147.367004,,,
729706539.841397,-3.295085,-1.00585,165.977424,0.021713,-0.057281,1.000778,-0.001595,0.01854,0.014227,86.278732,15.457001,-147.367004,,,
729706539.844894,-3.295085,-1.00585,165.977424,0.021713,-0.057281,1.000778,-0.001595,0.01854,0.014227,86.278732,15.457001,-147.367004,,,
729706539.848314,-3.295306,-1.002174,165.98051,0.020569,-0.056,1.000946,0.002314,0.012828,0.00837,86.278732,15.457001,-147.367004,,,
729706539.851533,-3.29397,-0.998574,165.983487,0.020569,-0.056,1.000946,0.002314,0.012828,0.00837,86.278732,15.457001,-147.367004,,,
729706539.854875,-3.29397,-0.998574,165.983487,0.020569,-0.056,1.000946,0.002314,0.012828,0.00837,86.278732,15.457001,-147.367004,,,
729706539.858282,-3.290146,-0.998222,165.986449,0.018936,-0.055771,0.999634,0.016815,-0.002188,0.008393,86.278732,15.457001,-147.367004,,,
729706539.861532,-3.284089,-0.999583,165.989544,0.018936,-0.055771,0.999634,0.016815,-0.002188,0.008393,86.307693,15.219559,-147.480209,,,
729706539.864838,-3.284089,-0.999583,165.989544,0.018936,-0.055771,0.999634,0.016815,-0.002188,0.008393,86.307693,15.219559,-147.480209,,,
729706539.868213,-3.275968,-1.004311,165.992706,0.017151,-0.060532,0.99585,0.031569,-0.018044,0.009029,86.307693,15.219559,-147.480209,,,
729706539.871543,-3.26661,-1.010643,165.996329,0.017151,-0.060532,0.99585,0.031569,-0.018044,0.009029,86.307693,15.219559,-147.480209,,,
729706539.874877,-3.26661,-1.010643,165.996329,0.017151,-0.060532,0.99585,0.031569,-0.018044,0.009029,86.307693,15.219559,-147.480209,,,
729706539.878224,-3.255661,-1.018405,166.000209,0.01976,-0.060074,0.994598,0.039912,-0.025419,0.010817,86.307693,15.219559,-147.480209,,,
729706539.881545,-3.245047,-1.026533,166.003769,0.01976,-0.060074,0.994598,0.039912,-0.025419,0.010817,86.307693,15.219559,-147.480209,,,
729706539.884571,-3.245047,-1.026533,166.003769,0.01976,-0.060074,0.994598,0.039912,-0.025419,0.010817,86.307693,15.219559,-147.480209,,,
729706539.888249,-3.233884,-1.032048,166.007039,0.024506,-0.057358,0.998291,0.037625,-0.011481,0.008571,86.307693,15.219559,-147.480209,,,
729706539.891534,-3.224162,-1.035683,166.009853,0.024506,-0.057358,0.998291,0.037625,-0.011481,0.008571,86.307693,15.219559,-147.480209,,,
729706539.894889,-3.224162,-1.035683,166.009853,0.024506,-0.057358,0.998291,0.037625,-0.011481,0.008571,86.307693,15.219559,-147.480209,,,
729706539.898223,-3.215084,-1.034298,166.012389,0.027634,-0.055862,0.998627,0.03123,0.013577,0.00623,86.307693,15.219559,-147.480209,,,
729706539.90155,-3.206609,-1.031842,166.01516,0.027634,-0.055862,0.998627,0.03123,0.013577,0.00623,86.253296,15.142578,-147.121918,,,
729706539.904873,-3.206609,-1.031842,166.01516,0.027634,-0.055862,0.998627,0.03123,0.013577,0.00623,86.253296,15.142578,-147.121918,,,
729706539.908205,-3.199787,-1.025697,166.018558,0.024261,-0.055664,0.992935,0.022682,0.026808,0.010049,86.253296,15.142578,-147.121918,,,
729706539.911576,-3.194563,-1.020279,166.022233,0.024261,-0.055664,0.992935,0.022682,0.026808,0.010049,86.253296,15.142578,-147.121918,,,
729706539.914873,-3.194563,-1.020279,166.022233,0.024261,-0.055664,0.992935,0.022682,0.026808,0.010049,86.253296,15.142578,-147.121918,,,
729706539.91821,-3.190256,-1.014961,166.026424,0.020081,-0.053329,0.985321,0.016454,0.0172,0.013237,86.253296,15.142578,-147.121918,,,
729706539.921553,-3.18636,-1.011833,166.030646,0.020081,-0.053329,0.985321,0.016454,0.0172,0.013237,86.253296,15.142578,-147.121918,,,
729706539.924875,-3.18636,-1.011833,166.030646,0.020081,-0.053329,0.985321,0.016454,0.0172,0.013237,86.253296,15.142578,-147.121918,,,
729706539.928244,-3.183167,-1.009836,166.034543,0.01947,-0.051453,0.979431,0.010412,0.005699,0.010855,86.253296,15.142578,-147.121918,,,
729706539.931535,-3.180974,-1.010218,166.037919,0.01947,-0.051453,0.979431,0.010412,0.005699,0.010855,86.253296,15.142578,-147.121918,,,
729706539.934875,-3.180974,-1.010218,166.037919,0.01947,-0.051453,0.979431,0.010412,0.005699,0.010855,86.253296,15.142578,-147.121918,,,
729706539.938212,-3.180425,-1.011528,166.040577,0.020767,-0.047485,0.977631,0.00013,-0.004449,0.005821,86.253296,15.142578,-147.121918,,,
729706539.941579,-3.182223,-1.013216,166.042061,0.020767,-0.047485,0.977631,0.00013,-0.004449,0.005821,86.312561,15.425201,-147.27774,,,
729706539.944894,-3.182223,-1.013216,166.042061,0.020767,-0.047485,0.977631,0.00013,-0.004449,0.005821,86.312561,15.425201,-147.27774,,,
729706539.948214,-3.185388,-1.015785,166.042427,0.023102,-0.046814,0.979401,-0.012966,-0.008905,-0.00164,86.312561,15.425201,-147.27774,,,
729706539.951544,-3.190085,-1.018173,166.04185,0.023102,-0.046814,0.979401,-0.012966,-0.008905,-0.00164,86.312561,15.425201,-147.27774,,,
729706539.954882,-3.190085,-1.018173,166.04185,0.023102,-0.046814,0.979401,-0.012966,-0.008905,-0.00164,86.312561,15.425201,-147.27774,,,
729706539.958237,-3.19375,-1.018759,166.041128,0.023453,-0.052109,0.98909,-0.011365,0.003079,-0.002729,86.312561,15.425201,-147.27774,,,
729706539.961303,-3.197628,-1.018501,166.040449,0.023453,-0.052109,0.98909,-0.011365,0.003079,-0.002729,86.312561,15.425201,-147.27774,,,
729706539.964914,-3.197628,-1.018501,166.040449,0.023453,-0.052109,0.98909,-0.011365,0.003079,-0.002729,86.312561,15.425201,-147.27774,,,
729706539.968218,-3.200646,-1.014773,166.039154,0.024017,-0.05722,0.998611,-0.01002,0.021232,-0.007363,86.312561,15.425201,-147.27774,,,
729706539.97154,-3.202764,-1.010754,166.038032,0.024017,-0.05722,0.998611,-0.01002,0.021232,-0.007363,86.312561,15.425201,-147.27774,,,
729706539.974982,-3.202764,-1.010754,166.038032,0.024017,-0.05722,0.998611,-0.01002,0.021232,-0.007363,86.312561,15.425201,-147.27774,,,
729706539.978202,-3.203566,-1.004123,166.038114,0.021057,-0.061249,1.002716,-0.001173,0.025383,0.000113,86.312561,15.425201,-147.27774,,,
729706539.981548,-3.202989,-0.999817,166.03911,0.021057,-0.061249,1.002716,-0.001173,0.025383,0.000113,86.312561,15.425201,-147.27774,,,
729706539.984928,-3.202989,-0.999817,166.03911,0.021057,-0.061249,1.002716,-0.001173,0.025383,0.000113,86.322693,15.140259,-147.351242,,,
729706539.988204,-3.200902,-0.99404,166.04111,0.017456,-0.061844,1.001602,0.008588,0.021253,0.006163,86.322693,15.140259,-147.351242,,,
729706539.991566,-3.197362,-0.991158,166.043687,0.017456,-0.061844,1.001602,0.008588,0.021253,0.006163,86.322693,15.140259,-147.351242,,,
729706539.994877,-3.197362,-0.991158,166.043687,0.017456,-0.061844,1.001602,0.008588,0.021253,0.006163,86.322693,15.140259,-147.351242,,,
729706539.99821,-3.192984,-0.989496,166.046487,0.015259,-0.05867,0.995743,0.016157,0.005601,0.007202,86.322693,15.140259,-147.351242,,,
729706540.00155,-3.189139,-0.990675,166.049034,0.015259,-0.05867,0.995743,0.016157,0.005601,0.007202,86.322693,15.140259,-147.351242,,,
729706540.004883,-3.189139,-0.990675,166.049034,0.015259,-0.05867,0.995743,0.016157,0.005601,0.007202,86.322693,15.140259,-147.351242,,,
729706540.008239,-3.186963,-0.993696,166.051206,0.014862,-0.053864,0.98674,0.00633,-0.010651,0.00455,86.322693,15.140259,-147.351242,,,
729706540.011563,-3.184959,-0.999926,166.052437,0.014862,-0.053864,0.98674,0.00633,-0.010651,0.00455,86.322693,15.140259,-147.351242,,,
729706540.01489,-3.184959,-0.999926,166.052437,0.014862,-0.053864,0.98674,0.00633,-0.010651,0.00455,86.322693,15.140259,-147.351242,,,
729706540.018208,-3.185271,-1.007635,166.052726,0.018661,-0.050873,0.983002,-0.003649,-0.026571,-0.002213,86.322693,15.140259,-147.351242,,,
729706540.021553,-3.186325,-1.017186,166.051642,0.018661,-0.050873,0.983002,-0.003649,-0.026571,-0.002213,86.322693,15.140259,-147.351242,,,
729706540.024875,-3.186325,-1.017186,166.051642,0.018661,-0.050873,0.983002,-0.003649,-0.026571,-0.002213,86.454453,15.169815,-147.406418,,,
729706540.028208,-3.191479,-1.025061,166.04936,0.022507,-0.051071,0.982208,-0.022783,-0.021486,-0.010619,86.454453,15.169815,-147.406418,,,
729706540.031543,-3.19811,-1.0326,166.046098,0.022507,-0.051071,0.982208,-0.022783,-0.021486,-0.010619,86.454453,15.169815,-147.406418,,,
729706540.03487,-3.19811,-1.0326,166.046098,0.022507,-0.051071,0.982208,-0.022783,-0.021486,-0.010619,86.454453,15.169815,-147.406418,,,
729706540.038245,-3.207131,-1.036744,166.042224,0.026779,-0.053406,0.988083,-0.032623,-0.005795,-0.015142,86.454453,15.169815,-147.406418,,,
729706540.04155,-3.21672,-1.038818,166.03787,0.026779,-0.053406,0.988083,-0.032623,-0.005795,-0.015142,86.454453,15.169815,-147.406418,,,
729706540.044872,-3.21672,-1.038818,166.03787,0.026779,-0.053406,0.988083,-0.032623,-0.005795,-0.015142,86.454453,15.169815,-147.406418,,,
729706540.048053,-3.225965,-1.035322,166.03375,0.025192,-0.059372,1.001617,-0.029353,0.024059,-0.014122,86.454453,15.169815,-147.406418,,,
729706540.051561,-3.233957,-1.028817,166.030749,0.025192,-0.059372,1.001617,-0.029353,0.024059,-0.014122,86.454453,15.169815,-147.406418,,,
729706540.054894,-3.233957,-1.028817,166.030749,0.025192,-0.059372,1.001617,-0.029353,0.024059,-0.014122,86.454453,15.169815,-147.406418,,,
729706540.057947,-3.238802,-1.017779,166.029753,0.022217,-0.065063,1.013641,-0.01006,0.0469,-0.001009,86.454453,15.169815,-147.406418,,,
729706540.061579,-3.241361,-1.004307,166.029805,0.022217,-0.065063,1.013641,-0.01006,0.0469,-0.001009,86.454453,15.169815,-147.406418,,,
729706540.06487,-3.241361,-1.004307,166.029805,0.022217,-0.065063,1.013641,-0.01006,0.0469,-0.001009,86.335373,15.4841,-147.400696,,,
729706540.068292,-3.24064,-0.989207,166.030314,0.018585,-0.064148,1.012192,0.006703,0.057235,0.001806,86.335373,15.4841,-147.400696,,,
729706540.07156,-3.238556,-0.973581,166.031732,0.018585,-0.064148,1.012192,0.006703,0.057235,0.001806,86.335373,15.4841,-147.400696,,,
729706540.074969,-3.238556,-0.973581,166.031732,0.018585,-0.064148,1.012192,0.006703,0.057235,0.001806,86.335373,15.4841,-147.400696,,,
729706540.078209,-3.234743,-0.958729,166.033511,0.013763,-0.059433,1.0047,0.014442,0.052184,0.004225,86.335373,15.4841,-147.400696,,,
729706540.081551,-3.230895,-0.945982,166.035429,0.013763,-0.059433,1.0047,0.014442,0.052184,0.004225,86.335373,15.4841,-147.400696,,,
729706540.084873,-3.230895,-0.945982,166.035429,0.013763,-0.059433,1.0047,0.014442,0.052184,0.004225,86.335373,15.4841,-147.400696,,,
729706540.088348,-3.22753,-0.937553,166.037132,0.007874,-0.053268,0.993622,0.01047,0.025316,0.002965,86.335373,15.4841,-147.400696,,,
729706540.091537,-3.223966,-0.933782,166.03805,0.007874,-0.053268,0.993622,0.01047,0.025316,0.002965,86.335373,15.4841,-147.400696,,,
729706540.094901,-3.223966,-0.933782,166.03805,0.007874,-0.053268,0.993622,0.01047,0.025316,0.002965,86.335373,15.4841,-147.400696,,,
729706540.098215,-3.221528,-0.93504,166.038196,0.005524,-0.051926,0.983078,0.006457,-0.009738,-0.00238,86.335373,15.4841,-147.400696,,,
729706540.101541,-3.219942,-0.942206,166.037936,0.005524,-0.051926,0.983078,0.006457,-0.009738,-0.00238,86.335373,15.4841,-147.400696,,,
729706540.10491,-3.219942,-0.942206,166.037936,0.005524,-0.051926,0.983078,0.006457,-0.009738,-0.00238,86.495514,15.344696,-147.421463,,,
729706540.10825,-3.220712,-0.952659,166.037489,0.004929,-0.05162,0.975937,-0.004495,-0.041265,-0.003932,86.495514,15.344696,-147.421463,,,
729706540.111225,-3.221968,-0.968456,166.036323,0.004929,-0.05162,0.975937,-0.004495,-0.041265,-0.003932,86.495514,15.344696,-147.421463,,,
729706540.114953,-3.221968,-0.968456,166.036323,0.004929,-0.05162,0.975937,-0.004495,-0.041265,-0.003932,86.495514,15.344696,-147.421463,,,
729706540.118221,-3.225226,-0.983269,166.035198,0.009811,-0.050522,0.980133,-0.013093,-0.047601,-0.004247,86.495514,15.344696,-147.421463,,,
729706540.121543,-3.229864,-0.998739,166.034332,0.009811,-0.050522,0.980133,-0.013093,-0.047601,-0.004247,86.495514,15.344696,-147.421463,,,
729706540.124875,-3.229864,-0.998739,166.034332,0.009811,-0.050522,0.980133,-0.013093,-0.047601,-0.004247,86.495514,15.344696,-147.421463,,,
729706540.128211,-3.235223,-1.009572,166.03355,0.016251,-0.05336,0.991852,-0.018484,-0.028786,-0.0043,86.495514,15.344696,-147.421463,,,
729706540.131546,-3.241824,-1.017175,166.033057,0.016251,-0.05336,0.991852,-0.018484,-0.028786,-0.0043,86.495514,15.344696,-147.421463,,,
729706540.134871,-3.241824,-1.017175,166.033057,0.016251,-0.05336,0.991852,-0.018484,-0.028786,-0.0043,86.495514,15.344696,-147.421463,,,
729706540.138213,-3.247775,-1.017295,166.033406,0.0224,-0.05481,1.005951,-0.0206,0.014264,0.001112,86.495514,15.344696,-147.421463,,,
729706540.141586,-3.25471,-1.011867,166.03413,0.0224,-0.05481,1.005951,-0.0206,0.014264,0.001112,86.495514,15.344696,-147.421463,,,
729706540.144866,-3.25471,-1.011867,166.03413,0.0224,-0.05481,1.005951,-0.0206,0.014264,0.001112,86.495514,15.344696,-147.421463,,,
729706540.148319,-3.258952,-1.000653,166.035395,0.02359,-0.058685,1.01355,-0.011219,0.050294,0.004476,86.353165,15.270828,-147.522537,,,
729706540.151549,-3.262777,-0.985808,166.038156,0.02359,-0.058685,1.01355,-0.011219,0.050294,0.004476,86.353165,15.270828,-147.522537,,,
729706540.154633,-3.262777,-0.985808,166.038156,0.02359,-0.058685,1.01355,-0.011219,0.050294,0.004476,86.353165,15.270828,-147.522537,,,
729706540.158243,-3.264857,-0.970281,166.042541,0.016953,-0.058914,1.008896,-0.003144,0.055381,0.0157,86.353165,15.270828,-147.522537,,,
729706540.161537,-3.265207,-0.95445,166.048013,0.016953,-0.058914,1.008896,-0.003144,0.055381,0.0157,86.353165,15.270828,-147.522537,,,
729706540.16491,-3.265207,-0.95445,166.048013,0.016953,-0.058914,1.008896,-0.003144,0.055381,0.0157,86.353165,15.270828,-147.522537,,,
729706540.168215,-3.264652,-0.943216,166.053847,0.013611,-0.060211,0.99733,0.003672,0.033988,0.018742,86.353165,15.270828,-147.522537,,,
729706540.171544,-3.262954,-0.934101,166.059562,0.013611,-0.060211,0.99733,0.003672,0.033988,0.018742,86.353165,15.270828,-147.522537,,,
729706540.174876,-3.262954,-0.934101,166.059562,0.013611,-0.060211,0.99733,0.003672,0.033988,0.018742,86.353165,15.270828,-147.522537,,,
729706540.178205,-3.261427,-0.932562,166.064648,0.011322,-0.056519,0.987427,0.008008,-0.002793,0.015188,86.353165,15.270828,-147.522537,,,
729706540.181644,-3.258476,-0.93376,166.068757,0.011322,-0.056519,0.987427,0.008008,-0.002793,0.015188,86.353165,15.270828,-147.522537,,,
729706540.184872,-3.258476,-0.93376,166.068757,0.011322,-0.056519,0.987427,0.008008,-0.002793,0.015188,86.353165,15.270828,-147.522537,,,
729706540.188212,-3.255836,-0.941842,166.070957,0.012207,-0.053406,0.984192,0.010499,-0.032071,0.0029,86.444717,15.490601,-147.606506,,,
729706540.191544,-3.251783,-0.950444,166.071633,0.012207,-0.053406,0.984192,0.010499,-0.032071,0.0029,86.444717,15.490601,-147.606506,,,
729706540.194879,-3.251783,-0.950444,166.071633,0.012207,-0.053406,0.984192,0.010499,-0.032071,0.0029,86.444717,15.490601,-147.606506,,,
729706540.19823,-3.248846,-0.961864,166.070667,0.018616,-0.053497,0.989243,0.008362,-0.036706,-0.007654,86.444717,15.490601,-147.606506,,,
729706540.201541,-3.246238,-0.971749,166.068771,0.018616,-0.053497,0.989243,0.008362,-0.036706,-0.007654,86.444717,15.490601,-147.606506,,,
729706540.204879,-3.246238,-0.971749,166.068771,0.018616,-0.053497,0.989243,0.008362,-0.036706,-0.007654,86.444717,15.490601,-147.606506,,,
729706540.207956,-3.245234,-0.980411,166.066815,0.022736,-0.054169,0.992401,0.001719,-0.022843,-0.00765,86.444717,15.490601,-147.606506,,,
729706540.211575,-3.245305,-0.986635,166.065249,0.022736,-0.054169,0.992401,0.001719,-0.022843,-0.00765,86.444717,15.490601,-147.606506,,,
729706540.214896,-3.245305,-0.986635,166.065249,0.022736,-0.054169,0.992401,0.001719,-0.022843,-0.00765,86.444717,15.490601,-147.606506,,,
729706540.218216,-3.248104,-0.989323,166.0642,0.026611,-0.054947,0.994308,-0.013159,-0.001931,-0.004024,86.444717,15.490601,-147.606506,,,
729706540.221563,-3.253259,-0.990043,166.063671,0.026611,-0.054947,0.994308,-0.013159,-0.001931,-0.004024,86.444717,15.490601,-147.606506,,,
729706540.224881,-3.253259,-0.990043,166.063671,0.026611,-0.054947,0.994308,-0.013159,-0.001931,-0.004024,86.444717,15.490601,-147.606506,,,
729706540.228244,-3.259888,-0.985005,166.063649,0.028336,-0.057541,0.999481,-0.023392,0.027857,-0.000928,86.414154,15.345367,-147.479462,,,
729706540.231457,-3.266949,-0.976952,166.063776,0.028336,-0.057541,0.999481,-0.023392,0.027857,-0.000928,86.414154,15.345367,-147.479462,,,
729706540.234893,-3.266949,-0.976952,166.063776,0.028336,-0.057541,0.999481,-0.023392,0.027857,-0.000928,86.414154,15.345367,-147.479462,,,
729706540.238207,-3.273624,-0.965332,166.064178,0.025299,-0.057983,1.002655,-0.022345,0.048077,0.00068,86.414154,15.345367,-147.479462,,,
729706540.241539,-3.280424,-0.951613,166.064939,0.025299,-0.057983,1.002655,-0.022345,0.048077,0.00068,86.414154,15.345367,-147.479462,,,
729706540.244899,-3.280424,-0.951613,166.064939,0.025299,-0.057983,1.002655,-0.022345,0.048077,0.00068,86.414154,15.345367,-147.479462,,,
729706540.248216,-3.286407,-0.939625,166.065509,0.021667,-0.057892,1.000443,-0.019515,0.040397,-0.000457,86.414154,15.345367,-147.479462,,,
729706540.251544,-3.292478,-0.928667,166.066164,0.021667,-0.057892,1.000443,-0.019515,0.040397,-0.000457,86.414154,15.345367,-147.479462,,,
729706540.254874,-3.292478,-0.928667,166.066164,0.021667,-0.057892,1.000443,-0.019515,0.040397,-0.000457,86.414154,15.345367,-147.479462,,,
729706540.258207,-3.297889,-0.920918,166.066892,0.014801,-0.060471,0.991867,-0.016615,0.024123,0.000311,86.414154,15.345367,-147.479462,,,
729706540.261561,-3.302459,-0.915512,166.067118,0.014801,-0.060471,0.991867,-0.016615,0.024123,0.000311,86.414154,15.345367,-147.479462,,,
729706540.264886,-3.302459,-0.915512,166.067118,0.014801,-0.060471,0.991867,-0.016615,0.024123,0.000311,86.414154,15.345367,-147.479462,,,
729706540.268213,-3.306806,-0.914738,166.066129,0.014526,-0.059479,0.991928,-0.01306,0.000599,-0.007765,86.414154,15.345367,-147.479462,,,
729706540.271542,-3.309089,-0.916251,166.064278,0.014526,-0.059479,0.991928,-0.01306,0.000599,-0.007765,86.480377,15.218704,-147.361237,,,
729706540.27487,-3.309089,-0.916251,166.064278,0.014526,-0.059479,0.991928,-0.01306,0.000599,-0.007765,86.480377,15.218704,-147.361237,,,
729706540.278227,-3.310077,-0.919474,166.061806,0.015839,-0.059708,0.997147,-0.000544,-0.009803,-0.012219,86.480377,15.218704,-147.361237,,,
729706540.28154,-3.308223,-0.924341,166.058142,0.015839,-0.059708,0.997147,-0.000544,-0.009803,-0.012219,86.480377,15.218704,-147.361237,,,
729706540.284874,-3.308223,-0.924341,166.058142,0.015839,-0.059708,0.997147,-0.000544,-0.009803,-0.012219,86.480377,15.218704,-147.361237,,,
729706540.288206,-3.305238,-0.92775,166.054033,0.016266,-0.062683,0.998917,0.01188,-0.006972,-0.015936,86.480377,15.218704,-147.361237,,,
729706540.291557,-3.30036,-0.932042,166.049574,0.016266,-0.062683,0.998917,0.01188,-0.006972,-0.015936,86.480377,15.218704,-147.361237,,,
729706540.294878,-3.30036,-0.932042,166.049574,0.016266,-0.062683,0.998917,0.01188,-0.006972,-0.015936,86.480377,15.218704,-147.361237,,,
729706540.298212,-3.294745,-0.933029,166.045259,0.018311,-0.061081,1.000885,0.020961,0.00279,-0.015845,86.480377,15.218704,-147.361237,,,
729706540.301539,-3.289237,-0.935188,166.041047,0.018311,-0.061081,1.000885,0.020961,0.00279,-0.015845,86.480377,15.218704,-147.361237,,,
729706540.304871,-3.289237,-0.935188,166.041047,0.018311,-0.061081,1.000885,0.020961,0.00279,-0.015845,86.480377,15.218704,-147.361237,,,
729706540.308237,-3.284864,-0.933418,166.037118,0.0186,-0.056915,0.998688,0.01404,0.011536,-0.014845,86.480377,15.218704,-147.361237,,,
729706540.31158,-3.282033,-0.933501,166.033621,0.0186,-0.056915,0.998688,0.01404,0.011536,-0.014845,86.416672,15.29834,-147.47551,,,
729706540.314878,-3.282033,-0.933501,166.033621,0.0186,-0.056915,0.998688,0.01404,0.011536,-0.014845,86.416672,15.29834,-147.47551,,,
729706540.318211,-3.281962,-0.930968,166.030904,0.01236,-0.05571,0.990433,-0.00575,0.011441,-0.010112,86.416672,15.29834,-147.47551,,,
729706540.321538,-3.28452,-0.930707,166.028657,0.01236,-0.05571,0.990433,-0.00575,0.011441,-0.010112,86.416672,15.29834,-147.47551,,,
729706540.324897,-3.28452,-0.930707,166.028657,0.01236,-0.05571,0.990433,-0.00575,0.011441,-0.010112,86.416672,15.29834,-147.47551,,,
729706540.328206,-3.288768,-0.930026,166.027157,0.009521,-0.055771,0.984192,-0.018559,0.003914,-0.005302,86.416672,15.29834,-147.47551,,,
729706540.331541,-3.295206,-0.930677,166.026255,0.009521,-0.055771,0.984192,-0.018559,0.003914,-0.005302,86.416672,15.29834,-147.47551,,,
729706540.334883,-3.295206,-0.930677,166.026255,0.009521,-0.055771,0.984192,-0.018559,0.003914,-0.005302,86.416672,15.29834,-147.47551,,,
729706540.338206,-3.302591,-0.931936,166.025796,0.008698,-0.057892,0.986938,-0.026682,-0.003492,-0.002258,86.416672,15.29834,-147.47551,,,
729706540.341542,-3.311379,-0.933451,166.025531,0.008698,-0.057892,0.986938,-0.026682,-0.003492,-0.002258,86.416672,15.29834,-147.47551,,,
729706540.344876,-3.311379,-0.933451,166.025531,0.008698,-0.057892,0.986938,-0.026682,-0.003492,-0.002258,86.416672,15.29834,-147.47551,,,
729706540.34821,-3.320181,-0.935685,166.025486,0.01123,-0.058655,0.989746,-0.029492,-0.005432,-0.000489,86.416672,15.29834,-147.47551,,,
729706540.35156,-3.329355,-0.937851,166.025732,0.01123,-0.058655,0.989746,-0.029492,-0.005432,-0.000489,86.489227,15.364197,-147.428833,,,
729706540.354985,-3.329355,-0.937851,166.025732,0.01123,-0.058655,0.989746,-0.029492,-0.005432,-0.000489,86.489227,15.364197,-147.428833,,,
729706540.3582,-3.338798,-0.940364,166.026089,0.015945,-0.059402,0.993378,-0.033165,-0.006346,0.000432,86.489227,15.364197,-147.428833,,,
729706540.361572,-3.348788,-0.942824,166.026604,0.015945,-0.059402,0.993378,-0.033165,-0.006346,0.000432,86.489227,15.364197,-147.428833,,,
729706540.364879,-3.348788,-0.942824,166.026604,0.015945,-0.059402,0.993378,-0.033165,-0.006346,0.000432,86.489227,15.364197,-147.428833,,,
729706540.368206,-3.357951,-0.946076,166.027738,0.014755,-0.059631,0.995346,-0.030892,-0.010327,0.004807,86.489227,15.364197,-147.428833,,,
729706540.371597,-3.367846,-0.950118,166.029542,0.014755,-0.059631,0.995346,-0.030892,-0.010327,0.004807,86.489227,15.364197,-147.428833,,,
729706540.374871,-3.367846,-0.950118,166.029542,0.014755,-0.059631,0.995346,-0.030892,-0.010327,0.004807,86.489227,15.364197,-147.428833,,,
729706540.378208,-3.376782,-0.953743,166.031641,0.013519,-0.06485,0.999374,-0.02866,-0.008992,0.006716,86.489227,15.364197,-147.428833,,,
729706540.381553,-3.384961,-0.956953,166.034268,0.013519,-0.06485,0.999374,-0.02866,-0.008992,0.006716,86.489227,15.364197,-147.428833,,,
729706540.384873,-3.384961,-0.956953,166.034268,0.013519,-0.06485,0.999374,-0.02866,-0.008992,0.006716,86.489227,15.364197,-147.428833,,,
729706540.38824,-3.392275,-0.958104,166.037598,0.018066,-0.06517,1.003021,-0.022485,0.000634,0.011267,86.489227,15.364197,-147.428833,,,
729706540.391328,-3.392275,-0.958104,166.037598,0.018066,-0.06517,1.003021,-0.022485,0.000634,0.011267,86.386887,15.534973,-147.464355,,,
729706540.394908,-3.397879,-0.957693,166.041721,0.018066,-0.06517,1.003021,-0.022485,0.000634,0.011267,86.386887,15.534973,-147.464355,,,
729706540.398203,-3.402291,-0.956608,166.046311,0.01918,-0.064499,1.008667,-0.010661,0.007401,0.014403,86.386887,15.534973,-147.464355,,,
729706540.401226,-3.402291,-0.956608,166.046311,0.01918,-0.064499,1.008667,-0.010661,0.007401,0.014403,86.386887,15.534973,-147.464355,,,
729706540.404936,-3.403749,-0.952832,166.049982,0.01918,-0.064499,1.008667,-0.010661,0.007401,0.014403,86.386887,15.534973,-147.464355,,,
729706540.408205,-3.402361,-0.948976,166.051984,0.021774,-0.063965,1.011368,0.012012,0.018145,0.00301,86.386887,15.534973,-147.464355,,,
729706540.411543,-3.398209,-0.941975,166.052682,0.021774,-0.063965,1.011368,0.012012,0.018145,0.00301,86.386887,15.534973,-147.464355,,,
729706540.414868,-3.398209,-0.941975,166.052682,0.021774,-0.063965,1.011368,0.012012,0.018145,0.00301,86.386887,15.534973,-147.464355,,,
729706540.418222,-3.392193,-0.936065,166.051955,0.019333,-0.059311,1.008316,0.026282,0.022624,-0.006466,86.386887,15.534973,-147.464355,,,
729706540.421543,-3.38469,-0.928755,166.050295,0.019333,-0.059311,1.008316,0.026282,0.022624,-0.006466,86.386887,15.534973,-147.464355,,,
729706540.424917,-3.38469,-0.928755,166.050295,0.019333,-0.059311,1.008316,0.026282,0.022624,-0.006466,86.386887,15.534973,-147.464355,,,
729706540.428214,-3.377157,-0.923038,166.048279,0.013443,-0.054794,1.000092,0.02646,0.022195,-0.008322,86.386887,15.534973,-147.464355,,,
729706540.431585,-3.370555,-0.918426,166.046541,0.013443,-0.054794,1.000092,0.02646,0.022195,-0.008322,86.386887,15.534973,-147.464355,,,
729706540.434883,-3.370555,-0.918426,166.046541,0.013443,-0.054794,1.000092,0.02646,0.022195,-0.008322,86.33046,15.426025,-147.636627,,,
729706540.43822,-3.365033,-0.916376,166.04487,0.010254,-0.05452,0.986984,0.018263,0.006152,-0.007595,86.33046,15.426025,-147.636627,,,
729706540.441573,-3.361186,-0.916247,166.043758,0.010254,-0.05452,0.986984,0.018263,0.006152,-0.007595,86.33046,15.426025,-147.636627,,,
729706540.444883,-3.361186,-0.916247,166.043758,0.010254,-0.05452,0.986984,0.018263,0.006152,-0.007595,86.33046,15.426025,-147.636627,,,
729706540.448205,-3.35983,-0.917915,166.043331,0.005341,-0.05423,0.981079,0.000783,-0.005302,-0.002438,86.33046,15.426025,-147.636627,,,
729706540.451605,-3.361652,-0.920791,166.043404,0.005341,-0.05423,0.981079,0.000783,-0.005302,-0.002438,86.33046,15.426025,-147.636627,,,
729706540.45487,-3.361652,-0.920791,166.043404,0.005341,-0.05423,0.981079,0.000783,-0.005302,-0.002438,86.33046,15.426025,-147.636627,,,
729706540.458292,-3.364601,-0.926458,166.04426,0.006195,-0.055374,0.979752,-0.011336,-0.023002,0.003336,86.33046,15.426025,-147.636627,,,
729706540.461541,-3.369942,-0.934092,166.04549,0.006195,-0.055374,0.979752,-0.011336,-0.023002,0.003336,86.33046,15.426025,-147.636627,,,
729706540.464873,-3.369942,-0.934092,166.04549,0.006195,-0.055374,0.979752,-0.011336,-0.023002,0.003336,86.33046,15.426025,-147.636627,,,
729706540.468304,-3.374607,-0.942272,166.046562,0.008896,-0.055771,0.981857,-0.014853,-0.026098,0.002359,86.33046,15.426025,-147.636627,,,
729706540.471536,-3.374607,-0.942272,166.046562,0.008896,-0.055771,0.981857,-0.014853,-0.026098,0.002359,86.33046,15.426025,-147.636627,,,
729706540.474883,-3.380164,-0.950888,166.046525,0.008896,-0.055771,0.981857,-0.014853,-0.026098,0.002359,86.462769,15.465485,-147.535187,,,
729706540.478213,-3.384063,-0.95803,166.044364,0.014633,-0.053207,0.98941,-0.010723,-0.019186,-0.012735,86.462769,15.465485,-147.535187,,,
729706540.481602,-3.388645,-0.964624,166.040709,0.014633,-0.053207,0.98941,-0.010723,-0.019186,-0.012735,86.462769,15.465485,-147.535187,,,
729706540.484929,-3.388645,-0.964624,166.040709,0.014633,-0.053207,0.98941,-0.010723,-0.019186,-0.012735,86.462769,15.465485,-147.535187,,,
729706540.488072,-3.393302,-0.969613,166.036334,0.018066,-0.053207,0.995407,-0.017775,-0.011452,-0.017891,86.462769,15.465485,-147.535187,,,
729706540.49156,-3.393302,-0.969613,166.036334,0.018066,-0.053207,0.995407,-0.017775,-0.011452,-0.017891,86.462769,15.465485,-147.535187,,,
729706540.494877,-3.398501,-0.974289,166.031553,0.018066,-0.053207,0.995407,-0.017775,-0.011452,-0.017891,86.462769,15.465485,-147.535187,,,
729706540.497975,-3.403238,-0.976146,166.026928,0.018341,-0.053528,0.99614,-0.017584,0.00057,-0.0173,86.462769,15.465485,-147.535187,,,
729706540.501578,-3.403238,-0.976146,166.026928,0.018341,-0.053528,0.99614,-0.017584,0.00057,-0.0173,86.462769,15.465485,-147.535187,,,
729706540.504876,-3.408522,-0.976191,166.022819,0.018341,-0.053528,0.99614,-0.017584,0.00057,-0.0173,86.462769,15.465485,-147.535187,,,
729706540.508223,-3.415354,-0.974795,166.019986,0.01622,-0.056885,0.996857,-0.024037,0.010647,-0.008266,86.462769,15.465485,-147.535187,,,
729706540.511546,-3.415354,-0.974795,166.019986,0.01622,-0.056885,0.996857,-0.024037,0.010647,-0.008266,86.462769,15.465485,-147.535187,,,
729706540.514903,-3.422467,-0.971165,166.018876,0.01622,-0.056885,0.996857,-0.024037,0.010647,-0.008266,86.284546,15.509705,-147.636948,,,
729706540.518206,-3.431279,-0.968719,166.019602,0.012024,-0.063904,0.995193,-0.029949,0.010039,0.005101,86.284546,15.509705,-147.636948,,,
729706540.521565,-3.431279,-0.968719,166.019602,0.012024,-0.063904,0.995193,-0.029949,0.010039,0.005101,86.284546,15.509705,-147.636948,,,
729706540.524882,-3.439028,-0.964644,166.022144,0.012024,-0.063904,0.995193,-0.029949,0.010039,0.005101,86.284546,15.509705,-147.636948,,,
729706540.528208,-3.44703,-0.96233,166.024902,0.014969,-0.066925,0.999435,-0.025477,0.012114,0.007377,86.284546,15.509705,-147.636948,,,
729706540.53156,-3.44703,-0.96233,166.024902,0.014969,-0.066925,0.999435,-0.025477,0.012114,0.007377,86.284546,15.509705,-147.636948,,,
729706540.534878,-3.453226,-0.956789,166.026926,0.014969,-0.066925,0.999435,-0.025477,0.012114,0.007377,86.284546,15.509705,-147.636948,,,
729706540.53821,-3.45934,-0.953405,166.027843,0.017151,-0.063812,1.007919,-0.019864,0.015592,0.000668,86.284546,15.509705,-147.636948,,,
729706540.541548,-3.45934,-0.953405,166.027843,0.017151,-0.063812,1.007919,-0.019864,0.015592,0.000668,86.284546,15.509705,-147.636948,,,
729706540.54487,-3.463861,-0.947501,166.027799,0.017151,-0.063812,1.007919,-0.019864,0.015592,0.000668,86.284546,15.509705,-147.636948,,,
729706540.548229,-3.467677,-0.943105,166.025922,0.018265,-0.065445,1.009125,-0.011248,0.019355,-0.011414,86.284546,15.509705,-147.636948,,,
729706540.551543,-3.467677,-0.943105,166.025922,0.018265,-0.065445,1.009125,-0.011248,0.019355,-0.011414,86.284546,15.509705,-147.636948,,,
729706540.554886,-3.468931,-0.93759,166.022226,0.018265,-0.065445,1.009125,-0.011248,0.019355,-0.011414,86.55809,15.276413,-147.59137,,,
729706540.558214,-3.469706,-0.932829,166.016802,0.016434,-0.065033,1.012512,-0.002055,0.020895,-0.023238,86.55809,15.276413,-147.59137,,,
729706540.561551,-3.469706,-0.932829,166.016802,0.016434,-0.065033,1.012512,-0.002055,0.020895,-0.023238,86.55809,15.276413,-147.59137,,,
729706540.564902,-3.468767,-0.928696,166.010327,0.016434,-0.065033,1.012512,-0.002055,0.020895,-0.023238,86.55809,15.276413,-147.59137,,,
729706540.568219,-3.468713,-0.925293,166.003471,0.009445,-0.06572,1.007248,0.001174,0.014992,-0.026015,86.55809,15.276413,-147.59137,,,
729706540.571545,-3.468713,-0.925293,166.003471,0.009445,-0.06572,1.007248,0.001174,0.014992,-0.026015,86.55809,15.276413,-147.59137,,,
729706540.574798,-3.467405,-0.923917,165.997267,0.009445,-0.06572,1.007248,0.001174,0.014992,-0.026015,86.55809,15.276413,-147.59137,,,
729706540.578241,-3.467918,-0.925021,165.991894,0.004807,-0.063278,0.999451,-0.002422,-0.005626,-0.020373,86.55809,15.276413,-147.59137,,,
729706540.581534,-3.467918,-0.925021,165.991894,0.004807,-0.063278,0.999451,-0.002422,-0.005626,-0.020373,86.55809,15.276413,-147.59137,,,
729706540.58464,-3.467697,-0.929543,165.987449,0.004807,-0.063278,0.999451,-0.002422,-0.005626,-0.020373,86.55809,15.276413,-147.59137,,,
729706540.588244,-3.468475,-0.935761,165.984255,0.003281,-0.062576,0.990662,-0.003238,-0.020634,-0.011857,86.55809,15.276413,-147.59137,,,
729706540.591533,-3.468475,-0.935761,165.984255,0.003281,-0.062576,0.990662,-0.003238,-0.020634,-0.011857,86.55809,15.276413,-147.59137,,,
729706540.59498,-3.470163,-0.942809,165.98171,0.003281,-0.062576,0.990662,-0.003238,-0.020634,-0.011857,86.55809,15.276413,-147.59137,,,
729706540.598191,-3.473292,-0.951415,165.980287,0.004074,-0.059662,0.986893,-0.012986,-0.027547,-0.003599,86.43367,15.683105,-147.567093,,,
729706540.601547,-3.473292,-0.951415,165.980287,0.004074,-0.059662,0.986893,-0.012986,-0.027547,-0.003599,86.43367,15.683105,-147.567093,,,
729706540.604882,-3.478882,-0.95874,165.979962,0.004074,-0.059662,0.986893,-0.012986,-0.027547,-0.003599,86.43367,15.683105,-147.567093,,,
729706540.608288,-3.485199,-0.964913,165.97925,0.010056,-0.057526,0.984756,-0.02562,-0.014131,-0.005766,86.43367,15.683105,-147.567093,,,
729706540.611555,-3.485199,-0.964913,165.97925,0.010056,-0.057526,0.984756,-0.02562,-0.014131,-0.005766,86.43367,15.683105,-147.567093,,,
729706540.614908,-3.49478,-0.967735,165.978607,0.010056,-0.057526,0.984756,-0.02562,-0.014131,-0.005766,86.43367,15.683105,-147.567093,,,
729706540.618228,-3.506471,-0.966105,165.978855,0.013763,-0.058868,0.989777,-0.045331,0.017559,0.000832,86.43367,15.683105,-147.567093,,,
729706540.621552,-3.506471,-0.966105,165.978855,0.013763,-0.058868,0.989777,-0.045331,0.017559,0.000832,86.43367,15.683105,-147.567093,,,
729706540.624879,-3.521097,-0.959886,165.979485,0.013763,-0.058868,0.989777,-0.045331,0.017559,0.000832,86.43367,15.683105,-147.567093,,,
729706540.628218,-3.537368,-0.949063,165.980549,0.020416,-0.059708,0.994415,-0.059852,0.048314,0.004047,86.43367,15.683105,-147.567093,,,
729706540.631537,-3.537368,-0.949063,165.980549,0.020416,-0.059708,0.994415,-0.059852,0.048314,0.004047,86.43367,15.683105,-147.567093,,,
729706540.634981,-3.55575,-0.934049,165.981879,0.020416,-0.059708,0.994415,-0.059852,0.048314,0.004047,86.43367,15.683105,-147.567093,,,
729706540.638015,-3.5744,-0.914762,165.983394,0.020004,-0.062881,1.001602,-0.065901,0.075975,0.005266,86.32605,15.82373,-147.613541,,,
729706540.641569,-3.5744,-0.914762,165.983394,0.020004,-0.062881,1.001602,-0.065901,0.075975,0.005266,86.32605,15.82373,-147.613541,,,
729706540.644879,-3.593336,-0.891871,165.985906,0.020004,-0.062881,1.001602,-0.065901,0.075975,0.005266,86.32605,15.82373,-147.613541,,,
729706540.648213,-3.60993,-0.867963,165.989665,0.014725,-0.071457,1.0056,-0.052616,0.085758,0.01385,86.32605,15.82373,-147.613541,,,
729706540.651566,-3.60993,-0.867963,165.989665,0.014725,-0.071457,1.0056,-0.052616,0.085758,0.01385,86.32605,15.82373,-147.613541,,,
729706540.65497,-3.623285,-0.842928,165.994478,0.014725,-0.071457,1.0056,-0.052616,0.085758,0.01385,86.32605,15.82373,-147.613541,,,
729706540.658206,-3.632453,-0.821683,166.000102,0.011185,-0.075119,1.009842,-0.025261,0.072379,0.019891,86.32605,15.82373,-147.613541,,,
729706540.661555,-3.632453,-0.821683,166.000102,0.011185,-0.075119,1.009842,-0.025261,0.072379,0.019891,86.32605,15.82373,-147.613541,,,
729706540.664955,-3.637835,-0.800815,166.006273,0.011185,-0.075119,1.009842,-0.025261,0.072379,0.019891,86.32605,15.82373,-147.613541,,,
729706540.668006,-3.63977,-0.786099,166.011972,0.010513,-0.07756,1.006226,-0.000557,0.04607,0.017301,86.32605,15.82373,-147.613541,,,
729706540.671572,-3.63977,-0.786099,166.011972,0.010513,-0.07756,1.006226,-0.000557,0.04607,0.017301,86.32605,15.82373,-147.613541,,,
729706540.674883,-3.638657,-0.773327,166.016705,0.010513,-0.07756,1.006226,-0.000557,0.04607,0.017301,86.32605,15.82373,-147.613541,,,
729706540.678212,-3.634932,-0.767241,166.019674,0.010574,-0.075455,1.002075,0.018576,0.017039,0.005816,86.520081,15.585266,-147.547409,,,
729706540.681536,-3.634932,-0.767241,166.019674,0.010574,-0.075455,1.002075,0.018576,0.017039,0.005816,86.520081,15.585266,-147.547409,,,
729706540.684932,-3.628563,-0.763726,166.021345,0.010574,-0.075455,1.002075,0.018576,0.017039,0.005816,86.520081,15.585266,-147.547409,,,
729706540.688219,-3.621688,-0.7649,166.021675,0.012024,-0.069794,0.996506,0.027559,-0.007086,-0.003119,86.520081,15.585266,-147.547409,,,
729706540.691572,-3.621688,-0.7649,166.021675,0.012024,-0.069794,0.996506,0.027559,-0.007086,-0.003119,86.520081,15.585266,-147.547409,,,
729706540.694891,-3.613447,-0.769603,166.021005,0.012024,-0.069794,0.996506,0.027559,-0.007086,-0.003119,86.520081,15.585266,-147.547409,,,
729706540.698208,-3.605727,-0.77779,166.019789,0.011139,-0.070053,0.988739,0.029122,-0.029062,-0.006834,86.520081,15.585266,-147.547409,,,
729706540.701552,-3.605727,-0.77779,166.019789,0.011139,-0.070053,0.988739,0.029122,-0.029062,-0.006834,86.520081,15.585266,-147.547409,,,
729706540.704886,-3.597172,-0.789221,166.018109,0.011139,-0.070053,0.988739,0.029122,-0.029062,-0.006834,86.520081,15.585266,-147.547409,,,
729706540.708215,-3.589726,-0.801579,166.016054,0.017242,-0.070999,0.984787,0.024457,-0.040429,-0.009709,86.520081,15.585266,-147.547409,,,
729706540.711542,-3.589726,-0.801579,166.016054,0.017242,-0.070999,0.984787,0.024457,-0.040429,-0.009709,86.520081,15.585266,-147.547409,,,
729706540.714871,-3.582696,-0.815471,166.013708,0.017242,-0.070999,0.984787,0.024457,-0.040429,-0.009709,86.520081,15.585266,-147.547409,,,
729706540.718241,-3.576037,-0.827163,166.01148,0.020996,-0.068771,0.987534,0.02539,-0.035945,-0.009595,86.509674,15.647049,-147.488937,,,
729706540.721548,-3.576037,-0.827163,166.01148,0.020996,-0.068771,0.987534,0.02539,-0.035945,-0.009595,86.509674,15.647049,-147.488937,,,
729706540.724878,-3.56955,-0.83799,166.008755,0.020996,-0.068771,0.987534,0.02539,-0.035945,-0.009595,86.509674,15.647049,-147.488937,,,
729706540.728216,-3.561684,-0.845952,166.00542,0.01947,-0.069229,0.990021,0.028664,-0.020792,-0.014232,86.509674,15.647049,-147.488937,,,
729706540.731537,-3.561684,-0.845952,166.00542,0.01947,-0.069229,0.990021,0.028664,-0.020792,-0.014232,86.509674,15.647049,-147.488937,,,
729706540.734978,-3.555711,-0.851899,166.0018,0.01947,-0.069229,0.990021,0.028664,-0.020792,-0.014232,86.509674,15.647049,-147.488937,,,
729706540.738231,-3.547528,-0.856724,165.998399,0.019775,-0.06665,0.985168,0.030218,-0.010484,-0.0126,86.509674,15.647049,-147.488937,,,
729706540.741543,-3.547528,-0.856724,165.998399,0.019775,-0.06665,0.985168,0.030218,-0.010484,-0.0126,86.509674,15.647049,-147.488937,,,
729706540.74488,-3.541749,-0.858765,165.99539,0.019775,-0.06665,0.985168,0.030218,-0.010484,-0.0126,86.509674,15.647049,-147.488937,,,
729706540.748228,-3.534357,-0.860525,165.992977,0.018219,-0.059921,0.980484,0.024617,-0.001487,-0.007873,86.509674,15.647049,-147.488937,,,
729706540.751538,-3.534357,-0.860525,165.992977,0.018219,-0.059921,0.980484,0.024617,-0.001487,-0.007873,86.509674,15.647049,-147.488937,,,
729706540.754902,-3.530884,-0.861042,165.991857,0.018219,-0.059921,0.980484,0.024617,-0.001487,-0.007873,86.509674,15.647049,-147.488937,,,
729706540.758082,-3.526274,-0.862112,165.991754,0.013809,-0.058533,0.976044,0.014993,0.000346,-0.000288,86.509674,15.647049,-147.488937,,,
729706540.761574,-3.526274,-0.862112,165.991754,0.013809,-0.058533,0.976044,0.014993,0.000346,-0.000288,86.523148,15.596649,-147.492874,,,
729706540.764881,-3.525499,-0.860874,165.992383,0.013809,-0.058533,0.976044,0.014993,0.000346,-0.000288,86.523148,15.596649,-147.492874,,,
729706540.768289,-3.525653,-0.857341,165.993083,0.012283,-0.055771,0.97908,-0.004855,0.021121,0.000858,86.523148,15.596649,-147.492874,,,
729706540.771554,-3.525653,-0.857341,165.993083,0.012283,-0.055771,0.97908,-0.004855,0.021121,0.000858,86.523148,15.596649,-147.492874,,,
729706540.774881,-3.52887,-0.850985,165.994634,0.012283,-0.055771,0.97908,-0.004855,0.021121,0.000858,86.523148,15.596649,-147.492874,,,
729706540.778211,-3.531183,-0.844386,165.997073,0.008148,-0.056793,0.984375,-0.008199,0.028439,0.007454,86.523148,15.596649,-147.492874,,,
729706540.781544,-3.531183,-0.844386,165.997073,0.008148,-0.056793,0.984375,-0.008199,0.028439,0.007454,86.523148,15.596649,-147.492874,,,
729706540.784943,-3.535759,-0.836785,165.999784,0.008148,-0.056793,0.984375,-0.008199,0.028439,0.007454,86.523148,15.596649,-147.492874,,,
729706540.7883,-3.538764,-0.829777,166.003255,0.007858,-0.058792,0.987793,-0.009712,0.025338,0.012848,86.523148,15.596649,-147.492874,,,
729706540.791651,-3.538764,-0.829777,166.003255,0.007858,-0.058792,0.987793,-0.009712,0.025338,0.012848,86.523148,15.596649,-147.492874,,,
729706540.794866,-3.543276,-0.824603,166.00725,0.007858,-0.058792,0.987793,-0.009712,0.025338,0.012848,86.523148,15.596649,-147.492874,,,
729706540.798211,-3.545681,-0.819775,166.011317,0.005615,-0.062195,0.987701,-0.005724,0.014524,0.012736,86.523148,15.596649,-147.492874,,,
729706540.801541,-3.545681,-0.819775,166.011317,0.005615,-0.062195,0.987701,-0.005724,0.014524,0.012736,86.739456,15.488754,-147.49884,,,
729706540.804877,-3.548815,-0.817974,166.015328,0.005615,-0.062195,0.987701,-0.005724,0.014524,0.012736,86.739456,15.488754,-147.49884,,,
729706540.808222,-3.550764,-0.817577,166.019606,0.006805,-0.060425,0.985153,-0.006114,-0.003343,0.01412,86.739456,15.488754,-147.49884,,,
729706540.811541,-3.550764,-0.817577,166.019606,0.006805,-0.060425,0.985153,-0.006114,-0.003343,0.01412,86.739456,15.488754,-147.49884,,,
729706540.814894,-3.553947,-0.82156,166.023589,0.006805,-0.060425,0.985153,-0.006114,-0.003343,0.01412,86.739456,15.488754,-147.49884,,,
729706540.818256,-3.555594,-0.826562,166.027404,0.005463,-0.057419,0.987,-0.004948,-0.0193,0.012393,86.739456,15.488754,-147.49884,,,
729706540.821336,-3.555594,-0.826562,166.027404,0.005463,-0.057419,0.987,-0.004948,-0.0193,0.012393,86.739456,15.488754,-147.49884,,,
729706540.824912,-3.558025,-0.834746,166.031162,0.005463,-0.057419,0.987,-0.004948,-0.0193,0.012393,86.739456,15.488754,-147.49884,,,
729706540.828212,-3.560794,-0.84314,166.034932,0.006531,-0.059952,0.986069,-0.009411,-0.029587,0.012014,86.739456,15.488754,-147.49884,,,
729706540.83155,-3.560794,-0.84314,166.034932,0.006531,-0.059952,0.986069,-0.009411,-0.029587,0.012014,86.739456,15.488754,-147.49884,,,
729706540.834876,-3.563822,-0.853169,166.038693,0.006531,-0.059952,0.986069,-0.009411,-0.029587,0.012014,86.739456,15.488754,-147.49884,,,
729706540.83822,-3.567011,-0.863735,166.043223,0.010147,-0.066116,0.989685,-0.009501,-0.035269,0.017295,86.739456,15.488754,-147.49884,,,
729706540.841545,-3.567011,-0.863735,166.043223,0.010147,-0.066116,0.989685,-0.009501,-0.035269,0.017295,86.215576,15.638672,-147.226562,,,
729706540.844883,-3.568899,-0.873784,166.048502,0.010147,-0.066116,0.989685,-0.009501,-0.035269,0.017295,86.215576,15.638672,-147.226562,,,
729706540.848205,-3.571754,-0.883483,166.054037,0.015808,-0.066696,0.99292,-0.011127,-0.030698,0.019245,86.215576,15.638672,-147.226562,,,
729706540.851537,-3.571754,-0.883483,166.054037,0.015808,-0.066696,0.99292,-0.011127,-0.030698,0.019245,86.215576,15.638672,-147.226562,,,
729706540.854896,-3.574656,-0.891236,166.06009,0.015808,-0.066696,0.99292,-0.011127,-0.030698,0.019245,86.215576,15.638672,-147.226562,,,
729706540.858206,-3.579189,-0.898681,166.065937,0.022995,-0.062347,0.9953,-0.017256,-0.021222,0.018347,86.215576,15.638672,-147.226562,,,
729706540.861542,-3.579189,-0.898681,166.065937,0.022995,-0.062347,0.9953,-0.017256,-0.021222,0.018347,86.215576,15.638672,-147.226562,,,
729706540.864882,-3.583444,-0.903219,166.071369,0.022995,-0.062347,0.9953,-0.017256,-0.021222,0.018347,86.215576,15.638672,-147.226562,,,
729706540.868205,-3.588383,-0.907934,166.075986,0.025848,-0.05925,0.996414,-0.017398,-0.011784,0.013364,86.215576,15.638672,-147.226562,,,
729706540.871558,-3.588383,-0.907934,166.075986,0.025848,-0.05925,0.996414,-0.017398,-0.011784,0.013364,86.215576,15.638672,-147.226562,,,
729706540.87491,-3.59316,-0.909028,166.079507,0.025848,-0.05925,0.996414,-0.017398,-0.011784,0.013364,86.215576,15.638672,-147.226562,,,
729706540.878232,-3.598789,-0.909711,166.081344,0.025558,-0.059525,0.997269,-0.021401,0.003745,0.002493,86.215576,15.638672,-147.226562,,,
729706540.881559,-3.598789,-0.909711,166.081344,0.025558,-0.059525,0.997269,-0.021401,0.003745,0.002493,86.215576,15.638672,-147.226562,,,
729706540.884887,-3.604403,-0.906413,166.082511,0.025558,-0.059525,0.997269,-0.021401,0.003745,0.002493,86.560562,15.43721,-147.513351,,,
729706540.888216,-3.609677,-0.903992,166.083485,0.025223,-0.062241,1.003494,-0.018879,0.013512,0.002081,86.560562,15.43721,-147.513351,,,
729706540.891534,-3.609677,-0.903992,166.083485,0.025223,-0.062241,1.003494,-0.018879,0.013512,0.002081,86.560562,15.43721,-147.513351,,,
729706540.894884,-3.614402,-0.89886,166.084682,0.025223,-0.062241,1.003494,-0.018879,0.013512,0.002081,86.560562,15.43721,-147.513351,,,
729706540.898203,-3.618973,-0.895247,166.085907,0.021179,-0.065598,1.009003,-0.012916,0.016398,0.003014,86.560562,15.43721,-147.513351,,,
729706540.901563,-3.618973,-0.895247,166.085907,0.021179,-0.065598,1.009003,-0.012916,0.016398,0.003014,86.560562,15.43721,-147.513351,,,
729706540.904874,-3.621944,-0.888442,166.087325,0.021179,-0.065598,1.009003,-0.012916,0.016398,0.003014,86.560562,15.43721,-147.513351,,,
729706540.908217,-3.624736,-0.883751,166.089235,0.01796,-0.063766,1.01181,-0.00627,0.017637,0.007322,86.560562,15.43721,-147.513351,,,
729706540.911542,-3.624736,-0.883751,166.089235,0.01796,-0.063766,1.01181,-0.00627,0.017637,0.007322,86.560562,15.43721,-147.513351,,,
729706540.914871,-3.625725,-0.877895,166.091996,0.01796,-0.063766,1.01181,-0.00627,0.017637,0.007322,86.560562,15.43721,-147.513351,,,
729706540.918233,-3.625055,-0.873594,166.095007,0.015366,-0.063629,1.012573,0.004658,0.016173,0.009502,86.560562,15.43721,-147.513351,,,
729706540.921533,-3.625055,-0.873594,166.095007,0.015366,-0.063629,1.012573,0.004658,0.016173,0.009502,86.560562,15.43721,-147.513351,,,
729706540.92489,-3.624241,-0.869075,166.09846,0.015366,-0.063629,1.012573,0.004658,0.016173,0.009502,86.37674,15.484863,-147.479523,,,
729706540.928217,-3.622188,-0.865609,166.101633,0.012924,-0.063095,1.011734,0.007927,0.012462,0.007752,86.37674,15.484863,-147.479523,,,
729706540.931554,-3.622188,-0.865609,166.101633,0.012924,-0.063095,1.011734,0.007927,0.012462,0.007752,86.37674,15.484863,-147.479523,,,
729706540.934898,-3.620371,-0.864266,166.104409,0.012924,-0.063095,1.011734,0.007927,0.012462,0.007752,86.37674,15.484863,-147.479523,,,
729706540.938213,-3.618621,-0.862978,166.106983,0.011932,-0.061493,1.007523,0.005373,0.005401,0.005975,86.37674,15.484863,-147.479523,,,
729706540.94147,-3.618621,-0.862978,166.106983,0.011932,-0.061493,1.007523,0.005373,0.005401,0.005975,86.37674,15.484863,-147.479523,,,
729706540.944884,-3.617143,-0.865262,166.109291,0.011932,-0.061493,1.007523,0.005373,0.005401,0.005975,86.37674,15.484863,-147.479523,,,
729706540.948255,-3.616389,-0.866213,166.112085,0.014008,-0.060364,1.005234,0.002678,-0.001631,0.008383,86.37674,15.484863,-147.479523,,,
729706540.951549,-3.616389,-0.866213,166.112085,0.014008,-0.060364,1.005234,0.002678,-0.001631,0.008383,86.37674,15.484863,-147.479523,,,
729706540.954881,-3.61558,-0.870288,166.114425,0.014008,-0.060364,1.005234,0.002678,-0.001631,0.008383,86.37674,15.484863,-147.479523,,,
729706540.958216,-3.615782,-0.873306,166.116991,0.015152,-0.062698,1.001617,0.00021,-0.010409,0.008951,86.37674,15.484863,-147.479523,,,
729706540.961536,-3.615782,-0.873306,166.116991,0.015152,-0.062698,1.001617,0.00021,-0.010409,0.008951,86.37674,15.484863,-147.479523,,,
729706540.964899,-3.614471,-0.879626,166.119662,0.015152,-0.062698,1.001617,0.00021,-0.010409,0.008951,86.640747,15.313049,-147.2155,,,
729706540.968232,-3.611925,-0.884174,166.121756,0.019104,-0.063568,1.003952,0.012433,-0.013481,0.003739,86.640747,15.313049,-147.2155,,,
729706540.971542,-3.611925,-0.884174,166.121756,0.019104,-0.063568,1.003952,0.012433,-0.013481,0.003739,86.640747,15.313049,-147.2155,,,
729706540.974888,-3.607958,-0.889947,166.123169,0.019104,-0.063568,1.003952,0.012433,-0.013481,0.003739,86.640747,15.313049,-147.2155,,,
