Time (sec),Pitch (deg),Roll (deg),Yaw(deg),X-Acceleration (g),Y-Acceleration (g),Z-Acceleration (g),Pitch Rate (deg/sec),Roll Rate (deg/sec),Yaw Rate (deg/sec),Magnetic Field in X direction (uT),Magnetic Field in Y direction (uT),Magnetic Field in Z Direction (uT),Latitude (deg),Longitude (deg),Altitude (m)
729706491.741766,-1.658636,1.833567,166.577174,-0.023697,-0.023834,1.00499,0.008591,-0.01125,-0.011025,88.873306,13.173798,-146.416595,,,
729706491.745014,-1.656594,1.832085,166.575249,-0.021759,-0.024765,1.003967,0.007093,0.001342,-0.008062,88.873306,13.173798,-146.416595,,,
729706491.748368,-1.656594,1.832085,166.575249,-0.021759,-0.024765,1.003967,0.007093,0.001342,-0.008062,88.873306,13.173798,-146.416595,,,
729706491.751699,-1.654107,1.831423,166.573304,-0.021759,-0.024765,1.003967,0.007093,0.001342,-0.008062,88.873306,13.173798,-146.416595,,,
729706491.755022,-1.652298,1.834186,166.571408,-0.022171,-0.025635,1.002182,0.006548,0.018435,-0.007915,88.873306,13.173798,-146.416595,,,
729706491.758385,-1.652298,1.834186,166.571408,-0.022171,-0.025635,1.002182,0.006548,0.018435,-0.007915,88.873306,13.173798,-146.416595,,,
729706491.761702,-1.650364,1.838609,166.569724,-0.022171,-0.025635,1.002182,0.006548,0.018435,-0.007915,88.873306,13.173798,-146.416595,,,
729706491.765026,-1.649226,1.84685,166.568919,-0.023254,-0.026703,1.004272,0.003729,0.036142,-0.002129,88.873306,13.173798,-146.416595,,,
729706491.768415,-1.649226,1.84685,166.568919,-0.023254,-0.026703,1.004272,0.003729,0.036142,-0.002129,88.873306,13.173798,-146.416595,,,
729706491.771681,-1.647651,1.856338,166.568364,-0.023254,-0.026703,1.004272,0.003729,0.036142,-0.002129,88.795593,13.563309,-146.361053,,,
729706491.775019,-1.647007,1.868339,166.567388,-0.024963,-0.026047,1.004074,0.000171,0.048172,-0.005323,88.795593,13.563309,-146.361053,,,
729706491.778373,-1.647007,1.868339,166.567388,-0.024963,-0.026047,1.004074,0.000171,0.048172,-0.005323,88.795593,13.563309,-146.361053,,,
729706491.78177,-1.645904,1.880522,166.566587,-0.024963,-0.026047,1.004074,0.000171,0.048172,-0.005323,88.795593,13.563309,-146.361053,,,
729706491.785015,-1.645265,1.892726,166.565872,-0.028748,-0.02475,1.00322,0.003188,0.043354,-0.004749,88.795593,13.563309,-146.361053,,,
729706491.788383,-1.645265,1.892726,166.565872,-0.028748,-0.02475,1.00322,0.003188,0.043354,-0.004749,88.795593,13.563309,-146.361053,,,
729706491.791702,-1.643171,1.902251,166.565127,-0.028748,-0.02475,1.00322,0.003188,0.043354,-0.004749,88.795593,13.563309,-146.361053,,,
729706491.795023,-1.641857,1.910098,166.564358,-0.031509,-0.02739,1.00116,0.005774,0.025889,-0.004972,88.795593,13.563309,-146.361053,,,
729706491.798368,-1.641857,1.910098,166.564358,-0.031509,-0.02739,1.00116,0.005774,0.025889,-0.004972,88.795593,13.563309,-146.361053,,,
729706491.801714,-1.638655,1.914098,166.563172,-0.031509,-0.02739,1.00116,0.005774,0.025889,-0.004972,88.795593,13.563309,-146.361053,,,
729706491.805022,-1.636664,1.91762,166.561478,-0.031754,-0.029617,1.000381,0.006998,0.012684,-0.008727,88.795593,13.563309,-146.361053,,,
729706491.808456,-1.636664,1.91762,166.561478,-0.031754,-0.029617,1.000381,0.006998,0.012684,-0.008727,88.795593,13.563309,-146.361053,,,
729706491.811682,-1.633657,1.917805,166.558902,-0.031754,-0.029617,1.000381,0.006998,0.012684,-0.008727,88.940857,13.317581,-146.236008,,,
729706491.814926,-1.631477,1.918787,166.555825,-0.031174,-0.026123,1.000931,0.008177,0.003605,-0.012655,88.940857,13.317581,-146.236008,,,
729706491.818446,-1.631477,1.918787,166.555825,-0.031174,-0.026123,1.000931,0.008177,0.003605,-0.012655,88.940857,13.317581,-146.236008,,,
729706491.82172,-1.628033,1.915644,166.551425,-0.031174,-0.026123,1.000931,0.008177,0.003605,-0.012655,88.940857,13.317581,-146.236008,,,
729706491.824944,-1.624699,1.914349,166.54603,-0.032455,-0.024658,1.000015,0.013977,-0.000825,-0.019874,88.940857,13.317581,-146.236008,,,
729706491.828384,-1.624699,1.914349,166.54603,-0.032455,-0.024658,1.000015,0.013977,-0.000825,-0.019874,88.940857,13.317581,-146.236008,,,
729706491.831587,-1.62005,1.910186,166.540011,-0.032455,-0.024658,1.000015,0.013977,-0.000825,-0.019874,88.940857,13.317581,-146.236008,,,
729706491.835042,-1.615293,1.908658,166.532829,-0.03331,-0.027908,0.998901,0.019412,-0.000218,-0.028242,88.940857,13.317581,-146.236008,,,
729706491.838395,-1.615293,1.908658,166.532829,-0.03331,-0.027908,0.998901,0.019412,-0.000218,-0.028242,88.940857,13.317581,-146.236008,,,
729706491.841691,-1.610165,1.905153,166.525253,-0.03331,-0.027908,0.998901,0.019412,-0.000218,-0.028242,88.940857,13.317581,-146.236008,,,
729706491.845024,-1.605442,1.905285,166.517872,-0.035706,-0.026611,0.99762,0.018558,0.006185,-0.027429,88.940857,13.317581,-146.236008,,,
729706491.84842,-1.605442,1.905285,166.517872,-0.035706,-0.026611,0.99762,0.018558,0.006185,-0.027429,88.940857,13.317581,-146.236008,,,
729706491.851698,-1.600429,1.904725,166.510572,-0.035706,-0.026611,0.99762,0.018558,0.006185,-0.027429,88.940857,13.317581,-146.236008,,,
729706491.855027,-1.596316,1.907739,166.504469,-0.037155,-0.028305,0.996185,0.013487,0.017242,-0.019652,88.901169,13.444168,-146.560104,,,
729706491.858366,-1.596316,1.907739,166.504469,-0.037155,-0.028305,0.996185,0.013487,0.017242,-0.019652,88.901169,13.444168,-146.560104,,,
729706491.861695,-1.593632,1.911125,166.499648,-0.037155,-0.028305,0.996185,0.013487,0.017242,-0.019652,88.901169,13.444168,-146.560104,,,
729706491.865026,-1.593643,1.917994,166.495911,-0.037552,-0.024521,0.994873,-0.002769,0.029529,-0.012969,88.901169,13.444168,-146.560104,,,
729706491.868369,-1.593643,1.917994,166.495911,-0.037552,-0.024521,0.994873,-0.002769,0.029529,-0.012969,88.901169,13.444168,-146.560104,,,
729706491.871707,-1.594913,1.925095,166.49288,-0.037552,-0.024521,0.994873,-0.002769,0.029529,-0.012969,88.901169,13.444168,-146.560104,,,
729706491.875026,-1.597682,1.9334,166.490291,-0.038956,-0.027176,0.99234,-0.01037,0.0317,-0.010322,88.901169,13.444168,-146.560104,,,
729706491.878375,-1.597682,1.9334,166.490291,-0.038956,-0.027176,0.99234,-0.01037,0.0317,-0.010322,88.901169,13.444168,-146.560104,,,
729706491.881709,-1.601628,1.94154,166.488183,-0.038956,-0.027176,0.99234,-0.01037,0.0317,-0.010322,88.901169,13.444168,-146.560104,,,
729706491.885021,-1.606556,1.950448,166.48621,-0.039566,-0.027405,0.990997,-0.018096,0.034698,-0.009697,88.901169,13.444168,-146.560104,,,
729706491.88841,-1.606556,1.950448,166.48621,-0.039566,-0.027405,0.990997,-0.018096,0.034698,-0.009697,88.901169,13.444168,-146.560104,,,
729706491.891708,-1.612321,1.958176,166.484103,-0.039566,-0.027405,0.990997,-0.018096,0.034698,-0.009697,88.901169,13.444168,-146.560104,,,
729706491.895025,-1.618251,1.965245,166.482024,-0.042847,-0.02858,0.992584,-0.020097,0.026646,-0.009669,89.016876,13.266312,-146.453171,,,
729706491.89837,-1.618251,1.965245,166.482024,-0.042847,-0.02858,0.992584,-0.020097,0.026646,-0.009669,89.016876,13.266312,-146.453171,,,
729706491.901712,-1.622758,1.969963,166.47939,-0.042847,-0.02858,0.992584,-0.020097,0.026646,-0.009669,89.016876,13.266312,-146.453171,,,
729706491.905029,-1.626479,1.973462,166.475891,-0.04007,-0.031204,0.995483,-0.009681,0.013513,-0.015488,89.016876,13.266312,-146.453171,,,
729706491.908372,-1.626479,1.973462,166.475891,-0.04007,-0.031204,0.995483,-0.009681,0.013513,-0.015488,89.016876,13.266312,-146.453171,,,
729706491.911774,-1.628535,1.975757,166.471888,-0.04007,-0.031204,0.995483,-0.009681,0.013513,-0.015488,89.016876,13.266312,-146.453171,,,
729706491.915017,-1.628509,1.97788,166.467094,-0.040558,-0.033813,1.000656,0.006337,0.010205,-0.020525,89.016876,13.266312,-146.453171,,,
729706491.918364,-1.628509,1.97788,166.467094,-0.040558,-0.033813,1.000656,0.006337,0.010205,-0.020525,89.016876,13.266312,-146.453171,,,
729706491.921705,-1.625169,1.97858,166.461479,-0.040558,-0.033813,1.000656,0.006337,0.010205,-0.020525,89.016876,13.266312,-146.453171,,,
729706491.925043,-1.619741,1.977927,166.455865,-0.039917,-0.033005,1.000809,0.021967,-0.000442,-0.020015,89.016876,13.266312,-146.453171,,,
729706491.92835,-1.619741,1.977927,166.455865,-0.039917,-0.033005,1.000809,0.021967,-0.000442,-0.020015,89.016876,13.266312,-146.453171,,,
729706491.931717,-1.612521,1.976489,166.450205,-0.039917,-0.033005,1.000809,0.021967,-0.000442,-0.020015,89.016876,13.266312,-146.453171,,,
729706491.935048,-1.604316,1.972844,166.444397,-0.041229,-0.032959,0.995453,0.029758,-0.010947,-0.020638,88.902878,13.470779,-146.461533,,,
729706491.938389,-1.604316,1.972844,166.444397,-0.041229,-0.032959,0.995453,0.029758,-0.010947,-0.020638,88.902878,13.470779,-146.461533,,,
729706491.941708,-1.595942,1.969126,166.439484,-0.041229,-0.032959,0.995453,0.029758,-0.010947,-0.020638,88.902878,13.470779,-146.461533,,,
729706491.945024,-1.588868,1.96399,166.435582,-0.04155,-0.030792,0.989548,0.022447,-0.015881,-0.013704,88.902878,13.470779,-146.461533,,,
729706491.948349,-1.588868,1.96399,166.435582,-0.04155,-0.030792,0.989548,0.022447,-0.015881,-0.013704,88.902878,13.470779,-146.461533,,,
729706491.951708,-1.583212,1.958709,166.432593,-0.04155,-0.030792,0.989548,0.022447,-0.015881,-0.013704,88.902878,13.470779,-146.461533,,,
729706491.955023,-1.58006,1.951264,166.43087,-0.040833,-0.029434,0.984909,0.007695,-0.024314,-0.005229,88.902878,13.470779,-146.461533,,,
729706491.958366,-1.58006,1.951264,166.43087,-0.040833,-0.029434,0.984909,0.007695,-0.024314,-0.005229,88.902878,13.470779,-146.461533,,,
729706491.961752,-1.579637,1.944438,166.4301,-0.040833,-0.029434,0.984909,0.007695,-0.024314,-0.005229,88.902878,13.470779,-146.461533,,,
729706491.965018,-1.581731,1.93637,166.42994,-0.039825,-0.027222,0.982269,-0.010581,-0.024144,-0.001321,88.902878,13.470779,-146.461533,,,
729706491.968354,-1.581731,1.93637,166.42994,-0.039825,-0.027222,0.982269,-0.010581,-0.024144,-0.001321,88.902878,13.470779,-146.461533,,,
729706491.971687,-1.586206,1.930865,166.429934,-0.039825,-0.027222,0.982269,-0.010581,-0.024144,-0.001321,88.902878,13.470779,-146.461533,,,
729706491.97502,-1.593293,1.923523,166.430165,-0.033585,-0.02623,0.984665,-0.029368,-0.024213,5.9e-05,88.996887,13.412247,-146.627991,,,
729706491.978361,-1.593293,1.923523,166.430165,-0.033585,-0.02623,0.984665,-0.029368,-0.024213,5.9e-05,88.996887,13.412247,-146.627991,,,
729706491.981705,-1.603566,1.917698,166.430696,-0.033585,-0.02623,0.984665,-0.029368,-0.024213,5.9e-05,88.996887,13.412247,-146.627991,,,
729706491.985022,-1.6161,1.908962,166.430621,-0.031403,-0.026794,0.98056,-0.048699,-0.029666,-0.004398,88.996887,13.412247,-146.627991,,,
729706491.988444,-1.6161,1.908962,166.430621,-0.031403,-0.026794,0.98056,-0.048699,-0.029666,-0.004398,88.996887,13.412247,-146.627991,,,
729706491.9917,-1.631834,1.901276,166.43105,-0.031403,-0.026794,0.98056,-0.048699,-0.029666,-0.004398,88.996887,13.412247,-146.627991,,,
729706491.995027,-1.6485,1.892443,166.432484,-0.03038,-0.030502,0.986572,-0.060062,-0.027707,0.002525,88.996887,13.412247,-146.627991,,,
729706491.998374,-1.6485,1.892443,166.432484,-0.03038,-0.030502,0.986572,-0.060062,-0.027707,0.002525,88.996887,13.412247,-146.627991,,,
729706492.001766,-1.667941,1.886142,166.43337,-0.03038,-0.030502,0.986572,-0.060062,-0.027707,0.002525,88.996887,13.412247,-146.627991,,,
729706492.005034,-1.687421,1.880659,166.433772,-0.025208,-0.032745,0.995651,-0.067331,-0.010617,-0.000762,88.996887,13.412247,-146.627991,,,
729706492.008376,-1.687421,1.880659,166.433772,-0.025208,-0.032745,0.995651,-0.067331,-0.010617,-0.000762,88.996887,13.412247,-146.627991,,,
729706492.011741,-1.707553,1.879587,166.434407,-0.025208,-0.032745,0.995651,-0.067331,-0.010617,-0.000762,88.996887,13.412247,-146.627991,,,
729706492.01504,-1.726587,1.878512,166.434673,-0.022797,-0.036911,1.00383,-0.06394,0.00305,-0.002833,88.996887,13.412247,-146.627991,,,
729706492.018395,-1.726587,1.878512,166.434673,-0.022797,-0.036911,1.00383,-0.06394,0.00305,-0.002833,89.114624,13.391693,-146.53743,,,
729706492.021724,-1.744164,1.881222,166.434579,-0.022797,-0.036911,1.00383,-0.06394,0.00305,-0.002833,89.114624,13.391693,-146.53743,,,
729706492.02505,-1.758392,1.882408,166.433655,-0.02182,-0.039215,1.008957,-0.042184,0.006783,-0.007468,89.114624,13.391693,-146.53743,,,
729706492.028355,-1.758392,1.882408,166.433655,-0.02182,-0.039215,1.008957,-0.042184,0.006783,-0.007468,89.114624,13.391693,-146.53743,,,
729706492.031735,-1.76957,1.885017,166.431296,-0.02182,-0.039215,1.008957,-0.042184,0.006783,-0.007468,89.114624,13.391693,-146.53743,,,
729706492.035053,-1.778219,1.884208,166.426814,-0.019379,-0.039642,1.008972,-0.023878,-0.00134,-0.021219,89.114624,13.391693,-146.53743,,,
729706492.038433,-1.778219,1.884208,166.426814,-0.019379,-0.039642,1.008972,-0.023878,-0.00134,-0.021219,89.114624,13.391693,-146.53743,,,
729706492.041759,-1.784442,1.884403,166.420324,-0.019379,-0.039642,1.008972,-0.023878,-0.00134,-0.021219,89.114624,13.391693,-146.53743,,,
729706492.045106,-1.788976,1.882023,166.411809,-0.021393,-0.036057,1.010193,-0.00921,-0.006449,-0.034417,89.114624,13.391693,-146.53743,,,
729706492.04837,-1.788976,1.882023,166.411809,-0.021393,-0.036057,1.010193,-0.00921,-0.006449,-0.034417,89.114624,13.391693,-146.53743,,,
729706492.051694,-1.790539,1.880149,166.401641,-0.021393,-0.036057,1.010193,-0.00921,-0.006449,-0.034417,89.114624,13.391693,-146.53743,,,
729706492.055025,-1.791588,1.878105,166.389836,-0.024231,-0.034775,1.010284,-0.00101,-0.000123,-0.045382,89.114624,13.391693,-146.53743,,,
729706492.058356,-1.791588,1.878105,166.389836,-0.024231,-0.034775,1.010284,-0.00101,-0.000123,-0.045382,88.887283,13.454971,-146.515259,,,
729706492.061697,-1.791519,1.87755,166.377195,-0.024231,-0.034775,1.010284,-0.00101,-0.000123,-0.045382,88.887283,13.454971,-146.515259,,,
729706492.065027,-1.792091,1.880515,166.364693,-0.028564,-0.032776,1.014252,-0.000177,0.021366,-0.044492,88.887283,13.454971,-146.515259,,,
729706492.068369,-1.792091,1.880515,166.364693,-0.028564,-0.032776,1.014252,-0.000177,0.021366,-0.044492,88.887283,13.454971,-146.515259,,,
729706492.071704,-1.792167,1.887191,166.353003,-0.028564,-0.032776,1.014252,-0.000177,0.021366,-0.044492,88.887283,13.454971,-146.515259,,,
729706492.07503,-1.793086,1.897122,166.342864,-0.033173,-0.036026,1.012375,-0.003785,0.044258,-0.03382,88.887283,13.454971,-146.515259,,,
729706492.078421,-1.793086,1.897122,166.342864,-0.033173,-0.036026,1.012375,-0.003785,0.044258,-0.03382,88.887283,13.454971,-146.515259,,,
729706492.081705,-1.794729,1.909673,166.334403,-0.033173,-0.036026,1.012375,-0.003785,0.044258,-0.03382,88.887283,13.454971,-146.515259,,,
729706492.085026,-1.797059,1.92759,166.327608,-0.038208,-0.031998,1.008453,-0.008759,0.072327,-0.022681,88.887283,13.454971,-146.515259,,,
729706492.088363,-1.797059,1.92759,166.327608,-0.038208,-0.031998,1.008453,-0.008759,0.072327,-0.022681,88.887283,13.454971,-146.515259,,,
729706492.091795,-1.800915,1.945207,166.322448,-0.038208,-0.031998,1.008453,-0.008759,0.072327,-0.022681,88.887283,13.454971,-146.515259,,,
729706492.095016,-1.80448,1.965327,166.318142,-0.043381,-0.030502,1.003418,-0.011543,0.073558,-0.017341,88.887283,13.454971,-146.515259,,,
729706492.098357,-1.80448,1.965327,166.318142,-0.043381,-0.030502,1.003418,-0.011543,0.073558,-0.017341,89.250656,13.478104,-146.484756,,,
729706492.101807,-1.809455,1.981818,166.313623,-0.043381,-0.030502,1.003418,-0.011543,0.073558,-0.017341,89.250656,13.478104,-146.484756,,,
729706492.10501,-1.813815,1.999901,166.309299,-0.045975,-0.030563,0.997803,-0.014912,0.064501,-0.016737,89.250656,13.478104,-146.484756,,,
729706492.108374,-1.813815,1.999901,166.309299,-0.045975,-0.030563,0.997803,-0.014912,0.064501,-0.016737,89.250656,13.478104,-146.484756,,,
729706492.111688,-1.819893,2.013351,166.304544,-0.045975,-0.030563,0.997803,-0.014912,0.064501,-0.016737,89.250656,13.478104,-146.484756,,,
729706492.115018,-1.8246,2.027632,166.299011,-0.048447,-0.026047,0.99263,-0.015278,0.048981,-0.022873,89.250656,13.478104,-146.484756,,,
729706492.11844,-1.8246,2.027632,166.299011,-0.048447,-0.026047,0.99263,-0.015278,0.048981,-0.022873,89.250656,13.478104,-146.484756,,,
729706492.121704,-1.829551,2.035157,166.292653,-0.048447,-0.026047,0.99263,-0.015278,0.048981,-0.022873,89.250656,13.478104,-146.484756,,,
729706492.125024,-1.831831,2.042495,166.28598,-0.051956,-0.028778,0.99118,-0.003029,0.023358,-0.025407,89.250656,13.478104,-146.484756,,,
729706492.128376,-1.831831,2.042495,166.28598,-0.051956,-0.028778,0.99118,-0.003029,0.023358,-0.025407,89.250656,13.478104,-146.484756,,,
729706492.131763,-1.832414,2.043976,166.279006,-0.051956,-0.028778,0.99118,-0.003029,0.023358,-0.025407,89.250656,13.478104,-146.484756,,,
729706492.135019,-1.830174,2.04632,166.272245,-0.052795,-0.031799,0.994949,0.013024,0.009096,-0.024002,89.250656,13.478104,-146.484756,,,
729706492.138378,-1.830174,2.04632,166.272245,-0.052795,-0.031799,0.994949,0.013024,0.009096,-0.024002,89.121475,13.512802,-146.723068,,,
729706492.141698,-1.826251,2.0452,166.265956,-0.052795,-0.031799,0.994949,0.013024,0.009096,-0.024002,89.121475,13.512802,-146.723068,,,
729706492.145026,-1.821424,2.04647,166.260624,-0.050858,-0.032654,0.995926,0.018772,0.009574,-0.01765,89.121475,13.512802,-146.723068,,,
729706492.148383,-1.821424,2.04647,166.260624,-0.050858,-0.032654,0.995926,0.018772,0.009574,-0.01765,89.121475,13.512802,-146.723068,,,
729706492.151698,-1.816689,2.047217,166.256447,-0.050858,-0.032654,0.995926,0.018772,0.009574,-0.01765,89.121475,13.512802,-146.723068,,,
729706492.155022,-1.812448,2.049696,166.253729,-0.047546,-0.029526,0.992783,0.012165,0.012416,-0.007991,89.121475,13.512802,-146.723068,,,
729706492.158426,-1.812448,2.049696,166.253729,-0.047546,-0.029526,0.992783,0.012165,0.012416,-0.007991,89.121475,13.512802,-146.723068,,,
729706492.1617,-1.811092,2.053227,166.252234,-0.047546,-0.029526,0.992783,0.012165,0.012416,-0.007991,89.121475,13.512802,-146.723068,,,
729706492.165018,-1.810782,2.059019,166.25183,-0.048538,-0.027802,0.994537,0.000426,0.027333,-0.000813,89.121475,13.512802,-146.723068,,,
729706492.168373,-1.810782,2.059019,166.25183,-0.048538,-0.027802,0.994537,0.000426,0.027333,-0.000813,89.121475,13.512802,-146.723068,,,
729706492.171749,-1.811012,2.067656,166.252761,-0.048538,-0.027802,0.994537,0.000426,0.027333,-0.000813,89.121475,13.512802,-146.723068,,,
729706492.175013,-1.81237,2.076408,166.254637,-0.048843,-0.030045,0.995422,-0.004814,0.034707,0.005797,89.121475,13.512802,-146.723068,,,
729706492.178349,-1.81237,2.076408,166.254637,-0.048843,-0.030045,0.995422,-0.004814,0.034707,0.005797,89.121475,13.512802,-146.723068,,,
729706492.181682,-1.814918,2.087585,166.256977,-0.048843,-0.030045,0.995422,-0.004814,0.034707,0.005797,89.307709,13.368576,-146.695297,,,
729706492.185021,-1.81823,2.096891,166.259194,-0.044464,-0.032837,0.997192,-0.010202,0.035057,0.005164,89.307709,13.368576,-146.695297,,,
729706492.188387,-1.81823,2.096891,166.259194,-0.044464,-0.032837,0.997192,-0.010202,0.035057,0.005164,89.307709,13.368576,-146.695297,,,
729706492.191699,-1.820268,2.108181,166.26137,-0.044464,-0.032837,0.997192,-0.010202,0.035057,0.005164,89.307709,13.368576,-146.695297,,,
729706492.195018,-1.821608,2.116659,166.263515,-0.045868,-0.034271,1.002289,-0.001224,0.030998,0.005757,89.307709,13.368576,-146.695297,,,
729706492.198128,-1.821608,2.116659,166.263515,-0.045868,-0.034271,1.002289,-0.001224,0.030998,0.005757,89.307709,13.368576,-146.695297,,,
729706492.201725,-1.820139,2.127945,166.265753,-0.045868,-0.034271,1.002289,-0.001224,0.030998,0.005757,89.307709,13.368576,-146.695297,,,
729706492.205024,-1.817753,2.136072,166.267819,-0.043915,-0.036392,1.005234,0.010668,0.030534,0.005668,89.307709,13.368576,-146.695297,,,
729706492.208394,-1.817753,2.136072,166.267819,-0.043915,-0.036392,1.005234,0.010668,0.030534,0.005668,89.307709,13.368576,-146.695297,,,
729706492.211684,-1.81386,2.147864,166.270068,-0.043915,-0.036392,1.005234,0.010668,0.030534,0.005668,89.307709,13.368576,-146.695297,,,
729706492.215013,-1.809124,2.157158,166.272474,-0.0457,-0.034363,1.007324,0.018822,0.036709,0.007839,89.307709,13.368576,-146.695297,,,
729706492.218372,-1.809124,2.157158,166.272474,-0.0457,-0.034363,1.007324,0.018822,0.036709,0.007839,89.307709,13.368576,-146.695297,,,
729706492.22176,-1.804133,2.170414,166.27502,-0.0457,-0.034363,1.007324,0.018822,0.036709,0.007839,89.265656,13.596207,-146.463058,,,
729706492.225033,-1.798661,2.179668,166.278026,-0.044739,-0.033249,1.002213,0.018848,0.03305,0.011837,89.265656,13.596207,-146.463058,,,
729706492.228461,-1.798661,2.179668,166.278026,-0.044739,-0.033249,1.002213,0.018848,0.03305,0.011837,89.265656,13.596207,-146.463058,,,
729706492.231682,-1.793029,2.190766,166.282067,-0.044739,-0.033249,1.002213,0.018848,0.03305,0.011837,89.265656,13.596207,-146.463058,,,
729706492.23506,-1.78667,2.198493,166.286316,-0.045044,-0.035797,1.003265,0.024024,0.027201,0.014079,89.265656,13.596207,-146.463058,,,
729706492.238373,-1.78667,2.198493,166.286316,-0.045044,-0.035797,1.003265,0.024024,0.027201,0.014079,89.265656,13.596207,-146.463058,,,
729706492.241711,-1.77894,2.206803,166.29091,-0.045044,-0.035797,1.003265,0.024024,0.027201,0.014079,89.265656,13.596207,-146.463058,,,
729706492.245017,-1.771349,2.211899,166.295405,-0.046356,-0.03595,1.00528,0.026554,0.019099,0.013904,89.265656,13.596207,-146.463058,,,
729706492.248437,-1.771349,2.211899,166.295405,-0.046356,-0.03595,1.00528,0.026554,0.019099,0.013904,89.265656,13.596207,-146.463058,,,
729706492.251698,-1.763091,2.218556,166.299654,-0.046356,-0.03595,1.00528,0.026554,0.019099,0.013904,89.265656,13.596207,-146.463058,,,
729706492.255047,-1.755329,2.221417,166.303503,-0.043503,-0.032776,1.000214,0.02687,0.009531,0.011669,89.265656,13.596207,-146.463058,,,
729706492.258381,-1.755329,2.221417,166.303503,-0.043503,-0.032776,1.000214,0.02687,0.009531,0.011669,89.265656,13.596207,-146.463058,,,
729706492.261686,-1.748691,2.224431,166.307133,-0.043503,-0.032776,1.000214,0.02687,0.009531,0.011669,89.199646,13.514496,-146.766571,,,
729706492.265024,-1.748691,2.224431,166.310961,-0.041031,-0.030121,0.991898,0.018297,-0.001948,0.013067,89.199646,13.514496,-146.766571,,,
729706492.268373,-1.742915,2.224033,166.310961,-0.041031,-0.030121,0.991898,0.018297,-0.001948,0.013067,89.199646,13.514496,-146.766571,,,
729706492.271684,-1.738457,2.223656,166.31481,-0.041031,-0.030121,0.991898,0.018297,-0.001948,0.013067,89.199646,13.514496,-146.766571,,,
729706492.27503,-1.738457,2.221668,166.317998,-0.041031,-0.030121,0.991898,0.005989,-0.003642,0.008244,89.199646,13.514496,-146.766571,,,
729706492.278365,-1.735363,2.221668,166.317998,-0.037567,-0.029861,0.990692,0.005989,-0.003642,0.008244,89.199646,13.514496,-146.766571,,,
729706492.281689,-1.73502,2.222252,166.321228,-0.037567,-0.029861,0.990692,0.005989,-0.003642,0.008244,89.199646,13.514496,-146.766571,,,
729706492.285025,-1.73502,2.222252,166.321228,-0.037567,-0.029861,0.990692,0.00257,0.014618,0.008246,89.199646,13.514496,-146.766571,,,
729706492.288433,-1.734196,2.223936,166.324425,-0.03389,-0.030045,0.993576,0.00257,0.014618,0.008246,89.199646,13.514496,-146.766571,,,
729706492.291679,-1.735001,2.230158,166.327201,-0.03389,-0.030045,0.993576,0.00257,0.014618,0.008246,89.199646,13.514496,-146.766571,,,
729706492.295056,-1.735001,2.230158,166.327201,-0.03389,-0.030045,0.993576,0.00257,0.014618,0.008246,89.199646,13.514496,-146.766571,,,
729706492.298366,-1.736027,2.238299,166.32983,-0.03067,-0.030273,0.995117,-0.005073,0.036822,0.007175,89.199646,13.514496,-146.766571,,,
729706492.301726,-1.737946,2.251065,166.332714,-0.03067,-0.030273,0.995117,-0.005073,0.036822,0.007175,89.199646,13.514496,-146.766571,,,
729706492.305013,-1.737946,2.251065,166.332714,-0.03067,-0.030273,0.995117,-0.005073,0.036822,0.007175,89.231537,13.753265,-146.686523,,,
729706492.308368,-1.738329,2.265446,166.336061,-0.031601,-0.032425,0.997009,0.001711,0.057021,0.010926,89.231537,13.753265,-146.686523,,,
729706492.311773,-1.737667,2.282917,166.340029,-0.031601,-0.032425,0.997009,0.001711,0.057021,0.010926,89.231537,13.753265,-146.686523,,,
729706492.31508,-1.737667,2.282917,166.344723,-0.031601,-0.032425,0.997009,0.001711,0.057021,0.010926,89.231537,13.753265,-146.686523,,,
729706492.318363,-1.735144,2.301082,166.344723,-0.036133,-0.036011,0.99559,0.010162,0.06795,0.016493,89.231537,13.753265,-146.686523,,,
729706492.321692,-1.733051,2.320868,166.34975,-0.036133,-0.036011,0.99559,0.010162,0.06795,0.016493,89.231537,13.753265,-146.686523,,,
729706492.325119,-1.733051,2.320868,166.34975,-0.036133,-0.036011,0.99559,0.010162,0.06795,0.016493,89.231537,13.753265,-146.686523,,,
729706492.328403,-1.728693,2.337943,166.35538,-0.037964,-0.035751,0.986282,0.017421,0.057286,0.021282,89.231537,13.753265,-146.686523,,,
729706492.331685,-1.724361,2.353055,166.361441,-0.037964,-0.035751,0.986282,0.017421,0.057286,0.021282,89.231537,13.753265,-146.686523,,,
729706492.33505,-1.724361,2.353055,166.361441,-0.037964,-0.035751,0.986282,0.017421,0.057286,0.021282,89.231537,13.753265,-146.686523,,,
729706492.338369,-1.719448,2.363103,166.366817,-0.040588,-0.032837,0.980164,0.016981,0.029475,0.016709,89.231537,13.753265,-146.686523,,,
729706492.341683,-1.715013,2.369176,166.37115,-0.040588,-0.032837,0.980164,0.016981,0.029475,0.016709,89.231537,13.753265,-146.686523,,,
729706492.345055,-1.715013,2.369176,166.37115,-0.040588,-0.032837,0.980164,0.016981,0.029475,0.016709,89.476517,13.503357,-146.316238,,,
729706492.348371,-1.710836,2.371547,166.373799,-0.038681,-0.026428,0.97583,0.013464,0.006299,0.004918,89.476517,13.503357,-146.316238,,,
729706492.351691,-1.707731,2.371319,166.374461,-0.038681,-0.026428,0.97583,0.013464,0.006299,0.004918,89.476517,13.503357,-146.316238,,,
729706492.355091,-1.707731,2.371319,166.374461,-0.038681,-0.026428,0.97583,0.013464,0.006299,0.004918,89.476517,13.503357,-146.316238,,,
729706492.358363,-1.70615,2.370452,166.373342,-0.035629,-0.023865,0.975464,0.003409,-0.000829,-0.007997,89.476517,13.503357,-146.316238,,,
729706492.361685,-1.705977,2.367788,166.370745,-0.035629,-0.023865,0.975464,0.003409,-0.000829,-0.007997,89.476517,13.503357,-146.316238,,,
729706492.365079,-1.705977,2.367788,166.370745,-0.035629,-0.023865,0.975464,0.003409,-0.000829,-0.007997,89.476517,13.503357,-146.316238,,,
729706492.368422,-1.707737,2.366573,166.367322,-0.035782,-0.024734,0.976883,-0.009849,0.001758,-0.014496,89.476517,13.503357,-146.316238,,,
729706492.371685,-1.711077,2.36437,166.364087,-0.035782,-0.024734,0.976883,-0.009849,0.001758,-0.014496,89.476517,13.503357,-146.316238,,,
729706492.375051,-1.711077,2.36437,166.364087,-0.035782,-0.024734,0.976883,-0.009849,0.001758,-0.014496,89.476517,13.503357,-146.316238,,,
729706492.378378,-1.714305,2.365498,166.361462,-0.037918,-0.027023,0.980667,-0.010175,0.010199,-0.010682,89.476517,13.503357,-146.316238,,,
729706492.38168,-1.717767,2.365889,166.359667,-0.037918,-0.027023,0.980667,-0.010175,0.010199,-0.010682,89.476517,13.503357,-146.316238,,,
729706492.385036,-1.717767,2.365889,166.359667,-0.037918,-0.027023,0.980667,-0.010175,0.010199,-0.010682,89.296921,13.672531,-146.662155,,,
729706492.388355,-1.720598,2.370441,166.359443,-0.040573,-0.031845,0.985382,-0.007133,0.022524,-0.000107,89.296921,13.672531,-146.662155,,,
729706492.391791,-1.723577,2.374878,166.360863,-0.040573,-0.031845,0.985382,-0.007133,0.022524,-0.000107,89.296921,13.672531,-146.662155,,,
729706492.395167,-1.723577,2.374878,166.360863,-0.040573,-0.031845,0.985382,-0.007133,0.022524,-0.000107,89.296921,13.672531,-146.662155,,,
729706492.398377,-1.725309,2.382245,166.363276,-0.040695,-0.030869,0.985123,-0.004135,0.030687,0.006556,89.296921,13.672531,-146.662155,,,
729706492.401708,-1.727904,2.390176,166.365509,-0.040695,-0.030869,0.985123,-0.004135,0.030687,0.006556,89.296921,13.672531,-146.662155,,,
729706492.405075,-1.727904,2.390176,166.365509,-0.040695,-0.030869,0.985123,-0.004135,0.030687,0.006556,89.296921,13.672531,-146.662155,,,
729706492.408438,-1.729807,2.399201,166.367402,-0.041229,-0.027924,0.98439,-0.006178,0.033665,0.003971,89.296921,13.672531,-146.662155,,,
729706492.411683,-1.733188,2.407049,166.368432,-0.041229,-0.027924,0.98439,-0.006178,0.033665,0.003971,89.296921,13.672531,-146.662155,,,
729706492.415065,-1.733188,2.407049,166.368432,-0.041229,-0.027924,0.98439,-0.006178,0.033665,0.003971,89.296921,13.672531,-146.662155,,,
729706492.418361,-1.737002,2.414281,166.368656,-0.039536,-0.028076,0.983337,-0.014362,0.025532,-0.002124,89.296921,13.672531,-146.662155,,,
729706492.421687,-1.741644,2.419663,166.367745,-0.039536,-0.028076,0.983337,-0.014362,0.025532,-0.002124,89.296921,13.672531,-146.662155,,,
729706492.425017,-1.741644,2.419663,166.367745,-0.039536,-0.028076,0.983337,-0.014362,0.025532,-0.002124,89.470947,13.518494,-146.508759,,,
729706492.428388,-1.746403,2.423582,166.365264,-0.038559,-0.029144,0.987,-0.014951,0.014357,-0.013134,89.470947,13.518494,-146.508759,,,
729706492.431681,-1.750242,2.425638,166.361665,-0.038559,-0.029144,0.987,-0.014951,0.014357,-0.013134,89.470947,13.518494,-146.508759,,,
729706492.435139,-1.750242,2.425638,166.361665,-0.038559,-0.029144,0.987,-0.014951,0.014357,-0.013134,89.470947,13.518494,-146.508759,,,
729706492.438351,-1.754098,2.427878,166.357274,-0.042664,-0.031387,0.995041,-0.010227,0.010281,-0.018655,89.470947,13.518494,-146.508759,,,
729706492.441693,-1.755753,2.428742,166.352756,-0.042664,-0.031387,0.995041,-0.010227,0.010281,-0.018655,89.470947,13.518494,-146.508759,,,
729706492.445034,-1.755753,2.428742,166.352756,-0.042664,-0.031387,0.995041,-0.010227,0.010281,-0.018655,89.470947,13.518494,-146.508759,,,
729706492.448431,-1.756901,2.430752,166.348913,-0.043549,-0.031815,1.001694,-0.002033,0.010389,-0.013809,89.470947,13.518494,-146.508759,,,
729706492.451685,-1.756478,2.431661,166.345929,-0.043549,-0.031815,1.001694,-0.002033,0.010389,-0.013809,89.470947,13.518494,-146.508759,,,
729706492.455047,-1.756478,2.431661,166.345929,-0.043549,-0.031815,1.001694,-0.002033,0.010389,-0.013809,89.470947,13.518494,-146.508759,,,
729706492.458373,-1.755227,2.433185,166.34423,-0.049637,-0.032883,1.001785,0.007747,0.007311,-0.004666,89.470947,13.518494,-146.508759,,,
729706492.461687,-1.752672,2.43293,166.343893,-0.049637,-0.032883,1.001785,0.007747,0.007311,-0.004666,89.470947,13.518494,-146.508759,,,
729706492.46503,-1.752672,2.43293,166.343893,-0.049637,-0.032883,1.001785,0.007747,0.007311,-0.004666,89.470947,13.518494,-146.508759,,,
729706492.468364,-1.749242,2.431583,166.344657,-0.049118,-0.032394,0.997009,0.014025,-0.004614,0.003159,89.386383,13.477264,-146.28656,,,
729706492.471685,-1.745624,2.429115,166.34606,-0.049118,-0.032394,0.997009,0.014025,-0.004614,0.003159,89.386383,13.477264,-146.28656,,,
729706492.475017,-1.745624,2.429115,166.34606,-0.049118,-0.032394,0.997009,0.014025,-0.004614,0.003159,89.386383,13.477264,-146.28656,,,
729706492.478374,-1.742853,2.426829,166.347542,-0.047272,-0.027298,0.993805,0.006723,-0.003572,0.003426,89.386383,13.477264,-146.28656,,,
729706492.481504,-1.741866,2.425473,166.348881,-0.047272,-0.027298,0.993805,0.006723,-0.003572,0.003426,89.386383,13.477264,-146.28656,,,
729706492.485057,-1.741866,2.425473,166.348881,-0.047272,-0.027298,0.993805,0.006723,-0.003572,0.003426,89.386383,13.477264,-146.28656,,,
729706492.488411,-1.743714,2.425794,166.350438,-0.047516,-0.02211,0.989288,-0.011542,0.006506,0.004115,89.386383,13.477264,-146.28656,,,
729706492.491682,-1.748138,2.427417,166.352599,-0.047516,-0.02211,0.989288,-0.011542,0.006506,0.004115,89.386383,13.477264,-146.28656,,,
729706492.495033,-1.748138,2.427417,166.352599,-0.047516,-0.02211,0.989288,-0.011542,0.006506,0.004115,89.386383,13.477264,-146.28656,,,
729706492.498351,-1.755537,2.430379,166.355486,-0.048691,-0.024612,0.986542,-0.029817,0.01526,0.00836,89.386383,13.477264,-146.28656,,,
729706492.501683,-1.765224,2.434502,166.359263,-0.048691,-0.024612,0.986542,-0.029817,0.01526,0.00836,89.386383,13.477264,-146.28656,,,
729706492.505031,-1.765224,2.434502,166.359263,-0.048691,-0.024612,0.986542,-0.029817,0.01526,0.00836,89.386383,13.477264,-146.28656,,,
729706492.508372,-1.776313,2.44155,166.363945,-0.047485,-0.029465,0.989822,-0.0383,0.031024,0.014174,89.492813,13.612534,-146.404343,,,
729706492.511687,-1.786657,2.4504,166.369725,-0.047485,-0.029465,0.989822,-0.0383,0.031024,0.014174,89.492813,13.612534,-146.404343,,,
729706492.515062,-1.786657,2.4504,166.369725,-0.047485,-0.029465,0.989822,-0.0383,0.031024,0.014174,89.492813,13.612534,-146.404343,,,
729706492.518364,-1.796363,2.460913,166.376208,-0.044907,-0.032104,0.999619,-0.032021,0.040125,0.019227,89.492813,13.612534,-146.404343,,,
729706492.521691,-1.805161,2.471722,166.382342,-0.044907,-0.032104,0.999619,-0.032021,0.040125,0.019227,89.492813,13.612534,-146.404343,,,
729706492.525022,-1.805161,2.471722,166.382342,-0.044907,-0.032104,0.999619,-0.032021,0.040125,0.019227,89.492813,13.612534,-146.404343,,,
729706492.528422,-1.812426,2.482394,166.388031,-0.044373,-0.0345,1.00174,-0.022251,0.038434,0.016523,89.492813,13.612534,-146.404343,,,
729706492.531686,-1.817884,2.492875,166.392549,-0.044373,-0.0345,1.00174,-0.022251,0.038434,0.016523,89.492813,13.612534,-146.404343,,,
729706492.535029,-1.817884,2.492875,166.392549,-0.044373,-0.0345,1.00174,-0.022251,0.038434,0.016523,89.492813,13.612534,-146.404343,,,
729706492.538375,-1.820976,2.500538,166.395268,-0.043976,-0.036682,1.001495,-0.006257,0.023722,0.004812,89.492813,13.612534,-146.404343,,,
729706492.541684,-1.821743,2.506382,166.396523,-0.043976,-0.036682,1.001495,-0.006257,0.023722,0.004812,89.492813,13.612534,-146.404343,,,
729706492.545028,-1.821743,2.506382,166.396523,-0.043976,-0.036682,1.001495,-0.006257,0.023722,0.004812,89.492813,13.612534,-146.404343,,,
729706492.548351,-1.81945,2.508436,166.396512,-0.048721,-0.0392,1.005051,0.013088,0.006811,-0.002843,89.604248,13.675781,-146.377075,,,
729706492.551682,-1.814449,2.50951,166.396109,-0.048721,-0.0392,1.005051,0.013088,0.006811,-0.002843,89.604248,13.675781,-146.377075,,,
729706492.555016,-1.814449,2.50951,166.396109,-0.048721,-0.0392,1.005051,0.013088,0.006811,-0.002843,89.604248,13.675781,-146.377075,,,
729706492.558351,-1.807669,2.50688,166.394875,-0.047668,-0.038254,1.003525,0.027407,-0.010995,-0.007765,89.604248,13.675781,-146.377075,,,
729706492.561686,-1.798169,2.503125,166.392558,-0.047668,-0.038254,1.003525,0.027407,-0.010995,-0.007765,89.604248,13.675781,-146.377075,,,
729706492.565083,-1.798169,2.503125,166.392558,-0.047668,-0.038254,1.003525,0.027407,-0.010995,-0.007765,89.604248,13.675781,-146.377075,,,
729706492.568359,-1.78987,2.497764,166.390514,-0.046234,-0.036499,1.002609,0.028552,-0.016682,-0.005633,89.604248,13.675781,-146.377075,,,
729706492.571693,-1.781571,2.492628,166.388835,-0.046234,-0.036499,1.002609,0.028552,-0.016682,-0.005633,89.604248,13.675781,-146.377075,,,
729706492.57504,-1.781571,2.492628,166.388835,-0.046234,-0.036499,1.002609,0.028552,-0.016682,-0.005633,89.604248,13.675781,-146.377075,,,
729706492.578423,-1.776829,2.486481,166.387797,-0.045609,-0.0336,1.000381,0.013497,-0.016721,-0.00164,89.604248,13.675781,-146.377075,,,
729706492.581685,-1.77288,2.482295,166.38767,-0.045609,-0.0336,1.000381,0.013497,-0.016721,-0.00164,89.604248,13.675781,-146.377075,,,
729706492.585019,-1.77288,2.482295,166.38767,-0.045609,-0.0336,1.000381,0.013497,-0.016721,-0.00164,89.604248,13.675781,-146.377075,,,
729706492.588362,-1.770375,2.47704,166.388059,-0.04483,-0.032181,0.998154,0.007147,-0.014897,0.001974,89.622131,13.623505,-146.381393,,,
729706492.591686,-1.769367,2.474085,166.389347,-0.04483,-0.032181,0.998154,0.007147,-0.014897,0.001974,89.622131,13.623505,-146.381393,,,
729706492.59505,-1.769367,2.474085,166.389347,-0.04483,-0.032181,0.998154,0.007147,-0.014897,0.001974,89.622131,13.623505,-146.381393,,,
729706492.598348,-1.769066,2.471869,166.391216,-0.044113,-0.03215,0.999237,0.001668,-0.004258,0.005931,89.622131,13.623505,-146.381393,,,
729706492.601686,-1.769052,2.47078,166.393509,-0.044113,-0.03215,0.999237,0.001668,-0.004258,0.005931,89.622131,13.623505,-146.381393,,,
729706492.605105,-1.769052,2.47078,166.393509,-0.044113,-0.03215,0.999237,0.001668,-0.004258,0.005931,89.622131,13.623505,-146.381393,,,
729706492.608367,-1.769159,2.470293,166.396293,-0.039215,-0.034653,0.995514,-0.0026,0.002836,0.009291,89.622131,13.623505,-146.381393,,,
729706492.611693,-1.77157,2.471199,166.398987,-0.039215,-0.034653,0.995514,-0.0026,0.002836,0.009291,89.622131,13.623505,-146.381393,,,
729706492.615033,-1.77157,2.471199,166.398987,-0.039215,-0.034653,0.995514,-0.0026,0.002836,0.009291,89.622131,13.623505,-146.381393,,,
729706492.618408,-1.774002,2.472849,166.401021,-0.037369,-0.032303,0.996262,-0.008161,0.009901,0.004542,89.622131,13.623505,-146.381393,,,
729706492.621686,-1.777536,2.475821,166.402252,-0.037369,-0.032303,0.996262,-0.008161,0.009901,0.004542,89.622131,13.623505,-146.381393,,,
729706492.625078,-1.777536,2.475821,166.402252,-0.037369,-0.032303,0.996262,-0.008161,0.009901,0.004542,89.622131,13.623505,-146.381393,,,
729706492.628363,-1.780227,2.47875,166.401615,-0.034744,-0.032928,0.999481,-0.010664,0.014553,-0.008405,89.622131,13.623505,-146.381393,,,
729706492.63174,-1.784176,2.484134,166.399196,-0.034744,-0.032928,0.999481,-0.010664,0.014553,-0.008405,89.443817,13.36441,-146.583771,,,
729706492.635055,-1.784176,2.484134,166.399196,-0.034744,-0.032928,0.999481,-0.010664,0.014553,-0.008405,89.443817,13.36441,-146.583771,,,
729706492.638355,-1.785882,2.489197,166.395429,-0.034576,-0.033966,1.004211,-0.003422,0.020235,-0.017236,89.443817,13.36441,-146.583771,,,
729706492.641775,-1.787986,2.494161,166.39046,-0.034576,-0.033966,1.004211,-0.003422,0.020235,-0.017236,89.443817,13.36441,-146.583771,,,
729706492.645035,-1.787986,2.494161,166.39046,-0.034576,-0.033966,1.004211,-0.003422,0.020235,-0.017236,89.443817,13.36441,-146.583771,,,
729706492.648365,-1.788353,2.498128,166.384272,-0.037552,-0.036285,1.005707,0.001935,0.018176,-0.025359,89.443817,13.36441,-146.583771,,,
729706492.651692,-1.788348,2.502597,166.377167,-0.037552,-0.036285,1.005707,0.001935,0.018176,-0.025359,89.443817,13.36441,-146.583771,,,
729706492.655085,-1.788348,2.502597,166.377167,-0.037552,-0.036285,1.005707,0.001935,0.018176,-0.025359,89.443817,13.36441,-146.583771,,,
729706492.658345,-1.786905,2.506027,166.369473,-0.039856,-0.03653,1.009003,0.007465,0.015408,-0.029059,89.443817,13.36441,-146.583771,,,
729706492.661791,-1.784925,2.509342,166.361485,-0.039856,-0.03653,1.009003,0.007465,0.015408,-0.029059,89.443817,13.36441,-146.583771,,,
729706492.665024,-1.784925,2.509342,166.361485,-0.039856,-0.03653,1.009003,0.007465,0.015408,-0.029059,89.443817,13.36441,-146.583771,,,
729706492.668403,-1.781705,2.513256,166.353717,-0.044693,-0.036575,1.013779,0.014125,0.019968,-0.027177,89.443817,13.36441,-146.583771,,,
729706492.671688,-1.778473,2.518606,166.34679,-0.044693,-0.036575,1.013779,0.014125,0.019968,-0.027177,89.460083,13.424728,-146.143036,,,
729706492.675021,-1.778473,2.518606,166.34679,-0.044693,-0.036575,1.013779,0.014125,0.019968,-0.027177,89.460083,13.424728,-146.143036,,,
729706492.678357,-1.775993,2.524756,166.340949,-0.048111,-0.034485,1.011246,0.007575,0.028194,-0.019789,89.460083,13.424728,-146.143036,,,
729706492.6817,-1.774922,2.532264,166.336162,-0.048111,-0.034485,1.011246,0.007575,0.028194,-0.019789,89.460083,13.424728,-146.143036,,,
729706492.685023,-1.774922,2.532264,166.336162,-0.048111,-0.034485,1.011246,0.007575,0.028194,-0.019789,89.460083,13.424728,-146.143036,,,
729706492.688359,-1.774436,2.541887,166.332642,-0.051453,-0.033966,1.007217,-0.000795,0.038875,-0.011468,89.460083,13.424728,-146.143036,,,
729706492.691689,-1.775367,2.551195,166.330324,-0.051453,-0.033966,1.007217,-0.000795,0.038875,-0.011468,89.460083,13.424728,-146.143036,,,
729706492.695017,-1.775367,2.551195,166.330324,-0.051453,-0.033966,1.007217,-0.000795,0.038875,-0.011468,89.460083,13.424728,-146.143036,,,
729706492.698361,-1.776078,2.563288,166.32867,-0.05275,-0.032837,1.007019,-0.002464,0.048888,-0.007209,89.460083,13.424728,-146.143036,,,
729706492.701698,-1.776491,2.575161,166.327339,-0.05275,-0.032837,1.007019,-0.002464,0.048888,-0.007209,89.460083,13.424728,-146.143036,,,
729706492.705041,-1.776491,2.575161,166.327339,-0.05275,-0.032837,1.007019,-0.002464,0.048888,-0.007209,89.460083,13.424728,-146.143036,,,
729706492.70838,-1.776219,2.588866,166.326406,-0.055389,-0.034119,1.00705,0.000383,0.049716,-0.004676,89.460083,13.424728,-146.143036,,,
729706492.711699,-1.77547,2.599226,166.325568,-0.055389,-0.034119,1.00705,0.000383,0.049716,-0.004676,89.459915,13.466019,-146.452026,,,
729706492.715026,-1.77547,2.599226,166.325568,-0.055389,-0.034119,1.00705,0.000383,0.049716,-0.004676,89.459915,13.466019,-146.452026,,,
729706492.718436,-1.772688,2.61089,166.32464,-0.057587,-0.035934,1.007034,0.011815,0.041925,-0.005323,89.459915,13.466019,-146.452026,,,
729706492.721677,-1.769139,2.618971,166.323537,-0.057587,-0.035934,1.007034,0.011815,0.041925,-0.005323,89.459915,13.466019,-146.452026,,,
729706492.725037,-1.769139,2.618971,166.323537,-0.057587,-0.035934,1.007034,0.011815,0.041925,-0.005323,89.459915,13.466019,-146.452026,,,
729706492.72839,-1.763665,2.627055,166.32249,-0.058197,-0.032043,1.004623,0.02038,0.028118,-0.004957,89.459915,13.466019,-146.452026,,,
729706492.731684,-1.759241,2.632003,166.321368,-0.058197,-0.032043,1.004623,0.02038,0.028118,-0.004957,89.459915,13.466019,-146.452026,,,
729706492.73504,-1.759241,2.632003,166.321368,-0.058197,-0.032043,1.004623,0.02038,0.028118,-0.004957,89.459915,13.466019,-146.452026,,,
729706492.738366,-1.754264,2.637722,166.320905,-0.058548,-0.028595,0.99913,0.017223,0.020397,-0.0009,89.459915,13.466019,-146.452026,,,
729706492.74169,-1.750802,2.641737,166.320811,-0.058548,-0.028595,0.99913,0.017223,0.020397,-0.0009,89.459915,13.466019,-146.452026,,,
729706492.745101,-1.750802,2.641737,166.320811,-0.058548,-0.028595,0.99913,0.017223,0.020397,-0.0009,89.459915,13.466019,-146.452026,,,
729706492.74837,-1.746997,2.646446,166.321086,-0.06311,-0.026733,0.99675,0.012186,0.018602,0.001261,89.459915,13.466019,-146.452026,,,
729706492.75172,-1.744486,2.650444,166.322547,-0.06311,-0.026733,0.99675,0.012186,0.018602,0.001261,89.540039,13.565582,-146.627121,,,
729706492.755053,-1.744486,2.650444,166.322547,-0.06311,-0.026733,0.99675,0.012186,0.018602,0.001261,89.540039,13.565582,-146.627121,,,
729706492.758426,-1.741073,2.65508,166.325204,-0.063461,-0.029663,0.994995,0.012446,0.021542,0.009564,89.540039,13.565582,-146.627121,,,
729706492.761677,-1.738542,2.66176,166.329127,-0.063461,-0.029663,0.994995,0.012446,0.021542,0.009564,89.540039,13.565582,-146.627121,,,
729706492.765037,-1.738542,2.66176,166.329127,-0.063461,-0.029663,0.994995,0.012446,0.021542,0.009564,89.540039,13.565582,-146.627121,,,
729706492.768365,-1.735193,2.668059,166.334784,-0.061752,-0.032639,0.997391,0.01385,0.023311,0.021881,89.540039,13.565582,-146.627121,,,
729706492.771684,-1.730795,2.674672,166.342107,-0.061752,-0.032639,0.997391,0.01385,0.023311,0.021881,89.540039,13.565582,-146.627121,,,
729706492.775049,-1.730795,2.674672,166.342107,-0.061752,-0.032639,0.997391,0.01385,0.023311,0.021881,89.540039,13.565582,-146.627121,,,
729706492.778375,-1.724564,2.679433,166.350386,-0.058685,-0.035965,0.995865,0.022521,0.018154,0.029172,89.540039,13.565582,-146.627121,,,
729706492.781687,-1.718644,2.685445,166.358311,-0.058685,-0.035965,0.995865,0.022521,0.018154,0.029172,89.540039,13.565582,-146.627121,,,
729706492.7851,-1.718644,2.685445,166.358311,-0.058685,-0.035965,0.995865,0.022521,0.018154,0.029172,89.540039,13.565582,-146.627121,,,
729706492.788375,-1.712641,2.689751,166.365428,-0.052612,-0.031128,0.995941,0.019855,0.016349,0.023767,89.540039,13.565582,-146.627121,,,
729706492.791696,-1.70849,2.695094,166.371682,-0.052612,-0.031128,0.995941,0.019855,0.016349,0.023767,89.540039,13.565582,-146.627121,,,
729706492.795035,-1.70849,2.695094,166.371682,-0.052612,-0.031128,0.995941,0.019855,0.016349,0.023767,89.904755,13.295059,-146.332214,,,
729706492.79842,-1.70387,2.697583,166.376974,-0.048569,-0.02739,0.99295,0.016282,0.011107,0.01733,89.904755,13.295059,-146.332214,,,
729706492.80169,-1.700803,2.702276,166.381777,-0.048569,-0.02739,0.99295,0.016282,0.011107,0.01733,89.904755,13.295059,-146.332214,,,
729706492.805018,-1.700803,2.702276,166.381777,-0.048569,-0.02739,0.99295,0.016282,0.011107,0.01733,89.904755,13.295059,-146.332214,,,
729706492.808364,-1.697908,2.703591,166.385529,-0.049744,-0.027847,0.990952,0.009548,0.00383,0.010194,89.904755,13.295059,-146.332214,,,
729706492.811684,-1.695233,2.706879,166.389197,-0.049744,-0.027847,0.990952,0.009548,0.00383,0.010194,89.904755,13.295059,-146.332214,,,
729706492.81503,-1.695233,2.706879,166.389197,-0.049744,-0.027847,0.990952,0.009548,0.00383,0.010194,89.904755,13.295059,-146.332214,,,
729706492.818371,-1.691903,2.708457,166.393653,-0.052673,-0.029709,0.989594,0.01329,0.007473,0.016307,89.904755,13.295059,-146.332214,,,
729706492.821689,-1.687582,2.712485,166.399246,-0.052673,-0.029709,0.989594,0.01329,0.007473,0.016307,89.904755,13.295059,-146.332214,,,
729706492.825098,-1.687582,2.712485,166.399246,-0.052673,-0.029709,0.989594,0.01329,0.007473,0.016307,89.904755,13.295059,-146.332214,,,
729706492.82836,-1.683088,2.713223,166.405608,-0.050537,-0.031784,0.988571,0.01686,0.004766,0.022419,89.904755,13.295059,-146.332214,,,
729706492.831684,-1.677498,2.716913,166.413162,-0.050537,-0.031784,0.988571,0.01686,0.004766,0.022419,89.904755,13.295059,-146.332214,,,
729706492.83503,-1.677498,2.716913,166.413162,-0.050537,-0.031784,0.988571,0.01686,0.004766,0.022419,89.629883,13.433105,-146.539413,,,
729706492.838346,-1.671808,2.716411,166.421508,-0.04805,-0.028778,0.984573,0.019419,-0.000198,0.028747,89.629883,13.433105,-146.539413,,,
729706492.841686,-1.666946,2.718496,166.429644,-0.04805,-0.028778,0.984573,0.019419,-0.000198,0.028747,89.629883,13.433105,-146.539413,,,
729706492.845028,-1.666946,2.718496,166.429644,-0.04805,-0.028778,0.984573,0.019419,-0.000198,0.028747,89.629883,13.433105,-146.539413,,,
729706492.848439,-1.662445,2.716996,166.436876,-0.041519,-0.027618,0.982773,0.014407,-0.002192,0.022905,89.629883,13.433105,-146.539413,,,
729706492.851677,-1.659536,2.718885,166.442705,-0.041519,-0.027618,0.982773,0.014407,-0.002192,0.022905,89.629883,13.433105,-146.539413,,,
729706492.855046,-1.659536,2.718885,166.442705,-0.041519,-0.027618,0.982773,0.014407,-0.002192,0.022905,89.629883,13.433105,-146.539413,,,
729706492.858387,-1.656532,2.717953,166.446707,-0.038391,-0.024719,0.983948,0.007757,-0.000314,0.010489,89.629883,13.433105,-146.539413,,,
729706492.861688,-1.655788,2.718739,166.449486,-0.038391,-0.024719,0.983948,0.007757,-0.000314,0.010489,89.629883,13.433105,-146.539413,,,
729706492.865033,-1.655788,2.718739,166.449486,-0.038391,-0.024719,0.983948,0.007757,-0.000314,0.010489,89.629883,13.433105,-146.539413,,,
729706492.868377,-1.655204,2.718313,166.451229,-0.036026,-0.026733,0.984177,0.000258,0.003209,0.003276,89.629883,13.433105,-146.539413,,,
729706492.871679,-1.655817,2.719553,166.452461,-0.036026,-0.026733,0.984177,0.000258,0.003209,0.003276,89.629883,13.433105,-146.539413,,,
729706492.875034,-1.655817,2.719553,166.452461,-0.036026,-0.026733,0.984177,0.000258,0.003209,0.003276,89.571365,13.480881,-146.069427,,,
729706492.87836,-1.657555,2.720909,166.453754,-0.037201,-0.027267,0.987015,-0.007045,0.008582,0.00346,89.571365,13.480881,-146.069427,,,
729706492.881728,-1.659943,2.723422,166.455388,-0.037201,-0.027267,0.987015,-0.007045,0.008582,0.00346,89.571365,13.480881,-146.069427,,,
729706492.885031,-1.659943,2.723422,166.455388,-0.037201,-0.027267,0.987015,-0.007045,0.008582,0.00346,89.571365,13.480881,-146.069427,,,
729706492.888383,-1.663014,2.725852,166.457451,-0.039307,-0.029999,0.987793,-0.01096,0.009847,0.006336,89.571365,13.480881,-146.069427,,,
729706492.891778,-1.666227,2.729025,166.460275,-0.039307,-0.029999,0.987793,-0.01096,0.009847,0.006336,89.571365,13.480881,-146.069427,,,
729706492.89504,-1.666227,2.729025,166.460275,-0.039307,-0.029999,0.987793,-0.01096,0.009847,0.006336,89.571365,13.480881,-146.069427,,,
729706492.898422,-1.670122,2.732,166.463502,-0.03775,-0.032272,0.988861,-0.01537,0.014303,0.009152,89.571365,13.480881,-146.069427,,,
729706492.901697,-1.675399,2.737091,166.466672,-0.03775,-0.032272,0.988861,-0.01537,0.014303,0.009152,89.571365,13.480881,-146.069427,,,
729706492.905044,-1.675399,2.737091,166.466672,-0.03775,-0.032272,0.988861,-0.01537,0.014303,0.009152,89.571365,13.480881,-146.069427,,,
729706492.908373,-1.680564,2.743447,166.469321,-0.037277,-0.030304,0.995041,-0.01775,0.030126,0.005604,89.571365,13.480881,-146.069427,,,
729706492.911711,-1.685694,2.752761,166.471011,-0.037277,-0.030304,0.995041,-0.01775,0.030126,0.005604,89.571365,13.480881,-146.069427,,,
729706492.915078,-1.685694,2.752761,166.471011,-0.037277,-0.030304,0.995041,-0.01775,0.030126,0.005604,89.571365,13.480881,-146.069427,,,
729706492.918373,-1.690477,2.764026,166.471718,-0.035385,-0.027939,0.997513,-0.016306,0.047655,-0.001072,89.588974,13.560913,-146.185425,,,
729706492.921728,-1.694704,2.776018,166.471749,-0.035385,-0.027939,0.997513,-0.016306,0.047655,-0.001072,89.588974,13.560913,-146.185425,,,
729706492.925087,-1.694704,2.776018,166.471749,-0.035385,-0.027939,0.997513,-0.016306,0.047655,-0.001072,89.588974,13.560913,-146.185425,,,
729706492.928359,-1.698172,2.788526,166.471012,-0.037018,-0.032776,1.00087,-0.010603,0.047541,-0.006264,89.588974,13.560913,-146.185425,,,
729706492.931775,-1.699547,2.798945,166.469085,-0.037018,-0.032776,1.00087,-0.010603,0.047541,-0.006264,89.588974,13.560913,-146.185425,,,
729706492.935037,-1.699547,2.798945,166.469085,-0.037018,-0.032776,1.00087,-0.010603,0.047541,-0.006264,89.588974,13.560913,-146.185425,,,
729706492.938445,-1.699465,2.810495,166.466132,-0.038605,-0.035248,1.004044,0.004095,0.042881,-0.013093,89.588974,13.560913,-146.185425,,,
729706492.941713,-1.697362,2.818746,166.461982,-0.038605,-0.035248,1.004044,0.004095,0.042881,-0.013093,89.588974,13.560913,-146.185425,,,
729706492.945028,-1.697362,2.818746,166.461982,-0.038605,-0.035248,1.004044,0.004095,0.042881,-0.013093,89.588974,13.560913,-146.185425,,,
729706492.948372,-1.694814,2.827544,166.457426,-0.041,-0.033264,1.003754,0.011912,0.030732,-0.016049,89.588974,13.560913,-146.185425,,,
729706492.951686,-1.690928,2.831511,166.452807,-0.041,-0.033264,1.003754,0.011912,0.030732,-0.016049,89.588974,13.560913,-146.185425,,,
729706492.955035,-1.690928,2.831511,166.452807,-0.041,-0.033264,1.003754,0.011912,0.030732,-0.016049,89.588974,13.560913,-146.185425,,,
729706492.958348,-1.686861,2.835324,166.447928,-0.046783,-0.03006,0.998077,0.014809,0.010535,-0.018225,89.579178,13.580612,-146.337921,,,
729706492.961773,-1.683067,2.834326,166.442485,-0.046783,-0.03006,0.998077,0.014809,0.010535,-0.018225,89.579178,13.580612,-146.337921,,,
729706492.965042,-1.683067,2.834326,166.442485,-0.046783,-0.03006,0.998077,0.014809,0.010535,-0.018225,89.579178,13.580612,-146.337921,,,
729706492.968354,-1.679438,2.834218,166.436853,-0.047348,-0.028854,0.995468,0.014522,0.000555,-0.020065,89.579178,13.580612,-146.337921,,,
729706492.971695,-1.676296,2.830069,166.430846,-0.047348,-0.028854,0.995468,0.014522,0.000555,-0.020065,89.579178,13.580612,-146.337921,,,
729706492.975115,-1.676296,2.830069,166.430846,-0.047348,-0.028854,0.995468,0.014522,0.000555,-0.020065,89.579178,13.580612,-146.337921,,,
729706492.978371,-1.672543,2.826237,166.424305,-0.04834,-0.028091,0.995331,0.015674,-0.011588,-0.024153,89.579178,13.580612,-146.337921,,,
729706492.981749,-1.668834,2.818718,166.417485,-0.04834,-0.028091,0.995331,0.015674,-0.011588,-0.024153,89.579178,13.580612,-146.337921,,,
729706492.985036,-1.668834,2.818718,166.417485,-0.04834,-0.028091,0.995331,0.015674,-0.011588,-0.024153,89.579178,13.580612,-146.337921,,,
729706492.988444,-1.664204,2.813215,166.410306,-0.045609,-0.028717,0.996078,0.019656,-0.015573,-0.027008,89.579178,13.580612,-146.337921,,,
729706492.99169,-1.658377,2.805319,166.40247,-0.045609,-0.028717,0.996078,0.019656,-0.015573,-0.027008,89.579178,13.580612,-146.337921,,,
729706492.995036,-1.658377,2.805319,166.40247,-0.045609,-0.028717,0.996078,0.019656,-0.015573,-0.027008,89.579178,13.580612,-146.337921,,,
729706492.998358,-1.65185,2.801387,166.394467,-0.041504,-0.028473,1.000717,0.024811,-0.007723,-0.028502,89.817352,13.444839,-146.33194,,,
729706493.001724,-1.645291,2.795965,166.386584,-0.041504,-0.028473,1.000717,0.024811,-0.007723,-0.028502,89.817352,13.444839,-146.33194,,,
729706493.005033,-1.645291,2.795965,166.386584,-0.041504,-0.028473,1.000717,0.024811,-0.007723,-0.028502,89.817352,13.444839,-146.33194,,,
729706493.008377,-1.6385,2.794685,166.379247,-0.042679,-0.026291,1.002869,0.02556,0.00253,-0.025186,89.817352,13.444839,-146.33194,,,
729706493.011715,-1.632035,2.792766,166.372249,-0.042679,-0.026291,1.002869,0.02556,0.00253,-0.025186,89.817352,13.444839,-146.33194,,,
729706493.015039,-1.632035,2.792766,166.372249,-0.042679,-0.026291,1.002869,0.02556,0.00253,-0.025186,89.817352,13.444839,-146.33194,,,
729706493.018368,-1.623476,2.79454,166.366152,-0.04567,-0.030594,0.999176,0.032612,0.011882,-0.01906,89.817352,13.444839,-146.33194,,,
729706493.021726,-1.616256,2.794868,166.360361,-0.04567,-0.030594,0.999176,0.032612,0.011882,-0.01906,89.817352,13.444839,-146.33194,,,
729706493.025085,-1.616256,2.794868,166.360361,-0.04567,-0.030594,0.999176,0.032612,0.011882,-0.01906,89.817352,13.444839,-146.33194,,,
729706493.028367,-1.609301,2.797947,166.354963,-0.046036,-0.028381,0.99263,0.024184,0.016261,-0.017161,89.817352,13.444839,-146.33194,,,
729706493.031709,-1.603621,2.800754,166.350045,-0.046036,-0.028381,0.99263,0.024184,0.016261,-0.017161,89.817352,13.444839,-146.33194,,,
729706493.035032,-1.603621,2.800754,166.350045,-0.046036,-0.028381,0.99263,0.024184,0.016261,-0.017161,89.817352,13.444839,-146.33194,,,
729706493.038357,-1.598441,2.805014,166.344468,-0.044037,-0.024338,0.991959,0.017538,0.019555,-0.022228,89.962738,13.197739,-146.483734,,,
729706493.041729,-1.594761,2.80983,166.337808,-0.044037,-0.024338,0.991959,0.017538,0.019555,-0.022228,89.962738,13.197739,-146.483734,,,
729706493.045091,-1.594761,2.80983,166.337808,-0.044037,-0.024338,0.991959,0.017538,0.019555,-0.022228,89.962738,13.197739,-146.483734,,,
729706493.048364,-1.592035,2.81588,166.330554,-0.044937,-0.023956,0.993179,0.009333,0.025725,-0.026855,89.962738,13.197739,-146.483734,,,
729706493.051775,-1.589115,2.822603,166.32309,-0.044937,-0.023956,0.993179,0.009333,0.025725,-0.026855,89.962738,13.197739,-146.483734,,,
729706493.055029,-1.589115,2.822603,166.32309,-0.044937,-0.023956,0.993179,0.009333,0.025725,-0.026855,89.962738,13.197739,-146.483734,,,
729706493.058381,-1.585481,2.831113,166.315111,-0.048584,-0.024185,0.995117,0.013492,0.036428,-0.030301,89.962738,13.197739,-146.483734,,,
729706493.061722,-1.582222,2.840616,166.30664,-0.048584,-0.024185,0.995117,0.013492,0.036428,-0.030301,89.962738,13.197739,-146.483734,,,
729706493.065062,-1.582222,2.840616,166.30664,-0.048584,-0.024185,0.995117,0.013492,0.036428,-0.030301,89.962738,13.197739,-146.483734,,,
729706493.068368,-1.578294,2.850716,166.29854,-0.054581,-0.024185,0.996094,0.01683,0.038131,-0.027631,89.962738,13.197739,-146.483734,,,
729706493.071701,-1.578294,2.850716,166.29854,-0.054581,-0.024185,0.996094,0.01683,0.038131,-0.027631,89.962738,13.197739,-146.483734,,,
729706493.075014,-1.573338,2.858782,166.290996,-0.054581,-0.024185,0.996094,0.01683,0.038131,-0.027631,89.962738,13.197739,-146.483734,,,
729706493.078419,-1.566999,2.867033,166.283847,-0.057129,-0.028259,0.994507,0.02471,0.031429,-0.02473,89.962738,13.197739,-146.483734,,,
729706493.081685,-1.566999,2.867033,166.283847,-0.057129,-0.028259,0.994507,0.02471,0.031429,-0.02473,89.763153,13.219986,-146.345779,,,
729706493.085031,-1.559937,2.872284,166.277004,-0.057129,-0.028259,0.994507,0.02471,0.031429,-0.02473,89.763153,13.219986,-146.345779,,,
729706493.088378,-1.553059,2.877814,166.271055,-0.062653,-0.027939,0.993835,0.024125,0.019189,-0.018938,89.763153,13.219986,-146.345779,,,
729706493.091759,-1.553059,2.877814,166.266029,-0.062653,-0.027939,0.993835,0.024125,0.019189,-0.018938,89.763153,13.219986,-146.345779,,,
729706493.095031,-1.546964,2.879801,166.266029,-0.062653,-0.027939,0.993835,0.024125,0.019189,-0.018938,89.763153,13.219986,-146.345779,,,
729706493.098373,-1.540827,2.881056,166.261297,-0.062042,-0.027771,0.989166,0.022727,0.005659,-0.017182,89.763153,13.219986,-146.345779,,,
729706493.101708,-1.540827,2.881056,166.261297,-0.062042,-0.027771,0.989166,0.022727,0.005659,-0.017182,89.763153,13.219986,-146.345779,,,
729706493.105172,-1.535836,2.880279,166.256653,-0.062042,-0.027771,0.989166,0.022727,0.005659,-0.017182,89.763153,13.219986,-146.345779,,,
729706493.10837,-1.532275,2.88012,166.252766,-0.061951,-0.024002,0.989685,0.009311,0.003088,-0.012779,89.763153,13.219986,-146.345779,,,
729706493.11169,-1.532275,2.88012,166.252766,-0.061951,-0.024002,0.989685,0.009311,0.003088,-0.012779,89.763153,13.219986,-146.345779,,,
729706493.115036,-1.529572,2.879689,166.248994,-0.061951,-0.024002,0.989685,0.009311,0.003088,-0.012779,89.763153,13.219986,-146.345779,,,
729706493.118428,-1.527456,2.880805,166.244823,-0.059784,-0.023804,0.993942,0.006,0.007436,-0.015903,89.763153,13.219986,-146.345779,,,
729706493.12169,-1.527456,2.880805,166.244823,-0.059784,-0.023804,0.993942,0.006,0.007436,-0.015903,89.735458,13.423523,-146.315308,,,
729706493.125029,-1.525719,2.881259,166.24091,-0.059784,-0.023804,0.993942,0.006,0.007436,-0.015903,89.735458,13.423523,-146.315308,,,
729706493.128353,-1.52462,2.88477,166.237666,-0.06015,-0.025223,0.995102,0.004363,0.019052,-0.011535,89.735458,13.423523,-146.315308,,,
729706493.131777,-1.52462,2.88477,166.237666,-0.06015,-0.025223,0.995102,0.004363,0.019052,-0.011535,89.735458,13.423523,-146.315308,,,
729706493.135031,-1.523155,2.889141,166.235247,-0.06015,-0.025223,0.995102,0.004363,0.019052,-0.011535,89.735458,13.423523,-146.315308,,,
729706493.138448,-1.522778,2.89488,166.233675,-0.060608,-0.027344,0.996201,-0.000718,0.02523,-0.005984,89.735458,13.423523,-146.315308,,,
729706493.141676,-1.522778,2.89488,166.233675,-0.060608,-0.027344,0.996201,-0.000718,0.02523,-0.005984,89.735458,13.423523,-146.315308,,,
729706493.145099,-1.522693,2.901834,166.233162,-0.060608,-0.027344,0.996201,-0.000718,0.02523,-0.005984,89.735458,13.423523,-146.315308,,,
729706493.148345,-1.522922,2.908528,166.233427,-0.060074,-0.028961,0.996536,-0.000104,0.023894,-0.000536,89.735458,13.423523,-146.315308,,,
729706493.151687,-1.522922,2.908528,166.233427,-0.060074,-0.028961,0.996536,-0.000104,0.023894,-0.000536,89.735458,13.423523,-146.315308,,,
729706493.155033,-1.52298,2.915146,166.233896,-0.060074,-0.028961,0.996536,-0.000104,0.023894,-0.000536,89.735458,13.423523,-146.315308,,,
729706493.158353,-1.522638,2.920203,166.234225,-0.059662,-0.029663,0.996658,0.002985,0.020378,-0.001145,89.735458,13.423523,-146.315308,,,
729706493.161677,-1.522638,2.920203,166.234225,-0.059662,-0.029663,0.996658,0.002985,0.020378,-0.001145,89.818436,13.251495,-146.153229,,,
729706493.165029,-1.522358,2.926693,166.233828,-0.059662,-0.029663,0.996658,0.002985,0.020378,-0.001145,89.818436,13.251495,-146.153229,,,
729706493.168352,-1.521736,2.930186,166.232438,-0.058975,-0.028671,0.997528,0.003623,0.013609,-0.007671,89.818436,13.251495,-146.153229,,,
729706493.171746,-1.521736,2.930186,166.232438,-0.058975,-0.028671,0.997528,0.003623,0.013609,-0.007671,89.818436,13.251495,-146.153229,,,
729706493.175033,-1.520994,2.934996,166.230588,-0.058975,-0.028671,0.997528,0.003623,0.013609,-0.007671,89.818436,13.251495,-146.153229,,,
729706493.178348,-1.519775,2.936166,166.228021,-0.054947,-0.030884,0.998627,0.005409,0.005913,-0.012145,89.818436,13.251495,-146.153229,,,
