Time (sec),Pitch (deg),Roll (deg),Yaw(deg),X-Acceleration (g),Y-Acceleration (g),Z-Acceleration (g),Pitch Rate (deg/sec),Roll Rate (deg/sec),Yaw Rate (deg/sec),Magnetic Field in X direction (uT),Magnetic Field in Y direction (uT),Magnetic Field in Z Direction (uT),Latitude (deg),Longitude (deg),Altitude (m)
729716017.240879,-0.232987,-3.628914,-87.009503,0.065811,-0.008102,0.996033,0.001312,-0.002681,0.001736,63.079895,11.534546,-151.016449,,,
729716017.241213,-0.232987,-3.628917,-83.932624,0.065811,-0.008102,0.996033,0.001312,-0.002681,0.001736,63.079895,11.534546,-151.016449,,,
729716017.245322,-0.232336,-3.629437,-87.008264,0.068466,-0.001541,0.99176,0.001312,-0.002681,0.001736,62.998978,11.538605,-151.018921,,,
729716017.245549,-0.232336,-3.62944,-83.931385,0.068466,-0.001541,0.99176,0.001312,-0.002681,0.001736,62.998978,11.538605,-151.018921,,,
729716017.249681,-0.23489,-3.626848,-87.00521,0.068466,-0.001541,0.99176,-0.014615,0.025759,0.015285,62.998978,11.538605,-151.018921,,,
729716017.249939,-0.234889,-3.626851,-83.928332,0.068466,-0.001541,0.99176,-0.014615,0.025759,0.015285,62.998978,11.538605,-151.018921,,,
729716017.250868,-0.23489,-3.626848,-87.00521,0.068466,-0.001541,0.99176,-0.014615,0.025759,0.015285,62.998978,11.538605,-151.018921,,,
729716017.251217,-0.234889,-3.626851,-83.928332,0.068466,-0.001541,0.99176,-0.014615,0.025759,0.015285,62.998978,11.538605,-151.018921,,,
729716017.256402,-0.2394,-3.619213,-87.000593,0.070206,0.000183,0.993118,-0.014615,0.025759,0.015285,62.998978,11.538605,-151.018921,,,
729716017.256689,-0.2394,-3.619215,-83.923714,0.070206,0.000183,0.993118,-0.014615,0.025759,0.015285,62.998978,11.538605,-151.018921,,,
729716017.258758,-0.245446,-3.61078,-86.994891,0.070206,0.000183,0.993118,-0.02148,0.038176,0.024083,62.998978,11.538605,-151.018921,,,
729716017.258991,-0.245445,-3.610783,-83.918012,0.070206,0.000183,0.993118,-0.02148,0.038176,0.024083,62.998978,11.538605,-151.018921,,,
729716017.261081,-0.245446,-3.61078,-86.994891,0.070206,0.000183,0.993118,-0.02148,0.038176,0.024083,62.998978,11.538605,-151.018921,,,
729716017.261286,-0.245445,-3.610783,-83.918012,0.070206,0.000183,0.993118,-0.02148,0.038176,0.024083,62.998978,11.538605,-151.018921,,,
729716017.265709,-0.251485,-3.599653,-86.988592,0.067795,-0.001877,0.990616,-0.02148,0.038176,0.024083,62.998978,11.538605,-151.018921,,,
729716017.265964,-0.251485,-3.599655,-83.911713,0.067795,-0.001877,0.990616,-0.02148,0.038176,0.024083,62.998978,11.538605,-151.018921,,,
729716017.268737,-0.257168,-3.588963,-86.982894,0.067795,-0.001877,0.990616,-0.011841,0.043896,0.0183,62.998978,11.538605,-151.018921,,,
729716017.268973,-0.257168,-3.588966,-83.906015,0.067795,-0.001877,0.990616,-0.011841,0.043896,0.0183,62.998978,11.538605,-151.018921,,,
729716017.270988,-0.257168,-3.588963,-86.982894,0.067795,-0.001877,0.990616,-0.011841,0.043896,0.0183,62.998978,11.538605,-151.018921,,,
729716017.271206,-0.257168,-3.588966,-83.906015,0.067795,-0.001877,0.990616,-0.011841,0.043896,0.0183,62.998978,11.538605,-151.018921,,,
729716017.275126,-0.260557,-3.57573,-86.977844,0.06752,-0.004837,0.996033,-0.011841,0.043896,0.0183,62.998978,11.538605,-151.018921,,,
729716017.275352,-0.260557,-3.575733,-83.900965,0.06752,-0.004837,0.996033,-0.011841,0.043896,0.0183,62.998978,11.538605,-151.018921,,,
729716017.278862,-0.263205,-3.565206,-86.973864,0.06752,-0.004837,0.996033,-0.003424,0.031171,0.006932,62.998978,11.538605,-151.018921,,,
729716017.27909,-0.263204,-3.565208,-83.896985,0.06752,-0.004837,0.996033,-0.003424,0.031171,0.006932,62.998978,11.538605,-151.018921,,,
729716017.28096,-0.263205,-3.565206,-86.973864,0.06752,-0.004837,0.996033,-0.003424,0.031171,0.006932,62.998978,11.538605,-151.018921,,,
729716017.281183,-0.263204,-3.565208,-83.896985,0.06752,-0.004837,0.996033,-0.003424,0.031171,0.006932,62.998978,11.538605,-151.018921,,,
729716017.285635,-0.264318,-3.555626,-86.971592,0.065262,-0.005035,0.996979,-0.003424,0.031171,0.006932,62.933731,11.476013,-151.118271,,,
729716017.285868,-0.264317,-3.555629,-83.894714,0.065262,-0.005035,0.996979,-0.003424,0.031171,0.006932,62.933731,11.476013,-151.118271,,,
729716017.289522,-0.264827,-3.551336,-86.971309,0.065262,-0.005035,0.996979,-0.006694,0.003909,-0.007384,62.933731,11.476013,-151.118271,,,
729716017.289777,-0.264826,-3.551338,-83.89443,0.065262,-0.005035,0.996979,-0.006694,0.003909,-0.007384,62.933731,11.476013,-151.118271,,,
729716017.29093,-0.264827,-3.551336,-86.971309,0.065262,-0.005035,0.996979,-0.006694,0.003909,-0.007384,62.933731,11.476013,-151.118271,,,
729716017.291194,-0.264826,-3.551338,-83.89443,0.065262,-0.005035,0.996979,-0.006694,0.003909,-0.007384,62.933731,11.476013,-151.118271,,,
729716017.296298,-0.266194,-3.549428,-86.972965,0.063095,0.001617,0.989822,-0.006694,0.003909,-0.007384,62.933731,11.476013,-151.118271,,,
729716017.296566,-0.266193,-3.549431,-83.896086,0.063095,0.001617,0.989822,-0.006694,0.003909,-0.007384,62.933731,11.476013,-151.118271,,,
729716017.298855,-0.267676,-3.551302,-86.975477,0.063095,0.001617,0.989822,-0.009652,-0.011714,-0.009887,62.933731,11.476013,-151.118271,,,
729716017.299097,-0.267675,-3.551305,-83.898599,0.063095,0.001617,0.989822,-0.009652,-0.011714,-0.009887,62.933731,11.476013,-151.118271,,,
729716017.300973,-0.267676,-3.551302,-86.975477,0.063095,0.001617,0.989822,-0.009652,-0.011714,-0.009887,62.933731,11.476013,-151.118271,,,
729716017.301193,-0.267675,-3.551305,-83.898599,0.063095,0.001617,0.989822,-0.009652,-0.011714,-0.009887,62.933731,11.476013,-151.118271,,,
729716017.304842,-0.27049,-3.555733,-86.977804,0.056992,0.000336,0.989136,-0.009652,-0.011714,-0.009887,62.933731,11.476013,-151.118271,,,
729716017.305048,-0.27049,-3.555736,-83.900925,0.056992,0.000336,0.989136,-0.009652,-0.011714,-0.009887,62.933731,11.476013,-151.118271,,,
729716017.308214,-0.272313,-3.562494,-86.980047,0.056992,0.000336,0.989136,-0.000925,-0.027175,-0.009103,62.933731,11.476013,-151.118271,,,
729716017.308429,-0.272313,-3.562497,-83.903168,0.056992,0.000336,0.989136,-0.000925,-0.027175,-0.009103,62.933731,11.476013,-151.118271,,,
729716017.311137,-0.272313,-3.562494,-86.980047,0.056992,0.000336,0.989136,-0.000925,-0.027175,-0.009103,62.933731,11.476013,-151.118271,,,
729716017.311328,-0.272313,-3.562497,-83.903168,0.056992,0.000336,0.989136,-0.000925,-0.027175,-0.009103,62.933731,11.476013,-151.118271,,,
729716017.315684,-0.272737,-3.571188,-86.982048,0.059799,-0.003418,0.994492,-0.000925,-0.027175,-0.009103,62.933731,11.476013,-151.118271,,,
729716017.315925,-0.272737,-3.571191,-83.90517,0.059799,-0.003418,0.994492,-0.000925,-0.027175,-0.009103,62.933731,11.476013,-151.118271,,,
729716017.319516,-0.271708,-3.57856,-86.983099,0.059799,-0.003418,0.994492,0.007277,-0.013439,-0.00117,62.933731,11.476013,-151.118271,,,
729716017.319769,-0.271708,-3.578563,-83.906221,0.059799,-0.003418,0.994492,0.007277,-0.013439,-0.00117,62.933731,11.476013,-151.118271,,,
729716017.320884,-0.271708,-3.57856,-86.983099,0.059799,-0.003418,0.994492,0.007277,-0.013439,-0.00117,62.933731,11.476013,-151.118271,,,
729716017.321216,-0.271708,-3.578563,-83.906221,0.059799,-0.003418,0.994492,0.007277,-0.013439,-0.00117,62.933731,11.476013,-151.118271,,,
729716017.325543,-0.269191,-3.584746,-86.98287,0.064163,-0.010315,1.002106,0.007277,-0.013439,-0.00117,63.109238,11.594864,-151.006989,,,
729716017.325804,-0.26919,-3.584749,-83.905991,0.064163,-0.010315,1.002106,0.007277,-0.013439,-0.00117,63.109238,11.594864,-151.006989,,,
729716017.329909,-0.266762,-3.586,-86.981802,0.064163,-0.010315,1.002106,0.008304,0.01369,0.002888,63.109238,11.594864,-151.006989,,,
729716017.330164,-0.266762,-3.586002,-83.904923,0.064163,-0.010315,1.002106,0.008304,0.01369,0.002888,63.109238,11.594864,-151.006989,,,
729716017.33087,-0.266762,-3.586,-86.981802,0.064163,-0.010315,1.002106,0.008304,0.01369,0.002888,63.109238,11.594864,-151.006989,,,
729716017.331215,-0.266762,-3.586002,-83.904923,0.064163,-0.010315,1.002106,0.008304,0.01369,0.002888,63.109238,11.594864,-151.006989,,,
729716017.335553,-0.263855,-3.584134,-86.980173,0.06517,-0.009689,1.008575,0.008304,0.01369,0.002888,63.109238,11.594864,-151.006989,,,
729716017.335783,-0.263855,-3.584137,-83.903294,0.06517,-0.009689,1.008575,0.008304,0.01369,0.002888,63.109238,11.594864,-151.006989,,,
729716017.338095,-0.261935,-3.577195,-86.977275,0.06517,-0.009689,1.008575,0.007519,0.038914,0.011243,63.109238,11.594864,-151.006989,,,
729716017.338311,-0.261935,-3.577197,-83.900397,0.06517,-0.009689,1.008575,0.007519,0.038914,0.011243,63.109238,11.594864,-151.006989,,,
729716017.341078,-0.261935,-3.577195,-86.977275,0.06517,-0.009689,1.008575,0.007519,0.038914,0.011243,63.109238,11.594864,-151.006989,,,
729716017.341264,-0.261935,-3.577197,-83.900397,0.06517,-0.009689,1.008575,0.007519,0.038914,0.011243,63.109238,11.594864,-151.006989,,,
729716017.345401,-0.260129,-3.567704,-86.97331,0.064148,-0.003174,1.005783,0.007519,0.038914,0.011243,63.109238,11.594864,-151.006989,,,
729716017.345627,-0.260129,-3.567707,-83.896432,0.064148,-0.003174,1.005783,0.007519,0.038914,0.011243,63.109238,11.594864,-151.006989,,,
729716017.349289,-0.25915,-3.555326,-86.968698,0.064148,-0.003174,1.005783,-0.00122,0.047791,0.013247,63.109238,11.594864,-151.006989,,,
729716017.34954,-0.25915,-3.555328,-83.891819,0.064148,-0.003174,1.005783,-0.00122,0.047791,0.013247,63.109238,11.594864,-151.006989,,,
729716017.350914,-0.25915,-3.555326,-86.968698,0.064148,-0.003174,1.005783,-0.00122,0.047791,0.013247,63.109238,11.594864,-151.006989,,,
729716017.35121,-0.25915,-3.555328,-83.891819,0.064148,-0.003174,1.005783,-0.00122,0.047791,0.013247,63.109238,11.594864,-151.006989,,,
729716017.355319,-0.259909,-3.543696,-86.963947,0.061844,-0.001923,1.004547,-0.00122,0.047791,0.013247,63.109238,11.594864,-151.006989,,,
729716017.355543,-0.259908,-3.543699,-83.887068,0.061844,-0.001923,1.004547,-0.00122,0.047791,0.013247,63.109238,11.594864,-151.006989,,,
729716017.35866,-0.263048,-3.533387,-86.958819,0.061844,-0.001923,1.004547,-0.017344,0.027872,0.015374,63.109238,11.594864,-151.006989,,,
729716017.358879,-0.263048,-3.53339,-83.88194,0.061844,-0.001923,1.004547,-0.017344,0.027872,0.015374,63.109238,11.594864,-151.006989,,,
729716017.361097,-0.263048,-3.533387,-86.958819,0.061844,-0.001923,1.004547,-0.017344,0.027872,0.015374,63.109238,11.594864,-151.006989,,,
729716017.361293,-0.263048,-3.53339,-83.88194,0.061844,-0.001923,1.004547,-0.017344,0.027872,0.015374,63.109238,11.594864,-151.006989,,,
729716017.365667,-0.268228,-3.526732,-86.953393,0.056,-0.002533,0.992584,-0.017344,0.027872,0.015374,63.089539,11.426956,-151.241959,,,
729716017.365917,-0.268228,-3.526734,-83.876514,0.056,-0.002533,0.992584,-0.017344,0.027872,0.015374,63.089539,11.426956,-151.241959,,,
729716017.368668,-0.275096,-3.523748,-86.948584,0.056,-0.002533,0.992584,-0.02549,0.003011,0.01695,63.089539,11.426956,-151.241959,,,
729716017.368895,-0.275096,-3.523751,-83.871705,0.056,-0.002533,0.992584,-0.02549,0.003011,0.01695,63.089539,11.426956,-151.241959,,,
729716017.370993,-0.275096,-3.523748,-86.948584,0.056,-0.002533,0.992584,-0.02549,0.003011,0.01695,63.089539,11.426956,-151.241959,,,
729716017.371207,-0.275096,-3.523751,-83.871705,0.056,-0.002533,0.992584,-0.02549,0.003011,0.01695,63.089539,11.426956,-151.241959,,,
729716017.374989,-0.281498,-3.523977,-86.944246,0.053391,-0.002197,0.990143,-0.02549,0.003011,0.01695,63.089539,11.426956,-151.241959,,,
729716017.375201,-0.281498,-3.52398,-83.867368,0.053391,-0.002197,0.990143,-0.02549,0.003011,0.01695,63.089539,11.426956,-151.241959,,,
729716017.379934,-0.288409,-3.526004,-86.94062,0.053391,-0.002197,0.990143,-0.020387,-0.009777,0.006539,63.089539,11.426956,-151.241959,,,
729716017.38019,-0.288408,-3.526006,-83.863742,0.053391,-0.002197,0.990143,-0.020387,-0.009777,0.006539,63.089539,11.426956,-151.241959,,,
729716017.380874,-0.288409,-3.526004,-86.94062,0.053391,-0.002197,0.990143,-0.020387,-0.009777,0.006539,63.089539,11.426956,-151.241959,,,
729716017.381211,-0.288408,-3.526006,-83.863742,0.053391,-0.002197,0.990143,-0.020387,-0.009777,0.006539,63.089539,11.426956,-151.241959,,,
729716017.385169,-0.293643,-3.528801,-86.938245,0.059143,-0.007324,0.999435,-0.020387,-0.009777,0.006539,63.089539,11.426956,-151.241959,,,
729716017.385388,-0.293643,-3.528804,-83.861366,0.059143,-0.007324,0.999435,-0.020387,-0.009777,0.006539,63.089539,11.426956,-151.241959,,,
729716017.389536,-0.298377,-3.533392,-86.93721,0.059143,-0.007324,0.999435,-0.009684,-0.018105,-0.000288,63.089539,11.426956,-151.241959,,,
729716017.389799,-0.298377,-3.533395,-83.860331,0.059143,-0.007324,0.999435,-0.009684,-0.018105,-0.000288,63.089539,11.426956,-151.241959,,,
729716017.390908,-0.298377,-3.533392,-86.93721,0.059143,-0.007324,0.999435,-0.009684,-0.018105,-0.000288,63.089539,11.426956,-151.241959,,,
729716017.391194,-0.298377,-3.533395,-83.860331,0.059143,-0.007324,0.999435,-0.009684,-0.018105,-0.000288,63.089539,11.426956,-151.241959,,,
729716017.395251,-0.30178,-3.539236,-86.936803,0.066254,-0.013321,1.008026,-0.009684,-0.018105,-0.000288,63.089539,11.426956,-151.241959,,,
729716017.395471,-0.30178,-3.539239,-83.859924,0.066254,-0.013321,1.008026,-0.009684,-0.018105,-0.000288,63.089539,11.426956,-151.241959,,,
729716017.399742,-0.305039,-3.545115,-86.936259,0.066254,-0.013321,1.008026,-0.011188,-0.012385,0.000763,63.089539,11.426956,-151.241959,,,
729716017.400019,-0.305038,-3.545118,-83.85938,0.066254,-0.013321,1.008026,-0.011188,-0.012385,0.000763,63.089539,11.426956,-151.241959,,,
729716017.400861,-0.305039,-3.545115,-86.936259,0.066254,-0.013321,1.008026,-0.011188,-0.012385,0.000763,63.089539,11.426956,-151.241959,,,
729716017.401218,-0.305038,-3.545118,-83.85938,0.066254,-0.013321,1.008026,-0.011188,-0.012385,0.000763,63.089539,11.426956,-151.241959,,,
729716017.404747,-0.30937,-3.54993,-86.935428,0.063522,-0.014511,1.007935,-0.011188,-0.012385,0.000763,63.089539,11.426956,-151.241959,,,
729716017.404958,-0.309369,-3.549933,-83.858549,0.063522,-0.014511,1.007935,-0.011188,-0.012385,0.000763,63.089539,11.426956,-151.241959,,,
729716017.409025,-0.31271,-3.552765,-86.933572,0.063522,-0.014511,1.007935,-0.012661,-0.003506,0.009886,63.118027,11.376526,-151.185425,,,
729716017.409282,-0.31271,-3.552768,-83.856693,0.063522,-0.014511,1.007935,-0.012661,-0.003506,0.009886,63.118027,11.376526,-151.185425,,,
729716017.411006,-0.31271,-3.552765,-86.933572,0.063522,-0.014511,1.007935,-0.012661,-0.003506,0.009886,63.118027,11.376526,-151.185425,,,
729716017.411239,-0.31271,-3.552768,-83.856693,0.063522,-0.014511,1.007935,-0.012661,-0.003506,0.009886,63.118027,11.376526,-151.185425,,,
729716017.415103,-0.317196,-3.555061,-86.930225,0.061661,-0.007294,1.008987,-0.012661,-0.003506,0.009886,63.118027,11.376526,-151.185425,,,
729716017.415309,-0.317195,-3.555064,-83.853346,0.061661,-0.007294,1.008987,-0.012661,-0.003506,0.009886,63.118027,11.376526,-151.185425,,,
729716017.418179,-0.322666,-3.556583,-86.925873,0.061661,-0.007294,1.008987,-0.021074,-0.000725,0.017706,63.118027,11.376526,-151.185425,,,
729716017.418389,-0.322666,-3.556586,-83.848995,0.061661,-0.007294,1.008987,-0.021074,-0.000725,0.017706,63.118027,11.376526,-151.185425,,,
729716017.421063,-0.322666,-3.556583,-86.925873,0.061661,-0.007294,1.008987,-0.021074,-0.000725,0.017706,63.118027,11.376526,-151.185425,,,
729716017.421259,-0.322666,-3.556586,-83.848995,0.061661,-0.007294,1.008987,-0.021074,-0.000725,0.017706,63.118027,11.376526,-151.185425,,,
729716017.425563,-0.329051,-3.558001,-86.920416,0.066116,-0.00563,1.000168,-0.021074,-0.000725,0.017706,63.118027,11.376526,-151.185425,,,
729716017.425805,-0.329051,-3.558003,-83.843538,0.066116,-0.00563,1.000168,-0.021074,-0.000725,0.017706,63.118027,11.376526,-151.185425,,,
729716017.428791,-0.336725,-3.559602,-86.913713,0.066116,-0.00563,1.000168,-0.030133,-0.006499,0.025983,63.118027,11.376526,-151.185425,,,
729716017.429032,-0.336725,-3.559605,-83.836834,0.066116,-0.00563,1.000168,-0.030133,-0.006499,0.025983,63.118027,11.376526,-151.185425,,,
729716017.431028,-0.336725,-3.559602,-86.913713,0.066116,-0.00563,1.000168,-0.030133,-0.006499,0.025983,63.118027,11.376526,-151.185425,,,
729716017.431261,-0.336725,-3.559605,-83.836834,0.066116,-0.00563,1.000168,-0.030133,-0.006499,0.025983,63.118027,11.376526,-151.185425,,,
729716017.434848,-0.344947,-3.56197,-86.90648,0.064316,-0.006836,0.996902,-0.030133,-0.006499,0.025983,63.118027,11.376526,-151.185425,,,
729716017.435069,-0.344947,-3.561972,-83.829601,0.064316,-0.006836,0.996902,-0.030133,-0.006499,0.025983,63.118027,11.376526,-151.185425,,,
729716017.438903,-0.354222,-3.565125,-86.899147,0.064316,-0.006836,0.996902,-0.029411,-0.009868,0.023793,63.118027,11.376526,-151.185425,,,
729716017.439136,-0.354222,-3.565127,-83.822268,0.064316,-0.006836,0.996902,-0.029411,-0.009868,0.023793,63.118027,11.376526,-151.185425,,,
729716017.440986,-0.354222,-3.565125,-86.899147,0.064316,-0.006836,0.996902,-0.029411,-0.009868,0.023793,63.118027,11.376526,-151.185425,,,
729716017.441204,-0.354222,-3.565127,-83.822268,0.064316,-0.006836,0.996902,-0.029411,-0.009868,0.023793,63.118027,11.376526,-151.185425,,,
729716017.445433,-0.362674,-3.567666,-86.892422,0.065979,-0.00351,0.998901,-0.029411,-0.009868,0.023793,63.118027,11.376526,-151.185425,,,
729716017.445652,-0.362674,-3.567669,-83.815543,0.065979,-0.00351,0.998901,-0.029411,-0.009868,0.023793,63.118027,11.376526,-151.185425,,,
729716017.44871,-0.371941,-3.573099,-86.886503,0.065979,-0.00351,0.998901,-0.031713,-0.024184,0.018694,63.186859,11.630081,-151.288132,,,
729716017.448948,-0.371941,-3.573101,-83.809624,0.065979,-0.00351,0.998901,-0.031713,-0.024184,0.018694,63.186859,11.630081,-151.288132,,,
729716017.451003,-0.371941,-3.573099,-86.886503,0.065979,-0.00351,0.998901,-0.031713,-0.024184,0.018694,63.186859,11.630081,-151.288132,,,
729716017.451218,-0.371941,-3.573101,-83.809624,0.065979,-0.00351,0.998901,-0.031713,-0.024184,0.018694,63.186859,11.630081,-151.288132,,,
729716017.456597,-0.381163,-3.580103,-86.881068,0.072205,0.000168,0.999191,-0.031713,-0.024184,0.018694,63.186859,11.630081,-151.288132,,,
729716017.456853,-0.381163,-3.580106,-83.804189,0.072205,0.000168,0.999191,-0.031713,-0.024184,0.018694,63.186859,11.630081,-151.288132,,,
729716017.458624,-0.391814,-3.589869,-86.876393,0.072205,0.000168,0.999191,-0.034598,-0.032874,0.014879,63.186859,11.630081,-151.288132,,,
729716017.458865,-0.391814,-3.589872,-83.799515,0.072205,0.000168,0.999191,-0.034598,-0.032874,0.014879,63.186859,11.630081,-151.288132,,,
729716017.461094,-0.391814,-3.589869,-86.876393,0.072205,0.000168,0.999191,-0.034598,-0.032874,0.014879,63.186859,11.630081,-151.288132,,,
729716017.461289,-0.391814,-3.589872,-83.799515,0.072205,0.000168,0.999191,-0.034598,-0.032874,0.014879,63.186859,11.630081,-151.288132,,,
729716017.466211,-0.402905,-3.599674,-86.872854,0.069992,-0.000305,0.998459,-0.034598,-0.032874,0.014879,63.186859,11.630081,-151.288132,,,
729716017.466482,-0.402905,-3.599676,-83.795975,0.069992,-0.000305,0.998459,-0.034598,-0.032874,0.014879,63.186859,11.630081,-151.288132,,,
729716017.468596,-0.413005,-3.609877,-86.870392,0.069992,-0.000305,0.998459,-0.030675,-0.032109,0.004611,63.186859,11.630081,-151.288132,,,
729716017.468848,-0.413005,-3.60988,-83.793513,0.069992,-0.000305,0.998459,-0.030675,-0.032109,0.004611,63.186859,11.630081,-151.288132,,,
729716017.471013,-0.413005,-3.609877,-86.870392,0.069992,-0.000305,0.998459,-0.030675,-0.032109,0.004611,63.186859,11.630081,-151.288132,,,
729716017.471232,-0.413005,-3.60988,-83.793513,0.069992,-0.000305,0.998459,-0.030675,-0.032109,0.004611,63.186859,11.630081,-151.288132,,,
729716017.47581,-0.422944,-3.620542,-86.868864,0.07634,-0.006134,1.007629,-0.030675,-0.032109,0.004611,63.186859,11.630081,-151.288132,,,
729716017.476051,-0.422944,-3.620544,-83.791986,0.07634,-0.006134,1.007629,-0.030675,-0.032109,0.004611,63.186859,11.630081,-151.288132,,,
729716017.479539,-0.430709,-3.630482,-86.86841,0.07634,-0.006134,1.007629,-0.023368,-0.027472,-0.003133,63.186859,11.630081,-151.288132,,,
729716017.479811,-0.430709,-3.630485,-83.791531,0.07634,-0.006134,1.007629,-0.023368,-0.027472,-0.003133,63.186859,11.630081,-151.288132,,,
729716017.480879,-0.430709,-3.630482,-86.86841,0.07634,-0.006134,1.007629,-0.023368,-0.027472,-0.003133,63.186859,11.630081,-151.288132,,,
729716017.481208,-0.430709,-3.630485,-83.791531,0.07634,-0.006134,1.007629,-0.023368,-0.027472,-0.003133,63.186859,11.630081,-151.288132,,,
729716017.485158,-0.438984,-3.639355,-86.868805,0.079803,-0.010269,1.013535,-0.023368,-0.027472,-0.003133,63.186859,11.630081,-151.288132,,,
729716017.485368,-0.438984,-3.639358,-83.791926,0.079803,-0.010269,1.013535,-0.023368,-0.027472,-0.003133,63.186859,11.630081,-151.288132,,,
729716017.489459,-0.447025,-3.646081,-86.869749,0.079803,-0.010269,1.013535,-0.0288,-0.004781,-0.001845,63.004715,11.526169,-150.802811,,,
729716017.489725,-0.447025,-3.646084,-83.79287,0.079803,-0.010269,1.013535,-0.0288,-0.004781,-0.001845,63.004715,11.526169,-150.802811,,,
729716017.490918,-0.447025,-3.646081,-86.869749,0.079803,-0.010269,1.013535,-0.0288,-0.004781,-0.001845,63.004715,11.526169,-150.802811,,,
729716017.491194,-0.447025,-3.646084,-83.79287,0.079803,-0.010269,1.013535,-0.0288,-0.004781,-0.001845,63.004715,11.526169,-150.802811,,,
729716017.49482,-0.455786,-3.648025,-86.870556,0.076218,-0.009277,1.01152,-0.0288,-0.004781,-0.001845,63.004715,11.526169,-150.802811,,,
729716017.495039,-0.455785,-3.648028,-83.793677,0.076218,-0.009277,1.01152,-0.0288,-0.004781,-0.001845,63.004715,11.526169,-150.802811,,,
729716017.500671,-0.46585,-3.644654,-86.870832,0.076218,-0.009277,1.01152,-0.038644,0.033938,0.00299,63.004715,11.526169,-150.802811,,,
729716017.500943,-0.46585,-3.644657,-83.793954,0.076218,-0.009277,1.01152,-0.038644,0.033938,0.00299,63.004715,11.526169,-150.802811,,,
729716017.501193,-0.46585,-3.644657,-83.793954,0.076218,-0.009277,1.01152,-0.038644,0.033938,0.00299,63.004715,11.526169,-150.802811,,,
729716017.505247,-0.476708,-3.636661,-86.869992,0.073318,-0.005661,1.016342,-0.038644,0.033938,0.00299,63.004715,11.526169,-150.802811,,,
729716017.505475,-0.476708,-3.636664,-83.793113,0.073318,-0.005661,1.016342,-0.038644,0.033938,0.00299,63.004715,11.526169,-150.802811,,,
729716017.508899,-0.489139,-3.625119,-86.86724,0.073318,-0.005661,1.016342,-0.047855,0.052421,0.017595,63.004715,11.526169,-150.802811,,,
729716017.509138,-0.489139,-3.625122,-83.790362,0.073318,-0.005661,1.016342,-0.047855,0.052421,0.017595,63.004715,11.526169,-150.802811,,,
729716017.51098,-0.489139,-3.625119,-86.86724,0.073318,-0.005661,1.016342,-0.047855,0.052421,0.017595,63.004715,11.526169,-150.802811,,,
729716017.511212,-0.489139,-3.625122,-83.790362,0.073318,-0.005661,1.016342,-0.047855,0.052421,0.017595,63.004715,11.526169,-150.802811,,,
729716017.515477,-0.503105,-3.611623,-86.862858,0.067413,-0.006485,1.008987,-0.047855,0.052421,0.017595,63.004715,11.526169,-150.802811,,,
729716017.515718,-0.503105,-3.611626,-83.785979,0.067413,-0.006485,1.008987,-0.047855,0.052421,0.017595,63.004715,11.526169,-150.802811,,,
729716017.518726,-0.519593,-3.594434,-86.857421,0.067413,-0.006485,1.008987,-0.062357,0.07773,0.024148,63.004715,11.526169,-150.802811,,,
729716017.518961,-0.519593,-3.594436,-83.780542,0.067413,-0.006485,1.008987,-0.062357,0.07773,0.024148,63.004715,11.526169,-150.802811,,,
729716017.52099,-0.519593,-3.594434,-86.857421,0.067413,-0.006485,1.008987,-0.062357,0.07773,0.024148,63.004715,11.526169,-150.802811,,,
729716017.521215,-0.519593,-3.594436,-83.780542,0.067413,-0.006485,1.008987,-0.062357,0.07773,0.024148,63.004715,11.526169,-150.802811,,,
729716017.525664,-0.537319,-3.573907,-86.851686,0.06279,-0.008011,1.004639,-0.062357,0.07773,0.024148,63.004715,11.526169,-150.802811,,,
729716017.525906,-0.537319,-3.57391,-83.774808,0.06279,-0.008011,1.004639,-0.062357,0.07773,0.024148,63.004715,11.526169,-150.802811,,,
729716017.529814,-0.557106,-3.549958,-86.845496,0.06279,-0.008011,1.004639,-0.074481,0.091906,0.027395,63.177414,11.822678,-151.187836,,,
729716017.530114,-0.557105,-3.549961,-83.768617,0.06279,-0.008011,1.004639,-0.074481,0.091906,0.027395,63.177414,11.822678,-151.187836,,,
729716017.530844,-0.557106,-3.549958,-86.845496,0.06279,-0.008011,1.004639,-0.074481,0.091906,0.027395,63.177414,11.822678,-151.187836,,,
729716017.531212,-0.557105,-3.549961,-83.768617,0.06279,-0.008011,1.004639,-0.074481,0.091906,0.027395,63.177414,11.822678,-151.187836,,,
729716017.535512,-0.576881,-3.525733,-86.838999,0.062637,-0.007538,1.006577,-0.074481,0.091906,0.027395,63.177414,11.822678,-151.187836,,,
729716017.535744,-0.576881,-3.525736,-83.76212,0.062637,-0.007538,1.006577,-0.074481,0.091906,0.027395,63.177414,11.822678,-151.187836,,,
729716017.538867,-0.600286,-3.497677,-86.832167,0.062637,-0.007538,1.006577,-0.087676,0.104513,0.02788,63.177414,11.822678,-151.187836,,,
729716017.539096,-0.600285,-3.49768,-83.755288,0.062637,-0.007538,1.006577,-0.087676,0.104513,0.02788,63.177414,11.822678,-151.187836,,,
729716017.541035,-0.600286,-3.497677,-86.832167,0.062637,-0.007538,1.006577,-0.087676,0.104513,0.02788,63.177414,11.822678,-151.187836,,,
729716017.541254,-0.600285,-3.49768,-83.755288,0.062637,-0.007538,1.006577,-0.087676,0.104513,0.02788,63.177414,11.822678,-151.187836,,,
729716017.545471,-0.625015,-3.469816,-86.824772,0.060486,-0.009415,1.00209,-0.087676,0.104513,0.02788,63.177414,11.822678,-151.187836,,,
729716017.545688,-0.625015,-3.469819,-83.747893,0.060486,-0.009415,1.00209,-0.087676,0.104513,0.02788,63.177414,11.822678,-151.187836,,,
729716017.54895,-0.654947,-3.441119,-86.817221,0.060486,-0.009415,1.00209,-0.115959,0.09107,0.038367,63.177414,11.822678,-151.187836,,,
729716017.54919,-0.654946,-3.441121,-83.740343,0.060486,-0.009415,1.00209,-0.115959,0.09107,0.038367,63.177414,11.822678,-151.187836,,,
729716017.550952,-0.654947,-3.441119,-86.817221,0.060486,-0.009415,1.00209,-0.115959,0.09107,0.038367,63.177414,11.822678,-151.187836,,,
729716017.551184,-0.654946,-3.441121,-83.740343,0.060486,-0.009415,1.00209,-0.115959,0.09107,0.038367,63.177414,11.822678,-151.187836,,,
729716017.55571,-0.689114,-3.4186,-86.808429,0.054596,-0.010391,0.991211,-0.115959,0.09107,0.038367,63.177414,11.822678,-151.187836,,,
729716017.55595,-0.689114,-3.418603,-83.73155,0.054596,-0.010391,0.991211,-0.115959,0.09107,0.038367,63.177414,11.822678,-151.187836,,,
729716017.559172,-0.728432,-3.399618,-86.797264,0.054596,-0.010391,0.991211,-0.146633,0.047113,0.052193,63.177414,11.822678,-151.187836,,,
729716017.559423,-0.728432,-3.399621,-83.720386,0.054596,-0.010391,0.991211,-0.146633,0.047113,0.052193,63.177414,11.822678,-151.187836,,,
729716017.560934,-0.728432,-3.399618,-86.797264,0.054596,-0.010391,0.991211,-0.146633,0.047113,0.052193,63.177414,11.822678,-151.187836,,,
729716017.561191,-0.728432,-3.399621,-83.720386,0.054596,-0.010391,0.991211,-0.146633,0.047113,0.052193,63.177414,11.822678,-151.187836,,,
729716017.565415,-0.771829,-3.389669,-86.784715,0.042831,-0.012299,0.973755,-0.146633,0.047113,0.052193,63.177414,11.822678,-151.187836,,,
729716017.565661,-0.771828,-3.389672,-83.707836,0.042831,-0.012299,0.973755,-0.146633,0.047113,0.052193,63.177414,11.822678,-151.187836,,,
729716017.568999,-0.819653,-3.380339,-86.771833,0.042831,-0.012299,0.973755,-0.173411,0.026181,0.051851,63.177414,11.822678,-151.187836,,,
729716017.56923,-0.819653,-3.380342,-83.694954,0.042831,-0.012299,0.973755,-0.173411,0.026181,0.051851,63.050873,12.190475,-151.333755,,,
729716017.571609,-0.819653,-3.380339,-86.771833,0.042831,-0.012299,0.973755,-0.173411,0.026181,0.051851,63.050873,12.190475,-151.333755,,,
729716017.571829,-0.819653,-3.380342,-83.694954,0.042831,-0.012299,0.973755,-0.173411,0.026181,0.051851,63.050873,12.190475,-151.333755,,,
729716017.575306,-0.870155,-3.375743,-86.759446,0.048569,-0.009262,0.975998,-0.173411,0.026181,0.051851,63.050873,12.190475,-151.333755,,,
729716017.575545,-0.870155,-3.375746,-83.682568,0.048569,-0.009262,0.975998,-0.173411,0.026181,0.051851,63.050873,12.190475,-151.333755,,,
729716017.578922,-0.924421,-3.370365,-86.747598,0.048569,-0.009262,0.975998,-0.195046,0.016846,0.051761,63.050873,12.190475,-151.333755,,,
729716017.579169,-0.924421,-3.370368,-83.670719,0.048569,-0.009262,0.975998,-0.195046,0.016846,0.051761,63.050873,12.190475,-151.333755,,,
729716017.580959,-0.924421,-3.370365,-86.747598,0.048569,-0.009262,0.975998,-0.195046,0.016846,0.051761,63.050873,12.190475,-151.333755,,,
729716017.581187,-0.924421,-3.370368,-83.670719,0.048569,-0.009262,0.975998,-0.195046,0.016846,0.051761,63.050873,12.190475,-151.333755,,,
729716017.585021,-0.980061,-3.367124,-86.736099,0.050415,-0.009659,0.984055,-0.195046,0.016846,0.051761,63.050873,12.190475,-151.333755,,,
729716017.585232,-0.980061,-3.367126,-83.65922,0.050415,-0.009659,0.984055,-0.195046,0.016846,0.051761,63.050873,12.190475,-151.333755,,,
729716017.58902,-1.040544,-3.360978,-86.724762,0.050415,-0.009659,0.984055,-0.220501,0.032672,0.049985,63.050873,12.190475,-151.333755,,,
729716017.589268,-1.040543,-3.360981,-83.647883,0.050415,-0.009659,0.984055,-0.220501,0.032672,0.049985,63.050873,12.190475,-151.333755,,,
729716017.591017,-1.040544,-3.360978,-86.724762,0.050415,-0.009659,0.984055,-0.220501,0.032672,0.049985,63.050873,12.190475,-151.333755,,,
729716017.591231,-1.040543,-3.360981,-83.647883,0.050415,-0.009659,0.984055,-0.220501,0.032672,0.049985,63.050873,12.190475,-151.333755,,,
729716017.595693,-1.103415,-3.353007,-86.713726,0.056534,-0.009232,0.985275,-0.220501,0.032672,0.049985,63.050873,12.190475,-151.333755,,,
729716017.595933,-1.103414,-3.35301,-83.636847,0.056534,-0.009232,0.985275,-0.220501,0.032672,0.049985,63.050873,12.190475,-151.333755,,,
729716017.598829,-1.103415,-3.339741,-86.70256,0.056534,-0.009232,0.985275,-0.275627,0.065022,0.056539,63.050873,12.190475,-151.333755,,,
729716017.599095,-1.174328,-3.339744,-83.625681,0.056534,-0.009232,0.985275,-0.275627,0.065022,0.056539,63.050873,12.190475,-151.333755,,,
729716017.60132,-1.174329,-3.339741,-86.70256,0.056534,-0.009232,0.985275,-0.275627,0.065022,0.056539,63.050873,12.190475,-151.333755,,,
729716017.601535,-1.174328,-3.339744,-83.625681,0.056534,-0.009232,0.985275,-0.275627,0.065022,0.056539,63.050873,12.190475,-151.333755,,,
729716017.605604,-1.252451,-3.322413,-86.690151,0.059479,-0.008835,0.982376,-0.275627,0.065022,0.056539,63.050873,12.190475,-151.333755,,,
729716017.60586,-1.25245,-3.322416,-83.613272,0.059479,-0.008835,0.982376,-0.275627,0.065022,0.056539,63.050873,12.190475,-151.333755,,,
729716017.608974,-1.252451,-3.298334,-86.675349,0.059479,-0.008835,0.982376,-0.337868,0.105337,0.081963,63.050873,12.190475,-151.333755,,,
729716017.609236,-1.342118,-3.298336,-83.598471,0.059479,-0.008835,0.982376,-0.337868,0.105337,0.081963,63.050873,12.190475,-151.333755,,,
729716017.612061,-1.342118,-3.298334,-86.675349,0.059479,-0.008835,0.982376,-0.337868,0.105337,0.081963,63.292664,12.71109,-151.671921,,,
729716017.612349,-1.342118,-3.298336,-83.598471,0.059479,-0.008835,0.982376,-0.337868,0.105337,0.081963,63.292664,12.71109,-151.671921,,,
729716017.615708,-1.438532,-3.269319,-86.657037,0.052475,-0.013275,0.97374,-0.337868,0.105337,0.081963,63.292664,12.71109,-151.671921,,,
729716017.615932,-1.438531,-3.269321,-83.580158,0.052475,-0.013275,0.97374,-0.337868,0.105337,0.081963,63.292664,12.71109,-151.671921,,,
729716017.61761,-1.438532,-3.269319,-86.657037,0.052475,-0.013275,0.97374,-0.337868,0.105337,0.081963,63.292664,12.71109,-151.671921,,,
729716017.617852,-1.54651,-3.237524,-83.557668,0.052475,-0.013275,0.97374,-0.407319,0.112633,0.11199,63.292664,12.71109,-151.671921,,,
729716017.622403,-1.54651,-3.237522,-86.634547,0.052475,-0.013275,0.97374,-0.407319,0.112633,0.11199,63.292664,12.71109,-151.671921,,,
729716017.62263,-1.54651,-3.237524,-83.557668,0.052475,-0.013275,0.97374,-0.407319,0.112633,0.11199,63.292664,12.71109,-151.671921,,,
729716017.625288,-1.662428,-3.206191,-86.608231,0.052734,-0.016022,0.967072,-0.407319,0.112633,0.11199,63.292664,12.71109,-151.671921,,,
729716017.625507,-1.662427,-3.206194,-83.531352,0.052734,-0.016022,0.967072,-0.407319,0.112633,0.11199,63.292664,12.71109,-151.671921,,,
729716017.629246,-1.791155,-3.172864,-86.578937,0.052734,-0.016022,0.967072,-0.474712,0.120789,0.135591,63.292664,12.71109,-151.671921,,,
729716017.629493,-1.791154,-3.172866,-83.502058,0.052734,-0.016022,0.967072,-0.474712,0.120789,0.135591,63.292664,12.71109,-151.671921,,,
729716017.630913,-1.791155,-3.172864,-86.578937,0.052734,-0.016022,0.967072,-0.474712,0.120789,0.135591,63.292664,12.71109,-151.671921,,,
729716017.631185,-1.791154,-3.172866,-83.502058,0.052734,-0.016022,0.967072,-0.474712,0.120789,0.135591,63.292664,12.71109,-151.671921,,,
729716017.635518,-1.927806,-3.137477,-86.54758,0.051468,-0.02153,0.956375,-0.474712,0.120789,0.135591,63.292664,12.71109,-151.671921,,,
729716017.635743,-1.927805,-3.137479,-83.470701,0.051468,-0.02153,0.956375,-0.474712,0.120789,0.135591,63.292664,12.71109,-151.671921,,,
729716017.637655,-1.927806,-3.137477,-86.54758,0.051468,-0.02153,0.956375,-0.474712,0.120789,0.135591,63.292664,12.71109,-151.671921,,,
729716017.637908,-2.078735,-3.104724,-83.438841,0.051468,-0.02153,0.956375,-0.564445,0.093428,0.136813,63.292664,12.71109,-151.671921,,,
729716017.642485,-2.078736,-3.104721,-86.51572,0.051468,-0.02153,0.956375,-0.564445,0.093428,0.136813,63.292664,12.71109,-151.671921,,,
729716017.642729,-2.239284,-3.07608,-83.407716,0.044067,-0.02121,0.95517,-0.564445,0.093428,0.136813,63.292664,12.71109,-151.671921,,,
729716017.645381,-2.239284,-3.076078,-86.484594,0.044067,-0.02121,0.95517,-0.564445,0.093428,0.136813,63.292664,12.71109,-151.671921,,,
729716017.645601,-2.239284,-3.07608,-83.407716,0.044067,-0.02121,0.95517,-0.564445,0.093428,0.136813,63.292664,12.71109,-151.671921,,,
729716017.647648,-2.239284,-3.076078,-86.484594,0.044067,-0.02121,0.95517,-0.564445,0.093428,0.136813,63.292664,12.71109,-151.671921,,,
729716017.647845,-2.416275,-3.05492,-83.377964,0.044067,-0.02121,0.95517,-0.660041,0.054346,0.130794,63.292664,12.71109,-151.671921,,,
729716017.653194,-2.416276,-3.054917,-86.454842,0.044067,-0.02121,0.95517,-0.660041,0.054346,0.130794,63.422638,13.804825,-151.734879,,,
729716017.653448,-2.605716,-3.039027,-83.350073,0.040024,-0.01445,0.93544,-0.660041,0.054346,0.130794,63.422638,13.804825,-151.734879,,,
729716017.655394,-2.605717,-3.039025,-86.426951,0.040024,-0.01445,0.93544,-0.660041,0.054346,0.130794,63.422638,13.804825,-151.734879,,,
729716017.655623,-2.605716,-3.039027,-83.350073,0.040024,-0.01445,0.93544,-0.660041,0.054346,0.130794,63.422638,13.804825,-151.734879,,,
729716017.659589,-2.605717,-3.039025,-86.401169,0.040024,-0.01445,0.93544,-0.754564,-0.005822,0.119697,63.422638,13.804825,-151.734879,,,
729716017.659849,-2.812289,-3.030578,-83.32429,0.040024,-0.01445,0.93544,-0.754564,-0.005822,0.119697,63.422638,13.804825,-151.734879,,,
729716017.661585,-2.81229,-3.030575,-86.401169,0.040024,-0.01445,0.93544,-0.754564,-0.005822,0.119697,63.422638,13.804825,-151.734879,,,
729716017.661807,-2.812289,-3.030578,-83.32429,0.040024,-0.01445,0.93544,-0.754564,-0.005822,0.119697,63.422638,13.804825,-151.734879,,,
729716017.665186,-3.029833,-3.03306,-86.377446,0.037064,-0.022034,0.926849,-0.754564,-0.005822,0.119697,63.422638,13.804825,-151.734879,,,
729716017.665415,-3.029832,-3.033063,-83.300567,0.037064,-0.022034,0.926849,-0.754564,-0.005822,0.119697,63.422638,13.804825,-151.734879,,,
729716017.667758,-3.029833,-3.03306,-86.377446,0.037064,-0.022034,0.926849,-0.754564,-0.005822,0.119697,63.422638,13.804825,-151.734879,,,
729716017.667947,-3.252261,-3.048419,-83.277445,0.037064,-0.022034,0.926849,-0.760866,-0.09694,0.123221,63.422638,13.804825,-151.734879,,,
729716017.672381,-3.252262,-3.048416,-86.354324,0.037064,-0.022034,0.926849,-0.760866,-0.09694,0.123221,63.422638,13.804825,-151.734879,,,
729716017.672654,-3.252261,-3.048419,-83.277445,0.037064,-0.022034,0.926849,-0.760866,-0.09694,0.123221,63.422638,13.804825,-151.734879,,,
729716017.675482,-3.471898,-3.075357,-86.330221,0.029587,-0.049362,0.928391,-0.760866,-0.09694,0.123221,63.422638,13.804825,-151.734879,,,
729716017.67572,-3.471897,-3.07536,-83.253342,0.029587,-0.049362,0.928391,-0.760866,-0.09694,0.123221,63.422638,13.804825,-151.734879,,,
729716017.677693,-3.471898,-3.075357,-86.330221,0.029587,-0.049362,0.928391,-0.760866,-0.09694,0.123221,63.422638,13.804825,-151.734879,,,
729716017.67789,-3.68272,-3.11179,-83.228341,0.029587,-0.049362,0.928391,-0.687478,-0.157418,0.12273,63.422638,13.804825,-151.734879,,,
729716017.682323,-3.682721,-3.111787,-86.305219,0.029587,-0.049362,0.928391,-0.687478,-0.157418,0.12273,63.422638,13.804825,-151.734879,,,
729716017.682644,-3.68272,-3.11179,-83.228341,0.029587,-0.049362,0.928391,-0.687478,-0.157418,0.12273,63.422638,13.804825,-151.734879,,,
729716017.685498,-3.882192,-3.156135,-86.279767,0.029892,-0.079361,0.975204,-0.687478,-0.157418,0.12273,63.422638,13.804825,-151.734879,,,
729716017.685742,-3.88219,-3.156138,-83.202889,0.029892,-0.079361,0.975204,-0.687478,-0.157418,0.12273,63.422638,13.804825,-151.734879,,,
729716017.687682,-3.882192,-3.156135,-86.279767,0.029892,-0.079361,0.975204,-0.687478,-0.157418,0.12273,63.422638,13.804825,-151.734879,,,
729716017.687918,-4.070801,-3.207998,-83.177882,0.029892,-0.079361,0.975204,-0.617093,-0.208647,0.116236,63.422638,13.804825,-151.734879,,,
729716017.693001,-4.070802,-3.207995,-86.254761,0.029892,-0.079361,0.975204,-0.617093,-0.208647,0.116236,63.053848,15.732452,-152.054672,,,
729716017.693292,-4.250091,-3.266203,-83.154205,0.04126,-0.091141,0.991455,-0.617093,-0.208647,0.116236,63.053848,15.732452,-152.054672,,,
729716017.695779,-4.250092,-3.2662,-86.231084,0.04126,-0.091141,0.991455,-0.617093,-0.208647,0.116236,63.053848,15.732452,-152.054672,,,
729716017.696034,-4.250091,-3.266203,-83.154205,0.04126,-0.091141,0.991455,-0.617093,-0.208647,0.116236,63.053848,15.732452,-152.054672,,,
729716017.697638,-4.250092,-3.2662,-86.231084,0.04126,-0.091141,0.991455,-0.617093,-0.208647,0.116236,63.053848,15.732452,-152.054672,,,
729716017.697901,-4.421296,-3.327062,-83.132093,0.04126,-0.091141,0.991455,-0.56505,-0.209981,0.10623,63.053848,15.732452,-152.054672,,,
729716017.702391,-4.421297,-3.327059,-86.208971,0.04126,-0.091141,0.991455,-0.56505,-0.209981,0.10623,63.053848,15.732452,-152.054672,,,
729716017.70266,-4.421296,-3.327062,-83.132093,0.04126,-0.091141,0.991455,-0.56505,-0.209981,0.10623,63.053848,15.732452,-152.054672,,,
729716017.705318,-4.58545,-3.385621,-86.188135,0.038818,-0.091553,0.984589,-0.56505,-0.209981,0.10623,63.053848,15.732452,-152.054672,,,
729716017.705543,-4.585449,-3.385624,-83.111256,0.038818,-0.091553,0.984589,-0.56505,-0.209981,0.10623,63.053848,15.732452,-152.054672,,,
729716017.707758,-4.58545,-3.385621,-86.188135,0.038818,-0.091553,0.984589,-0.56505,-0.209981,0.10623,63.053848,15.732452,-152.054672,,,
729716017.707952,-4.744874,-3.437997,-83.091315,0.038818,-0.091553,0.984589,-0.548182,-0.162148,0.096865,63.053848,15.732452,-152.054672,,,
729716017.712699,-4.744875,-3.437995,-86.168194,0.038818,-0.091553,0.984589,-0.548182,-0.162148,0.096865,63.053848,15.732452,-152.054672,,,
729716017.712933,-4.903242,-3.483737,-83.07216,0.050262,-0.084671,0.996857,-0.548182,-0.162148,0.096865,63.053848,15.732452,-152.054672,,,
729716017.715661,-4.903244,-3.483734,-86.149038,0.050262,-0.084671,0.996857,-0.548182,-0.162148,0.096865,63.053848,15.732452,-152.054672,,,
729716017.715904,-4.903242,-3.483737,-83.07216,0.050262,-0.084671,0.996857,-0.548182,-0.162148,0.096865,63.053848,15.732452,-152.054672,,,
729716017.717674,-4.903244,-3.483734,-86.149038,0.050262,-0.084671,0.996857,-0.548182,-0.162148,0.096865,63.053848,15.732452,-152.054672,,,
729716017.717897,-5.064226,-3.524196,-83.053828,0.050262,-0.084671,0.996857,-0.572973,-0.125722,0.099281,63.053848,15.732452,-152.054672,,,
729716017.722401,-5.064228,-3.524193,-86.130707,0.050262,-0.084671,0.996857,-0.572973,-0.125722,0.099281,63.053848,15.732452,-152.054672,,,
729716017.722664,-5.064226,-3.524196,-83.053828,0.050262,-0.084671,0.996857,-0.572973,-0.125722,0.099281,63.053848,15.732452,-152.054672,,,
729716017.725285,-5.230378,-3.559461,-86.111369,0.054794,-0.084091,0.977768,-0.572973,-0.125722,0.099281,63.053848,15.732452,-152.054672,,,
729716017.725542,-5.230377,-3.559464,-83.034491,0.054794,-0.084091,0.977768,-0.572973,-0.125722,0.099281,63.053848,15.732452,-152.054672,,,
729716017.727715,-5.230378,-3.559461,-86.111369,0.054794,-0.084091,0.977768,-0.572973,-0.125722,0.099281,63.053848,15.732452,-152.054672,,,
729716017.727941,-5.402815,-3.589344,-83.013075,0.054794,-0.084091,0.977768,-0.616223,-0.088894,0.121224,63.053848,15.732452,-152.054672,,,
729716017.73254,-5.402816,-3.589341,-86.089953,0.054794,-0.084091,0.977768,-0.616223,-0.088894,0.121224,63.053848,15.732452,-152.054672,,,
729716017.732836,-5.402815,-3.589344,-83.013075,0.047745,-0.088852,0.963287,-0.616223,-0.088894,0.121224,63.053848,15.732452,-152.054672,,,
729716017.736032,-5.582151,-3.61375,-86.065868,0.047745,-0.088852,0.963287,-0.616223,-0.088894,0.121224,62.93158,16.873062,-152.039154,,,
729716017.736292,-5.582149,-3.613753,-82.98899,0.047745,-0.088852,0.963287,-0.616223,-0.088894,0.121224,62.93158,16.873062,-152.039154,,,
729716017.737577,-5.582151,-3.61375,-86.065868,0.047745,-0.088852,0.963287,-0.616223,-0.088894,0.121224,62.93158,16.873062,-152.039154,,,
729716017.737894,-5.769421,-3.634256,-82.960864,0.047745,-0.088852,0.963287,-0.616223,-0.088894,0.121224,62.93158,16.873062,-152.039154,,,
729716017.742568,-5.769422,-3.634254,-86.037742,0.047745,-0.088852,0.963287,-0.678318,-0.073328,0.152729,62.93158,16.873062,-152.039154,,,
729716017.742843,-5.769421,-3.634256,-82.960864,0.047745,-0.088852,0.963287,-0.678318,-0.073328,0.152729,62.93158,16.873062,-152.039154,,,
729716017.745309,-5.967194,-3.652684,-86.006009,0.042007,-0.093307,0.960495,-0.678318,-0.073328,0.152729,62.93158,16.873062,-152.039154,,,
729716017.745523,-5.967192,-3.652687,-82.929131,0.042007,-0.093307,0.960495,-0.678318,-0.073328,0.152729,62.93158,16.873062,-152.039154,,,
729716017.747697,-5.967194,-3.652684,-86.006009,0.042007,-0.093307,0.960495,-0.678318,-0.073328,0.152729,62.93158,16.873062,-152.039154,,,
729716017.747928,-6.17564,-3.669936,-82.893568,0.042007,-0.093307,0.960495,-0.678318,-0.073328,0.152729,62.93158,16.873062,-152.039154,,,
729716017.752581,-6.175641,-3.669933,-85.970446,0.042007,-0.093307,0.960495,-0.743877,-0.063688,0.1829,62.93158,16.873062,-152.039154,,,
729716017.752873,-6.17564,-3.669936,-82.893568,0.042007,-0.093307,0.960495,-0.743877,-0.063688,0.1829,62.93158,16.873062,-152.039154,,,
729716017.755474,-6.392031,-3.685281,-85.930717,0.041168,-0.101089,0.945419,-0.743877,-0.063688,0.1829,62.93158,16.873062,-152.039154,,,
729716017.755713,-6.392029,-3.685284,-82.853839,0.041168,-0.101089,0.945419,-0.743877,-0.063688,0.1829,62.93158,16.873062,-152.039154,,,
729716017.757766,-6.392031,-3.685281,-85.930717,0.041168,-0.101089,0.945419,-0.743877,-0.063688,0.1829,62.93158,16.873062,-152.039154,,,
729716017.757959,-6.612651,-3.696233,-82.810629,0.041168,-0.101089,0.945419,-0.743877,-0.063688,0.1829,62.93158,16.873062,-152.039154,,,
729716017.762567,-6.612653,-3.696231,-85.887507,0.041168,-0.101089,0.945419,-0.76175,-0.02894,0.207059,62.93158,16.873062,-152.039154,,,
729716017.762847,-6.612651,-3.696233,-82.810629,0.041168,-0.101089,0.945419,-0.76175,-0.02894,0.207059,62.93158,16.873062,-152.039154,,,
729716017.765175,-6.834899,-3.700697,-85.841974,0.041229,-0.115738,0.965363,-0.76175,-0.02894,0.207059,62.93158,16.873062,-152.039154,,,
729716017.765438,-6.834898,-3.7007,-82.765096,0.041229,-0.115738,0.965363,-0.76175,-0.02894,0.207059,62.93158,16.873062,-152.039154,,,
729716017.767692,-6.834899,-3.700697,-85.841974,0.041229,-0.115738,0.965363,-0.76175,-0.02894,0.207059,62.93158,16.873062,-152.039154,,,
729716017.767881,-6.834898,-3.7007,-82.718602,0.041229,-0.115738,0.965363,-0.76175,-0.02894,0.207059,62.93158,16.873062,-152.039154,,,
729716017.773134,-7.058641,-3.69921,-85.79548,0.041229,-0.115738,0.965363,-0.771362,0.004302,0.210256,62.93158,16.873062,-152.039154,,,
729716017.773405,-7.284173,-3.693355,-82.671723,0.052612,-0.122147,0.981522,-0.771362,0.004302,0.210256,62.93158,16.873062,-152.039154,,,
729716017.77621,-7.284175,-3.693352,-85.748601,0.052612,-0.122147,0.981522,-0.771362,0.004302,0.210256,62.683899,18.643494,-152.053085,,,
729716017.77648,-7.284173,-3.693355,-82.671723,0.052612,-0.122147,0.981522,-0.771362,0.004302,0.210256,62.683899,18.643494,-152.053085,,,
729716017.777603,-7.284175,-3.693352,-85.748601,0.052612,-0.122147,0.981522,-0.771362,0.004302,0.210256,62.683899,18.643494,-152.053085,,,
729716017.777921,-7.510605,-3.684005,-82.623299,0.052612,-0.122147,0.981522,-0.771362,0.004302,0.210256,62.683899,18.643494,-152.053085,,,
729716017.782496,-7.510607,-3.684002,-85.700177,0.052612,-0.122147,0.981522,-0.7747,0.024754,0.224107,62.683899,18.643494,-152.053085,,,
729716017.782772,-7.510605,-3.684005,-82.623299,0.052612,-0.122147,0.981522,-0.7747,0.024754,0.224107,62.683899,18.643494,-152.053085,,,
729716017.785501,-7.736185,-3.670046,-85.64915,0.052902,-0.1306,0.967316,-0.7747,0.024754,0.224107,62.683899,18.643494,-152.053085,,,
729716017.785739,-7.736183,-3.670049,-82.572272,0.052902,-0.1306,0.967316,-0.7747,0.024754,0.224107,62.683899,18.643494,-152.053085,,,
729716017.787636,-7.736185,-3.670046,-85.64915,0.052902,-0.1306,0.967316,-0.7747,0.024754,0.224107,62.683899,18.643494,-152.053085,,,
729716017.788007,-7.959892,-3.650329,-82.518035,0.052902,-0.1306,0.967316,-0.7747,0.024754,0.224107,62.683899,18.643494,-152.053085,,,
729716017.792566,-7.959894,-3.650326,-85.594913,0.052902,-0.1306,0.967316,-0.757033,0.061441,0.243305,62.683899,18.643494,-152.053085,,,
729716017.792862,-7.959892,-3.650329,-82.518035,0.052902,-0.1306,0.967316,-0.757033,0.061441,0.243305,62.683899,18.643494,-152.053085,,,
729716017.795452,-8.182356,-3.626267,-85.537712,0.045898,-0.140381,0.982803,-0.757033,0.061441,0.243305,62.683899,18.643494,-152.053085,,,
729716017.795716,-8.182354,-3.626269,-82.460834,0.045898,-0.140381,0.982803,-0.757033,0.061441,0.243305,62.683899,18.643494,-152.053085,,,
729716017.79763,-8.182356,-3.626267,-85.537712,0.045898,-0.140381,0.982803,-0.757033,0.061441,0.243305,62.683899,18.643494,-152.053085,,,
729716017.797853,-8.182354,-3.626269,-82.460834,0.045898,-0.140381,0.982803,-0.757033,0.061441,0.243305,62.683899,18.643494,-152.053085,,,
729716017.802363,-8.405025,-3.600453,-85.479164,0.045898,-0.140381,0.982803,-0.765691,0.06313,0.251431,62.683899,18.643494,-152.053085,,,
729716017.802589,-8.405023,-3.600456,-82.402286,0.045898,-0.140381,0.982803,-0.765691,0.06313,0.251431,62.683899,18.643494,-152.053085,,,
729716017.805305,-8.62981,-3.575153,-85.419936,0.051407,-0.137268,0.971085,-0.765691,0.06313,0.251431,62.683899,18.643494,-152.053085,,,
729716017.805539,-8.629808,-3.575156,-82.343057,0.051407,-0.137268,0.971085,-0.765691,0.06313,0.251431,62.683899,18.643494,-152.053085,,,
729716017.807664,-8.62981,-3.575153,-85.419936,0.051407,-0.137268,0.971085,-0.765691,0.06313,0.251431,62.683899,18.643494,-152.053085,,,
729716017.807916,-8.629808,-3.575156,-82.343057,0.051407,-0.137268,0.971085,-0.765691,0.06313,0.251431,62.683899,18.643494,-152.053085,,,
729716017.812547,-8.858049,-3.551053,-85.36089,0.051407,-0.137268,0.971085,-0.796161,0.048842,0.249355,62.683899,18.643494,-152.053085,,,
729716017.812835,-8.858046,-3.551056,-82.284011,0.051407,-0.137268,0.971085,-0.796161,0.048842,0.249355,62.683899,18.643494,-152.053085,,,
729716017.815902,-9.09139,-3.529149,-85.30268,0.051804,-0.138809,0.953064,-0.796161,0.048842,0.249355,62.502197,20.451065,-152.492599,,,
729716017.816143,-9.091388,-3.529151,-82.225802,0.051804,-0.138809,0.953064,-0.796161,0.048842,0.249355,62.502197,20.451065,-152.492599,,,
729716017.817579,-9.09139,-3.529149,-85.30268,0.051804,-0.138809,0.953064,-0.796161,0.048842,0.249355,62.502197,20.451065,-152.492599,,,
729716017.81786,-9.091388,-3.529151,-82.225802,0.051804,-0.138809,0.953064,-0.796161,0.048842,0.249355,62.502197,20.451065,-152.492599,,,
729716017.822559,-9.332131,-3.510118,-85.245497,0.051804,-0.138809,0.953064,-0.857059,0.030235,0.240702,62.502197,20.451065,-152.492599,,,
729716017.822844,-9.332129,-3.510121,-82.168619,0.051804,-0.138809,0.953064,-0.857059,0.030235,0.240702,62.502197,20.451065,-152.492599,,,
729716017.825251,-9.581479,-3.493422,-85.190436,0.050934,-0.140884,0.941193,-0.857059,0.030235,0.240702,62.502197,20.451065,-152.492599,,,
729716017.825468,-9.581476,-3.493425,-82.113558,0.050934,-0.140884,0.941193,-0.857059,0.030235,0.240702,62.502197,20.451065,-152.492599,,,
729716017.827683,-9.581479,-3.493422,-85.190436,0.050934,-0.140884,0.941193,-0.857059,0.030235,0.240702,62.502197,20.451065,-152.492599,,,
729716017.82792,-9.581476,-3.493425,-82.113558,0.050934,-0.140884,0.941193,-0.857059,0.030235,0.240702,62.502197,20.451065,-152.492599,,,
729716017.832504,-9.839702,-3.478397,-85.137696,0.050934,-0.140884,0.941193,-0.91575,0.016319,0.230072,62.502197,20.451065,-152.492599,,,
729716017.83274,-9.8397,-3.478399,-82.060818,0.050934,-0.140884,0.941193,-0.91575,0.016319,0.230072,62.502197,20.451065,-152.492599,,,
729716017.835481,-10.106323,-3.465322,-85.087356,0.052872,-0.145737,0.9328,-0.91575,0.016319,0.230072,62.502197,20.451065,-152.492599,,,
729716017.835704,-10.10632,-3.465325,-82.010478,0.052872,-0.145737,0.9328,-0.91575,0.016319,0.230072,62.502197,20.451065,-152.492599,,,
729716017.837692,-10.106323,-3.465322,-85.087356,0.052872,-0.145737,0.9328,-0.91575,0.016319,0.230072,62.502197,20.451065,-152.492599,,,
729716017.83794,-10.10632,-3.465325,-82.010478,0.052872,-0.145737,0.9328,-0.91575,0.016319,0.230072,62.502197,20.451065,-152.492599,,,
729716017.842775,-10.378734,-3.454971,-85.040331,0.052872,-0.145737,0.9328,-0.947764,0.007719,0.20201,62.502197,20.451065,-152.492599,,,
729716017.843075,-10.378731,-3.454974,-81.963453,0.052872,-0.145737,0.9328,-0.947764,0.007719,0.20201,62.502197,20.451065,-152.492599,,,
729716017.845193,-10.653929,-3.446586,-84.997675,0.054672,-0.160812,0.940292,-0.947764,0.007719,0.20201,62.502197,20.451065,-152.492599,,,
729716017.845422,-10.653926,-3.446589,-81.920796,0.054672,-0.160812,0.940292,-0.947764,0.007719,0.20201,62.502197,20.451065,-152.492599,,,
729716017.847673,-10.653929,-3.446586,-84.997675,0.054672,-0.160812,0.940292,-0.947764,0.007719,0.20201,62.502197,20.451065,-152.492599,,,
729716017.847924,-10.653926,-3.446589,-81.920796,0.054672,-0.160812,0.940292,-0.947764,0.007719,0.20201,62.502197,20.451065,-152.492599,,,
729716017.853639,-10.930346,-3.44134,-84.960441,0.054672,-0.160812,0.940292,-0.957537,-0.021242,0.163811,62.502197,20.451065,-152.492599,,,
729716017.853925,-11.207984,-3.442624,-81.851716,0.065643,-0.172562,0.949921,-0.957537,-0.021242,0.163811,62.502197,20.451065,-152.492599,,,
729716017.856219,-11.207987,-3.442622,-84.928594,0.065643,-0.172562,0.949921,-0.957537,-0.021242,0.163811,62.418198,22.879196,-152.423813,,,
729716017.856501,-11.207984,-3.442624,-81.851716,0.065643,-0.172562,0.949921,-0.957537,-0.021242,0.163811,62.418198,22.879196,-152.423813,,,
729716017.857571,-11.207987,-3.442622,-84.928594,0.065643,-0.172562,0.949921,-0.957537,-0.021242,0.163811,62.418198,22.879196,-152.423813,,,
729716017.857883,-11.207984,-3.442624,-81.851716,0.065643,-0.172562,0.949921,-0.957537,-0.021242,0.163811,62.418198,22.879196,-152.423813,,,
729716017.862799,-11.488524,-3.451789,-84.900989,0.065643,-0.172562,0.949921,-0.980099,-0.068275,0.140974,62.418198,22.879196,-152.423813,,,
729716017.863088,-11.488521,-3.451792,-81.824111,0.065643,-0.172562,0.949921,-0.980099,-0.068275,0.140974,62.418198,22.879196,-152.423813,,,
729716017.8657,-11.772569,-3.466796,-84.876865,0.062836,-0.181656,0.935806,-0.980099,-0.068275,0.140974,62.418198,22.879196,-152.423813,,,
729716017.865939,-11.772566,-3.466799,-81.799987,0.062836,-0.181656,0.935806,-0.980099,-0.068275,0.140974,62.418198,22.879196,-152.423813,,,
729716017.867618,-11.772569,-3.466796,-84.876865,0.062836,-0.181656,0.935806,-0.980099,-0.068275,0.140974,62.418198,22.879196,-152.423813,,,
729716017.867858,-11.772566,-3.466799,-81.799987,0.062836,-0.181656,0.935806,-0.980099,-0.068275,0.140974,62.418198,22.879196,-152.423813,,,
729716017.872395,-12.059796,-3.484121,-84.854985,0.062836,-0.181656,0.935806,-1.006824,-0.068341,0.132409,62.418198,22.879196,-152.423813,,,
729716017.872627,-12.059793,-3.484124,-81.778107,0.062836,-0.181656,0.935806,-1.006824,-0.068341,0.132409,62.418198,22.879196,-152.423813,,,
729716017.875482,-12.350629,-3.49976,-84.833125,0.052032,-0.19278,0.936691,-1.006824,-0.068341,0.132409,62.418198,22.879196,-152.423813,,,
729716017.875708,-12.350626,-3.499763,-81.756247,0.052032,-0.19278,0.936691,-1.006824,-0.068341,0.132409,62.418198,22.879196,-152.423813,,,
729716017.877651,-12.350629,-3.49976,-84.833125,0.052032,-0.19278,0.936691,-1.006824,-0.068341,0.132409,62.418198,22.879196,-152.423813,,,
729716017.87788,-12.350626,-3.499763,-81.756247,0.052032,-0.19278,0.936691,-1.006824,-0.068341,0.132409,62.418198,22.879196,-152.423813,,,
729716017.882293,-12.645918,-3.509373,-84.810123,0.052032,-0.19278,0.936691,-1.038307,-0.018829,0.149224,62.418198,22.879196,-152.423813,,,
729716017.882535,-12.645915,-3.509376,-81.733245,0.052032,-0.19278,0.936691,-1.038307,-0.018829,0.149224,62.418198,22.879196,-152.423813,,,
729716017.88524,-12.945859,-3.510849,-84.783926,0.049301,-0.206619,0.948486,-1.038307,-0.018829,0.149224,62.418198,22.879196,-152.423813,,,
729716017.88547,-12.945856,-3.510852,-81.707048,0.049301,-0.206619,0.948486,-1.038307,-0.018829,0.149224,62.418198,22.879196,-152.423813,,,
729716017.88766,-12.945859,-3.510849,-84.783926,0.049301,-0.206619,0.948486,-1.038307,-0.018829,0.149224,62.418198,22.879196,-152.423813,,,
729716017.887916,-12.945856,-3.510852,-81.707048,0.049301,-0.206619,0.948486,-1.038307,-0.018829,0.149224,62.418198,22.879196,-152.423813,,,
729716017.893271,-13.249436,-3.505364,-84.752825,0.049301,-0.206619,0.948486,-1.047755,0.009422,0.189648,62.418198,22.879196,-152.423813,,,
729716017.893542,-13.553076,-3.494906,-81.638793,0.049713,-0.226273,0.949631,-1.047755,0.009422,0.189648,62.418198,22.879196,-152.423813,,,
729716017.895267,-13.55308,-3.494904,-84.715671,0.049713,-0.226273,0.949631,-1.047755,0.009422,0.189648,62.418198,22.879196,-152.423813,,,
729716017.895503,-13.553076,-3.494906,-81.638793,0.049713,-0.226273,0.949631,-1.047755,0.009422,0.189648,62.418198,22.879196,-152.423813,,,
729716017.898357,-13.55308,-3.494904,-84.715671,0.049713,-0.226273,0.949631,-1.047755,0.009422,0.189648,62.669861,25.184448,-152.163528,,,
729716017.898579,-13.85114,-3.479935,-81.595094,0.049713,-0.226273,0.949631,-0.990639,0.029543,0.227534,62.669861,25.184448,-152.163528,,,
729716017.9025,-13.851143,-3.479932,-84.671972,0.049713,-0.226273,0.949631,-0.990639,0.029543,0.227534,62.669861,25.184448,-152.163528,,,
729716017.902728,-13.85114,-3.479935,-81.595094,0.049713,-0.226273,0.949631,-0.990639,0.029543,0.227534,62.669861,25.184448,-152.163528,,,
729716017.905288,-14.139101,-3.459832,-84.622782,0.050797,-0.251694,0.954987,-0.990639,0.029543,0.227534,62.669861,25.184448,-152.163528,,,
729716017.905513,-14.139097,-3.459834,-81.545903,0.050797,-0.251694,0.954987,-0.990639,0.029543,0.227534,62.669861,25.184448,-152.163528,,,
729716017.907657,-14.139101,-3.459832,-84.622782,0.050797,-0.251694,0.954987,-0.990639,0.029543,0.227534,62.669861,25.184448,-152.163528,,,
729716017.907867,-14.139097,-3.459834,-81.545903,0.050797,-0.251694,0.954987,-0.990639,0.029543,0.227534,62.669861,25.184448,-152.163528,,,
729716017.912565,-14.413993,-3.435734,-84.570094,0.050797,-0.251694,0.954987,-0.888859,0.046525,0.232088,62.669861,25.184448,-152.163528,,,
729716017.912806,-14.41399,-3.435737,-81.493216,0.050797,-0.251694,0.954987,-0.888859,0.046525,0.232088,62.669861,25.184448,-152.163528,,,
729716017.915694,-14.67366,-3.410478,-84.517196,0.059341,-0.269684,0.984634,-0.888859,0.046525,0.232088,62.669861,25.184448,-152.163528,,,
729716017.915924,-14.673657,-3.410481,-81.440318,0.059341,-0.269684,0.984634,-0.888859,0.046525,0.232088,62.669861,25.184448,-152.163528,,,
729716017.917602,-14.67366,-3.410478,-84.517196,0.059341,-0.269684,0.984634,-0.888859,0.046525,0.232088,62.669861,25.184448,-152.163528,,,
729716017.917851,-14.673657,-3.410481,-81.440318,0.059341,-0.269684,0.984634,-0.888859,0.046525,0.232088,62.669861,25.184448,-152.163528,,,
729716017.922533,-14.916104,-3.386947,-84.467087,0.059341,-0.269684,0.984634,-0.775053,0.028308,0.197961,62.669861,25.184448,-152.163528,,,
729716017.922763,-14.9161,-3.38695,-81.390209,0.059341,-0.269684,0.984634,-0.775053,0.028308,0.197961,62.669861,25.184448,-152.163528,,,
729716017.925284,-15.141238,-3.367244,-84.421679,0.068176,-0.274796,0.982681,-0.775053,0.028308,0.197961,62.669861,25.184448,-152.163528,,,
729716017.925503,-15.141234,-3.367247,-81.344801,0.068176,-0.274796,0.982681,-0.775053,0.028308,0.197961,62.669861,25.184448,-152.163528,,,
729716017.927681,-15.141238,-3.367244,-84.421679,0.068176,-0.274796,0.982681,-0.775053,0.028308,0.197961,62.669861,25.184448,-152.163528,,,
729716017.927894,-15.141234,-3.367247,-81.344801,0.068176,-0.274796,0.982681,-0.775053,0.028308,0.197961,62.669861,25.184448,-152.163528,,,
729716017.932335,-15.349574,-3.350565,-84.383501,0.068176,-0.274796,0.982681,-0.664563,0.030037,0.136115,62.669861,25.184448,-152.163528,,,
729716017.932565,-15.349571,-3.350568,-81.306622,0.068176,-0.274796,0.982681,-0.664563,0.030037,0.136115,62.669861,25.184448,-152.163528,,,
729716017.935499,-15.54282,-3.335534,-84.35383,0.069031,-0.275711,0.991531,-0.664563,0.030037,0.136115,62.669861,25.184448,-152.163528,,,
729716017.93574,-15.542816,-3.335537,-81.276951,0.069031,-0.275711,0.991531,-0.664563,0.030037,0.136115,62.669861,25.184448,-152.163528,,,
729716017.938328,-15.54282,-3.335534,-84.35383,0.069031,-0.275711,0.991531,-0.664563,0.030037,0.136115,62.54744,26.979736,-151.928741,,,
729716017.938545,-15.725337,-3.323158,-81.256266,0.069031,-0.275711,0.991531,-0.604354,0.026199,0.069803,62.54744,26.979736,-151.928741,,,
729716017.942292,-15.725341,-3.323155,-84.333144,0.069031,-0.275711,0.991531,-0.604354,0.026199,0.069803,62.54744,26.979736,-151.928741,,,
729716017.942517,-15.725337,-3.323158,-81.256266,0.069031,-0.275711,0.991531,-0.604354,0.026199,0.069803,62.54744,26.979736,-151.928741,,,
729716017.945372,-15.901084,-3.314227,-84.321786,0.071518,-0.267776,0.986282,-0.604354,0.026199,0.069803,62.54744,26.979736,-151.928741,,,
729716017.945597,-15.90108,-3.31423,-81.244908,0.071518,-0.267776,0.986282,-0.604354,0.026199,0.069803,62.54744,26.979736,-151.928741,,,
729716017.947671,-15.901084,-3.314227,-84.321786,0.071518,-0.267776,0.986282,-0.604354,0.026199,0.069803,62.54744,26.979736,-151.928741,,,
729716017.947864,-15.90108,-3.31423,-81.244908,0.071518,-0.267776,0.986282,-0.604354,0.026199,0.069803,62.54744,26.979736,-151.928741,,,
729716017.951908,-16.073355,-3.309258,-84.318226,0.071518,-0.267776,0.986282,-0.596339,0.010033,0.027145,62.54744,26.979736,-151.928741,,,
729716017.952147,-16.073351,-3.309261,-81.241348,0.071518,-0.267776,0.986282,-0.596339,0.010033,0.027145,62.54744,26.979736,-151.928741,,,
729716017.955292,-16.245557,-3.307616,-84.319806,0.064362,-0.264984,0.960999,-0.596339,0.010033,0.027145,62.54744,26.979736,-151.928741,,,
729716017.955515,-16.245553,-3.307619,-81.242927,0.064362,-0.264984,0.960999,-0.596339,0.010033,0.027145,62.54744,26.979736,-151.928741,,,
729716017.957675,-16.245557,-3.307616,-84.319806,0.064362,-0.264984,0.960999,-0.596339,0.010033,0.027145,62.54744,26.979736,-151.928741,,,
729716017.957874,-16.245553,-3.307619,-81.242927,0.064362,-0.264984,0.960999,-0.596339,0.010033,0.027145,62.54744,26.979736,-151.928741,,,
