Time (sec),Pitch (deg),Roll (deg),Yaw(deg),X-Acceleration (g),Y-Acceleration (g),Z-Acceleration (g),Pitch Rate (deg/sec),Roll Rate (deg/sec),Yaw Rate (deg/sec),Magnetic Field in X direction (uT),Magnetic Field in Y direction (uT),Magnetic Field in Z Direction (uT),Latitude (deg),Longitude (deg),Altitude (m)
729705432.069569,0.500132,1.510756,73.214864,-0.0383,-0.001572,0.994263,-0.007378,-0.016299,0.030076,88.430847,35.529251,-149.760956,,,
729705432.072845,0.500132,1.510756,73.214864,-0.0383,-0.001572,0.994263,-0.007378,-0.016299,0.030076,88.430847,35.529251,-149.760956,,,
729705432.076224,0.49856,1.504291,73.224451,-0.0383,-0.001572,0.994263,-0.007378,-0.016299,0.030076,88.430847,35.529251,-149.760956,,,
729705432.079404,0.495986,1.499761,73.235137,-0.031342,0.001495,0.994492,-0.01103,-0.006082,0.034837,88.430847,35.529251,-149.760956,,,
729705432.082851,0.495986,1.499761,73.235137,-0.031342,0.001495,0.994492,-0.01103,-0.006082,0.034837,88.430847,35.529251,-149.760956,,,
729705432.086123,0.494247,1.496116,73.245258,-0.031342,0.001495,0.994492,-0.01103,-0.006082,0.034837,88.430847,35.529251,-149.760956,,,
729705432.089488,0.48954,1.495379,73.254574,-0.025391,0.008072,0.995651,-0.021233,0.004717,0.028913,88.120499,35.619446,-149.548752,,,
729705432.092858,0.48954,1.495379,73.254574,-0.025391,0.008072,0.995651,-0.021233,0.004717,0.028913,88.120499,35.619446,-149.548752,,,
729705432.096188,0.484043,1.49791,73.263436,-0.025391,0.008072,0.995651,-0.021233,0.004717,0.028913,88.120499,35.619446,-149.548752,,,
729705432.099487,0.484043,1.498359,73.271065,-0.023666,0.015503,0.991806,-0.032965,0.004007,0.019587,88.120499,35.619446,-149.548752,,,
729705432.102829,0.475655,1.498359,73.271065,-0.023666,0.015503,0.991806,-0.032965,0.004007,0.019587,88.120499,35.619446,-149.548752,,,
729705432.106171,0.466135,1.500651,73.277379,-0.023666,0.015503,0.991806,-0.032965,0.004007,0.019587,88.120499,35.619446,-149.548752,,,
729705432.109421,0.466135,1.500651,73.277379,-0.023666,0.015503,0.991806,-0.049741,-0.008051,0.014308,88.120499,35.619446,-149.548752,,,
729705432.112848,0.453834,1.498013,73.282997,-0.022644,0.015472,0.98732,-0.049741,-0.008051,0.014308,88.120499,35.619446,-149.548752,,,
729705432.116178,0.440904,1.496274,73.287734,-0.022644,0.015472,0.98732,-0.049741,-0.008051,0.014308,88.120499,35.619446,-149.548752,,,
729705432.119566,0.425222,1.491453,73.291194,-0.019119,0.013702,0.984589,-0.056793,-0.01637,0.004727,88.120499,35.619446,-149.548752,,,
729705432.122846,0.425222,1.491453,73.291194,-0.019119,0.013702,0.984589,-0.056793,-0.01637,0.004727,88.120499,35.619446,-149.548752,,,
729705432.126166,0.41042,1.487538,73.293458,-0.019119,0.013702,0.984589,-0.056793,-0.01637,0.004727,88.120499,35.619446,-149.548752,,,
729705432.129537,0.41042,1.480342,73.295178,-0.019119,0.013702,0.984589,-0.057688,-0.025738,0.000379,88.120499,35.619446,-149.548752,,,
729705432.132956,0.394297,1.480342,73.295178,-0.017227,0.011856,0.986115,-0.057688,-0.025738,0.000379,88.32283,35.761353,-149.345535,,,
729705432.136165,0.378648,1.473177,73.296425,-0.017227,0.011856,0.986115,-0.057688,-0.025738,0.000379,88.32283,35.761353,-149.345535,,,
729705432.139546,0.378648,1.473177,73.296425,-0.017227,0.011856,0.986115,-0.057688,-0.025738,0.000379,88.32283,35.761353,-149.345535,,,
729705432.142844,0.362087,1.463337,73.296874,-0.015717,0.011017,0.983643,-0.053962,-0.035386,-0.003817,88.32283,35.761353,-149.345535,,,
729705432.146201,0.345461,1.454538,73.29623,-0.015717,0.011017,0.983643,-0.053962,-0.035386,-0.003817,88.32283,35.761353,-149.345535,,,
729705432.149528,0.345461,1.443211,73.294628,-0.015717,0.011017,0.983643,-0.053962,-0.035386,-0.003817,88.32283,35.761353,-149.345535,,,
729705432.152861,0.329944,1.443211,73.294628,-0.014084,0.0056,0.985992,-0.049789,-0.035175,-0.006766,88.32283,35.761353,-149.345535,,,
729705432.156177,0.313345,1.434358,73.293077,-0.014084,0.0056,0.985992,-0.049789,-0.035175,-0.006766,88.32283,35.761353,-149.345535,,,
729705432.15954,0.313345,1.424748,73.291993,-0.014084,0.0056,0.985992,-0.049634,-0.025736,-0.003356,88.32283,35.761353,-149.345535,,,
729705432.162864,0.298807,1.424748,73.291993,-0.016052,0.000275,0.987991,-0.049634,-0.025736,-0.003356,88.32283,35.761353,-149.345535,,,
729705432.166172,0.284447,1.417236,73.291225,-0.016052,0.000275,0.987991,-0.049634,-0.025736,-0.003356,88.32283,35.761353,-149.345535,,,
729705432.169532,0.284447,1.417236,73.291225,-0.016052,0.000275,0.987991,-0.049634,-0.025736,-0.003356,88.32283,35.761353,-149.345535,,,
729705432.172939,0.269773,1.411375,73.291788,-0.016434,-0.004395,0.99176,-0.049874,-0.012758,0.002184,87.986038,35.78894,-149.407364,,,
729705432.176164,0.256233,1.407243,73.293789,-0.016434,-0.004395,0.99176,-0.049874,-0.012758,0.002184,87.986038,35.78894,-149.407364,,,
729705432.179526,0.256233,1.407243,73.293789,-0.016434,-0.004395,0.99176,-0.049874,-0.012758,0.002184,87.986038,35.78894,-149.407364,,,
729705432.182936,0.24042,1.406269,73.296606,-0.017181,-0.004883,0.992767,-0.058072,0.007416,0.010045,87.986038,35.78894,-149.407364,,,
729705432.18616,0.225428,1.408614,73.299735,-0.017181,-0.004883,0.992767,-0.058072,0.007416,0.010045,87.986038,35.78894,-149.407364,,,
729705432.189549,0.225428,1.408614,73.299735,-0.017181,-0.004883,0.992767,-0.058072,0.007416,0.010045,87.986038,35.78894,-149.407364,,,
729705432.192849,0.206315,1.413423,73.302914,-0.019226,-0.003571,0.994308,-0.069869,0.023563,0.006882,87.986038,35.78894,-149.407364,,,
729705432.196172,0.187926,1.41902,73.306132,-0.019226,-0.003571,0.994308,-0.069869,0.023563,0.006882,87.986038,35.78894,-149.407364,,,
729705432.199536,0.187926,1.41902,73.306132,-0.019226,-0.003571,0.994308,-0.069869,0.023563,0.006882,87.986038,35.78894,-149.407364,,,
729705432.202844,0.166519,1.426363,73.308802,-0.017715,-0.000259,0.989471,-0.076306,0.033038,0.005428,87.986038,35.78894,-149.407364,,,
729705432.206174,0.146517,1.433277,73.310774,-0.017715,-0.000259,0.989471,-0.076306,0.033038,0.005428,87.986038,35.78894,-149.407364,,,
729705432.209582,0.146517,1.433277,73.310774,-0.017715,-0.000259,0.989471,-0.076306,0.033038,0.005428,87.986038,35.78894,-149.407364,,,
729705432.212848,0.124668,1.441567,73.312805,-0.01889,-0.0009,0.988312,-0.075717,0.033267,0.004288,88.163391,36.043701,-149.262787,,,
729705432.216215,0.104996,1.448148,73.314956,-0.01889,-0.0009,0.988312,-0.075717,0.033267,0.004288,88.163391,36.043701,-149.262787,,,
729705432.219554,0.104996,1.448148,73.314956,-0.01889,-0.0009,0.988312,-0.075717,0.033267,0.004288,88.163391,36.043701,-149.262787,,,
729705432.222933,0.084132,1.455602,73.316188,-0.018814,-0.000397,0.985519,-0.069443,0.028219,-0.000135,88.163391,36.043701,-149.262787,,,
729705432.226162,0.065345,1.460599,73.316725,-0.018814,-0.000397,0.985519,-0.069443,0.028219,-0.000135,88.163391,36.043701,-149.262787,,,
729705432.229566,0.065345,1.460599,73.316725,-0.018814,-0.000397,0.985519,-0.069443,0.028219,-0.000135,88.163391,36.043701,-149.262787,,,
729705432.232835,0.046344,1.466656,73.317789,-0.021805,0.000885,0.988693,-0.063138,0.023112,0.000391,88.163391,36.043701,-149.262787,,,
729705432.236167,0.029154,1.469552,73.319155,-0.021805,0.000885,0.988693,-0.063138,0.023112,0.000391,88.163391,36.043701,-149.262787,,,
729705432.239526,0.029154,1.469552,73.319155,-0.021805,0.000885,0.988693,-0.063138,0.023112,0.000391,88.163391,36.043701,-149.262787,,,
729705432.24284,0.013144,1.472203,73.320532,-0.02562,-0.000809,0.98526,-0.052939,0.004834,-0.00063,88.163391,36.043701,-149.262787,,,
729705432.246204,-0.002872,1.470212,73.321334,-0.02562,-0.000809,0.98526,-0.052939,0.004834,-0.00063,88.163391,36.043701,-149.262787,,,
729705432.249641,-0.002872,1.470212,73.321334,-0.02562,-0.000809,0.98526,-0.052939,0.004834,-0.00063,88.163391,36.043701,-149.262787,,,
729705432.252904,-0.018548,1.466592,73.321303,-0.027603,-0.000107,0.982178,-0.055009,-0.016764,-0.003061,88.163391,36.043701,-149.262787,,,
729705432.25617,-0.035496,1.458818,73.320829,-0.027603,-0.000107,0.982178,-0.055009,-0.016764,-0.003061,88.237457,36.065933,-149.019806,,,
729705432.259617,-0.035496,1.458818,73.320829,-0.027603,-0.000107,0.982178,-0.055009,-0.016764,-0.003061,88.237457,36.065933,-149.019806,,,
729705432.262828,-0.053245,1.449662,73.319181,-0.028442,0.002777,0.979248,-0.065735,-0.035404,-0.012961,88.237457,36.065933,-149.019806,,,
729705432.266173,-0.07384,1.437737,73.315457,-0.028442,0.002777,0.979248,-0.065735,-0.035404,-0.012961,88.237457,36.065933,-149.019806,,,
729705432.269537,-0.07384,1.437737,73.315457,-0.028442,0.002777,0.979248,-0.065735,-0.035404,-0.012961,88.237457,36.065933,-149.019806,,,
729705432.272825,-0.096567,1.4258,73.309347,-0.02179,0.005325,0.978745,-0.086722,-0.03911,-0.028927,88.237457,36.065933,-149.019806,,,
729705432.276193,-0.121949,1.413124,73.301548,-0.02179,0.005325,0.978745,-0.086722,-0.03911,-0.028927,88.237457,36.065933,-149.019806,,,
729705432.279528,-0.121949,1.413124,73.301548,-0.02179,0.005325,0.978745,-0.086722,-0.03911,-0.028927,88.237457,36.065933,-149.019806,,,
729705432.282959,-0.150387,1.402651,73.292671,-0.017502,0.005951,0.97818,-0.105019,-0.024212,-0.038731,88.237457,36.065933,-149.019806,,,
729705432.286155,-0.181167,1.394929,73.282815,-0.017502,0.005951,0.97818,-0.105019,-0.024212,-0.038731,88.237457,36.065933,-149.019806,,,
729705432.289522,-0.181167,1.394929,73.282815,-0.017502,0.005951,0.97818,-0.105019,-0.024212,-0.038731,88.237457,36.065933,-149.019806,,,
729705432.292843,-0.21463,1.393311,73.272671,-0.012543,0.002945,0.98999,-0.118458,0.013565,-0.038792,88.237457,36.065933,-149.019806,,,
729705432.296173,-0.249067,1.397171,73.263287,-0.012543,0.002945,0.98999,-0.118458,0.013565,-0.038792,88.086823,36.333679,-149.040375,,,
729705432.299504,-0.249067,1.397171,73.263287,-0.012543,0.002945,0.98999,-0.118458,0.013565,-0.038792,88.086823,36.333679,-149.040375,,,
729705432.302854,-0.284657,1.408297,73.255677,-0.012619,-0.006454,1.001312,-0.121135,0.055988,-0.025175,88.086823,36.333679,-149.040375,,,
729705432.306165,-0.318713,1.424239,73.250203,-0.012619,-0.006454,1.001312,-0.121135,0.055988,-0.025175,88.086823,36.333679,-149.040375,,,
729705432.309627,-0.318713,1.424239,73.250203,-0.012619,-0.006454,1.001312,-0.121135,0.055988,-0.025175,88.086823,36.333679,-149.040375,,,
729705432.312864,-0.352391,1.44493,73.24744,-0.017563,-0.012527,1.009537,-0.114005,0.081616,-0.005198,88.086823,36.333679,-149.040375,,,
729705432.316218,-0.384079,1.468586,73.248033,-0.017563,-0.012527,1.009537,-0.114005,0.081616,-0.005198,88.086823,36.333679,-149.040375,,,
729705432.319523,-0.384079,1.468586,73.248033,-0.017563,-0.012527,1.009537,-0.114005,0.081616,-0.005198,88.086823,36.333679,-149.040375,,,
729705432.322922,-0.416813,1.494581,73.251061,-0.023773,-0.014023,1.004425,-0.113595,0.096246,0.014746,88.086823,36.333679,-149.040375,,,
729705432.326161,-0.447626,1.521383,73.256399,-0.023773,-0.014023,1.004425,-0.113595,0.096246,0.014746,88.086823,36.333679,-149.040375,,,
729705432.3295,-0.447626,1.521383,73.256399,-0.023773,-0.014023,1.004425,-0.113595,0.096246,0.014746,88.086823,36.333679,-149.040375,,,
729705432.332845,-0.478565,1.547907,73.263117,-0.02562,-0.012894,1.000427,-0.107545,0.092443,0.017319,88.086823,36.333679,-149.040375,,,
729705432.336173,-0.507386,1.573863,73.268861,-0.02562,-0.012894,1.000427,-0.107545,0.092443,0.017319,88.357483,36.509567,-149.112442,,,
729705432.339511,-0.507386,1.573863,73.268861,-0.02562,-0.012894,1.000427,-0.107545,0.092443,0.017319,88.357483,36.509567,-149.112442,,,
729705432.342847,-0.537479,1.596859,73.273214,-0.025848,-0.009949,0.999222,-0.102808,0.073652,0.006431,88.357483,36.509567,-149.112442,,,
729705432.34621,-0.564726,1.615256,73.275952,-0.025848,-0.009949,0.999222,-0.102808,0.073652,0.006431,88.357483,36.509567,-149.112442,,,
729705432.349626,-0.564726,1.615256,73.275952,-0.025848,-0.009949,0.999222,-0.102808,0.073652,0.006431,88.357483,36.509567,-149.112442,,,
729705432.352849,-0.595059,1.628077,73.276605,-0.028168,-0.005157,0.992081,-0.10817,0.032437,-0.00782,88.357483,36.509567,-149.112442,,,
729705432.356178,-0.623185,1.632946,73.274979,-0.028168,-0.005157,0.992081,-0.10817,0.032437,-0.00782,88.357483,36.509567,-149.112442,,,
729705432.359523,-0.623185,1.632946,73.274979,-0.028168,-0.005157,0.992081,-0.10817,0.032437,-0.00782,88.357483,36.509567,-149.112442,,,
729705432.362862,-0.654471,1.63413,73.270972,-0.031189,-0.001801,0.988739,-0.108244,-0.003623,-0.02623,88.357483,36.509567,-149.112442,,,
729705432.366163,-0.682512,1.629022,73.26469,-0.031189,-0.001801,0.988739,-0.108244,-0.003623,-0.02623,88.357483,36.509567,-149.112442,,,
729705432.369512,-0.682512,1.629022,73.26469,-0.031189,-0.001801,0.988739,-0.108244,-0.003623,-0.02623,88.357483,36.509567,-149.112442,,,
729705432.372925,-0.714256,1.623029,73.256768,-0.026276,-0.003189,0.993958,-0.112494,-0.024208,-0.034189,88.357483,36.509567,-149.112442,,,
729705432.376154,-0.745292,1.610676,73.248014,-0.026276,-0.003189,0.993958,-0.112494,-0.024208,-0.034189,88.271332,36.724838,-149.055267,,,
729705432.379531,-0.745292,1.610676,73.248014,-0.026276,-0.003189,0.993958,-0.112494,-0.024208,-0.034189,88.271332,36.724838,-149.055267,,,
729705432.382928,-0.779119,1.599409,73.239451,-0.025909,-0.007401,0.996063,-0.117783,-0.036893,-0.034068,88.271332,36.724838,-149.055267,,,
729705432.386198,-0.813172,1.586024,73.231921,-0.025909,-0.007401,0.996063,-0.117783,-0.036893,-0.034068,88.271332,36.724838,-149.055267,,,
729705432.389549,-0.813172,1.586024,73.231921,-0.025909,-0.007401,0.996063,-0.117783,-0.036893,-0.034068,88.271332,36.724838,-149.055267,,,
729705432.392868,-0.849212,1.57768,73.225537,-0.023407,-0.009857,1.00267,-0.130279,-0.01689,-0.021016,88.271332,36.724838,-149.055267,,,
729705432.39617,-0.886399,1.571766,73.220946,-0.023407,-0.009857,1.00267,-0.130279,-0.01689,-0.021016,88.271332,36.724838,-149.055267,,,
729705432.399519,-0.886399,1.571766,73.220946,-0.023407,-0.009857,1.00267,-0.130279,-0.01689,-0.021016,88.271332,36.724838,-149.055267,,,
729705432.402854,-0.924788,1.571753,73.218592,-0.021591,-0.012665,1.011169,-0.136477,0.015296,-0.008948,88.271332,36.724838,-149.055267,,,
729705432.406171,-0.962866,1.576011,73.217451,-0.021591,-0.012665,1.011169,-0.136477,0.015296,-0.008948,88.271332,36.724838,-149.055267,,,
729705432.409602,-0.962866,1.576011,73.217451,-0.021591,-0.012665,1.011169,-0.136477,0.015296,-0.008948,88.271332,36.724838,-149.055267,,,
729705432.412838,-1.001149,1.585183,73.217758,-0.019836,-0.01683,1.014801,-0.130846,0.046875,0.002561,88.271332,36.724838,-149.055267,,,
729705432.416186,-1.037616,1.597786,73.21987,-0.019836,-0.01683,1.014801,-0.130846,0.046875,0.002561,88.271332,36.724838,-149.055267,,,
729705432.4195,-1.037616,1.597786,73.21987,-0.019836,-0.01683,1.014801,-0.130846,0.046875,0.002561,88.633789,37.073776,-148.932358,,,
729705432.422919,-1.074055,1.613312,73.223094,-0.022461,-0.018478,1.014297,-0.124948,0.062348,0.007322,88.633789,37.073776,-148.932358,,,
729705432.426157,-1.107051,1.630024,73.227199,-0.022461,-0.018478,1.014297,-0.124948,0.062348,0.007322,88.633789,37.073776,-148.932358,,,
729705432.429504,-1.107051,1.630024,73.227199,-0.022461,-0.018478,1.014297,-0.124948,0.062348,0.007322,88.633789,37.073776,-148.932358,,,
729705432.432852,-1.139903,1.646781,73.232527,-0.028732,-0.021362,1.008621,-0.110536,0.056492,0.017065,88.633789,37.073776,-148.932358,,,
729705432.436166,-1.167993,1.661915,73.238943,-0.028732,-0.021362,1.008621,-0.110536,0.056492,0.017065,88.633789,37.073776,-148.932358,,,
729705432.4395,-1.167993,1.661915,73.238943,-0.028732,-0.021362,1.008621,-0.110536,0.056492,0.017065,88.633789,37.073776,-148.932358,,,
729705432.442854,-1.197207,1.673944,73.24596,-0.03508,-0.02417,1.002914,-0.094192,0.036791,0.020515,88.633789,37.073776,-148.932358,,,
729705432.446195,-1.220825,1.683093,73.252861,-0.03508,-0.02417,1.002914,-0.094192,0.036791,0.020515,88.633789,37.073776,-148.932358,,,
729705432.449563,-1.220825,1.683093,73.252861,-0.03508,-0.02417,1.002914,-0.094192,0.036791,0.020515,88.633789,37.073776,-148.932358,,,
729705432.452878,-1.246274,1.689916,73.259032,-0.033371,-0.021637,1.002106,-0.082764,0.021201,0.016185,88.633789,37.073776,-148.932358,,,
729705432.456171,-1.266528,1.693814,73.263962,-0.033371,-0.021637,1.002106,-0.082764,0.021201,0.016185,88.633789,37.073776,-148.932358,,,
729705432.459548,-1.266528,1.693814,73.263962,-0.033371,-0.021637,1.002106,-0.082764,0.021201,0.016185,88.478958,37.263184,-148.904861,,,
729705432.46283,-1.288469,1.695108,73.267511,-0.035919,-0.020386,1.000168,-0.076094,-0.001056,0.006826,88.478958,37.263184,-148.904861,,,
729705432.466167,-1.307322,1.692563,73.269682,-0.035919,-0.020386,1.000168,-0.076094,-0.001056,0.006826,88.478958,37.263184,-148.904861,,,
729705432.469517,-1.307322,1.692563,73.269682,-0.035919,-0.020386,1.000168,-0.076094,-0.001056,0.006826,88.478958,37.263184,-148.904861,,,
729705432.472866,-1.32894,1.687993,73.270703,-0.036758,-0.019867,0.99176,-0.077421,-0.022309,-0.000987,88.478958,37.263184,-148.904861,,,
729705432.476193,-1.349232,1.679538,73.271254,-0.036758,-0.019867,0.99176,-0.077421,-0.022309,-0.000987,88.478958,37.263184,-148.904861,,,
729705432.479538,-1.349232,1.679538,73.271254,-0.036758,-0.019867,0.99176,-0.077421,-0.022309,-0.000987,88.478958,37.263184,-148.904861,,,
729705432.482883,-1.374186,1.670718,73.272081,-0.03804,-0.022217,0.987137,-0.091107,-0.031221,-0.00018,88.478958,37.263184,-148.904861,,,
729705432.486164,-1.399528,1.65823,73.273552,-0.03804,-0.022217,0.987137,-0.091107,-0.031221,-0.00018,88.478958,37.263184,-148.904861,,,
729705432.489498,-1.399528,1.65823,73.273552,-0.03804,-0.022217,0.987137,-0.091107,-0.031221,-0.00018,88.478958,37.263184,-148.904861,,,
729705432.49284,-1.428444,1.646177,73.276395,-0.04129,-0.026688,0.978577,-0.110317,-0.037205,0.009877,88.478958,37.263184,-148.904861,,,
729705432.496164,-1.459017,1.632864,73.281107,-0.04129,-0.026688,0.978577,-0.110317,-0.037205,0.009877,88.478958,37.263184,-148.904861,,,
729705432.499502,-1.459017,1.632864,73.281107,-0.04129,-0.026688,0.978577,-0.110317,-0.037205,0.009877,88.257614,37.457214,-149.052109,,,
729705432.502876,-1.49304,1.62196,73.288108,-0.040115,-0.027374,0.979996,-0.124454,-0.032785,0.026028,88.257614,37.457214,-149.052109,,,
729705432.506184,-1.527167,1.612099,73.297333,-0.040115,-0.027374,0.979996,-0.124454,-0.032785,0.026028,88.257614,37.457214,-149.052109,,,
729705432.509566,-1.527167,1.612099,73.297333,-0.040115,-0.027374,0.979996,-0.124454,-0.032785,0.026028,88.257614,37.457214,-149.052109,,,
729705432.512865,-1.563413,1.605377,73.30835,-0.034195,-0.03331,0.987198,-0.12933,-0.014044,0.033691,88.257614,37.457214,-149.052109,,,
729705432.516186,-1.599933,1.601865,73.319961,-0.034195,-0.03331,0.987198,-0.12933,-0.014044,0.033691,88.257614,37.457214,-149.052109,,,
729705432.51957,-1.599933,1.601865,73.319961,-0.034195,-0.03331,0.987198,-0.12933,-0.014044,0.033691,88.257614,37.457214,-149.052109,,,
729705432.522925,-1.638721,1.599963,73.33164,-0.028763,-0.031815,0.989014,-0.140811,-0.00033,0.035135,88.257614,37.457214,-149.052109,,,
729705432.526156,-1.677743,1.601684,73.34332,-0.028763,-0.031815,0.989014,-0.140811,-0.00033,0.035135,88.257614,37.457214,-149.052109,,,
729705432.529499,-1.677743,1.601684,73.34332,-0.028763,-0.031815,0.989014,-0.140811,-0.00033,0.035135,88.257614,37.457214,-149.052109,,,
729705432.532842,-1.71903,1.60383,73.354301,-0.025162,-0.032211,0.990875,-0.149177,0.012331,0.028014,88.257614,37.457214,-149.052109,,,
729705432.536163,-1.759782,1.607648,73.36404,-0.025162,-0.032211,0.990875,-0.149177,0.012331,0.028014,88.257614,37.457214,-149.052109,,,
729705432.539495,-1.759782,1.607648,73.36404,-0.025162,-0.032211,0.990875,-0.149177,0.012331,0.028014,88.496964,37.658493,-148.737656,,,
729705432.542851,-1.803324,1.609037,73.371874,-0.021683,-0.027725,0.99147,-0.155713,0.004297,0.015839,88.496964,37.658493,-148.737656,,,
729705432.546195,-1.845755,1.610555,73.377445,-0.021683,-0.027725,0.99147,-0.155713,0.004297,0.015839,88.496964,37.658493,-148.737656,,,
729705432.549553,-1.845755,1.610555,73.377445,-0.021683,-0.027725,0.99147,-0.155713,0.004297,0.015839,88.496964,37.658493,-148.737656,,,
729705432.552855,-1.889968,1.608878,73.380388,-0.019714,-0.024475,0.994217,-0.149996,-0.005023,-0.003957,88.496964,37.658493,-148.737656,,,
729705432.55617,-1.930622,1.607161,73.380926,-0.019714,-0.024475,0.994217,-0.149996,-0.005023,-0.003957,88.496964,37.658493,-148.737656,,,
729705432.559596,-1.930622,1.607161,73.380926,-0.019714,-0.024475,0.994217,-0.149996,-0.005023,-0.003957,88.496964,37.658493,-148.737656,,,
729705432.562816,-1.971507,1.602714,73.379026,-0.017303,-0.029358,1.000839,-0.135357,-0.013292,-0.017812,88.496964,37.658493,-148.737656,,,
729705432.566168,-2.008753,1.600316,73.375095,-0.017303,-0.029358,1.000839,-0.135357,-0.013292,-0.017812,88.496964,37.658493,-148.737656,,,
729705432.569519,-2.008753,1.600316,73.375095,-0.017303,-0.029358,1.000839,-0.135357,-0.013292,-0.017812,88.496964,37.658493,-148.737656,,,
729705432.572889,-2.044627,1.595446,73.369613,-0.010468,-0.034851,1.007339,-0.114907,-0.011624,-0.027855,88.496964,37.658493,-148.737656,,,
729705432.576159,-2.07557,1.593702,73.363324,-0.010468,-0.034851,1.007339,-0.114907,-0.011624,-0.027855,88.496964,37.658493,-148.737656,,,
729705432.579531,-2.07557,1.593702,73.363324,-0.010468,-0.034851,1.007339,-0.114907,-0.011624,-0.027855,88.496964,37.658493,-148.737656,,,
729705432.582889,-2.104189,1.591054,73.356949,-0.011826,-0.041489,1.015732,-0.090692,0.000714,-0.026629,88.363297,37.764435,-148.448105,,,
729705432.586162,-2.12908,1.592425,73.351288,-0.011826,-0.041489,1.015732,-0.090692,0.000714,-0.026629,88.363297,37.764435,-148.448105,,,
729705432.58952,-2.12908,1.592425,73.351288,-0.011826,-0.041489,1.015732,-0.090692,0.000714,-0.026629,88.363297,37.764435,-148.448105,,,
729705432.592853,-2.154428,1.593792,73.346275,-0.017487,-0.044479,1.01683,-0.085401,0.012158,-0.018302,88.363297,37.764435,-148.448105,,,
729705432.596164,-2.178818,1.597087,73.342079,-0.017487,-0.044479,1.01683,-0.085401,0.012158,-0.018302,88.363297,37.764435,-148.448105,,,
729705432.599563,-2.178818,1.597087,73.342079,-0.017487,-0.044479,1.01683,-0.085401,0.012158,-0.018302,88.363297,37.764435,-148.448105,,,
729705432.602893,-2.20349,1.6005,73.338017,-0.01741,-0.046188,1.012405,-0.081679,0.01767,-0.01445,88.363297,37.764435,-148.448105,,,
729705432.606181,-2.226279,1.604835,73.334127,-0.01741,-0.046188,1.012405,-0.081679,0.01767,-0.01445,88.363297,37.764435,-148.448105,,,
729705432.609613,-2.226279,1.604835,73.334127,-0.01741,-0.046188,1.012405,-0.081679,0.01767,-0.01445,88.363297,37.764435,-148.448105,,,
729705432.612863,-2.249847,1.611584,73.329519,-0.020294,-0.047531,1.012222,-0.075945,0.031118,-0.022328,88.363297,37.764435,-148.448105,,,
729705432.616261,-2.270281,1.618761,73.323743,-0.020294,-0.047531,1.012222,-0.075945,0.031118,-0.022328,88.363297,37.764435,-148.448105,,,
729705432.619523,-2.270281,1.618761,73.323743,-0.020294,-0.047531,1.012222,-0.075945,0.031118,-0.022328,88.363297,37.764435,-148.448105,,,
729705432.622924,-2.289963,1.626502,73.316706,-0.019775,-0.045776,1.010437,-0.063584,0.030676,-0.032127,88.206009,38.252396,-148.552643,,,
729705432.626164,-2.306081,1.631907,73.307202,-0.019775,-0.045776,1.010437,-0.063584,0.030676,-0.032127,88.206009,38.252396,-148.552643,,,
729705432.6295,-2.306081,1.631907,73.307202,-0.019775,-0.045776,1.010437,-0.063584,0.030676,-0.032127,88.206009,38.252396,-148.552643,,,
729705432.632846,-2.324154,1.636932,73.296343,-0.021027,-0.045624,1.002045,-0.057883,0.017758,-0.042302,88.206009,38.252396,-148.552643,,,
729705432.636175,-2.338967,1.638484,73.284867,-0.021027,-0.045624,1.002045,-0.057883,0.017758,-0.042302,88.206009,38.252396,-148.552643,,,
729705432.639521,-2.338967,1.638484,73.284867,-0.021027,-0.045624,1.002045,-0.057883,0.017758,-0.042302,88.206009,38.252396,-148.552643,,,
729705432.642856,-2.356817,1.640154,73.272421,-0.025391,-0.043289,0.997665,-0.061994,0.004318,-0.050381,88.206009,38.252396,-148.552643,,,
729705432.646191,-2.373543,1.637163,73.258596,-0.025391,-0.043289,0.997665,-0.061994,0.004318,-0.050381,88.206009,38.252396,-148.552643,,,
729705432.64954,-2.373543,1.637163,73.258596,-0.025391,-0.043289,0.997665,-0.061994,0.004318,-0.050381,88.206009,38.252396,-148.552643,,,
729705432.652846,-2.392962,1.634494,73.244223,-0.024933,-0.041351,0.994019,-0.069164,-0.010354,-0.05364,88.206009,38.252396,-148.552643,,,
729705432.656163,-2.412888,1.626246,73.2296,-0.024933,-0.041351,0.994019,-0.069164,-0.010354,-0.05364,88.206009,38.252396,-148.552643,,,
729705432.659602,-2.412888,1.626246,73.2296,-0.024933,-0.041351,0.994019,-0.069164,-0.010354,-0.05364,88.206009,38.252396,-148.552643,,,
729705432.662818,-2.432824,1.620851,73.215251,-0.023117,-0.038773,0.991074,-0.063,-0.010098,-0.05435,88.259216,38.334381,-148.684494,,,
729705432.666168,-2.451203,1.614853,73.20097,-0.023117,-0.038773,0.991074,-0.063,-0.010098,-0.05435,88.259216,38.334381,-148.684494,,,
729705432.66951,-2.451203,1.614853,73.20097,-0.023117,-0.038773,0.991074,-0.063,-0.010098,-0.05435,88.259216,38.334381,-148.684494,,,
729705432.672919,-2.467563,1.61479,73.186915,-0.021149,-0.041748,1.008118,-0.050483,0.015177,-0.050626,88.259216,38.334381,-148.684494,,,
729705432.676165,-2.482171,1.616761,73.173747,-0.021149,-0.041748,1.008118,-0.050483,0.015177,-0.050626,88.259216,38.334381,-148.684494,,,
729705432.679538,-2.482171,1.616761,73.173747,-0.021149,-0.041748,1.008118,-0.050483,0.015177,-0.050626,88.259216,38.334381,-148.684494,,,
729705432.682881,-2.493983,1.623096,73.163004,-0.02655,-0.052322,1.010925,-0.035202,0.032706,-0.031454,88.259216,38.334381,-148.684494,,,
729705432.687098,-2.503589,1.629478,73.155093,-0.02655,-0.052322,1.010925,-0.035202,0.032706,-0.031454,88.259216,38.334381,-148.684494,,,
729705432.689416,-2.503589,1.629478,73.155093,-0.02655,-0.052322,1.010925,-0.035202,0.032706,-0.031454,88.259216,38.334381,-148.684494,,,
729705432.692871,-2.511099,1.638683,73.149958,-0.031113,-0.052521,1.004288,-0.021745,0.03569,-0.015803,88.259216,38.334381,-148.684494,,,
729705432.696162,-2.518565,1.646073,73.146793,-0.031113,-0.052521,1.004288,-0.021745,0.03569,-0.015803,88.259216,38.334381,-148.684494,,,
729705432.699508,-2.518565,1.646073,73.146793,-0.031113,-0.052521,1.004288,-0.021745,0.03569,-0.015803,88.259216,38.334381,-148.684494,,,
729705432.702834,-2.526409,1.654753,73.145144,-0.031174,-0.04422,0.992767,-0.02912,0.034434,-0.006817,88.259216,38.334381,-148.684494,,,
729705432.706162,-2.537,1.661469,73.143516,-0.031174,-0.04422,0.992767,-0.02912,0.034434,-0.006817,88.288132,38.242355,-148.30397,,,
729705432.709597,-2.537,1.661469,73.143516,-0.031174,-0.04422,0.992767,-0.02912,0.034434,-0.006817,88.288132,38.242355,-148.30397,,,
729705432.712856,-2.549755,1.669621,73.14095,-0.031906,-0.035416,0.984039,-0.049145,0.033164,-0.013858,88.288132,38.242355,-148.30397,,,
729705432.716205,-2.565124,1.675949,73.137319,-0.031906,-0.035416,0.984039,-0.049145,0.033164,-0.013858,88.288132,38.242355,-148.30397,,,
729705432.719574,-2.565124,1.675949,73.137319,-0.031906,-0.035416,0.984039,-0.049145,0.033164,-0.013858,88.288132,38.242355,-148.30397,,,
729705432.722921,-2.584053,1.681211,73.132659,-0.034546,-0.03157,0.977417,-0.074589,0.016233,-0.02262,88.288132,38.242355,-148.30397,,,
729705432.726165,-2.606413,1.683443,73.126812,-0.034546,-0.03157,0.977417,-0.074589,0.016233,-0.02262,88.288132,38.242355,-148.30397,,,
729705432.729498,-2.606413,1.683443,73.126812,-0.034546,-0.03157,0.977417,-0.074589,0.016233,-0.02262,88.288132,38.242355,-148.30397,,,
729705432.732834,-2.633523,1.685377,73.119671,-0.034393,-0.028625,0.969788,-0.104639,0.010812,-0.033447,88.288132,38.242355,-148.30397,,,
729705432.736171,-2.663757,1.686483,73.11071,-0.034393,-0.028625,0.969788,-0.104639,0.010812,-0.033447,88.288132,38.242355,-148.30397,,,
729705432.73951,-2.663757,1.686483,73.11071,-0.034393,-0.028625,0.969788,-0.104639,0.010812,-0.033447,88.288132,38.242355,-148.30397,,,
729705432.742853,-2.700216,1.688295,73.100895,-0.034378,-0.025925,0.973663,-0.136046,0.012951,-0.040119,88.288132,38.242355,-148.30397,,,
729705432.746191,-2.740016,1.689089,73.091233,-0.034378,-0.025925,0.973663,-0.136046,0.012951,-0.040119,88.4496,38.643921,-148.673203,,,
729705432.749553,-2.740016,1.689089,73.091233,-0.034378,-0.025925,0.973663,-0.136046,0.012951,-0.040119,88.4496,38.643921,-148.673203,,,
729705432.752859,-2.784996,1.692235,73.081979,-0.038849,-0.034286,0.971649,-0.166724,0.015989,-0.036824,88.4496,38.643921,-148.673203,,,
729705432.756182,-2.833195,1.694798,73.07352,-0.038849,-0.034286,0.971649,-0.166724,0.015989,-0.036824,88.4496,38.643921,-148.673203,,,
729705432.759586,-2.833195,1.694798,73.07352,-0.038849,-0.034286,0.971649,-0.166724,0.015989,-0.036824,88.4496,38.643921,-148.673203,,,
729705432.762827,-2.884811,1.6992,73.065591,-0.033813,-0.039886,0.976532,-0.18407,0.025388,-0.035682,88.4496,38.643921,-148.673203,,,
729705432.766179,-2.93873,1.705152,73.058068,-0.033813,-0.039886,0.976532,-0.18407,0.025388,-0.035682,88.4496,38.643921,-148.673203,,,
729705432.769504,-2.93873,1.705152,73.058068,-0.033813,-0.039886,0.976532,-0.18407,0.025388,-0.035682,88.4496,38.643921,-148.673203,,,
729705432.772889,-2.993137,1.713661,73.050903,-0.027252,-0.046387,0.987808,-0.188679,0.039457,-0.033301,88.4496,38.643921,-148.673203,,,
729705432.776154,-3.047755,1.724922,73.043443,-0.027252,-0.046387,0.987808,-0.188679,0.039457,-0.033301,88.4496,38.643921,-148.673203,,,
729705432.779528,-3.047755,1.724922,73.043443,-0.027252,-0.046387,0.987808,-0.188679,0.039457,-0.033301,88.4496,38.643921,-148.673203,,,
729705432.782907,-3.102784,1.739349,73.036531,-0.028397,-0.050476,0.998825,-0.188757,0.062032,-0.026616,88.4496,38.643921,-148.673203,,,
729705432.78616,-3.154463,1.75751,73.03148,-0.028397,-0.050476,0.998825,-0.188757,0.062032,-0.026616,88.400375,39.162003,-148.562073,,,
729705432.789494,-3.154463,1.75751,73.03148,-0.028397,-0.050476,0.998825,-0.188757,0.062032,-0.026616,88.400375,39.162003,-148.562073,,,
729705432.792829,-3.207721,1.777873,73.028455,-0.035278,-0.055634,1.002762,-0.183347,0.081452,-0.013668,88.400375,39.162003,-148.562073,,,
729705432.796168,-3.256054,1.800637,73.027824,-0.035278,-0.055634,1.002762,-0.183347,0.081452,-0.013668,88.400375,39.162003,-148.562073,,,
729705432.7995,-3.256054,1.800637,73.027824,-0.035278,-0.055634,1.002762,-0.183347,0.081452,-0.013668,88.400375,39.162003,-148.562073,,,
729705432.802849,-3.307678,1.824422,73.030775,-0.039276,-0.061111,1.003998,-0.179739,0.088111,0.01229,88.400375,39.162003,-148.562073,,,
729705432.806159,-3.354795,1.849968,73.037298,-0.039276,-0.061111,1.003998,-0.179739,0.088111,0.01229,88.400375,39.162003,-148.562073,,,
729705432.809604,-3.354795,1.849968,73.037298,-0.039276,-0.061111,1.003998,-0.179739,0.088111,0.01229,88.400375,39.162003,-148.562073,,,
729705432.812848,-3.407752,1.874411,73.045971,-0.043076,-0.065262,0.996094,-0.184488,0.081293,0.027962,88.400375,39.162003,-148.562073,,,
729705432.816239,-3.455267,1.897726,73.055428,-0.043076,-0.065262,0.996094,-0.184488,0.081293,0.027962,88.400375,39.162003,-148.562073,,,
729705432.819532,-3.455267,1.897726,73.055428,-0.043076,-0.065262,0.996094,-0.184488,0.081293,0.027962,88.400375,39.162003,-148.562073,,,
729705432.822916,-3.507926,1.92003,73.064257,-0.033783,-0.063736,0.99733,-0.181154,0.07823,0.020391,88.400375,39.162003,-148.562073,,,
729705432.826154,-3.553931,1.942306,73.071333,-0.033783,-0.063736,0.99733,-0.181154,0.07823,0.020391,88.482574,39.356903,-148.415665,,,
729705432.829492,-3.553931,1.942306,73.071333,-0.033783,-0.063736,0.99733,-0.181154,0.07823,0.020391,88.482574,39.356903,-148.415665,,,
729705432.832838,-3.604058,1.962109,73.075658,-0.032654,-0.060532,1.003693,-0.170378,0.06954,0.001926,88.482574,39.356903,-148.415665,,,
729705432.836197,-3.648117,1.981607,73.077549,-0.032654,-0.060532,1.003693,-0.170378,0.06954,0.001926,88.482574,39.356903,-148.415665,,,
729705432.839514,-3.648117,1.981607,73.077549,-0.032654,-0.060532,1.003693,-0.170378,0.06954,0.001926,88.482574,39.356903,-148.415665,,,
729705432.842852,-3.695057,1.998749,73.076652,-0.039169,-0.059814,1.001923,-0.155075,0.056293,-0.017603,88.482574,39.356903,-148.415665,,,
729705432.846188,-3.736175,2.012454,73.073433,-0.039169,-0.059814,1.001923,-0.155075,0.056293,-0.017603,88.482574,39.356903,-148.415665,,,
729705432.84957,-3.736175,2.012454,73.073433,-0.039169,-0.059814,1.001923,-0.155075,0.056293,-0.017603,88.482574,39.356903,-148.415665,,,
729705432.852848,-3.779422,2.023331,73.068928,-0.035492,-0.062988,0.998398,-0.143188,0.035242,-0.024588,88.482574,39.356903,-148.415665,,,
729705432.856194,-3.81791,2.029637,73.063449,-0.035492,-0.062988,0.998398,-0.143188,0.035242,-0.024588,88.482574,39.356903,-148.415665,,,
729705432.859586,-3.81791,2.029637,73.063449,-0.035492,-0.062988,0.998398,-0.143188,0.035242,-0.024588,88.482574,39.356903,-148.415665,,,
729705432.862832,-3.857498,2.035176,73.059308,-0.041351,-0.072205,1.002335,-0.12992,0.015574,-0.015171,88.482574,39.356903,-148.415665,,,
729705432.866189,-3.891947,2.037414,73.057446,-0.041351,-0.072205,1.002335,-0.12992,0.015574,-0.015171,88.796448,39.7108,-147.994705,,,
729705432.86951,-3.891947,2.037414,73.057446,-0.041351,-0.072205,1.002335,-0.12992,0.015574,-0.015171,88.796448,39.7108,-147.994705,,,
729705432.872905,-3.926338,2.037035,73.057455,-0.04158,-0.074554,1.004593,-0.110565,-0.004324,-2.1e-05,88.796448,39.7108,-147.994705,,,
729705432.876187,-3.955497,2.034597,73.059301,-0.04158,-0.074554,1.004593,-0.110565,-0.004324,-2.1e-05,88.796448,39.7108,-147.994705,,,
729705432.87952,-3.955497,2.034597,73.059301,-0.04158,-0.074554,1.004593,-0.110565,-0.004324,-2.1e-05,88.796448,39.7108,-147.994705,,,
729705432.882898,-3.983264,2.030879,73.063294,-0.03653,-0.076721,1.011322,-0.087466,-0.013653,0.015293,88.796448,39.7108,-147.994705,,,
729705432.886246,-4.006418,2.028249,73.069432,-0.03653,-0.076721,1.011322,-0.087466,-0.013653,0.015293,88.796448,39.7108,-147.994705,,,
729705432.889505,-4.006418,2.028249,73.069432,-0.03653,-0.076721,1.011322,-0.087466,-0.013653,0.015293,88.796448,39.7108,-147.994705,,,
729705432.89285,-4.02693,2.02542,73.076476,-0.035477,-0.076462,1.015671,-0.06566,-0.005062,0.021852,88.796448,39.7108,-147.994705,,,
729705432.896236,-4.043579,2.024894,73.083819,-0.035477,-0.076462,1.015671,-0.06566,-0.005062,0.021852,88.796448,39.7108,-147.994705,,,
729705432.899523,-4.043579,2.024894,73.083819,-0.035477,-0.076462,1.015671,-0.06566,-0.005062,0.021852,88.796448,39.7108,-147.994705,,,
729705432.902871,-4.05866,2.024848,73.090857,-0.030014,-0.077026,1.019806,-0.04612,0.006748,0.017544,88.796448,39.7108,-147.994705,,,
729705432.906228,-4.070203,2.024983,73.097114,-0.030014,-0.077026,1.019806,-0.04612,0.006748,0.017544,88.796448,39.7108,-147.994705,,,
729705432.909523,-4.070203,2.024983,73.097114,-0.030014,-0.077026,1.019806,-0.04612,0.006748,0.017544,88.632538,40.037048,-148.010361,,,
729705432.912855,-4.082341,2.026494,73.102792,-0.02948,-0.075714,1.012665,-0.040793,0.006306,0.014591,88.632538,40.037048,-148.010361,,,
729705432.91618,-4.092364,2.028239,73.107592,-0.02948,-0.075714,1.012665,-0.040793,0.006306,0.014591,88.632538,40.037048,-148.010361,,,
729705432.919517,-4.092364,2.028239,73.107592,-0.02948,-0.075714,1.012665,-0.040793,0.006306,0.014591,88.632538,40.037048,-148.010361,,,
729705432.922933,-4.105136,2.029354,73.111912,-0.030167,-0.074402,1.002197,-0.049013,0.007192,0.012444,88.632538,40.037048,-148.010361,,,
729705432.92621,-4.117468,2.030365,73.115793,-0.030167,-0.074402,1.002197,-0.049013,0.007192,0.012444,88.632538,40.037048,-148.010361,,,
729705432.929504,-4.117468,2.030365,73.115793,-0.030167,-0.074402,1.002197,-0.049013,0.007192,0.012444,88.632538,40.037048,-148.010361,,,
729705432.932833,-4.134191,2.031021,73.118919,-0.029327,-0.071121,0.998291,-0.062227,0.004495,0.005475,88.632538,40.037048,-148.010361,,,
729705432.936246,-4.151483,2.032489,73.121499,-0.029327,-0.071121,0.998291,-0.062227,0.004495,0.005475,88.632538,40.037048,-148.010361,,,
729705432.939492,-4.151483,2.032489,73.121499,-0.029327,-0.071121,0.998291,-0.062227,0.004495,0.005475,88.632538,40.037048,-148.010361,,,
729705432.942844,-4.170305,2.033945,73.123219,-0.027008,-0.071259,0.998291,-0.066185,0.011001,0.001433,88.632538,40.037048,-148.010361,,,
729705432.946191,-4.188752,2.037639,73.124439,-0.027008,-0.071259,0.998291,-0.066185,0.011001,0.001433,88.632538,40.037048,-148.010361,,,
729705432.949502,-4.188752,2.037639,73.124439,-0.027008,-0.071259,0.998291,-0.066185,0.011001,0.001433,88.77562,39.976105,-147.88681,,,
729705432.952854,-4.205868,2.040443,73.124957,-0.025955,-0.072418,1.000732,-0.052179,0.008537,-0.003671,88.77562,39.976105,-147.88681,,,
729705432.956179,-4.205868,2.040443,73.124843,-0.025955,-0.072418,1.000732,-0.052179,0.008537,-0.003671,88.77562,39.976105,-147.88681,,,
729705432.959591,-4.221406,2.042267,73.124843,-0.025955,-0.072418,1.000732,-0.052179,0.008537,-0.003671,88.77562,39.976105,-147.88681,,,
729705432.962817,-4.234533,2.041909,73.12482,-0.027435,-0.075928,0.997437,-0.041408,0.002361,-0.002706,88.77562,39.976105,-147.88681,,,
729705432.966164,-4.234533,2.041909,73.12482,-0.027435,-0.075928,0.997437,-0.041408,0.002361,-0.002706,88.77562,39.976105,-147.88681,,,
729705432.969489,-4.247231,2.041451,73.125064,-0.027435,-0.075928,0.997437,-0.041408,0.002361,-0.002706,88.77562,39.976105,-147.88681,,,
729705432.972878,-4.260294,2.041057,73.125681,-0.032578,-0.077744,0.996017,-0.046101,0.001582,-0.000169,88.77562,39.976105,-147.88681,,,
729705432.976163,-4.260294,2.041057,73.125681,-0.032578,-0.077744,0.996017,-0.046101,0.001582,-0.000169,88.77562,39.976105,-147.88681,,,
729705432.979524,-4.274282,2.039443,73.126708,-0.032578,-0.077744,0.996017,-0.046101,0.001582,-0.000169,88.77562,39.976105,-147.88681,,,
729705432.982846,-4.289202,2.037187,73.127326,-0.033127,-0.080475,0.988251,-0.051395,-0.005899,-0.002889,88.77562,39.976105,-147.88681,,,
729705432.986274,-4.289202,2.033392,73.126817,-0.033127,-0.080475,0.988251,-0.051395,-0.005899,-0.002889,88.77562,39.976105,-147.88681,,,
729705432.989486,-4.304622,2.033392,73.126817,-0.033127,-0.080475,0.988251,-0.051395,-0.005899,-0.002889,88.848434,40.152679,-148.074051,,,
729705432.992829,-4.320123,2.031001,73.125896,-0.032486,-0.078766,0.98674,-0.054123,-0.00243,-0.005187,88.848434,40.152679,-148.074051,,,
729705432.99616,-4.320123,2.031001,73.125896,-0.032486,-0.078766,0.98674,-0.054123,-0.00243,-0.005187,88.848434,40.152679,-148.074051,,,
729705432.999504,-4.336061,2.028103,73.124561,-0.032486,-0.078766,0.98674,-0.054123,-0.00243,-0.005187,88.848434,40.152679,-148.074051,,,
729705433.002825,-4.352122,2.026784,73.123073,-0.034683,-0.078415,0.989243,-0.05641,1e-05,-0.00762,88.848434,40.152679,-148.074051,,,
729705433.006174,-4.352122,2.026784,73.123073,-0.034683,-0.078415,0.989243,-0.05641,1e-05,-0.00762,88.848434,40.152679,-148.074051,,,
729705433.009576,-4.368491,2.02471,73.12221,-0.034683,-0.078415,0.989243,-0.05641,1e-05,-0.00762,88.848434,40.152679,-148.074051,,,
729705433.012843,-4.386208,2.023934,73.122063,-0.039734,-0.080582,0.985046,-0.058685,0.000613,-0.003275,88.848434,40.152679,-148.074051,,,
729705433.01623,-4.386208,2.023934,73.122063,-0.039734,-0.080582,0.985046,-0.058685,0.000613,-0.003275,88.848434,40.152679,-148.074051,,,
729705433.019516,-4.403208,2.02195,73.122102,-0.039734,-0.080582,0.985046,-0.058685,0.000613,-0.003275,88.848434,40.152679,-148.074051,,,
729705433.022841,-4.422061,2.0212,73.122764,-0.038559,-0.082214,0.983261,-0.06949,-0.001198,0.000912,88.848434,40.152679,-148.074051,,,
729705433.026187,-4.422061,2.0212,73.122764,-0.038559,-0.082214,0.983261,-0.06949,-0.001198,0.000912,88.848434,40.152679,-148.074051,,,
729705433.029524,-4.441188,2.01901,73.123788,-0.038559,-0.082214,0.983261,-0.06949,-0.001198,0.000912,88.848434,40.152679,-148.074051,,,
729705433.032837,-4.464293,2.01913,73.124986,-0.040283,-0.079285,0.979416,-0.087047,0.004724,-0.001659,88.76442,40.16449,-148.078964,,,
729705433.036238,-4.464293,2.01913,73.124986,-0.040283,-0.079285,0.979416,-0.087047,0.004724,-0.001659,88.76442,40.16449,-148.078964,,,
729705433.039486,-4.490267,2.01882,73.125375,-0.040283,-0.079285,0.979416,-0.087047,0.004724,-0.001659,88.76442,40.16449,-148.078964,,,
729705433.042826,-4.519761,2.022104,73.124685,-0.034897,-0.0755,0.978012,-0.109689,0.020593,-0.011506,88.76442,40.16449,-148.078964,,,
729705433.046215,-4.519761,2.022104,73.124685,-0.034897,-0.0755,0.978012,-0.109689,0.020593,-0.011506,88.76442,40.16449,-148.078964,,,
729705433.04954,-4.552219,2.02623,73.122619,-0.034897,-0.0755,0.978012,-0.109689,0.020593,-0.011506,88.76442,40.16449,-148.078964,,,
729705433.05283,-4.588856,2.032403,73.119215,-0.032623,-0.076721,0.975922,-0.133137,0.024666,-0.018702,88.76442,40.16449,-148.078964,,,
729705433.056159,-4.588856,2.032403,73.119215,-0.032623,-0.076721,0.975922,-0.133137,0.024666,-0.018702,88.76442,40.16449,-148.078964,,,
729705433.059571,-4.628476,2.03876,73.115371,-0.032623,-0.076721,0.975922,-0.133137,0.024666,-0.018702,88.76442,40.16449,-148.078964,,,
729705433.062823,-4.669862,2.045469,73.111971,-0.040451,-0.082565,0.974686,-0.144769,0.028665,-0.016141,88.76442,40.16449,-148.078964,,,
729705433.066159,-4.669862,2.045469,73.111971,-0.040451,-0.082565,0.974686,-0.144769,0.028665,-0.016141,88.76442,40.16449,-148.078964,,,
729705433.069515,-4.711053,2.051887,73.109346,-0.040451,-0.082565,0.974686,-0.144769,0.028665,-0.016141,88.76442,40.16449,-148.078964,,,
729705433.072829,-4.752437,2.059955,73.108384,-0.042999,-0.091293,0.981216,-0.143679,0.031489,-0.006088,88.819366,40.720474,-148.039963,,,
729705433.076182,-4.752437,2.059955,73.108384,-0.042999,-0.091293,0.981216,-0.143679,0.031489,-0.006088,88.819366,40.720474,-148.039963,,,
729705433.079539,-4.793003,2.067611,73.108769,-0.042999,-0.091293,0.981216,-0.143679,0.031489,-0.006088,88.819366,40.720474,-148.039963,,,
729705433.082835,-4.833238,2.074568,73.110571,-0.046356,-0.096802,0.984421,-0.135994,0.027179,0.005028,88.819366,40.720474,-148.039963,,,
729705433.086259,-4.833238,2.074568,73.110571,-0.046356,-0.096802,0.984421,-0.135994,0.027179,0.005028,88.819366,40.720474,-148.039963,,,
729705433.08951,-4.871231,2.081589,73.114216,-0.046356,-0.096802,0.984421,-0.135994,0.027179,0.005028,88.819366,40.720474,-148.039963,,,
729705433.092834,-4.908281,2.089169,73.118544,-0.047989,-0.097549,0.987289,-0.124981,0.030057,0.008756,88.819366,40.720474,-148.039963,,,
729705433.096162,-4.908281,2.089169,73.118544,-0.047989,-0.097549,0.987289,-0.124981,0.030057,0.008756,88.819366,40.720474,-148.039963,,,
729705433.099506,-4.943566,2.097637,73.123123,-0.047989,-0.097549,0.987289,-0.124981,0.030057,0.008756,88.819366,40.720474,-148.039963,,,
729705433.102833,-4.979335,2.104866,73.127803,-0.040741,-0.091904,0.987488,-0.124664,0.025382,0.011282,88.819366,40.720474,-148.039963,,,
729705433.106169,-4.979335,2.104866,73.127803,-0.040741,-0.091904,0.987488,-0.124664,0.025382,0.011282,88.819366,40.720474,-148.039963,,,
729705433.109513,-5.015005,2.112821,73.132904,-0.040741,-0.091904,0.987488,-0.124664,0.025382,0.011282,88.819366,40.720474,-148.039963,,,
729705433.112862,-5.052243,2.121046,73.138024,-0.041977,-0.089417,0.98262,-0.135142,0.034233,0.009852,88.941727,40.910706,-147.924316,,,
729705433.116272,-5.052243,2.121046,73.138024,-0.041977,-0.089417,0.98262,-0.135142,0.034233,0.009852,88.941727,40.910706,-147.924316,,,
729705433.11952,-5.088837,2.130936,73.142957,-0.041977,-0.089417,0.98262,-0.135142,0.034233,0.009852,88.941727,40.910706,-147.924316,,,
729705433.12283,-5.128666,2.142325,73.147711,-0.036087,-0.088318,0.986679,-0.141828,0.043416,0.007819,88.941727,40.910706,-147.924316,,,
729705433.126257,-5.128666,2.142325,73.147711,-0.036087,-0.088318,0.986679,-0.141828,0.043416,0.007819,88.941727,40.910706,-147.924316,,,
729705433.129488,-5.168621,2.154289,73.152008,-0.036087,-0.088318,0.986679,-0.141828,0.043416,0.007819,88.941727,40.910706,-147.924316,,,
729705433.132844,-5.212384,2.167619,73.156294,-0.028839,-0.087402,0.983566,-0.160994,0.048578,0.003302,88.941727,40.910706,-147.924316,,,
729705433.136201,-5.212384,2.167619,73.156294,-0.028839,-0.087402,0.983566,-0.160994,0.048578,0.003302,88.941727,40.910706,-147.924316,,,
729705433.139585,-5.256806,2.180907,73.160098,-0.028839,-0.087402,0.983566,-0.160994,0.048578,0.003302,88.941727,40.910706,-147.924316,,,
729705433.14282,-5.304322,2.194735,73.163193,-0.0289,-0.089767,0.985413,-0.167938,0.051204,0.00096,88.941727,40.910706,-147.924316,,,
729705433.146181,-5.304322,2.194735,73.163193,-0.0289,-0.089767,0.985413,-0.167938,0.051204,0.00096,88.941727,40.910706,-147.924316,,,
729705433.14953,-5.352564,2.20986,73.165504,-0.0289,-0.089767,0.985413,-0.167938,0.051204,0.00096,88.941727,40.910706,-147.924316,,,
729705433.152824,-5.402022,2.223356,73.166713,-0.030319,-0.090652,0.988129,-0.173266,0.043626,-0.007205,88.693985,41.320679,-147.703888,,,
729705433.15617,-5.402022,2.223356,73.166713,-0.030319,-0.090652,0.988129,-0.173266,0.043626,-0.007205,88.693985,41.320679,-147.703888,,,
729705433.159505,-5.452316,2.235978,73.166941,-0.030319,-0.090652,0.988129,-0.173266,0.043626,-0.007205,88.693985,41.320679,-147.703888,,,
729705433.162832,-5.502185,2.245685,73.166273,-0.029205,-0.090424,0.988235,-0.171926,0.035035,-0.013459,88.693985,41.320679,-147.703888,,,
729705433.166163,-5.502185,2.245685,73.166273,-0.029205,-0.090424,0.988235,-0.171926,0.035035,-0.013459,88.693985,41.320679,-147.703888,,,
729705433.169521,-5.551574,2.25534,73.16511,-0.029205,-0.090424,0.988235,-0.171926,0.035035,-0.013459,88.693985,41.320679,-147.703888,,,
729705433.172824,-5.599169,2.262864,73.163737,-0.035004,-0.095078,0.993835,-0.161062,0.03019,-0.013648,88.693985,41.320679,-147.703888,,,
729705433.176227,-5.599169,2.262864,73.163737,-0.035004,-0.095078,0.993835,-0.161062,0.03019,-0.013648,88.693985,41.320679,-147.703888,,,
729705433.179531,-5.644574,2.270526,73.162332,-0.035004,-0.095078,0.993835,-0.161062,0.03019,-0.013648,88.693985,41.320679,-147.703888,,,
729705433.18284,-5.688906,2.276396,73.160129,-0.032074,-0.098236,0.995316,-0.149191,0.02129,-0.018646,88.693985,41.320679,-147.703888,,,
729705433.186255,-5.688906,2.276396,73.160129,-0.032074,-0.098236,0.995316,-0.149191,0.02129,-0.018646,88.693985,41.320679,-147.703888,,,
729705433.189567,-5.729832,2.282118,73.157045,-0.032074,-0.098236,0.995316,-0.149191,0.02129,-0.018646,88.693985,41.320679,-147.703888,,,
729705433.192823,-5.768942,2.287317,73.15281,-0.032089,-0.099167,0.999252,-0.125823,0.024697,-0.019582,88.693985,41.320679,-147.703888,,,
729705433.196162,-5.768942,2.287317,73.15281,-0.032089,-0.099167,0.999252,-0.125823,0.024697,-0.019582,88.829605,41.30986,-147.417969,,,
729705433.199534,-5.802231,2.292902,73.148374,-0.032089,-0.099167,0.999252,-0.125823,0.024697,-0.019582,88.829605,41.30986,-147.417969,,,
729705433.20283,-5.83415,2.298239,73.144056,-0.036713,-0.102203,1.005737,-0.104116,0.018448,-0.021635,88.829605,41.30986,-147.417969,,,
729705433.206169,-5.83415,2.298239,73.144056,-0.036713,-0.102203,1.005737,-0.104116,0.018448,-0.021635,88.829605,41.30986,-147.417969,,,
729705433.209514,-5.8612,2.300393,73.13939,-0.036713,-0.102203,1.005737,-0.104116,0.018448,-0.021635,88.829605,41.30986,-147.417969,,,
729705433.212896,-5.889244,2.302469,73.134557,-0.043442,-0.105148,1.000687,-0.093096,0.010809,-0.022765,88.829605,41.30986,-147.417969,,,
729705433.216268,-5.889244,2.302469,73.134557,-0.043442,-0.105148,1.000687,-0.093096,0.010809,-0.022765,88.829605,41.30986,-147.417969,,,
729705433.219526,-5.914326,2.301927,73.129108,-0.043442,-0.105148,1.000687,-0.093096,0.010809,-0.022765,88.829605,41.30986,-147.417969,,,
729705433.222823,-5.942675,2.302819,73.12383,-0.045609,-0.102844,1.001022,-0.1009,0.005221,-0.025603,88.829605,41.30986,-147.417969,,,
729705433.226263,-5.942675,2.302819,73.12383,-0.045609,-0.102844,1.001022,-0.1009,0.005221,-0.025603,88.829605,41.30986,-147.417969,,,
729705433.229479,-5.970816,2.300766,73.117739,-0.045609,-0.102844,1.001022,-0.1009,0.005221,-0.025603,88.829605,41.30986,-147.417969,,,
729705433.232829,-6.00304,2.299649,73.110802,-0.044266,-0.102325,0.994553,-0.112551,0.002336,-0.029556,88.829605,41.30986,-147.417969,,,
729705433.236161,-6.00304,2.299649,73.110802,-0.044266,-0.102325,0.994553,-0.112551,0.002336,-0.029556,88.824661,41.786865,-147.598938,,,
729705433.239563,-6.034538,2.297184,73.103495,-0.044266,-0.102325,0.994553,-0.112551,0.002336,-0.029556,88.824661,41.786865,-147.598938,,,
729705433.242818,-6.069641,2.298048,73.09682,-0.044724,-0.105408,0.998215,-0.122604,0.0144,-0.02825,88.824661,41.786865,-147.598938,,,
729705433.246196,-6.069641,2.298048,73.09682,-0.044724,-0.105408,0.998215,-0.122604,0.0144,-0.02825,88.824661,41.786865,-147.598938,,,
729705433.249537,-6.103218,2.299623,73.090137,-0.044724,-0.105408,0.998215,-0.122604,0.0144,-0.02825,88.824661,41.786865,-147.598938,,,
729705433.252823,-6.139708,2.304593,73.08405,-0.04187,-0.108902,1.003387,-0.127352,0.025593,-0.025681,88.824661,41.786865,-147.598938,,,
729705433.256164,-6.139708,2.304593,73.08405,-0.04187,-0.108902,1.003387,-0.127352,0.025593,-0.025681,88.824661,41.786865,-147.598938,,,
729705433.259508,-6.174343,2.309606,73.078553,-0.04187,-0.108902,1.003387,-0.127352,0.025593,-0.025681,88.824661,41.786865,-147.598938,,,
729705433.262822,-6.210007,2.316234,73.073743,-0.043091,-0.115738,1.003952,-0.119347,0.029544,-0.017821,88.824661,41.786865,-147.598938,,,
729705433.266156,-6.210007,2.316234,73.073743,-0.043091,-0.115738,1.003952,-0.119347,0.029544,-0.017821,88.824661,41.786865,-147.598938,,,
729705433.269506,-6.24186,2.322077,73.070361,-0.043091,-0.115738,1.003952,-0.119347,0.029544,-0.017821,88.824661,41.786865,-147.598938,,,
729705433.272823,-6.271691,2.331029,73.06866,-0.042801,-0.120712,1.009644,-0.09243,0.037782,-0.008622,88.824661,41.786865,-147.598938,,,
729705433.276154,-6.271691,2.331029,73.06866,-0.042801,-0.120712,1.009644,-0.09243,0.037782,-0.008622,88.730728,41.956955,-147.613495,,,
729705433.279542,-6.296008,2.339871,73.067332,-0.042801,-0.120712,1.009644,-0.09243,0.037782,-0.008622,88.730728,41.956955,-147.613495,,,
729705433.282861,-6.318454,2.349288,73.066671,-0.040756,-0.119232,1.012115,-0.070732,0.032832,-0.005012,88.730728,41.956955,-147.613495,,,
729705433.286215,-6.318454,2.349288,73.066671,-0.040756,-0.119232,1.012115,-0.070732,0.032832,-0.005012,88.730728,41.956955,-147.613495,,,
729705433.289582,-6.336803,2.357393,73.066454,-0.040756,-0.119232,1.012115,-0.070732,0.032832,-0.005012,88.730728,41.956955,-147.613495,,,
729705433.292825,-6.354059,2.365541,73.066744,-0.043442,-0.117004,1.004562,-0.052594,0.031177,-0.000985,88.730728,41.956955,-147.613495,,,
729705433.296162,-6.354059,2.365541,73.066744,-0.043442,-0.117004,1.004562,-0.052594,0.031177,-0.000985,88.730728,41.956955,-147.613495,,,
729705433.29952,-6.367595,2.374035,73.067324,-0.043442,-0.117004,1.004562,-0.052594,0.031177,-0.000985,88.730728,41.956955,-147.613495,,,
729705433.30283,-6.380545,2.379925,73.067642,-0.042343,-0.117249,1.008133,-0.045154,0.014177,-0.005678,88.730728,41.956955,-147.613495,,,
729705433.306164,-6.380545,2.379925,73.067642,-0.042343,-0.117249,1.008133,-0.045154,0.014177,-0.005678,88.730728,41.956955,-147.613495,,,
729705433.309516,-6.391684,2.382351,73.067144,-0.042343,-0.117249,1.008133,-0.045154,0.014177,-0.005678,88.730728,41.956955,-147.613495,,,
729705433.312855,-6.405477,2.379086,73.065184,-0.036819,-0.114624,0.992264,-0.050288,-0.019364,-0.012407,88.730728,41.956955,-147.613495,,,
729705433.316207,-6.405477,2.379086,73.065184,-0.036819,-0.114624,0.992264,-0.050288,-0.019364,-0.012407,89.154114,42.096558,-147.192215,,,
729705433.319526,-6.418972,2.372604,73.061938,-0.036819,-0.114624,0.992264,-0.050288,-0.019364,-0.012407,89.154114,42.096558,-147.192215,,,
729705433.322829,-6.437159,2.363706,73.057044,-0.032394,-0.111603,0.989792,-0.073939,-0.026642,-0.028525,89.154114,42.096558,-147.192215,,,
729705433.326244,-6.437159,2.363706,73.057044,-0.032394,-0.111603,0.989792,-0.073939,-0.026642,-0.028525,89.154114,42.096558,-147.192215,,,
729705433.329487,-6.458209,2.354723,73.05028,-0.032394,-0.111603,0.989792,-0.073939,-0.026642,-0.028525,89.154114,42.096558,-147.192215,,,
729705433.332835,-6.484074,2.345467,73.041158,-0.028046,-0.106537,0.992264,-0.093619,-0.024079,-0.04137,89.154114,42.096558,-147.192215,,,
729705433.336172,-6.484074,2.345467,73.041158,-0.028046,-0.106537,0.992264,-0.093619,-0.024079,-0.04137,89.154114,42.096558,-147.192215,,,
729705433.339561,-6.512076,2.336875,73.030431,-0.028046,-0.106537,0.992264,-0.093619,-0.024079,-0.04137,89.154114,42.096558,-147.192215,,,
729705433.34282,-6.541423,2.328873,73.018383,-0.019669,-0.106216,0.997849,-0.098503,-0.017487,-0.049897,89.154114,42.096558,-147.192215,,,
729705433.346203,-6.541423,2.328873,73.018383,-0.019669,-0.106216,0.997849,-0.098503,-0.017487,-0.049897,89.154114,42.096558,-147.192215,,,
729705433.349583,-6.570792,2.322597,73.005833,-0.019669,-0.106216,0.997849,-0.098503,-0.017487,-0.049897,89.154114,42.096558,-147.192215,,,
729705433.352822,-6.598532,2.318298,72.993758,-0.02301,-0.115555,1.006195,-0.091853,-0.000594,-0.043492,89.154114,42.096558,-147.192215,,,
729705433.356196,-6.598532,2.318298,72.993758,-0.02301,-0.115555,1.006195,-0.091853,-0.000594,-0.043492,89.154114,42.096558,-147.192215,,,
729705433.359501,-6.625684,2.316484,72.983061,-0.02301,-0.115555,1.006195,-0.091853,-0.000594,-0.043492,89.052307,42.301819,-147.302582,,,
729705433.362824,-6.650495,2.314865,72.974119,-0.028641,-0.122269,1.007141,-0.080264,0.000815,-0.032682,89.052307,42.301819,-147.302582,,,
729705433.366197,-6.650495,2.314865,72.974119,-0.028641,-0.122269,1.007141,-0.080264,0.000815,-0.032682,89.052307,42.301819,-147.302582,,,
729705433.369619,-6.673227,2.313424,72.966504,-0.028641,-0.122269,1.007141,-0.080264,0.000815,-0.032682,89.052307,42.301819,-147.302582,,,
729705433.372819,-6.693627,2.311669,72.959666,-0.032181,-0.125595,1.000381,-0.065744,-0.002319,-0.022591,89.052307,42.301819,-147.302582,,,
729705433.376253,-6.693627,2.311669,72.959666,-0.032181,-0.125595,1.000381,-0.065744,-0.002319,-0.022591,89.052307,42.301819,-147.302582,,,
729705433.379507,-6.713496,2.309502,72.953316,-0.032181,-0.125595,1.000381,-0.065744,-0.002319,-0.022591,89.052307,42.301819,-147.302582,,,
729705433.382897,-6.734934,2.30473,72.946932,-0.035065,-0.119095,0.994232,-0.07607,-0.019769,-0.028909,89.052307,42.301819,-147.302582,,,
729705433.386197,-6.734934,2.30473,72.946932,-0.035065,-0.119095,0.994232,-0.07607,-0.019769,-0.028909,89.052307,42.301819,-147.302582,,,
729705433.389579,-6.757833,2.297103,72.939283,-0.035065,-0.119095,0.994232,-0.07607,-0.019769,-0.028909,89.052307,42.301819,-147.302582,,,
729705433.392817,-6.784185,2.287,72.929271,-0.038696,-0.112961,0.982376,-0.099916,-0.030726,-0.051152,89.052307,42.301819,-147.302582,,,
729705433.396159,-6.784185,2.287,72.929271,-0.038696,-0.112961,0.982376,-0.099916,-0.030726,-0.051152,89.052307,42.301819,-147.302582,,,
729705433.399514,-6.813711,2.273812,72.915652,-0.038696,-0.112961,0.982376,-0.099916,-0.030726,-0.051152,88.987717,42.649994,-147.144836,,,
729705433.402823,-6.848114,2.259921,72.8984,-0.0383,-0.109436,0.980804,-0.129112,-0.044224,-0.0728,88.987717,42.649994,-147.144836,,,
729705433.406159,-6.848114,2.259921,72.8984,-0.0383,-0.109436,0.980804,-0.129112,-0.044224,-0.0728,88.987717,42.649994,-147.144836,,,
729705433.409514,-6.885116,2.243063,72.877833,-0.0383,-0.109436,0.980804,-0.129112,-0.044224,-0.0728,88.987717,42.649994,-147.144836,,,
729705433.412842,-6.928777,2.226369,72.854405,-0.034088,-0.111877,0.9758,-0.160722,-0.044817,-0.095483,88.987717,42.649994,-147.144836,,,
729705433.416184,-6.928777,2.226369,72.854405,-0.034088,-0.111877,0.9758,-0.160722,-0.044817,-0.095483,88.987717,42.649994,-147.144836,,,
729705433.419511,-6.974467,2.207184,72.82783,-0.034088,-0.111877,0.9758,-0.160722,-0.044817,-0.095483,88.987717,42.649994,-147.144836,,,
729705433.42282,-7.027766,2.193773,72.79892,-0.030167,-0.114548,0.981094,-0.191789,-0.01845,-0.116013,88.987717,42.649994,-147.144836,,,
729705433.426229,-7.027766,2.193773,72.79892,-0.030167,-0.114548,0.981094,-0.191789,-0.01845,-0.116013,88.987717,42.649994,-147.144836,,,
729705433.42948,-7.08304,2.181418,72.767162,-0.030167,-0.114548,0.981094,-0.191789,-0.01845,-0.116013,88.987717,42.649994,-147.144836,,,
729705433.432825,-7.144296,2.177225,72.733705,-0.023346,-0.118225,0.985626,-0.212905,0.018667,-0.129341,88.987717,42.649994,-147.144836,,,
729705433.436169,-7.144296,2.177225,72.733705,-0.023346,-0.118225,0.985626,-0.212905,0.018667,-0.129341,88.987717,42.649994,-147.144836,,,
729705433.439488,-7.205607,2.176545,72.69949,-0.023346,-0.118225,0.985626,-0.212905,0.018667,-0.129341,89.000687,42.922012,-146.98848,,,
729705433.442818,-7.265957,2.18402,72.667328,-0.028366,-0.128006,0.993546,-0.199056,0.060676,-0.112655,89.000687,42.922012,-146.98848,,,
729705433.446178,-7.265957,2.18402,72.667328,-0.028366,-0.128006,0.993546,-0.199056,0.060676,-0.112655,89.000687,42.922012,-146.98848,,,
729705433.449524,-7.322823,2.195752,72.638237,-0.028366,-0.128006,0.993546,-0.199056,0.060676,-0.112655,89.000687,42.922012,-146.98848,,,
729705433.452824,-7.376806,2.211634,72.614421,-0.036301,-0.138855,0.997345,-0.172594,0.068675,-0.074298,89.000687,42.922012,-146.98848,,,
729705433.456154,-7.376806,2.211634,72.614421,-0.036301,-0.138855,0.997345,-0.172594,0.068675,-0.074298,89.000687,42.922012,-146.98848,,,
729705433.45949,-7.424659,2.227055,72.596663,-0.036301,-0.138855,0.997345,-0.172594,0.068675,-0.074298,89.000687,42.922012,-146.98848,,,
729705433.462829,-7.468528,2.242498,72.584964,-0.043304,-0.15062,0.992798,-0.137952,0.055196,-0.032417,89.000687,42.922012,-146.98848,,,
729705433.466195,-7.468528,2.242498,72.584964,-0.043304,-0.15062,0.992798,-0.137952,0.055196,-0.032417,89.000687,42.922012,-146.98848,,,
729705433.46952,-7.505276,2.256078,72.578979,-0.043304,-0.15062,0.992798,-0.137952,0.055196,-0.032417,89.000687,42.922012,-146.98848,,,
729705433.472827,-7.539959,2.267711,72.577216,-0.044998,-0.150803,0.992447,-0.112645,0.03738,-0.003282,89.000687,42.922012,-146.98848,,,
729705433.476254,-7.539959,2.267711,72.577216,-0.044998,-0.150803,0.992447,-0.112645,0.03738,-0.003282,89.000687,42.922012,-146.98848,,,
729705433.4795,-7.567994,2.276264,72.578042,-0.044998,-0.150803,0.992447,-0.112645,0.03738,-0.003282,88.830978,43.229187,-146.753983,,,
729705433.48285,-7.597741,2.280694,72.580285,-0.046188,-0.143417,0.989426,-0.097138,0.004197,0.003361,88.830978,43.229187,-146.753983,,,
729705433.486185,-7.597741,2.280694,72.580285,-0.046188,-0.143417,0.989426,-0.097138,0.004197,0.003361,88.830978,43.229187,-146.753983,,,
729705433.489597,-7.622228,2.27891,72.582386,-0.046188,-0.143417,0.989426,-0.097138,0.004197,0.003361,88.830978,43.229187,-146.753983,,,
729705433.492821,-7.649455,2.271369,72.583229,-0.048782,-0.136292,0.98558,-0.094232,-0.036098,-0.009622,88.830978,43.229187,-146.753983,,,
729705433.49616,-7.649455,2.271369,72.583229,-0.048782,-0.136292,0.98558,-0.094232,-0.036098,-0.009622,88.830978,43.229187,-146.753983,,,
729705433.499504,-7.673292,2.260124,72.581098,-0.048782,-0.136292,0.98558,-0.094232,-0.036098,-0.009622,88.830978,43.229187,-146.753983,,,
729705433.50283,-7.700902,2.25196,72.57544,-0.045273,-0.128906,0.993744,-0.097596,-0.015337,-0.03517,88.830978,43.229187,-146.753983,,,
729705433.506174,-7.700902,2.25196,72.57544,-0.045273,-0.128906,0.993744,-0.097596,-0.015337,-0.03517,88.830978,43.229187,-146.753983,,,
729705433.5095,-7.727452,2.242412,72.565645,-0.045273,-0.128906,0.993744,-0.097596,-0.015337,-0.03517,88.830978,43.229187,-146.753983,,,
729705433.512849,-7.759307,2.23333,72.552908,-0.04184,-0.125381,0.993378,-0.112308,-0.02839,-0.055783,88.830978,43.229187,-146.753983,,,
