Time (sec),Pitch (deg),Roll (deg),Yaw(deg),X-Acceleration (g),Y-Acceleration (g),Z-Acceleration (g),Pitch Rate (deg/sec),Roll Rate (deg/sec),Yaw Rate (deg/sec),Magnetic Field in X direction (uT),Magnetic Field in Y direction (uT),Magnetic Field in Z Direction (uT),Latitude (deg),Longitude (deg),Altitude (m)
729707063.012132,-35.264459,1.040499,117.170209,-0.00882,-0.57016,0.805145,-0.369718,0.005119,-0.066535,59.266174,55.55217,-133.199173,,,
729707063.012852,-35.264472,1.040457,-26.740004,-0.00882,-0.57016,0.805145,-0.369718,0.005119,-0.066535,59.266174,55.55217,-133.199173,,,
729707063.015385,-35.381894,1.034328,117.148631,-0.00882,-0.57016,0.805145,-0.417986,0.031377,-0.072658,59.266174,55.55217,-133.199173,,,
729707063.017543,-35.381906,1.034286,-26.761563,-0.00882,-0.57016,0.805145,-0.417986,0.031377,-0.072658,59.266174,55.55217,-133.199173,,,
729707063.018734,-35.505509,1.030673,117.125974,-0.005646,-0.569229,0.807129,-0.417986,0.031377,-0.072658,59.266174,55.55217,-133.199173,,,
729707063.020135,-35.505521,1.030631,-26.784217,-0.005646,-0.569229,0.807129,-0.417986,0.031377,-0.072658,59.266174,55.55217,-133.199173,,,
729707063.022068,-35.505509,1.030673,117.125974,-0.005646,-0.569229,0.807129,-0.417986,0.031377,-0.072658,59.266174,55.55217,-133.199173,,,
729707063.022894,-35.505521,1.030631,-26.784217,-0.005646,-0.569229,0.807129,-0.417986,0.031377,-0.072658,59.266174,55.55217,-133.199173,,,
729707063.025379,-35.634548,1.028458,117.101922,-0.005646,-0.569229,0.807129,-0.455338,0.047208,-0.081252,59.266174,55.55217,-133.199173,,,
729707063.02745,-35.63456,1.028416,-26.808293,-0.005646,-0.569229,0.807129,-0.455338,0.047208,-0.081252,59.266174,55.55217,-133.199173,,,
729707063.028715,-35.767184,1.026782,117.076242,-0.004578,-0.573486,0.809723,-0.455338,0.047208,-0.081252,59.127792,56.196106,-132.468002,,,
729707063.03086,-35.767197,1.02674,-26.833965,-0.004578,-0.573486,0.809723,-0.455338,0.047208,-0.081252,59.127792,56.196106,-132.468002,,,
729707063.031989,-35.767184,1.026782,117.076242,-0.004578,-0.573486,0.809723,-0.455338,0.047208,-0.081252,59.127792,56.196106,-132.468002,,,
729707063.032883,-35.767197,1.02674,-26.833965,-0.004578,-0.573486,0.809723,-0.455338,0.047208,-0.081252,59.127792,56.196106,-132.468002,,,
729707063.035461,-35.901603,1.025681,117.050028,-0.004578,-0.573486,0.809723,-0.467582,0.05356,-0.084462,59.127792,56.196106,-132.468002,,,
729707063.036945,-35.901615,1.025639,-26.860185,-0.004578,-0.573486,0.809723,-0.467582,0.05356,-0.084462,59.127792,56.196106,-132.468002,,,
729707063.038795,-36.036319,1.023686,117.022855,-0.008423,-0.582199,0.811401,-0.467582,0.05356,-0.084462,59.127792,56.196106,-132.468002,,,
729707063.040886,-36.036332,1.023644,-26.887357,-0.008423,-0.582199,0.811401,-0.467582,0.05356,-0.084462,59.127792,56.196106,-132.468002,,,
729707063.042082,-36.036319,1.023686,117.022855,-0.008423,-0.582199,0.811401,-0.467582,0.05356,-0.084462,59.127792,56.196106,-132.468002,,,
729707063.042862,-36.036332,1.023644,-26.887357,-0.008423,-0.582199,0.811401,-0.467582,0.05356,-0.084462,59.127792,56.196106,-132.468002,,,
729707063.045386,-36.16958,1.018954,116.994844,-0.008423,-0.582199,0.811401,-0.45716,0.038039,-0.088807,59.127792,56.196106,-132.468002,,,
729707063.047341,-36.169593,1.018912,-26.915362,-0.008423,-0.582199,0.811401,-0.45716,0.038039,-0.088807,59.127792,56.196106,-132.468002,,,
729707063.04872,-36.300214,1.010296,116.966275,-0.008682,-0.588196,0.812225,-0.45716,0.038039,-0.088807,59.127792,56.196106,-132.468002,,,
729707063.050548,-36.300226,1.010254,-26.943935,-0.008682,-0.588196,0.812225,-0.45716,0.038039,-0.088807,59.127792,56.196106,-132.468002,,,
729707063.052069,-36.300214,1.010296,116.966275,-0.008682,-0.588196,0.812225,-0.45716,0.038039,-0.088807,59.127792,56.196106,-132.468002,,,
729707063.052859,-36.300226,1.010254,-26.943935,-0.008682,-0.588196,0.812225,-0.45716,0.038039,-0.088807,59.127792,56.196106,-132.468002,,,
729707063.055386,-36.427672,0.997562,116.937365,-0.008682,-0.588196,0.812225,-0.435009,0.011192,-0.090044,59.127792,56.196106,-132.468002,,,
729707063.057442,-36.427684,0.99752,-26.972843,-0.008682,-0.588196,0.812225,-0.435009,0.011192,-0.090044,59.127792,56.196106,-132.468002,,,
729707063.058723,-36.550377,0.980848,116.908447,-0.008377,-0.59169,0.809784,-0.435009,0.011192,-0.090044,59.127792,56.196106,-132.468002,,,
729707063.060403,-36.55039,0.980805,-27.001759,-0.008377,-0.59169,0.809784,-0.435009,0.011192,-0.090044,59.127792,56.196106,-132.468002,,,
729707063.062066,-36.550377,0.980848,116.908447,-0.008377,-0.59169,0.809784,-0.435009,0.011192,-0.090044,59.127792,56.196106,-132.468002,,,
729707063.062856,-36.55039,0.980805,-27.001759,-0.008377,-0.59169,0.809784,-0.435009,0.011192,-0.090044,59.127792,56.196106,-132.468002,,,
729707063.065383,-36.667766,0.961304,116.878866,-0.008377,-0.59169,0.809784,-0.39773,-0.005562,-0.092801,59.127792,56.196106,-132.468002,,,
729707063.069212,-36.667779,0.961262,-27.031346,-0.008377,-0.59169,0.809784,-0.39773,-0.005562,-0.092801,59.060013,56.615662,-131.950989,,,
729707063.069508,-36.779874,0.940127,116.848041,-0.009674,-0.595413,0.817581,-0.39773,-0.005562,-0.092801,59.060013,56.615662,-131.950989,,,
729707063.072031,-36.779874,0.940127,116.848041,-0.009674,-0.595413,0.817581,-0.39773,-0.005562,-0.092801,59.060013,56.615662,-131.950989,,,
729707063.0746,-36.779886,0.940084,-27.062173,-0.009674,-0.595413,0.817581,-0.359379,-0.009861,-0.101253,59.060013,56.615662,-131.950989,,,
729707063.075397,-36.886489,0.9173,116.815519,-0.009674,-0.595413,0.817581,-0.359379,-0.009861,-0.101253,59.060013,56.615662,-131.950989,,,
729707063.077072,-36.886501,0.917258,-27.094685,-0.009674,-0.595413,0.817581,-0.359379,-0.009861,-0.101253,59.060013,56.615662,-131.950989,,,
729707063.078736,-36.986909,0.892993,116.78184,-0.003571,-0.598083,0.820282,-0.359379,-0.009861,-0.101253,59.060013,56.615662,-131.950989,,,
729707063.080691,-36.986922,0.89295,-27.128371,-0.003571,-0.598083,0.820282,-0.359379,-0.009861,-0.101253,59.060013,56.615662,-131.950989,,,
729707063.081899,-36.986909,0.892993,116.78184,-0.003571,-0.598083,0.820282,-0.359379,-0.009861,-0.101253,59.060013,56.615662,-131.950989,,,
729707063.082889,-36.986922,0.89295,-27.128371,-0.003571,-0.598083,0.820282,-0.359379,-0.009861,-0.101253,59.060013,56.615662,-131.950989,,,
729707063.085464,-37.081399,0.8685,116.7473,-0.003571,-0.598083,0.820282,-0.31788,-0.007426,-0.105003,59.060013,56.615662,-131.950989,,,
729707063.08743,-37.081412,0.868457,-27.162915,-0.003571,-0.598083,0.820282,-0.31788,-0.007426,-0.105003,59.060013,56.615662,-131.950989,,,
729707063.088796,-37.17044,0.845027,116.711626,-0.004471,-0.600266,0.818832,-0.31788,-0.007426,-0.105003,59.060013,56.615662,-131.950989,,,
729707063.090375,-37.170453,0.844984,-27.198581,-0.004471,-0.600266,0.818832,-0.31788,-0.007426,-0.105003,59.060013,56.615662,-131.950989,,,
729707063.092074,-37.17044,0.845027,116.711626,-0.004471,-0.600266,0.818832,-0.31788,-0.007426,-0.105003,59.060013,56.615662,-131.950989,,,
729707063.092859,-37.170453,0.844984,-27.198581,-0.004471,-0.600266,0.818832,-0.31788,-0.007426,-0.105003,59.060013,56.615662,-131.950989,,,
729707063.095406,-37.25326,0.823116,116.676234,-0.004471,-0.600266,0.818832,-0.274695,0.002376,-0.102586,59.060013,56.615662,-131.950989,,,
729707063.098634,-37.253272,0.823073,-27.233979,-0.004471,-0.600266,0.818832,-0.274695,0.002376,-0.102586,59.060013,56.615662,-131.950989,,,
729707063.098898,-37.328799,0.803066,116.64206,-0.006973,-0.608292,0.822083,-0.274695,0.002376,-0.102586,59.060013,56.615662,-131.950989,,,
729707063.10079,-37.328811,0.803023,-27.268154,-0.006973,-0.608292,0.822083,-0.274695,0.002376,-0.102586,59.060013,56.615662,-131.950989,,,
729707063.102079,-37.328799,0.803066,116.64206,-0.006973,-0.608292,0.822083,-0.274695,0.002376,-0.102586,59.060013,56.615662,-131.950989,,,
729707063.102863,-37.328811,0.803023,-27.268154,-0.006973,-0.608292,0.822083,-0.274695,0.002376,-0.102586,59.060013,56.615662,-131.950989,,,
729707063.105405,-37.397014,0.786166,116.610452,-0.006973,-0.608292,0.822083,-0.223884,0.01352,-0.087546,59.060013,56.615662,-131.950989,,,
729707063.107621,-37.397027,0.786123,-27.299768,-0.006973,-0.608292,0.822083,-0.223884,0.01352,-0.087546,59.060013,56.615662,-131.950989,,,
729707063.108723,-37.457973,0.772774,116.58287,-0.013641,-0.614319,0.824265,-0.223884,0.01352,-0.087546,59.060013,56.615662,-131.950989,,,
729707063.110949,-37.457985,0.772731,-27.327348,-0.013641,-0.614319,0.824265,-0.223884,0.01352,-0.087546,58.667496,57.127228,-131.59581,,,
729707063.112129,-37.457973,0.772774,116.58287,-0.013641,-0.614319,0.824265,-0.223884,0.01352,-0.087546,58.667496,57.127228,-131.59581,,,
729707063.112857,-37.457985,0.772731,-27.327348,-0.013641,-0.614319,0.824265,-0.223884,0.01352,-0.087546,58.667496,57.127228,-131.59581,,,
729707063.115388,-37.511573,0.763749,116.560297,-0.013641,-0.614319,0.824265,-0.173103,0.022583,-0.059097,58.667496,57.127228,-131.59581,,,
729707063.117618,-37.511586,0.763705,-27.349901,-0.013641,-0.614319,0.824265,-0.173103,0.022583,-0.059097,58.667496,57.127228,-131.59581,,,
729707063.118723,-37.558815,0.75974,116.543709,-0.019424,-0.621277,0.82811,-0.173103,0.022583,-0.059097,58.667496,57.127228,-131.59581,,,
729707063.120637,-37.558828,0.759697,-27.366486,-0.019424,-0.621277,0.82811,-0.173103,0.022583,-0.059097,58.667496,57.127228,-131.59581,,,
729707063.122153,-37.558815,0.75974,116.543709,-0.019424,-0.621277,0.82811,-0.173103,0.022583,-0.059097,58.667496,57.127228,-131.59581,,,
729707063.122873,-37.558828,0.759697,-27.366486,-0.019424,-0.621277,0.82811,-0.173103,0.022583,-0.059097,58.667496,57.127228,-131.59581,,,
729707063.125412,-37.600074,0.762663,116.53485,-0.019424,-0.621277,0.82811,-0.131923,0.037926,-0.016029,58.667496,57.127228,-131.59581,,,
729707063.127535,-37.600087,0.76262,-27.375354,-0.019424,-0.621277,0.82811,-0.131923,0.037926,-0.016029,58.667496,57.127228,-131.59581,,,
729707063.128744,-37.634633,0.773549,116.53453,-0.023376,-0.628235,0.829895,-0.131923,0.037926,-0.016029,58.667496,57.127228,-131.59581,,,
729707063.130392,-37.634646,0.773506,-27.375675,-0.023376,-0.628235,0.829895,-0.131923,0.037926,-0.016029,58.667496,57.127228,-131.59581,,,
729707063.132059,-37.634633,0.773549,116.53453,-0.023376,-0.628235,0.829895,-0.131923,0.037926,-0.016029,58.667496,57.127228,-131.59581,,,
729707063.132864,-37.634646,0.773506,-27.375675,-0.023376,-0.628235,0.829895,-0.131923,0.037926,-0.016029,58.667496,57.127228,-131.59581,,,
729707063.13549,-37.66283,0.792303,116.542345,-0.023376,-0.628235,0.829895,-0.088176,0.057929,0.029202,58.667496,57.127228,-131.59581,,,
729707063.138861,-37.662843,0.79226,-27.367866,-0.023376,-0.628235,0.829895,-0.088176,0.057929,0.029202,58.667496,57.127228,-131.59581,,,
729707063.139359,-37.68513,0.818683,116.557236,-0.022324,-0.63472,0.830795,-0.088176,0.057929,0.029202,58.667496,57.127228,-131.59581,,,
729707063.140498,-37.685142,0.81864,-27.352964,-0.022324,-0.63472,0.830795,-0.088176,0.057929,0.029202,58.667496,57.127228,-131.59581,,,
729707063.142069,-37.68513,0.818683,116.557236,-0.022324,-0.63472,0.830795,-0.088176,0.057929,0.029202,58.667496,57.127228,-131.59581,,,
729707063.142871,-37.685142,0.81864,-27.352964,-0.022324,-0.63472,0.830795,-0.088176,0.057929,0.029202,58.667496,57.127228,-131.59581,,,
729707063.145413,-37.700457,0.851281,116.577845,-0.022324,-0.63472,0.830795,-0.040039,0.076661,0.061088,58.667496,57.127228,-131.59581,,,
729707063.147613,-37.70047,0.851238,-27.332349,-0.022324,-0.63472,0.830795,-0.040039,0.076661,0.061088,58.667496,57.127228,-131.59581,,,
729707063.148725,-37.708139,0.88966,116.60266,-0.018692,-0.63205,0.829758,-0.040039,0.076661,0.061088,58.667496,57.127228,-131.59581,,,
729707063.151025,-37.708151,0.889617,-27.307532,-0.018692,-0.63205,0.829758,-0.040039,0.076661,0.061088,58.897766,57.121765,-131.591125,,,
729707063.152054,-37.708139,0.88966,116.60266,-0.018692,-0.63205,0.829758,-0.040039,0.076661,0.061088,58.897766,57.121765,-131.591125,,,
729707063.152866,-37.708151,0.889617,-27.307532,-0.018692,-0.63205,0.829758,-0.040039,0.076661,0.061088,58.897766,57.121765,-131.591125,,,
729707063.15548,-37.708288,0.934037,116.630713,-0.018692,-0.63205,0.829758,0.012171,0.104501,0.079468,58.897766,57.121765,-131.591125,,,
729707063.158533,-37.7083,0.933994,-27.279505,-0.018692,-0.63205,0.829758,0.012171,0.104501,0.079468,58.897766,57.121765,-131.591125,,,
729707063.158847,-37.70134,0.983034,116.66078,-0.022476,-0.622986,0.828384,0.012171,0.104501,0.079468,58.897766,57.121765,-131.591125,,,
729707063.160763,-37.701353,0.982991,-27.249437,-0.022476,-0.622986,0.828384,0.012171,0.104501,0.079468,58.897766,57.121765,-131.591125,,,
729707063.162101,-37.70134,0.983034,116.66078,-0.022476,-0.622986,0.828384,0.012171,0.104501,0.079468,58.897766,57.121765,-131.591125,,,
729707063.162893,-37.701353,0.982991,-27.249437,-0.022476,-0.622986,0.828384,0.012171,0.104501,0.079468,58.897766,57.121765,-131.591125,,,
729707063.165389,-37.688427,1.035788,116.692086,-0.022476,-0.622986,0.828384,0.053485,0.125173,0.086899,58.897766,57.121765,-131.591125,,,
729707063.167343,-37.688439,1.035745,-27.218135,-0.022476,-0.622986,0.828384,0.053485,0.125173,0.086899,58.897766,57.121765,-131.591125,,,
729707063.168742,-37.669549,1.092517,116.724685,-0.027725,-0.615005,0.824829,0.053485,0.125173,0.086899,58.897766,57.121765,-131.591125,,,
729707063.170901,-37.669562,1.092474,-27.185533,-0.027725,-0.615005,0.824829,0.053485,0.125173,0.086899,58.897766,57.121765,-131.591125,,,
729707063.17207,-37.669549,1.092517,116.724685,-0.027725,-0.615005,0.824829,0.053485,0.125173,0.086899,58.897766,57.121765,-131.591125,,,
729707063.172868,-37.669562,1.092474,-27.185533,-0.027725,-0.615005,0.824829,0.053485,0.125173,0.086899,58.897766,57.121765,-131.591125,,,
729707063.175395,-37.645449,1.152488,116.759022,-0.027725,-0.615005,0.824829,0.089525,0.140204,0.09719,58.897766,57.121765,-131.591125,,,
729707063.17783,-37.645462,1.152445,-27.151192,-0.027725,-0.615005,0.824829,0.089525,0.140204,0.09719,58.897766,57.121765,-131.591125,,,
729707063.178737,-37.618005,1.21341,116.795099,-0.032227,-0.615051,0.816269,0.089525,0.140204,0.09719,58.897766,57.121765,-131.591125,,,
729707063.180382,-37.618018,1.213367,-27.115109,-0.032227,-0.615051,0.816269,0.089525,0.140204,0.09719,58.897766,57.121765,-131.591125,,,
729707063.181857,-37.618005,1.21341,116.795099,-0.032227,-0.615051,0.816269,0.089525,0.140204,0.09719,58.897766,57.121765,-131.591125,,,
729707063.182893,-37.618018,1.213367,-27.115109,-0.032227,-0.615051,0.816269,0.089525,0.140204,0.09719,58.897766,57.121765,-131.591125,,,
729707063.185385,-37.588534,1.273181,116.833197,-0.032227,-0.615051,0.816269,0.103202,0.123408,0.108731,58.897766,57.121765,-131.591125,,,
729707063.187681,-37.588547,1.273138,-27.077007,-0.032227,-0.615051,0.816269,0.103202,0.123408,0.108731,58.897766,57.121765,-131.591125,,,
729707063.188889,-37.558259,1.331332,116.873219,-0.035126,-0.616409,0.799103,0.103202,0.123408,0.108731,58.897766,57.121765,-131.591125,,,
729707063.19082,-37.558272,1.331289,-27.036988,-0.035126,-0.616409,0.799103,0.103202,0.123408,0.108731,58.897766,57.121765,-131.591125,,,
729707063.192069,-37.558259,1.331332,116.873219,-0.035126,-0.616409,0.799103,0.103202,0.123408,0.108731,59.478989,57.041565,-131.637115,,,
729707063.193548,-37.558272,1.331289,-27.036988,-0.035126,-0.616409,0.799103,0.103202,0.123408,0.108731,59.478989,57.041565,-131.637115,,,
729707063.195393,-37.527025,1.388834,116.914697,-0.035126,-0.616409,0.799103,0.100851,0.114365,0.118208,59.478989,57.041565,-131.637115,,,
729707063.197444,-37.527037,1.388792,-26.995515,-0.035126,-0.616409,0.799103,0.100851,0.114365,0.118208,59.478989,57.041565,-131.637115,,,
729707063.198582,-37.498157,1.447683,116.957775,-0.0392,-0.614914,0.79689,0.100851,0.114365,0.118208,59.478989,57.041565,-131.637115,,,
729707063.200597,-37.49817,1.44764,-26.952435,-0.0392,-0.614914,0.79689,0.100851,0.114365,0.118208,59.478989,57.041565,-131.637115,,,
729707063.20207,-37.498157,1.447683,116.957775,-0.0392,-0.614914,0.79689,0.100851,0.114365,0.118208,59.478989,57.041565,-131.637115,,,
729707063.20287,-37.49817,1.44764,-26.952435,-0.0392,-0.614914,0.79689,0.100851,0.114365,0.118208,59.478989,57.041565,-131.637115,,,
729707063.205405,-37.470321,1.506561,117.002391,-0.0392,-0.614914,0.79689,0.087776,0.108013,0.126527,59.478989,57.041565,-131.637115,,,
729707063.207407,-37.470334,1.506518,-26.907824,-0.0392,-0.614914,0.79689,0.087776,0.108013,0.126527,59.478989,57.041565,-131.637115,,,
729707063.208722,-37.446081,1.562218,117.047874,-0.031143,-0.607101,0.789932,0.087776,0.108013,0.126527,59.478989,57.041565,-131.637115,,,
729707063.210735,-37.446094,1.562175,-26.862334,-0.031143,-0.607101,0.789932,0.087776,0.108013,0.126527,59.478989,57.041565,-131.637115,,,
729707063.212133,-37.446081,1.562218,117.047874,-0.031143,-0.607101,0.789932,0.087776,0.108013,0.126527,59.478989,57.041565,-131.637115,,,
729707063.212856,-37.446094,1.562175,-26.862334,-0.031143,-0.607101,0.789932,0.087776,0.108013,0.126527,59.478989,57.041565,-131.637115,,,
729707063.215383,-37.424176,1.613816,117.093499,-0.031143,-0.607101,0.789932,0.069096,0.078698,0.126593,59.478989,57.041565,-131.637115,,,
729707063.217401,-37.424189,1.613773,-26.816713,-0.031143,-0.607101,0.789932,0.069096,0.078698,0.126593,59.478989,57.041565,-131.637115,,,
729707063.218723,-37.404756,1.662225,117.138808,-0.029968,-0.59903,0.780029,0.069096,0.078698,0.126593,59.478989,57.041565,-131.637115,,,
729707063.220723,-37.404769,1.662183,-26.771405,-0.029968,-0.59903,0.780029,0.069096,0.078698,0.126593,59.478989,57.041565,-131.637115,,,
729707063.222056,-37.404756,1.662225,117.138808,-0.029968,-0.59903,0.780029,0.069096,0.078698,0.126593,59.478989,57.041565,-131.637115,,,
729707063.222857,-37.404769,1.662183,-26.771405,-0.029968,-0.59903,0.780029,0.069096,0.078698,0.126593,59.478989,57.041565,-131.637115,,,
729707063.225378,-37.38808,1.710287,117.182836,-0.029968,-0.59903,0.780029,0.050058,0.084305,0.120983,59.478989,57.041565,-131.637115,,,
729707063.227423,-37.388093,1.710244,-26.727384,-0.029968,-0.59903,0.780029,0.050058,0.084305,0.120983,59.478989,57.041565,-131.637115,,,
729707063.228727,-37.375445,1.760982,117.225735,-0.028717,-0.586212,0.786835,0.050058,0.084305,0.120983,59.478989,57.041565,-131.637115,,,
729707063.230737,-37.375458,1.760939,-26.684465,-0.028717,-0.586212,0.786835,0.050058,0.084305,0.120983,59.478989,57.041565,-131.637115,,,
729707063.232087,-37.375445,1.760982,117.225735,-0.028717,-0.586212,0.786835,0.050058,0.084305,0.120983,59.42926,56.943222,-131.694366,,,
729707063.233622,-37.375458,1.760939,-26.684465,-0.028717,-0.586212,0.786835,0.050058,0.084305,0.120983,59.42926,56.943222,-131.694366,,,
729707063.235397,-37.366876,1.810422,117.266543,-0.028717,-0.586212,0.786835,0.018096,0.089408,0.112177,59.42926,56.943222,-131.694366,,,
729707063.237752,-37.366889,1.810379,-26.643654,-0.028717,-0.586212,0.786835,0.018096,0.089408,0.112177,59.42926,56.943222,-131.694366,,,
729707063.238811,-37.36366,1.859969,117.307275,-0.022873,-0.581284,0.776749,0.018096,0.089408,0.112177,59.42926,56.943222,-131.694366,,,
729707063.240937,-37.363673,1.859926,-26.602927,-0.022873,-0.581284,0.776749,0.018096,0.089408,0.112177,59.42926,56.943222,-131.694366,,,
729707063.24206,-37.36366,1.859969,117.307275,-0.022873,-0.581284,0.776749,0.018096,0.089408,0.112177,59.42926,56.943222,-131.694366,,,
729707063.242863,-37.363673,1.859926,-26.602927,-0.022873,-0.581284,0.776749,0.018096,0.089408,0.112177,59.42926,56.943222,-131.694366,,,
729707063.245403,-37.364643,1.909434,117.347231,-0.022873,-0.581284,0.776749,-0.021791,0.093931,0.108014,59.42926,56.943222,-131.694366,,,
729707063.248012,-37.364656,1.909391,-26.562974,-0.022873,-0.581284,0.776749,-0.021791,0.093931,0.108014,59.42926,56.943222,-131.694366,,,
729707063.248747,-37.37279,1.961989,117.387529,-0.023621,-0.57872,0.771057,-0.021791,0.093931,0.108014,59.42926,56.943222,-131.694366,,,
729707063.250632,-37.372803,1.961947,-26.52268,-0.023621,-0.57872,0.771057,-0.021791,0.093931,0.108014,59.42926,56.943222,-131.694366,,,
729707063.252061,-37.37279,1.961989,117.387529,-0.023621,-0.57872,0.771057,-0.021791,0.093931,0.108014,59.42926,56.943222,-131.694366,,,
729707063.252872,-37.372803,1.961947,-26.52268,-0.023621,-0.57872,0.771057,-0.021791,0.093931,0.108014,59.42926,56.943222,-131.694366,,,
729707063.255393,-37.383757,2.018444,117.428968,-0.023621,-0.57872,0.771057,-0.057731,0.112677,0.110297,59.42926,56.943222,-131.694366,,,
729707063.25751,-37.383771,2.018401,-26.481241,-0.023621,-0.57872,0.771057,-0.057731,0.112677,0.110297,59.42926,56.943222,-131.694366,,,
729707063.258724,-37.403429,2.074244,117.469392,-0.020203,-0.580002,0.773468,-0.057731,0.112677,0.110297,59.42926,56.943222,-131.694366,,,
729707063.260372,-37.403442,2.074202,-26.440807,-0.020203,-0.580002,0.773468,-0.057731,0.112677,0.110297,59.42926,56.943222,-131.694366,,,
729707063.262131,-37.403429,2.074244,117.469392,-0.020203,-0.580002,0.773468,-0.057731,0.112677,0.110297,59.42926,56.943222,-131.694366,,,
729707063.262861,-37.403442,2.074202,-26.440807,-0.020203,-0.580002,0.773468,-0.057731,0.112677,0.110297,59.42926,56.943222,-131.694366,,,
729707063.265384,-37.429849,2.130273,117.509201,-0.020203,-0.580002,0.773468,-0.106757,0.110475,0.099928,59.42926,56.943222,-131.694366,,,
729707063.267414,-37.429863,2.13023,-26.401013,-0.020203,-0.580002,0.773468,-0.106757,0.110475,0.099928,59.42926,56.943222,-131.694366,,,
729707063.268723,-37.462636,2.18377,117.546759,-0.014511,-0.585007,0.76593,-0.106757,0.110475,0.099928,59.42926,56.943222,-131.694366,,,
729707063.27075,-37.462649,2.183727,-26.363456,-0.014511,-0.585007,0.76593,-0.106757,0.110475,0.099928,59.42926,56.943222,-131.694366,,,
729707063.27215,-37.462636,2.18377,117.546759,-0.014511,-0.585007,0.76593,-0.106757,0.110475,0.099928,59.42926,56.943222,-131.694366,,,
729707063.272874,-37.462649,2.183727,-26.363456,-0.014511,-0.585007,0.76593,-0.106757,0.110475,0.099928,59.42926,56.943222,-131.694366,,,
729707063.275399,-37.501401,2.238324,117.58475,-0.014511,-0.585007,0.76593,-0.142975,0.106514,0.093398,59.890015,57.235931,-131.855789,,,
729707063.27805,-37.501414,2.238281,-26.325469,-0.014511,-0.585007,0.76593,-0.142975,0.106514,0.093398,59.890015,57.235931,-131.855789,,,
729707063.278815,-37.544222,2.290123,117.62042,-0.018997,-0.593124,0.770874,-0.142975,0.106514,0.093398,59.890015,57.235931,-131.855789,,,
729707063.280606,-37.544235,2.29008,-26.289783,-0.018997,-0.593124,0.770874,-0.142975,0.106514,0.093398,59.890015,57.235931,-131.855789,,,
729707063.282063,-37.544222,2.290123,117.62042,-0.018997,-0.593124,0.770874,-0.142975,0.106514,0.093398,59.890015,57.235931,-131.855789,,,
729707063.282868,-37.544235,2.29008,-26.289783,-0.018997,-0.593124,0.770874,-0.142975,0.106514,0.093398,59.890015,57.235931,-131.855789,,,
729707063.285396,-37.591245,2.342071,117.655903,-0.018997,-0.593124,0.770874,-0.173573,0.103734,0.087053,59.890015,57.235931,-131.855789,,,
729707063.287622,-37.591259,2.342029,-26.254315,-0.018997,-0.593124,0.770874,-0.173573,0.103734,0.087053,59.890015,57.235931,-131.855789,,,
729707063.288722,-37.591245,2.342071,117.689849,-0.018997,-0.593124,0.770874,-0.173573,0.103734,0.087053,59.890015,57.235931,-131.855789,,,
729707063.290577,-37.641128,2.391175,-26.220367,-0.027328,-0.593201,0.773804,-0.173573,0.103734,0.087053,59.890015,57.235931,-131.855789,,,
729707063.29208,-37.641115,2.391218,117.689849,-0.027328,-0.593201,0.773804,-0.173573,0.103734,0.087053,59.890015,57.235931,-131.855789,,,
729707063.292868,-37.641128,2.391175,-26.220367,-0.027328,-0.593201,0.773804,-0.173573,0.103734,0.087053,59.890015,57.235931,-131.855789,,,
729707063.295394,-37.692923,2.43685,117.722297,-0.027328,-0.593201,0.773804,-0.18764,0.090664,0.081769,59.890015,57.235931,-131.855789,,,
729707063.297657,-37.692936,2.436807,-26.187917,-0.027328,-0.593201,0.773804,-0.18764,0.090664,0.081769,59.890015,57.235931,-131.855789,,,
729707063.298797,-37.746727,2.481279,117.754671,-0.028275,-0.590408,0.772385,-0.18764,0.090664,0.081769,59.890015,57.235931,-131.855789,,,
729707063.300382,-37.746741,2.481237,-26.15554,-0.028275,-0.590408,0.772385,-0.18764,0.090664,0.081769,59.890015,57.235931,-131.855789,,,
729707063.302081,-37.746727,2.481279,117.754671,-0.028275,-0.590408,0.772385,-0.18764,0.090664,0.081769,59.890015,57.235931,-131.855789,,,
729707063.302869,-37.746741,2.481237,-26.15554,-0.028275,-0.590408,0.772385,-0.18764,0.090664,0.081769,59.890015,57.235931,-131.855789,,,
729707063.305396,-37.798281,2.523533,117.785713,-0.028275,-0.590408,0.772385,-0.192392,0.086185,0.077819,59.890015,57.235931,-131.855789,,,
729707063.307087,-37.798295,2.52349,-26.124483,-0.028275,-0.590408,0.772385,-0.192392,0.086185,0.077819,59.890015,57.235931,-131.855789,,,
729707063.308729,-37.798281,2.523533,117.785713,-0.028275,-0.590408,0.772385,-0.192392,0.086185,0.077819,59.890015,57.235931,-131.855789,,,
729707063.31057,-37.852779,2.567485,-26.091951,-0.033539,-0.590836,0.77951,-0.192392,0.086185,0.077819,59.890015,57.235931,-131.855789,,,
729707063.312145,-37.852766,2.567528,117.81826,-0.033539,-0.590836,0.77951,-0.192392,0.086185,0.077819,59.890015,57.235931,-131.855789,,,
729707063.312897,-37.852779,2.567485,-26.091951,-0.033539,-0.590836,0.77951,-0.192392,0.086185,0.077819,59.890015,57.235931,-131.855789,,,
729707063.315392,-37.902617,2.608183,117.849507,-0.033539,-0.590836,0.77951,-0.19181,0.08263,0.081621,60.016876,57.524338,-131.470566,,,
729707063.317874,-37.902631,2.60814,-26.060693,-0.033539,-0.590836,0.77951,-0.19181,0.08263,0.081621,60.016876,57.524338,-131.470566,,,
729707063.318731,-37.902617,2.608183,117.849507,-0.033539,-0.590836,0.77951,-0.19181,0.08263,0.081621,60.016876,57.524338,-131.470566,,,
729707063.320584,-37.956988,2.651559,-26.026761,-0.034622,-0.595963,0.77739,-0.19181,0.08263,0.081621,60.016876,57.524338,-131.470566,,,
729707063.322065,-37.956974,2.651602,117.883458,-0.034622,-0.595963,0.77739,-0.19181,0.08263,0.081621,60.016876,57.524338,-131.470566,,,
729707063.322873,-37.956988,2.651559,-26.026761,-0.034622,-0.595963,0.77739,-0.19181,0.08263,0.081621,60.016876,57.524338,-131.470566,,,
729707063.325398,-38.009611,2.691972,117.916623,-0.034622,-0.595963,0.77739,-0.199044,0.078595,0.087636,60.016876,57.524338,-131.470566,,,
729707063.327467,-38.009625,2.691929,-25.993594,-0.034622,-0.595963,0.77739,-0.199044,0.078595,0.087636,60.016876,57.524338,-131.470566,,,
729707063.328724,-38.009611,2.691972,117.952948,-0.034622,-0.595963,0.77739,-0.199044,0.078595,0.087636,60.016876,57.524338,-131.470566,,,
729707063.330582,-38.065845,2.736594,-25.957248,-0.03804,-0.602402,0.775284,-0.199044,0.078595,0.087636,60.016876,57.524338,-131.470566,,,
729707063.332059,-38.065832,2.736637,117.952948,-0.03804,-0.602402,0.775284,-0.199044,0.078595,0.087636,60.016876,57.524338,-131.470566,,,
729707063.332871,-38.065845,2.736594,-25.957248,-0.03804,-0.602402,0.775284,-0.199044,0.078595,0.087636,60.016876,57.524338,-131.470566,,,
729707063.335394,-38.11979,2.779473,117.988738,-0.03804,-0.602402,0.775284,-0.203293,0.081205,0.094259,60.016876,57.524338,-131.470566,,,
729707063.337132,-38.119804,2.77943,-25.921462,-0.03804,-0.602402,0.775284,-0.203293,0.081205,0.094259,60.016876,57.524338,-131.470566,,,
729707063.338749,-38.11979,2.779473,117.988738,-0.03804,-0.602402,0.775284,-0.203293,0.081205,0.094259,60.016876,57.524338,-131.470566,,,
729707063.340568,-38.17779,2.826766,-25.882341,-0.044739,-0.610809,0.776886,-0.203293,0.081205,0.094259,60.016876,57.524338,-131.470566,,,
729707063.342081,-38.177777,2.826809,118.027862,-0.044739,-0.610809,0.776886,-0.203293,0.081205,0.094259,60.016876,57.524338,-131.470566,,,
729707063.34287,-38.17779,2.826766,-25.882341,-0.044739,-0.610809,0.776886,-0.203293,0.081205,0.094259,60.016876,57.524338,-131.470566,,,
729707063.345392,-38.235554,2.872834,118.066074,-0.044739,-0.610809,0.776886,-0.217165,0.093576,0.102083,60.016876,57.524338,-131.470566,,,
729707063.347602,-38.235568,2.872791,-25.844134,-0.044739,-0.610809,0.776886,-0.217165,0.093576,0.102083,60.016876,57.524338,-131.470566,,,
729707063.348731,-38.235554,2.872834,118.066074,-0.044739,-0.610809,0.776886,-0.217165,0.093576,0.102083,60.016876,57.524338,-131.470566,,,
729707063.350589,-38.297354,2.925173,-25.802244,-0.044815,-0.615646,0.775085,-0.217165,0.093576,0.102083,60.016876,57.524338,-131.470566,,,
729707063.352084,-38.29734,2.925216,118.107961,-0.044815,-0.615646,0.775085,-0.217165,0.093576,0.102083,60.016876,57.524338,-131.470566,,,
729707063.352869,-38.297354,2.925173,-25.802244,-0.044815,-0.615646,0.775085,-0.217165,0.093576,0.102083,60.016876,57.524338,-131.470566,,,
729707063.355488,-38.360593,2.975215,118.148133,-0.044815,-0.615646,0.775085,-0.237351,0.102723,0.105742,60.436737,58.034561,-131.305573,,,
729707063.358265,-38.360606,2.975172,-25.762071,-0.044815,-0.615646,0.775085,-0.237351,0.102723,0.105742,60.436737,58.034561,-131.305573,,,
729707063.358784,-38.360593,2.975215,118.148133,-0.044815,-0.615646,0.775085,-0.237351,0.102723,0.105742,60.436737,58.034561,-131.305573,,,
729707063.360932,-38.428816,3.033406,-25.717609,-0.046463,-0.614639,0.773071,-0.237351,0.102723,0.105742,60.436737,58.034561,-131.305573,,,
729707063.362141,-38.428802,3.033449,118.192605,-0.046463,-0.614639,0.773071,-0.237351,0.102723,0.105742,60.436737,58.034561,-131.305573,,,
729707063.362863,-38.428816,3.033406,-25.717609,-0.046463,-0.614639,0.773071,-0.237351,0.102723,0.105742,60.436737,58.034561,-131.305573,,,
729707063.365395,-38.498768,3.093165,118.23763,-0.046463,-0.614639,0.773071,-0.261957,0.122487,0.116323,60.436737,58.034561,-131.305573,,,
729707063.367606,-38.498782,3.093122,-25.672584,-0.046463,-0.614639,0.773071,-0.261957,0.122487,0.116323,60.436737,58.034561,-131.305573,,,
729707063.368789,-38.498768,3.093165,118.23763,-0.046463,-0.614639,0.773071,-0.261957,0.122487,0.116323,60.436737,58.034561,-131.305573,,,
729707063.37074,-38.57443,3.159406,-25.622976,-0.047562,-0.61705,0.77504,-0.261957,0.122487,0.116323,60.436737,58.034561,-131.305573,,,
729707063.372066,-38.574416,3.159449,118.287241,-0.047562,-0.61705,0.77504,-0.261957,0.122487,0.116323,60.436737,58.034561,-131.305573,,,
729707063.372874,-38.57443,3.159406,-25.622976,-0.047562,-0.61705,0.77504,-0.261957,0.122487,0.116323,60.436737,58.034561,-131.305573,,,
729707063.375387,-38.651568,3.226671,118.337346,-0.047562,-0.61705,0.77504,-0.28816,0.137066,0.12513,60.436737,58.034561,-131.305573,,,
729707063.377634,-38.651581,3.226628,-25.572872,-0.047562,-0.61705,0.77504,-0.28816,0.137066,0.12513,60.436737,58.034561,-131.305573,,,
729707063.378775,-38.651568,3.226671,118.337346,-0.047562,-0.61705,0.77504,-0.28816,0.137066,0.12513,60.436737,58.034561,-131.305573,,,
729707063.380554,-38.73392,3.300101,-25.518821,-0.047867,-0.623688,0.774612,-0.28816,0.137066,0.12513,60.436737,58.034561,-131.305573,,,
729707063.382139,-38.733906,3.300144,118.391377,-0.047867,-0.623688,0.774612,-0.28816,0.137066,0.12513,60.436737,58.034561,-131.305573,,,
729707063.382873,-38.73392,3.300101,-25.518821,-0.047867,-0.623688,0.774612,-0.28816,0.137066,0.12513,60.436737,58.034561,-131.305573,,,
729707063.385402,-38.81601,3.374666,118.445862,-0.047867,-0.623688,0.774612,-0.30694,0.153113,0.13425,60.436737,58.034561,-131.305573,,,
729707063.387477,-38.816024,3.374623,-25.464336,-0.047867,-0.623688,0.774612,-0.30694,0.153113,0.13425,60.436737,58.034561,-131.305573,,,
729707063.388727,-38.81601,3.374666,118.445862,-0.047867,-0.623688,0.774612,-0.30694,0.153113,0.13425,60.436737,58.034561,-131.305573,,,
729707063.390751,-38.903421,3.455041,-25.407177,-0.046371,-0.626495,0.776398,-0.30694,0.153113,0.13425,60.436737,58.034561,-131.305573,,,
729707063.392087,-38.903407,3.455084,118.503025,-0.046371,-0.626495,0.776398,-0.30694,0.153113,0.13425,60.436737,58.034561,-131.305573,,,
729707063.39287,-38.903421,3.455041,-25.407177,-0.046371,-0.626495,0.776398,-0.30694,0.153113,0.13425,60.436737,58.034561,-131.305573,,,
729707063.395413,-38.989856,3.535402,118.559767,-0.046371,-0.626495,0.776398,-0.32493,0.164473,0.138252,60.436737,58.034561,-131.305573,,,
729707063.398245,-38.98987,3.535359,-25.350435,-0.046371,-0.626495,0.776398,-0.32493,0.164473,0.138252,60.787582,58.42337,-131.31665,,,
729707063.398729,-38.989856,3.535402,118.559767,-0.046371,-0.626495,0.776398,-0.32493,0.164473,0.138252,60.787582,58.42337,-131.31665,,,
729707063.400746,-39.082367,3.619014,-25.29198,-0.041595,-0.632126,0.774582,-0.32493,0.164473,0.138252,60.787582,58.42337,-131.31665,,,
729707063.402078,-39.082353,3.619057,118.618226,-0.041595,-0.632126,0.774582,-0.32493,0.164473,0.138252,60.787582,58.42337,-131.31665,,,
729707063.402869,-39.082367,3.619014,-25.29198,-0.041595,-0.632126,0.774582,-0.32493,0.164473,0.138252,60.787582,58.42337,-131.31665,,,
729707063.405396,-39.173287,3.699862,118.673764,-0.041595,-0.632126,0.774582,-0.339192,0.16972,0.130632,60.787582,58.42337,-131.31665,,,
729707063.407785,-39.173301,3.699818,-25.236441,-0.041595,-0.632126,0.774582,-0.339192,0.16972,0.130632,60.787582,58.42337,-131.31665,,,
729707063.408751,-39.173287,3.699862,118.673764,-0.041595,-0.632126,0.774582,-0.339192,0.16972,0.130632,60.787582,58.42337,-131.31665,,,
729707063.410798,-39.268399,3.782882,-25.181109,-0.038864,-0.636459,0.775208,-0.339192,0.16972,0.130632,60.787582,58.42337,-131.31665,,,
729707063.412137,-39.268385,3.782925,118.7291,-0.038864,-0.636459,0.775208,-0.339192,0.16972,0.130632,60.787582,58.42337,-131.31665,,,
729707063.412869,-39.268399,3.782882,-25.181109,-0.038864,-0.636459,0.775208,-0.339192,0.16972,0.130632,60.787582,58.42337,-131.31665,,,
729707063.415397,-39.362594,3.864241,118.782053,-0.038864,-0.636459,0.775208,-0.332371,0.167289,0.116599,60.787582,58.42337,-131.31665,,,
729707063.417445,-39.362608,3.864198,-25.128157,-0.038864,-0.636459,0.775208,-0.332371,0.167289,0.116599,60.787582,58.42337,-131.31665,,,
729707063.418727,-39.362594,3.864241,118.782053,-0.038864,-0.636459,0.775208,-0.332371,0.167289,0.116599,60.787582,58.42337,-131.31665,,,
729707063.420362,-39.4541,3.942415,-25.077097,-0.0401,-0.642685,0.781662,-0.332371,0.167289,0.116599,60.787582,58.42337,-131.31665,,,
729707063.422065,-39.454086,3.942458,118.83311,-0.0401,-0.642685,0.781662,-0.332371,0.167289,0.116599,60.787582,58.42337,-131.31665,,,
729707063.422872,-39.4541,3.942415,-25.077097,-0.0401,-0.642685,0.781662,-0.332371,0.167289,0.116599,60.787582,58.42337,-131.31665,,,
729707063.425396,-39.541757,4.016462,118.881667,-0.0401,-0.642685,0.781662,-0.305204,0.148326,0.103632,60.787582,58.42337,-131.31665,,,
729707063.427669,-39.541771,4.016418,-25.028531,-0.0401,-0.642685,0.781662,-0.305204,0.148326,0.103632,60.787582,58.42337,-131.31665,,,
729707063.428723,-39.541757,4.016462,118.881667,-0.0401,-0.642685,0.781662,-0.305204,0.148326,0.103632,60.787582,58.42337,-131.31665,,,
729707063.430769,-39.62454,4.085654,-24.982412,-0.046478,-0.646713,0.781464,-0.305204,0.148326,0.103632,60.787582,58.42337,-131.31665,,,
729707063.432102,-39.624526,4.085698,118.927788,-0.046478,-0.646713,0.781464,-0.305204,0.148326,0.103632,60.787582,58.42337,-131.31665,,,
729707063.432911,-39.62454,4.085654,-24.982412,-0.046478,-0.646713,0.781464,-0.305204,0.148326,0.103632,60.787582,58.42337,-131.31665,,,
729707063.435393,-39.702332,4.150685,118.971608,-0.046478,-0.646713,0.781464,-0.269909,0.128306,0.092654,60.787582,58.42337,-131.31665,,,
729707063.438444,-39.702347,4.150642,-24.938591,-0.046478,-0.646713,0.781464,-0.269909,0.128306,0.092654,61.148911,58.852081,-130.329788,,,
729707063.438817,-39.702332,4.150685,118.971608,-0.046478,-0.646713,0.781464,-0.269909,0.128306,0.092654,61.148911,58.852081,-130.329788,,,
729707063.440577,-39.775036,4.212966,-24.897214,-0.047028,-0.644608,0.78331,-0.269909,0.128306,0.092654,61.148911,58.852081,-130.329788,,,
729707063.442091,-39.775021,4.213009,119.012983,-0.047028,-0.644608,0.78331,-0.269909,0.128306,0.092654,61.148911,58.852081,-130.329788,,,
729707063.442878,-39.775036,4.212966,-24.897214,-0.047028,-0.644608,0.78331,-0.269909,0.128306,0.092654,61.148911,58.852081,-130.329788,,,
729707063.445398,-39.841756,4.27284,119.051181,-0.047028,-0.644608,0.78331,-0.227327,0.124679,0.07765,61.148911,58.852081,-130.329788,,,
729707063.447632,-39.84177,4.272796,-24.859041,-0.047028,-0.644608,0.78331,-0.227327,0.124679,0.07765,61.148911,58.852081,-130.329788,,,
729707063.448765,-39.841756,4.27284,119.051181,-0.047028,-0.644608,0.78331,-0.227327,0.124679,0.07765,61.148911,58.852081,-130.329788,,,
729707063.450568,-39.902157,4.328699,-24.824801,-0.047409,-0.6427,0.787262,-0.227327,0.124679,0.07765,61.148911,58.852081,-130.329788,,,
729707063.452078,-39.902142,4.328743,119.085414,-0.047409,-0.6427,0.787262,-0.227327,0.124679,0.07765,61.148911,58.852081,-130.329788,,,
729707063.452872,-39.902157,4.328699,-24.824801,-0.047409,-0.6427,0.787262,-0.227327,0.124679,0.07765,61.148911,58.852081,-130.329788,,,
729707063.455395,-39.956475,4.380856,119.116704,-0.047409,-0.6427,0.787262,-0.184089,0.110972,0.064382,61.148911,58.852081,-130.329788,,,
729707063.457609,-39.95649,4.380813,-24.793502,-0.047409,-0.6427,0.787262,-0.184089,0.110972,0.064382,61.148911,58.852081,-130.329788,,,
729707063.458726,-39.956475,4.380856,119.116704,-0.047409,-0.6427,0.787262,-0.184089,0.110972,0.064382,61.148911,58.852081,-130.329788,,,
729707063.46056,-40.004378,4.430118,-24.764525,-0.047363,-0.640533,0.784637,-0.184089,0.110972,0.064382,61.148911,58.852081,-130.329788,,,
729707063.462128,-40.004363,4.430162,119.145687,-0.047363,-0.640533,0.784637,-0.184089,0.110972,0.064382,61.148911,58.852081,-130.329788,,,
729707063.462865,-40.004378,4.430118,-24.764525,-0.047363,-0.640533,0.784637,-0.184089,0.110972,0.064382,61.148911,58.852081,-130.329788,,,
729707063.465392,-40.045913,4.476334,119.172919,-0.047363,-0.640533,0.784637,-0.139285,0.096487,0.057918,61.148911,58.852081,-130.329788,,,
729707063.46745,-40.045928,4.47629,-24.737292,-0.047363,-0.640533,0.784637,-0.139285,0.096487,0.057918,61.148911,58.852081,-130.329788,,,
729707063.468796,-40.045913,4.476334,119.172919,-0.047363,-0.640533,0.784637,-0.139285,0.096487,0.057918,61.148911,58.852081,-130.329788,,,
729707063.470514,-40.081115,4.518451,-24.7125,-0.048645,-0.638855,0.782089,-0.139285,0.096487,0.057918,61.148911,58.852081,-130.329788,,,
729707063.472102,-40.081101,4.518494,119.197716,-0.048645,-0.638855,0.782089,-0.139285,0.096487,0.057918,61.148911,58.852081,-130.329788,,,
729707063.472925,-40.081115,4.518451,-24.7125,-0.048645,-0.638855,0.782089,-0.139285,0.096487,0.057918,61.148911,58.852081,-130.329788,,,
729707063.475404,-40.109867,4.556515,119.219581,-0.048645,-0.638855,0.782089,-0.093488,0.0804,0.045467,61.148911,58.852081,-130.329788,,,
729707063.478273,-40.109881,4.556471,-24.690624,-0.048645,-0.638855,0.782089,-0.093488,0.0804,0.045467,61.364059,59.134933,-130.11618,,,
729707063.478734,-40.109867,4.556515,119.219581,-0.048645,-0.638855,0.782089,-0.093488,0.0804,0.045467,61.364059,59.134933,-130.11618,,,
729707063.480527,-40.133522,4.589161,-24.672014,-0.044708,-0.638733,0.779922,-0.093488,0.0804,0.045467,61.364059,59.134933,-130.11618,,,
729707063.482066,-40.133507,4.589205,119.238182,-0.044708,-0.638733,0.779922,-0.093488,0.0804,0.045467,61.364059,59.134933,-130.11618,,,
729707063.482878,-40.133522,4.589161,-24.672014,-0.044708,-0.638733,0.779922,-0.093488,0.0804,0.045467,61.364059,59.134933,-130.11618,,,
729707063.485389,-40.152657,4.616561,119.252981,-0.044708,-0.638733,0.779922,-0.060495,0.06003,0.027331,61.364059,59.134933,-130.11618,,,
729707063.487742,-40.152671,4.616517,-24.65723,-0.044708,-0.638733,0.779922,-0.060495,0.06003,0.027331,61.364059,59.134933,-130.11618,,,
729707063.488722,-40.152657,4.616561,119.252981,-0.044708,-0.638733,0.779922,-0.060495,0.06003,0.027331,61.364059,59.134933,-130.11618,,,
729707063.490577,-40.168657,4.638445,-24.646315,-0.048218,-0.639893,0.775955,-0.060495,0.06003,0.027331,61.364059,59.134933,-130.11618,,,
729707063.492083,-40.168642,4.638489,119.263908,-0.048218,-0.639893,0.775955,-0.060495,0.06003,0.027331,61.364059,59.134933,-130.11618,,,
729707063.492872,-40.168657,4.638445,-24.646315,-0.048218,-0.639893,0.775955,-0.060495,0.06003,0.027331,61.364059,59.134933,-130.11618,,,
729707063.49539,-40.18259,4.655413,119.271011,-0.048218,-0.639893,0.775955,-0.044655,0.042008,0.007976,61.364059,59.134933,-130.11618,,,
729707063.497649,-40.182604,4.65537,-24.639205,-0.048218,-0.639893,0.775955,-0.044655,0.042008,0.007976,61.364059,59.134933,-130.11618,,,
729707063.498488,-40.18259,4.655413,119.271011,-0.048218,-0.639893,0.775955,-0.044655,0.042008,0.007976,61.364059,59.134933,-130.11618,,,
729707063.5004,-40.194886,4.666735,-24.63714,-0.050308,-0.63797,0.768509,-0.044655,0.042008,0.007976,61.364059,59.134933,-130.11618,,,
729707063.502092,-40.194871,4.666779,119.273076,-0.050308,-0.63797,0.768509,-0.044655,0.042008,0.007976,61.364059,59.134933,-130.11618,,,
729707063.50287,-40.194886,4.666735,-24.63714,-0.050308,-0.63797,0.768509,-0.044655,0.042008,0.007976,61.364059,59.134933,-130.11618,,,
729707063.505402,-40.206425,4.672836,119.270296,-0.050308,-0.63797,0.768509,-0.037345,0.026532,-0.01753,61.364059,59.134933,-130.11618,,,
729707063.50807,-40.20644,4.672792,-24.639917,-0.050308,-0.63797,0.768509,-0.037345,0.026532,-0.01753,61.364059,59.134933,-130.11618,,,
729707063.508791,-40.206425,4.672836,119.270296,-0.050308,-0.63797,0.768509,-0.037345,0.026532,-0.01753,61.364059,59.134933,-130.11618,,,
729707063.51036,-40.217944,4.673887,-24.647569,-0.051041,-0.637192,0.763885,-0.037345,0.026532,-0.01753,61.364059,59.134933,-130.11618,,,
729707063.512146,-40.217929,4.673931,119.262644,-0.051041,-0.637192,0.763885,-0.037345,0.026532,-0.01753,61.364059,59.134933,-130.11618,,,
729707063.512876,-40.217944,4.673887,-24.647569,-0.051041,-0.637192,0.763885,-0.037345,0.026532,-0.01753,61.364059,59.134933,-130.11618,,,
729707063.515402,-40.227251,4.664931,119.247105,-0.051041,-0.637192,0.763885,-0.038772,0.014187,-0.04071,61.364059,59.134933,-130.11618,,,
729707063.517457,-40.227265,4.664888,-24.663115,-0.051041,-0.637192,0.763885,-0.038772,0.014187,-0.04071,61.364059,59.134933,-130.11618,,,
729707063.518735,-40.227251,4.664931,119.247105,-0.051041,-0.637192,0.763885,-0.038772,0.014187,-0.04071,61.620102,59.290741,-130.399063,,,
729707063.520886,-40.241061,4.657889,-24.67852,-0.053574,-0.634354,0.759827,-0.038772,0.014187,-0.04071,61.620102,59.290741,-130.399063,,,
729707063.522072,-40.241046,4.657933,119.231682,-0.053574,-0.634354,0.759827,-0.038772,0.014187,-0.04071,61.620102,59.290741,-130.399063,,,
729707063.52288,-40.241061,4.657889,-24.67852,-0.053574,-0.634354,0.759827,-0.038772,0.014187,-0.04071,61.620102,59.290741,-130.399063,,,
729707063.5254,-40.25402,4.641358,119.209161,-0.053574,-0.634354,0.759827,-0.061943,0.007526,-0.056703,61.620102,59.290741,-130.399063,,,
729707063.527466,-40.254035,4.641314,-24.701047,-0.053574,-0.634354,0.759827,-0.061943,0.007526,-0.056703,61.620102,59.290741,-130.399063,,,
729707063.528736,-40.25402,4.641358,119.209161,-0.053574,-0.634354,0.759827,-0.061943,0.007526,-0.056703,61.620102,59.290741,-130.399063,,,
729707063.530762,-40.275187,4.629902,-24.720964,-0.055679,-0.631821,0.754242,-0.061943,0.007526,-0.056703,61.620102,59.290741,-130.399063,,,
729707063.532067,-40.275172,4.629945,119.189251,-0.055679,-0.631821,0.754242,-0.061943,0.007526,-0.056703,61.620102,59.290741,-130.399063,,,
729707063.532875,-40.275187,4.629902,-24.720964,-0.055679,-0.631821,0.754242,-0.061943,0.007526,-0.056703,61.620102,59.290741,-130.399063,,,
729707063.535402,-40.295312,4.610831,119.163272,-0.055679,-0.631821,0.754242,-0.088695,0.009349,-0.067155,61.620102,59.290741,-130.399063,,,
729707063.537416,-40.295327,4.610787,-24.746933,-0.055679,-0.631821,0.754242,-0.088695,0.009349,-0.067155,61.620102,59.290741,-130.399063,,,
729707063.538741,-40.295312,4.610831,119.163272,-0.055679,-0.631821,0.754242,-0.088695,0.009349,-0.067155,61.620102,59.290741,-130.399063,,,
729707063.540388,-40.325865,4.599711,-24.768418,-0.057892,-0.631241,0.748047,-0.088695,0.009349,-0.067155,61.620102,59.290741,-130.399063,,,
729707063.54209,-40.32585,4.599755,119.141802,-0.057892,-0.631241,0.748047,-0.088695,0.009349,-0.067155,61.620102,59.290741,-130.399063,,,
729707063.542876,-40.325865,4.599711,-24.768418,-0.057892,-0.631241,0.748047,-0.088695,0.009349,-0.067155,61.620102,59.290741,-130.399063,,,
729707063.545428,-40.357635,4.58511,119.117343,-0.057892,-0.631241,0.748047,-0.13287,0.022075,-0.065879,61.620102,59.290741,-130.399063,,,
729707063.547436,-40.357649,4.585066,-24.792879,-0.057892,-0.631241,0.748047,-0.13287,0.022075,-0.065879,61.620102,59.290741,-130.399063,,,
729707063.548586,-40.357635,4.58511,119.117343,-0.057892,-0.631241,0.748047,-0.13287,0.022075,-0.065879,61.620102,59.290741,-130.399063,,,
729707063.550513,-40.400926,4.579062,-24.812434,-0.061325,-0.631409,0.747009,-0.13287,0.022075,-0.065879,61.620102,59.290741,-130.399063,,,
729707063.552141,-40.400912,4.579106,119.097766,-0.061325,-0.631409,0.747009,-0.13287,0.022075,-0.065879,61.620102,59.290741,-130.399063,,,
729707063.552877,-40.400926,4.579062,-24.812434,-0.061325,-0.631409,0.747009,-0.13287,0.022075,-0.065879,61.620102,59.290741,-130.399063,,,
729707063.555518,-40.446297,4.570566,119.075703,-0.061325,-0.631409,0.747009,-0.18337,0.041219,-0.06136,61.620102,59.290741,-130.399063,,,
729707063.557798,-40.446312,4.570522,-24.834499,-0.061325,-0.631409,0.747009,-0.18337,0.041219,-0.06136,61.620102,59.290741,-130.399063,,,
729707063.55875,-40.446297,4.570566,119.075703,-0.061325,-0.631409,0.747009,-0.18337,0.041219,-0.06136,61.620102,59.290741,-130.399063,,,
729707063.561044,-40.50477,4.573315,-24.85007,-0.059982,-0.632935,0.744751,-0.18337,0.041219,-0.06136,61.418076,59.180435,-129.908218,,,
729707063.562092,-40.504755,4.573359,119.06013,-0.059982,-0.632935,0.744751,-0.18337,0.041219,-0.06136,61.418076,59.180435,-129.908218,,,
729707063.562883,-40.50477,4.573315,-24.85007,-0.059982,-0.632935,0.744751,-0.18337,0.041219,-0.06136,61.418076,59.180435,-129.908218,,,
729707063.565402,-40.567099,4.574453,119.042322,-0.059982,-0.632935,0.744751,-0.246227,0.065546,-0.05592,61.418076,59.180435,-129.908218,,,
729707063.567169,-40.567114,4.574409,-24.867876,-0.059982,-0.632935,0.744751,-0.246227,0.065546,-0.05592,61.418076,59.180435,-129.908218,,,
729707063.56876,-40.567099,4.574453,119.042322,-0.059982,-0.632935,0.744751,-0.246227,0.065546,-0.05592,61.418076,59.180435,-129.908218,,,
729707063.570573,-40.644179,4.585913,-24.880119,-0.058182,-0.635422,0.738281,-0.246227,0.065546,-0.05592,61.418076,59.180435,-129.908218,,,
729707063.572136,-40.644164,4.585957,119.03008,-0.058182,-0.635422,0.738281,-0.246227,0.065546,-0.05592,61.418076,59.180435,-129.908218,,,
729707063.572876,-40.644179,4.585913,-24.880119,-0.058182,-0.635422,0.738281,-0.246227,0.065546,-0.05592,61.418076,59.180435,-129.908218,,,
729707063.575408,-40.726754,4.596887,119.015488,-0.058182,-0.635422,0.738281,-0.31732,0.091932,-0.05717,61.418076,59.180435,-129.908218,,,
729707063.577478,-40.726769,4.596843,-24.894719,-0.058182,-0.635422,0.738281,-0.31732,0.091932,-0.05717,61.418076,59.180435,-129.908218,,,
729707063.578813,-40.726754,4.596887,119.015488,-0.058182,-0.635422,0.738281,-0.31732,0.091932,-0.05717,61.418076,59.180435,-129.908218,,,
729707063.580085,-40.726769,4.617795,-24.9051,-0.056427,-0.636612,0.736023,-0.31732,0.091932,-0.05717,61.418076,59.180435,-129.908218,,,
729707063.582127,-40.823315,4.617839,119.005112,-0.056427,-0.636612,0.736023,-0.31732,0.091932,-0.05717,61.418076,59.180435,-129.908218,,,
729707063.583202,-40.82333,4.617795,-24.9051,-0.056427,-0.636612,0.736023,-0.31732,0.091932,-0.05717,61.418076,59.180435,-129.908218,,,
729707063.585401,-40.924091,4.638398,118.991809,-0.056427,-0.636612,0.736023,-0.379273,0.120912,-0.061828,61.418076,59.180435,-129.908218,,,
729707063.587445,-40.924106,4.638354,-24.9184,-0.056427,-0.636612,0.736023,-0.379273,0.120912,-0.061828,61.418076,59.180435,-129.908218,,,
729707063.588743,-40.924091,4.638398,118.991809,-0.056427,-0.636612,0.736023,-0.379273,0.120912,-0.061828,61.418076,59.180435,-129.908218,,,
729707063.590553,-41.0389,4.666655,-24.929436,-0.052826,-0.638062,0.736359,-0.379273,0.120912,-0.061828,61.418076,59.180435,-129.908218,,,
729707063.592144,-41.038886,4.6667,118.980777,-0.052826,-0.638062,0.736359,-0.379273,0.120912,-0.061828,61.418076,59.180435,-129.908218,,,
729707063.592871,-41.0389,4.666655,-24.929436,-0.052826,-0.638062,0.736359,-0.379273,0.120912,-0.061828,61.418076,59.180435,-129.908218,,,
729707063.595503,-41.157379,4.693653,118.966735,-0.052826,-0.638062,0.736359,-0.441531,0.142048,-0.068537,61.418076,59.180435,-129.908218,,,
729707063.597698,-41.157394,4.693608,-24.943484,-0.052826,-0.638062,0.736359,-0.441531,0.142048,-0.068537,61.418076,59.180435,-129.908218,,,
729707063.598749,-41.157379,4.693653,118.966735,-0.052826,-0.638062,0.736359,-0.441531,0.142048,-0.068537,61.418076,59.180435,-129.908218,,,
729707063.601226,-41.290334,4.726006,-24.955926,-0.052261,-0.639877,0.729889,-0.441531,0.142048,-0.068537,61.498428,59.587494,-129.655548,,,
729707063.60209,-41.290319,4.726051,118.954295,-0.052261,-0.639877,0.729889,-0.441531,0.142048,-0.068537,61.498428,59.587494,-129.655548,,,
729707063.602881,-41.290334,4.726006,-24.955926,-0.052261,-0.639877,0.729889,-0.441531,0.142048,-0.068537,61.498428,59.587494,-129.655548,,,
729707063.60541,-41.426016,4.755337,118.938412,-0.052261,-0.639877,0.729889,-0.505748,0.149676,-0.08052,61.498428,59.587494,-129.655548,,,
729707063.607616,-41.42603,4.755292,-24.971814,-0.052261,-0.639877,0.729889,-0.505748,0.149676,-0.08052,61.498428,59.587494,-129.655548,,,
729707063.608756,-41.426016,4.755337,118.938412,-0.052261,-0.639877,0.729889,-0.505748,0.149676,-0.08052,61.498428,59.587494,-129.655548,,,
729707063.610498,-41.57761,4.787587,-24.986456,-0.050217,-0.640686,0.7258,-0.505748,0.149676,-0.08052,61.498428,59.587494,-129.655548,,,
729707063.612125,-41.577595,4.787632,118.923766,-0.050217,-0.640686,0.7258,-0.505748,0.149676,-0.08052,61.498428,59.587494,-129.655548,,,
729707063.612872,-41.57761,4.787587,-24.986456,-0.050217,-0.640686,0.7258,-0.505748,0.149676,-0.08052,61.498428,59.587494,-129.655548,,,
729707063.615394,-41.733203,4.81663,118.905956,-0.050217,-0.640686,0.7258,-0.570578,0.150392,-0.095051,61.498428,59.587494,-129.655548,,,
729707063.617439,-41.733218,4.816586,-25.004264,-0.050217,-0.640686,0.7258,-0.570578,0.150392,-0.095051,61.498428,59.587494,-129.655548,,,
729707063.618821,-41.733203,4.81663,118.905956,-0.050217,-0.640686,0.7258,-0.570578,0.150392,-0.095051,61.498428,59.587494,-129.655548,,,
729707063.621168,-41.902181,4.847364,-25.021823,-0.05542,-0.646591,0.723419,-0.570578,0.150392,-0.095051,61.498428,59.587494,-129.655548,,,
729707063.622101,-41.902166,4.847408,118.888404,-0.05542,-0.646591,0.723419,-0.570578,0.150392,-0.095051,61.498428,59.587494,-129.655548,,,
729707063.622911,-41.902181,4.847364,-25.021823,-0.05542,-0.646591,0.723419,-0.570578,0.150392,-0.095051,61.498428,59.587494,-129.655548,,,
729707063.625418,-42.071456,4.87649,118.869405,-0.05542,-0.646591,0.723419,-0.6074,0.149013,-0.102891,61.498428,59.587494,-129.655548,,,
729707063.627348,-42.071471,4.876445,-25.04081,-0.05542,-0.646591,0.723419,-0.6074,0.149013,-0.102891,61.498428,59.587494,-129.655548,,,
729707063.628771,-42.071456,4.87649,118.869405,-0.05542,-0.646591,0.723419,-0.6074,0.149013,-0.102891,61.498428,59.587494,-129.655548,,,
729707063.630593,-42.24716,4.903778,-25.060595,-0.059601,-0.654572,0.730286,-0.6074,0.149013,-0.102891,61.498428,59.587494,-129.655548,,,
729707063.632089,-42.247145,4.903823,118.849623,-0.059601,-0.654572,0.730286,-0.6074,0.149013,-0.102891,61.498428,59.587494,-129.655548,,,
729707063.632891,-42.24716,4.903778,-25.060595,-0.059601,-0.654572,0.730286,-0.6074,0.149013,-0.102891,61.498428,59.587494,-129.655548,,,
729707063.635401,-42.421339,4.926159,118.828879,-0.059601,-0.654572,0.730286,-0.596474,0.118746,-0.107547,61.498428,59.587494,-129.655548,,,
729707063.637661,-42.421354,4.926114,-25.081344,-0.059601,-0.654572,0.730286,-0.596474,0.118746,-0.107547,61.498428,59.587494,-129.655548,,,
729707063.638708,-42.421339,4.926159,118.828879,-0.059601,-0.654572,0.730286,-0.596474,0.118746,-0.107547,61.498428,59.587494,-129.655548,,,
729707063.640533,-42.592401,4.941495,-25.10217,-0.073242,-0.666656,0.731689,-0.596474,0.118746,-0.107547,61.498428,59.587494,-129.655548,,,
729707063.642045,-42.592386,4.941541,118.80805,-0.073242,-0.666656,0.731689,-0.596474,0.118746,-0.107547,61.72966,60.318527,-128.695724,,,
729707063.643116,-42.592401,4.941495,-25.10217,-0.073242,-0.666656,0.731689,-0.596474,0.118746,-0.107547,61.72966,60.318527,-128.695724,,,
729707063.645347,-42.758178,4.948881,118.786837,-0.073242,-0.666656,0.731689,-0.559553,0.064521,-0.106607,61.72966,60.318527,-128.695724,,,
729707063.646758,-42.758193,4.948836,-25.123385,-0.073242,-0.666656,0.731689,-0.559553,0.064521,-0.106607,61.72966,60.318527,-128.695724,,,
729707063.648676,-42.758178,4.948881,118.786837,-0.073242,-0.666656,0.731689,-0.559553,0.064521,-0.106607,61.72966,60.318527,-128.695724,,,
729707063.649625,-42.758193,4.948836,-25.123385,-0.0784,-0.671753,0.734024,-0.559553,0.064521,-0.106607,61.72966,60.318527,-128.695724,,,
729707063.651902,-42.91799,4.947452,118.764416,-0.0784,-0.671753,0.734024,-0.559553,0.064521,-0.106607,61.72966,60.318527,-128.695724,,,
729707063.652989,-42.918005,4.947406,-25.145807,-0.0784,-0.671753,0.734024,-0.559553,0.064521,-0.106607,61.72966,60.318527,-128.695724,,,
729707063.655325,-43.070267,4.936403,118.739326,-0.0784,-0.671753,0.734024,-0.506059,0.010188,-0.115589,61.72966,60.318527,-128.695724,,,
729707063.656642,-43.070282,4.936357,-25.170904,-0.0784,-0.671753,0.734024,-0.506059,0.010188,-0.115589,61.72966,60.318527,-128.695724,,,
729707063.658653,-43.070267,4.936403,118.739326,-0.0784,-0.671753,0.734024,-0.506059,0.010188,-0.115589,61.72966,60.318527,-128.695724,,,
729707063.659672,-43.070282,4.936357,-25.170904,-0.072784,-0.675568,0.741516,-0.506059,0.010188,-0.115589,61.72966,60.318527,-128.695724,,,
729707063.661893,-43.21395,4.915215,118.709798,-0.072784,-0.675568,0.741516,-0.506059,0.010188,-0.115589,61.72966,60.318527,-128.695724,,,
729707063.663769,-43.213965,4.915169,-25.200416,-0.072784,-0.675568,0.741516,-0.506059,0.010188,-0.115589,61.72966,60.318527,-128.695724,,,
729707063.665407,-43.348352,4.884752,118.676019,-0.072784,-0.675568,0.741516,-0.43959,-0.034011,-0.131144,61.72966,60.318527,-128.695724,,,
729707063.668805,-43.348367,4.884706,-25.234201,-0.072784,-0.675568,0.741516,-0.43959,-0.034011,-0.131144,61.72966,60.318527,-128.695724,,,
729707063.669086,-43.348352,4.884752,118.676019,-0.072784,-0.675568,0.741516,-0.43959,-0.034011,-0.131144,61.72966,60.318527,-128.695724,,,
729707063.66954,-43.348367,4.884706,-25.234201,-0.072784,-0.675568,0.741516,-0.43959,-0.034011,-0.131144,61.72966,60.318527,-128.695724,,,
729707063.672107,-43.472403,4.845721,118.637473,-0.069839,-0.679459,0.747513,-0.43959,-0.034011,-0.131144,61.72966,60.318527,-128.695724,,,
729707063.674001,-43.472418,4.845675,-25.272748,-0.069839,-0.679459,0.747513,-0.43959,-0.034011,-0.131144,61.72966,60.318527,-128.695724,,,
729707063.675413,-43.586302,4.7995,118.59404,-0.069839,-0.679459,0.747513,-0.36718,-0.060623,-0.149108,61.72966,60.318527,-128.695724,,,
729707063.67765,-43.586318,4.799454,-25.316184,-0.069839,-0.679459,0.747513,-0.36718,-0.060623,-0.149108,61.72966,60.318527,-128.695724,,,
729707063.678817,-43.586302,4.7995,118.59404,-0.069839,-0.679459,0.747513,-0.36718,-0.060623,-0.149108,61.72966,60.318527,-128.695724,,,
729707063.679565,-43.586318,4.799454,-25.316184,-0.069839,-0.679459,0.747513,-0.36718,-0.060623,-0.149108,61.72966,60.318527,-128.695724,,,
729707063.681936,-43.690299,4.747618,118.546357,-0.066772,-0.688675,0.752228,-0.36718,-0.060623,-0.149108,61.527481,60.738083,-128.405609,,,
729707063.684716,-43.690314,4.747572,-25.363863,-0.066772,-0.688675,0.752228,-0.36718,-0.060623,-0.149108,61.527481,60.738083,-128.405609,,,
729707063.685419,-43.784362,4.69226,118.495674,-0.066772,-0.688675,0.752228,-0.297019,-0.070331,-0.157692,61.527481,60.738083,-128.405609,,,
729707063.687629,-43.784377,4.692213,-25.414542,-0.066772,-0.688675,0.752228,-0.297019,-0.070331,-0.157692,61.527481,60.738083,-128.405609,,,
729707063.688821,-43.784362,4.69226,118.495674,-0.066772,-0.688675,0.752228,-0.297019,-0.070331,-0.157692,61.527481,60.738083,-128.405609,,,
729707063.689592,-43.784377,4.692213,-25.414542,-0.066772,-0.688675,0.752228,-0.297019,-0.070331,-0.157692,61.527481,60.738083,-128.405609,,,
729707063.692136,-43.868539,4.635166,118.442909,-0.063202,-0.693176,0.753357,-0.297019,-0.070331,-0.157692,61.527481,60.738083,-128.405609,,,
729707063.694051,-43.868554,4.63512,-25.467302,-0.063202,-0.693176,0.753357,-0.297019,-0.070331,-0.157692,61.527481,60.738083,-128.405609,,,
729707063.695416,-43.943339,4.578964,118.390181,-0.063202,-0.693176,0.753357,-0.231863,-0.064235,-0.15162,61.527481,60.738083,-128.405609,,,
729707063.69764,-43.943354,4.578918,-25.520027,-0.063202,-0.693176,0.753357,-0.231863,-0.064235,-0.15162,61.527481,60.738083,-128.405609,,,
729707063.698744,-43.943339,4.578964,118.390181,-0.063202,-0.693176,0.753357,-0.231863,-0.064235,-0.15162,61.527481,60.738083,-128.405609,,,
729707063.699568,-43.943354,4.578918,-25.520027,-0.063202,-0.693176,0.753357,-0.231863,-0.064235,-0.15162,61.527481,60.738083,-128.405609,,,
729707063.702065,-44.009225,4.524918,118.338802,-0.062057,-0.699203,0.753754,-0.231863,-0.064235,-0.15162,61.527481,60.738083,-128.405609,,,
729707063.703924,-44.00924,4.524872,-25.57141,-0.062057,-0.699203,0.753754,-0.231863,-0.064235,-0.15162,61.527481,60.738083,-128.405609,,,
729707063.705419,-44.066957,4.474568,118.290238,-0.062057,-0.699203,0.753754,-0.176341,-0.052169,-0.132737,61.527481,60.738083,-128.405609,,,
729707063.707665,-44.066972,4.474522,-25.619982,-0.062057,-0.699203,0.753754,-0.176341,-0.052169,-0.132737,61.527481,60.738083,-128.405609,,,
729707063.708741,-44.066957,4.474568,118.290238,-0.062057,-0.699203,0.753754,-0.176341,-0.052169,-0.132737,61.527481,60.738083,-128.405609,,,
729707063.709565,-44.066972,4.474522,-25.619982,-0.062057,-0.699203,0.753754,-0.176341,-0.052169,-0.132737,61.527481,60.738083,-128.405609,,,
729707063.712073,-44.117521,4.429162,118.246019,-0.061722,-0.70285,0.74942,-0.176341,-0.052169,-0.132737,61.527481,60.738083,-128.405609,,,
729707063.713692,-44.117536,4.429115,-25.664204,-0.061722,-0.70285,0.74942,-0.176341,-0.052169,-0.132737,61.527481,60.738083,-128.405609,,,
729707063.715215,-44.161396,4.389842,118.207087,-0.061722,-0.70285,0.74942,-0.131793,-0.035572,-0.10261,61.527481,60.738083,-128.405609,,,
729707063.71764,-44.161411,4.389796,-25.703138,-0.061722,-0.70285,0.74942,-0.131793,-0.035572,-0.10261,61.527481,60.738083,-128.405609,,,
729707063.718813,-44.161396,4.389842,118.207087,-0.061722,-0.70285,0.74942,-0.131793,-0.035572,-0.10261,61.527481,60.738083,-128.405609,,,
729707063.719561,-44.161411,4.389796,-25.703138,-0.061722,-0.70285,0.74942,-0.131793,-0.035572,-0.10261,61.527481,60.738083,-128.405609,,,
729707063.722072,-44.199463,4.357431,118.174065,-0.06192,-0.705551,0.747437,-0.131793,-0.035572,-0.10261,61.527481,60.738083,-128.405609,,,
729707063.724697,-44.199478,4.357384,-25.736162,-0.06192,-0.705551,0.747437,-0.131793,-0.035572,-0.10261,61.010269,61.026428,-127.653702,,,
729707063.725421,-44.232401,4.332786,118.148289,-0.06192,-0.705551,0.747437,-0.098783,-0.01694,-0.063936,61.010269,61.026428,-127.653702,,,
729707063.727638,-44.232416,4.332739,-25.761939,-0.06192,-0.705551,0.747437,-0.098783,-0.01694,-0.063936,61.010269,61.026428,-127.653702,,,
729707063.728776,-44.232401,4.332786,118.148289,-0.06192,-0.705551,0.747437,-0.098783,-0.01694,-0.063936,61.010269,61.026428,-127.653702,,,
