Time (sec),Pitch (deg),Roll (deg),Yaw(deg),X-Acceleration (g),Y-Acceleration (g),Z-Acceleration (g),Pitch Rate (deg/sec),Roll Rate (deg/sec),Yaw Rate (deg/sec),Magnetic Field in X direction (uT),Magnetic Field in Y direction (uT),Magnetic Field in Z Direction (uT),Latitude (deg),Longitude (deg),Altitude (m)
729706141.321795,-5.949476,4.414121,166.703806,-0.08078,-0.101166,0.990021,0.00256,-0.000228,-0.003512,89.995331,16.805511,-145.782669,,,
729706141.325144,-5.949357,4.413409,166.703609,-0.08078,-0.101166,0.990021,0.00256,-0.000228,-0.003512,89.995331,16.805511,-145.782669,,,
729706141.328454,-5.950104,4.411829,166.703421,-0.079712,-0.097733,0.983734,-0.003129,-0.002641,-0.003491,89.995331,16.805511,-145.782669,,,
729706141.331859,-5.950104,4.411829,166.703421,-0.079712,-0.097733,0.983734,-0.003129,-0.002641,-0.003491,89.995331,16.805511,-145.782669,,,
729706141.335124,-5.952503,4.411314,166.703178,-0.079712,-0.097733,0.983734,-0.003129,-0.002641,-0.003491,89.995331,16.805511,-145.782669,,,
729706141.338449,-5.957863,4.409954,166.703486,-0.080765,-0.097672,0.979477,-0.022334,-0.004531,-0.000663,89.995331,16.805511,-145.782669,,,
729706141.34181,-5.957863,4.409954,166.703486,-0.080765,-0.097672,0.979477,-0.022334,-0.004531,-0.000663,89.995331,16.805511,-145.782669,,,
729706141.345194,-5.965174,4.409049,166.704615,-0.080765,-0.097672,0.979477,-0.022334,-0.004531,-0.000663,89.995331,16.805511,-145.782669,,,
729706141.348444,-5.975625,4.406713,166.706264,-0.080765,-0.097748,0.977386,-0.041727,-0.005925,0.002359,90.121841,16.861877,-146.105103,,,
729706141.351785,-5.975625,4.406713,166.706264,-0.080765,-0.097748,0.977386,-0.041727,-0.005925,0.002359,90.121841,16.861877,-146.105103,,,
729706141.35514,-5.987379,4.4062,166.708983,-0.080765,-0.097748,0.977386,-0.041727,-0.005925,0.002359,90.121841,16.861877,-146.105103,,,
729706141.358451,-6.000532,4.405246,166.712539,-0.080032,-0.104218,0.980011,-0.047608,0.001761,0.008931,90.121841,16.861877,-146.105103,,,
729706141.361796,-6.000532,4.405246,166.712539,-0.080032,-0.104218,0.980011,-0.047608,0.001761,0.008931,90.121841,16.861877,-146.105103,,,
729706141.365142,-6.01345,4.408153,166.717303,-0.080032,-0.104218,0.980011,-0.047608,0.001761,0.008931,90.121841,16.861877,-146.105103,,,
729706141.368454,-6.025981,4.412336,166.722977,-0.076172,-0.107697,0.991791,-0.044193,0.02118,0.016737,90.121841,16.861877,-146.105103,,,
729706141.371864,-6.025981,4.412336,166.722977,-0.076172,-0.107697,0.991791,-0.044193,0.02118,0.016737,90.121841,16.861877,-146.105103,,,
729706141.375133,-6.038315,4.420731,166.729678,-0.076172,-0.107697,0.991791,-0.044193,0.02118,0.016737,90.121841,16.861877,-146.105103,,,
729706141.378451,-6.050626,4.430186,166.73745,-0.071762,-0.106522,0.990585,-0.04451,0.037977,0.02524,90.121841,16.861877,-146.105103,,,
729706141.381798,-6.050626,4.430186,166.73745,-0.071762,-0.106522,0.990585,-0.04451,0.037977,0.02524,90.121841,16.861877,-146.105103,,,
729706141.385181,-6.063195,4.442199,166.745928,-0.071762,-0.106522,0.990585,-0.04451,0.037977,0.02524,90.121841,16.861877,-146.105103,,,
729706141.388447,-6.077428,4.453413,166.754475,-0.072098,-0.104141,0.985718,-0.052591,0.039365,0.025828,90.121841,16.861877,-146.105103,,,
729706141.391795,-6.077428,4.453413,166.754475,-0.072098,-0.104141,0.985718,-0.052591,0.039365,0.025828,90.171448,16.809998,-146.140411,,,
729706141.395122,-6.092564,4.465856,166.763652,-0.072098,-0.104141,0.985718,-0.052591,0.039365,0.025828,90.171448,16.809998,-146.140411,,,
729706141.398453,-6.110246,4.477503,166.77233,-0.073593,-0.10318,0.981781,-0.065595,0.039395,0.021896,90.171448,16.809998,-146.140411,,,
729706141.401802,-6.110246,4.477503,166.77233,-0.073593,-0.10318,0.981781,-0.065595,0.039395,0.021896,90.171448,16.809998,-146.140411,,,
729706141.405119,-6.129164,4.48838,166.780628,-0.073593,-0.10318,0.981781,-0.065595,0.039395,0.021896,90.171448,16.809998,-146.140411,,,
729706141.408451,-6.151023,4.49696,166.788595,-0.073944,-0.103699,0.978134,-0.079803,0.026043,0.018735,90.171448,16.809998,-146.140411,,,
729706141.41178,-6.151023,4.49696,166.788595,-0.073944,-0.103699,0.978134,-0.079803,0.026043,0.018735,90.171448,16.809998,-146.140411,,,
729706141.415174,-6.172989,4.503607,166.795969,-0.073944,-0.103699,0.978134,-0.079803,0.026043,0.018735,90.171448,16.809998,-146.140411,,,
729706141.418456,-6.196817,4.507374,166.802378,-0.072845,-0.105881,0.976089,-0.083965,0.009755,0.012043,90.171448,16.809998,-146.140411,,,
729706141.421809,-6.196817,4.507374,166.802378,-0.072845,-0.105881,0.976089,-0.083965,0.009755,0.012043,90.171448,16.809998,-146.140411,,,
729706141.425224,-6.219563,4.510094,166.807834,-0.072845,-0.105881,0.976089,-0.083965,0.009755,0.012043,90.171448,16.809998,-146.140411,,,
729706141.428455,-6.244096,4.512112,166.812415,-0.072876,-0.108932,0.984055,-0.087429,0.009276,0.006089,90.171448,16.809998,-146.140411,,,
729706141.431793,-6.244096,4.512112,166.812415,-0.072876,-0.108932,0.984055,-0.087429,0.009276,0.006089,90.250259,17.04538,-146.158188,,,
729706141.435139,-6.268557,4.514957,166.816262,-0.072876,-0.108932,0.984055,-0.087429,0.009276,0.006089,90.250259,17.04538,-146.158188,,,
729706141.438459,-6.295022,4.517284,166.819546,-0.072327,-0.10997,0.987854,-0.094575,0.010088,0.002038,90.250259,17.04538,-146.158188,,,
729706141.441808,-6.295022,4.517284,166.819546,-0.072327,-0.10997,0.987854,-0.094575,0.010088,0.002038,90.250259,17.04538,-146.158188,,,
729706141.445157,-6.322298,4.520003,166.822919,-0.072327,-0.10997,0.987854,-0.094575,0.010088,0.002038,90.250259,17.04538,-146.158188,,,
729706141.448485,-6.351831,4.523376,166.826531,-0.070816,-0.109451,0.985077,-0.107367,0.014715,0.00268,90.250259,17.04538,-146.158188,,,
729706141.451807,-6.351831,4.523376,166.826531,-0.070816,-0.109451,0.985077,-0.107367,0.014715,0.00268,90.250259,17.04538,-146.158188,,,
729706141.455125,-6.383421,4.527547,166.829986,-0.070816,-0.109451,0.985077,-0.107367,0.014715,0.00268,90.250259,17.04538,-146.158188,,,
729706141.458461,-6.418329,4.53418,166.833761,-0.070374,-0.110748,0.984222,-0.127278,0.026822,0.002741,90.250259,17.04538,-146.158188,,,
729706141.46188,-6.418329,4.53418,166.833761,-0.070374,-0.110748,0.984222,-0.127278,0.026822,0.002741,90.250259,17.04538,-146.158188,,,
729706141.465121,-6.455739,4.541346,166.838021,-0.070374,-0.110748,0.984222,-0.127278,0.026822,0.002741,90.250259,17.04538,-146.158188,,,
729706141.468454,-6.496649,4.550781,166.843537,-0.073502,-0.111313,0.984024,-0.146486,0.035477,0.009192,90.250259,17.04538,-146.158188,,,
729706141.471781,-6.496649,4.550781,166.843537,-0.073502,-0.111313,0.984024,-0.146486,0.035477,0.009192,90.142181,17.412888,-146.326767,,,
729706141.47513,-6.539238,4.560453,166.850636,-0.073502,-0.111313,0.984024,-0.146486,0.035477,0.009192,90.142181,17.412888,-146.326767,,,
729706141.47846,-6.58658,4.571068,166.859274,-0.077087,-0.114136,0.979187,-0.171921,0.035255,0.017148,90.142181,17.412888,-146.326767,,,
729706141.481803,-6.58658,4.571068,166.859274,-0.077087,-0.114136,0.979187,-0.171921,0.035255,0.017148,90.142181,17.412888,-146.326767,,,
729706141.485195,-6.6342,4.580899,166.869081,-0.077087,-0.114136,0.979187,-0.171921,0.035255,0.017148,90.142181,17.412888,-146.326767,,,
729706141.488452,-6.683859,4.591852,166.87976,-0.077988,-0.119141,0.984177,-0.175363,0.038296,0.022385,90.142181,17.412888,-146.326767,,,
729706141.491796,-6.683859,4.591852,166.87976,-0.077988,-0.119141,0.984177,-0.175363,0.038296,0.022385,90.142181,17.412888,-146.326767,,,
729706141.495142,-6.731951,4.603271,166.890801,-0.077988,-0.119141,0.984177,-0.175363,0.038296,0.022385,90.142181,17.412888,-146.326767,,,
729706141.498461,-6.780048,4.617128,166.901844,-0.07756,-0.122177,0.995392,-0.165544,0.050272,0.022541,90.142181,17.412888,-146.326767,,,
729706141.50186,-6.780048,4.617128,166.901844,-0.07756,-0.122177,0.995392,-0.165544,0.050272,0.022541,90.142181,17.412888,-146.326767,,,
729706141.505136,-6.824929,4.631745,166.912578,-0.07756,-0.122177,0.995392,-0.165544,0.050272,0.022541,90.142181,17.412888,-146.326767,,,
729706141.50846,-6.868384,4.648535,166.923323,-0.078827,-0.125992,1.004135,-0.146298,0.058965,0.02329,90.142181,17.412888,-146.326767,,,
729706141.51191,-6.868384,4.648535,166.923323,-0.078827,-0.125992,1.004135,-0.146298,0.058965,0.02329,90.310104,17.872513,-146.088959,,,
729706141.515197,-6.907219,4.66544,166.933436,-0.078827,-0.125992,1.004135,-0.146298,0.058965,0.02329,90.310104,17.872513,-146.088959,,,
729706141.518186,-6.945116,4.683967,166.942842,-0.078964,-0.128021,1.005936,-0.130531,0.064114,0.018819,90.310104,17.872513,-146.088959,,,
729706141.521855,-6.945116,4.683967,166.942842,-0.078964,-0.128021,1.005936,-0.130531,0.064114,0.018819,90.310104,17.872513,-146.088959,,,
729706141.525152,-6.97961,4.700355,166.95156,-0.078964,-0.128021,1.005936,-0.130531,0.064114,0.018819,90.310104,17.872513,-146.088959,,,
729706141.52846,-7.013956,4.716183,166.960557,-0.080124,-0.12767,0.99823,-0.119034,0.050543,0.020496,90.310104,17.872513,-146.088959,,,
729706141.531803,-7.013956,4.716183,166.960557,-0.080124,-0.12767,0.99823,-0.119034,0.050543,0.020496,90.310104,17.872513,-146.088959,,,
729706141.535142,-7.045754,4.726953,166.969126,-0.080124,-0.12767,0.99823,-0.119034,0.050543,0.020496,90.310104,17.872513,-146.088959,,,
729706141.538461,-7.07899,4.734077,166.976929,-0.085922,-0.126114,0.986389,-0.117623,0.015926,0.014056,90.310104,17.872513,-146.088959,,,
729706141.541785,-7.07899,4.734077,166.976929,-0.085922,-0.126114,0.986389,-0.117623,0.015926,0.014056,90.310104,17.872513,-146.088959,,,
729706141.545128,-7.111422,4.73472,166.983385,-0.085922,-0.126114,0.986389,-0.117623,0.015926,0.014056,90.310104,17.872513,-146.088959,,,
729706141.548535,-7.147338,4.731952,166.98906,-0.083511,-0.123642,0.976318,-0.129797,-0.017972,0.006302,90.310104,17.872513,-146.088959,,,
729706141.551871,-7.147338,4.731952,166.98906,-0.083511,-0.123642,0.976318,-0.129797,-0.017972,0.006302,90.310104,17.872513,-146.088959,,,
729706141.555134,-7.183479,4.723874,166.99364,-0.083511,-0.123642,0.976318,-0.129797,-0.017972,0.006302,90.35759,17.952698,-146.141525,,,
729706141.558459,-7.222841,4.71288,166.997167,-0.085175,-0.125427,0.975235,-0.140856,-0.04201,-0.002433,90.35759,17.952698,-146.141525,,,
729706141.561846,-7.222841,4.71288,166.997167,-0.085175,-0.125427,0.975235,-0.140856,-0.04201,-0.002433,90.35759,17.952698,-146.141525,,,
729706141.565194,-7.262832,4.699259,167.00003,-0.085175,-0.125427,0.975235,-0.140856,-0.04201,-0.002433,90.35759,17.952698,-146.141525,,,
729706141.568451,-7.304742,4.685434,167.003068,-0.083466,-0.127747,0.981033,-0.146893,-0.047134,-0.002074,90.35759,17.952698,-146.141525,,,
729706141.571813,-7.304742,4.685434,167.003068,-0.083466,-0.127747,0.981033,-0.146893,-0.047134,-0.002074,90.35759,17.952698,-146.141525,,,
729706141.575137,-7.34655,4.671273,167.006187,-0.083466,-0.127747,0.981033,-0.146893,-0.047134,-0.002074,90.35759,17.952698,-146.141525,,,
729706141.578454,-7.389816,4.658597,167.009716,-0.08461,-0.130203,0.989197,-0.15119,-0.040675,5.8e-05,90.35759,17.952698,-146.141525,,,
729706141.58181,-7.389816,4.658597,167.009716,-0.08461,-0.130203,0.989197,-0.15119,-0.040675,5.8e-05,90.35759,17.952698,-146.141525,,,
729706141.585121,-7.431912,4.646908,167.014815,-0.08461,-0.130203,0.989197,-0.15119,-0.040675,5.8e-05,90.35759,17.952698,-146.141525,,,
729706141.588455,-7.473466,4.637183,167.021907,-0.084946,-0.138397,0.99231,-0.14288,-0.032687,0.014113,90.35759,17.952698,-146.141525,,,
729706141.591858,-7.473466,4.637183,167.021907,-0.084946,-0.138397,0.99231,-0.14288,-0.032687,0.014113,90.35759,17.952698,-146.141525,,,
729706141.595121,-7.512387,4.62858,167.030703,-0.084946,-0.138397,0.99231,-0.14288,-0.032687,0.014113,89.993149,18.341858,-145.990936,,,
729706141.598453,-7.551042,4.621589,167.040768,-0.081711,-0.139496,0.989517,-0.137095,-0.024738,0.023101,89.993149,18.341858,-145.990936,,,
729706141.601807,-7.551042,4.621589,167.040768,-0.081711,-0.139496,0.989517,-0.137095,-0.024738,0.023101,89.993149,18.341858,-145.990936,,,
729706141.605171,-7.588182,4.614859,167.051717,-0.081711,-0.139496,0.989517,-0.137095,-0.024738,0.023101,89.993149,18.341858,-145.990936,,,
729706141.608456,-7.62438,4.607774,167.06367,-0.080109,-0.134644,0.9832,-0.125826,-0.030185,0.03068,89.993149,18.341858,-145.990936,,,
729706141.611795,-7.62438,4.607774,167.06367,-0.080109,-0.134644,0.9832,-0.125826,-0.030185,0.03068,89.993149,18.341858,-145.990936,,,
729706141.615127,-7.658776,4.600642,167.075705,-0.080109,-0.134644,0.9832,-0.125826,-0.030185,0.03068,89.993149,18.341858,-145.990936,,,
729706141.618454,-7.693721,4.592562,167.086415,-0.077484,-0.131882,0.980209,-0.122548,-0.031997,0.022251,89.993149,18.341858,-145.990936,,,
729706141.621822,-7.693721,4.592562,167.086415,-0.077484,-0.131882,0.980209,-0.122548,-0.031997,0.022251,89.993149,18.341858,-145.990936,,,
729706141.625136,-7.727326,4.583908,167.095172,-0.077484,-0.131882,0.980209,-0.122548,-0.031997,0.022251,89.993149,18.341858,-145.990936,,,
729706141.62846,-7.763162,4.572987,167.102198,-0.076477,-0.132935,0.973846,-0.129155,-0.040297,0.010542,89.993149,18.341858,-145.990936,,,
729706141.631865,-7.763162,4.572987,167.102198,-0.076477,-0.132935,0.973846,-0.129155,-0.040297,0.010542,89.993149,18.341858,-145.990936,,,
729706141.635121,-7.799268,4.561103,167.108344,-0.076477,-0.132935,0.973846,-0.129155,-0.040297,0.010542,89.915604,18.42897,-145.989014,,,
729706141.638457,-7.838188,4.545483,167.113772,-0.07756,-0.130173,0.966415,-0.139193,-0.059039,0.005719,89.915604,18.42897,-145.989014,,,
729706141.641809,-7.838188,4.545483,167.113772,-0.07756,-0.130173,0.966415,-0.139193,-0.059039,0.005719,89.915604,18.42897,-145.989014,,,
729706141.645182,-7.879038,4.527836,167.119394,-0.07756,-0.130173,0.966415,-0.139193,-0.059039,0.005719,89.915604,18.42897,-145.989014,,,
729706141.648449,-7.925957,4.504559,167.124412,-0.075333,-0.127579,0.956207,-0.172417,-0.090841,-6.5e-05,89.915604,18.42897,-145.989014,,,
729706141.651812,-7.925957,4.504559,167.124412,-0.075333,-0.127579,0.956207,-0.172417,-0.090841,-6.5e-05,89.915604,18.42897,-145.989014,,,
729706141.65512,-7.976341,4.476983,167.12852,-0.075333,-0.127579,0.956207,-0.172417,-0.090841,-6.5e-05,89.915604,18.42897,-145.989014,,,
729706141.658456,-8.032086,4.445668,167.131854,-0.076385,-0.131241,0.950836,-0.200135,-0.110374,-0.006575,89.915604,18.42897,-145.989014,,,
729706141.661803,-8.032086,4.445668,167.131854,-0.076385,-0.131241,0.950836,-0.200135,-0.110374,-0.006575,89.915604,18.42897,-145.989014,,,
729706141.665132,-8.091129,4.414153,167.134306,-0.076385,-0.131241,0.950836,-0.200135,-0.110374,-0.006575,89.915604,18.42897,-145.989014,,,
729706141.668456,-8.155335,4.380711,167.135311,-0.072708,-0.134506,0.961411,-0.229566,-0.114104,-0.017481,89.915604,18.42897,-145.989014,,,
729706141.671866,-8.155335,4.380711,167.135311,-0.072708,-0.134506,0.961411,-0.229566,-0.114104,-0.017481,89.915604,18.42897,-145.989014,,,
729706141.675122,-8.222815,4.348407,167.135328,-0.072708,-0.134506,0.961411,-0.229566,-0.114104,-0.017481,89.92215,18.693329,-146.044113,,,
729706141.678451,-8.293133,4.315756,167.134482,-0.069351,-0.138702,0.966446,-0.24691,-0.108064,-0.023379,89.92215,18.693329,-146.044113,,,
729706141.681808,-8.293133,4.315756,167.134482,-0.069351,-0.138702,0.966446,-0.24691,-0.108064,-0.023379,89.92215,18.693329,-146.044113,,,
729706141.685179,-8.363928,4.284778,167.133037,-0.069351,-0.138702,0.966446,-0.24691,-0.108064,-0.023379,89.92215,18.693329,-146.044113,,,
729706141.688446,-8.435831,4.253715,167.131331,-0.068436,-0.145325,0.973999,-0.248779,-0.103531,-0.024305,89.92215,18.693329,-146.044113,,,
729706141.691808,-8.435831,4.253715,167.131331,-0.068436,-0.145325,0.973999,-0.248779,-0.103531,-0.024305,89.92215,18.693329,-146.044113,,,
729706141.695133,-8.505565,4.223244,167.13083,-0.068436,-0.145325,0.973999,-0.248779,-0.103531,-0.024305,89.92215,18.693329,-146.044113,,,
729706141.698451,-8.575758,4.192026,167.131618,-0.07074,-0.150497,0.976303,-0.242738,-0.105566,-0.014022,89.92215,18.693329,-146.044113,,,
729706141.701843,-8.575758,4.192026,167.131618,-0.07074,-0.150497,0.976303,-0.242738,-0.105566,-0.014022,89.92215,18.693329,-146.044113,,,
729706141.705128,-8.643869,4.162004,167.132892,-0.07074,-0.150497,0.976303,-0.242738,-0.105566,-0.014022,89.92215,18.693329,-146.044113,,,
729706141.708476,-8.713526,4.131896,167.133806,-0.068008,-0.1521,0.978622,-0.242255,-0.102043,-0.015623,89.92215,18.693329,-146.044113,,,
729706141.711858,-8.713526,4.131896,167.133806,-0.068008,-0.1521,0.978622,-0.242255,-0.102043,-0.015623,89.92215,18.693329,-146.044113,,,
729706141.71515,-8.781959,4.102887,167.134866,-0.068008,-0.1521,0.978622,-0.242255,-0.102043,-0.015623,89.92215,18.693329,-146.044113,,,
729706141.718484,-8.853232,4.074065,167.135619,-0.065369,-0.152985,0.975739,-0.248603,-0.09532,-0.017164,89.568665,19.380234,-146.477219,,,
729706141.721808,-8.853232,4.074065,167.135619,-0.065369,-0.152985,0.975739,-0.248603,-0.09532,-0.017164,89.568665,19.380234,-146.477219,,,
729706141.725204,-8.92328,4.048338,167.136025,-0.065369,-0.152985,0.975739,-0.248603,-0.09532,-0.017164,89.568665,19.380234,-146.477219,,,
729706141.728458,-8.997593,4.024449,167.135728,-0.065369,-0.151993,0.977859,-0.261453,-0.07527,-0.021699,89.568665,19.380234,-146.477219,,,
729706141.731816,-8.997593,4.024449,167.135728,-0.064529,-0.151993,0.977859,-0.261453,-0.07527,-0.021699,89.568665,19.380234,-146.477219,,,
729706141.735189,-9.072139,4.003995,167.134992,-0.064529,-0.151993,0.977859,-0.261453,-0.07527,-0.021699,89.568665,19.380234,-146.477219,,,
729706141.738487,-9.152211,3.985027,167.133468,-0.06105,-0.153397,0.970901,-0.283796,-0.058077,-0.027527,89.568665,19.380234,-146.477219,,,
729706141.741819,-9.152211,3.985027,167.133468,-0.06105,-0.153397,0.970901,-0.283796,-0.058077,-0.027527,89.568665,19.380234,-146.477219,,,
729706141.745148,-9.233522,3.969615,167.131766,-0.06105,-0.153397,0.970901,-0.283796,-0.058077,-0.027527,89.568665,19.380234,-146.477219,,,
729706141.748455,-9.319124,3.95663,167.129374,-0.061127,-0.158508,0.973938,-0.299253,-0.03487,-0.03234,89.568665,19.380234,-146.477219,,,
729706141.751864,-9.319124,3.95663,167.129374,-0.061127,-0.158508,0.973938,-0.299253,-0.03487,-0.03234,89.568665,19.380234,-146.477219,,,
729706141.75512,-9.405507,3.947636,167.126821,-0.061127,-0.158508,0.973938,-0.299253,-0.03487,-0.03234,89.568665,19.380234,-146.477219,,,
729706141.758497,-9.497973,3.942274,167.125151,-0.061783,-0.160126,0.978531,-0.328046,-0.008347,-0.027772,89.29422,19.997269,-146.413773,,,
729706141.761805,-9.497973,3.942274,167.125151,-0.061783,-0.160126,0.978531,-0.328046,-0.008347,-0.027772,89.29422,19.997269,-146.413773,,,
729706141.765179,-9.592602,3.940819,167.124075,-0.061783,-0.160126,0.978531,-0.328046,-0.008347,-0.027772,89.29422,19.997269,-146.413773,,,
729706141.768486,-9.592602,3.943136,167.123272,-0.061783,-0.160126,0.978531,-0.356326,0.018398,-0.027675,89.29422,19.997269,-146.413773,,,
729706141.771802,-9.693073,3.943136,167.123272,-0.062576,-0.164658,0.975983,-0.356326,0.018398,-0.027675,89.29422,19.997269,-146.413773,,,
729706141.775127,-9.79689,3.949163,167.123404,-0.062576,-0.164658,0.975983,-0.356326,0.018398,-0.027675,89.29422,19.997269,-146.413773,,,
729706141.778473,-9.79689,3.956798,167.124624,-0.062576,-0.164658,0.975983,-0.390962,0.030521,-0.02226,89.29422,19.997269,-146.413773,,,
729706141.781812,-9.907175,3.956798,167.124624,-0.065918,-0.16954,0.97612,-0.390962,0.030521,-0.02226,89.29422,19.997269,-146.413773,,,
729706141.785126,-10.021043,3.965317,167.125892,-0.065918,-0.16954,0.97612,-0.390962,0.030521,-0.02226,89.29422,19.997269,-146.413773,,,
729706141.788473,-10.021043,3.965317,167.125892,-0.065918,-0.16954,0.97612,-0.390962,0.030521,-0.02226,89.29422,19.997269,-146.413773,,,
729706141.791877,-10.137257,3.973694,167.125502,-0.065308,-0.172073,0.973358,-0.40636,0.031493,-0.034866,89.29422,19.997269,-146.413773,,,
729706141.795125,-10.254482,3.982067,167.122709,-0.065308,-0.172073,0.973358,-0.40636,0.031493,-0.034866,89.29422,19.997269,-146.413773,,,
729706141.79858,-10.254482,3.990526,167.117414,-0.065308,-0.172073,0.973358,-0.409341,0.035205,-0.052376,89.526489,20.375092,-146.065109,,,
729706141.801807,-10.372327,3.990526,167.117414,-0.066193,-0.175797,0.977036,-0.409341,0.035205,-0.052376,89.526489,20.375092,-146.065109,,,
729706141.805128,-10.490313,3.997558,167.109273,-0.066193,-0.175797,0.977036,-0.409341,0.035205,-0.052376,89.526489,20.375092,-146.065109,,,
729706141.808559,-10.490313,3.997558,167.109273,-0.066193,-0.175797,0.977036,-0.409341,0.035205,-0.052376,89.526489,20.375092,-146.065109,,,
729706141.811807,-10.607707,4.001787,167.097526,-0.06749,-0.17955,0.979401,-0.403371,0.020335,-0.076752,89.526489,20.375092,-146.065109,,,
729706141.81515,-10.724781,4.002049,167.08286,-0.06749,-0.17955,0.979401,-0.403371,0.020335,-0.076752,89.526489,20.375092,-146.065109,,,
729706141.818528,-10.724781,4.002049,167.08286,-0.06749,-0.17955,0.979401,-0.403371,0.020335,-0.076752,89.526489,20.375092,-146.065109,,,
729706141.821818,-10.841701,3.997303,167.066366,-0.069824,-0.184265,0.975342,-0.401315,-0.012001,-0.089064,89.526489,20.375092,-146.065109,,,
729706141.825126,-10.958539,3.986477,167.048169,-0.069824,-0.184265,0.975342,-0.401315,-0.012001,-0.089064,89.526489,20.375092,-146.065109,,,
729706141.828544,-10.958539,3.986477,167.048169,-0.069824,-0.184265,0.975342,-0.401315,-0.012001,-0.089064,89.526489,20.375092,-146.065109,,,
729706141.831806,-11.075608,3.969726,167.028503,-0.076965,-0.191147,0.969513,-0.402144,-0.051085,-0.098901,89.526489,20.375092,-146.065109,,,
729706141.835167,-11.193861,3.948352,167.008217,-0.076965,-0.191147,0.969513,-0.402144,-0.051085,-0.098901,89.526489,20.375092,-146.065109,,,
729706141.838554,-11.193861,3.948352,167.008217,-0.076965,-0.191147,0.969513,-0.402144,-0.051085,-0.098901,89.526489,20.375092,-146.065109,,,
729706141.841853,-11.314145,3.923717,166.988095,-0.077164,-0.192978,0.967438,-0.416274,-0.073749,-0.098327,89.18895,21.326782,-146.179108,,,
729706141.845124,-11.436704,3.89666,166.96801,-0.077164,-0.192978,0.967438,-0.416274,-0.073749,-0.098327,89.18895,21.326782,-146.179108,,,
729706141.848401,-11.436704,3.89666,166.96801,-0.077164,-0.192978,0.967438,-0.416274,-0.073749,-0.098327,89.18895,21.326782,-146.179108,,,
729706141.85182,-11.561865,3.868313,166.94859,-0.076218,-0.1978,0.970932,-0.434957,-0.083439,-0.094601,89.18895,21.326782,-146.179108,,,
729706141.855126,-11.690497,3.840529,166.930411,-0.076218,-0.1978,0.970932,-0.434957,-0.083439,-0.094601,89.18895,21.326782,-146.179108,,,
729706141.858511,-11.690497,3.840529,166.930411,-0.076218,-0.1978,0.970932,-0.434957,-0.083439,-0.094601,89.18895,21.326782,-146.179108,,,
729706141.86179,-11.822847,3.815089,166.913821,-0.074936,-0.203445,0.976395,-0.461828,-0.069136,-0.085122,89.18895,21.326782,-146.179108,,,
729706141.865159,-11.95879,3.791995,166.898922,-0.074936,-0.203445,0.976395,-0.461828,-0.069136,-0.085122,89.18895,21.326782,-146.179108,,,
729706141.868622,-11.95879,3.791995,166.898922,-0.074936,-0.203445,0.976395,-0.461828,-0.069136,-0.085122,89.18895,21.326782,-146.179108,,,
729706141.871796,-12.09817,3.77036,166.885318,-0.075378,-0.208649,0.972519,-0.486607,-0.060652,-0.077483,89.18895,21.326782,-146.179108,,,
729706141.875129,-12.24085,3.750216,166.873651,-0.075378,-0.208649,0.972519,-0.486607,-0.060652,-0.077483,89.18895,21.326782,-146.179108,,,
729706141.878501,-12.24085,3.750216,166.873651,-0.075378,-0.208649,0.972519,-0.486607,-0.060652,-0.077483,89.18895,21.326782,-146.179108,,,
729706141.881872,-12.386018,3.73148,166.864037,-0.076202,-0.21669,0.970871,-0.505094,-0.053737,-0.064331,89.374069,22.712189,-146.139145,,,
729706141.885129,-12.532691,3.713449,166.856501,-0.076202,-0.21669,0.970871,-0.505094,-0.053737,-0.064331,89.374069,22.712189,-146.139145,,,
729706141.888513,-12.532691,3.713449,166.856501,-0.076202,-0.21669,0.970871,-0.505094,-0.053737,-0.064331,89.374069,22.712189,-146.139145,,,
729706141.891801,-12.681075,3.695328,166.850967,-0.076279,-0.221588,0.970398,-0.518165,-0.057322,-0.051188,89.374069,22.712189,-146.139145,,,
729706141.895135,-12.831732,3.675315,166.84653,-0.076279,-0.221588,0.970398,-0.518165,-0.057322,-0.051188,89.374069,22.712189,-146.139145,,,
729706141.898511,-12.831732,3.675315,166.84653,-0.076279,-0.221588,0.970398,-0.518165,-0.057322,-0.051188,89.374069,22.712189,-146.139145,,,
729706141.901826,-12.98394,3.65145,166.84125,-0.075333,-0.222336,0.961105,-0.528863,-0.082817,-0.057189,89.374069,22.712189,-146.139145,,,
729706141.90513,-13.137388,3.623421,166.832884,-0.075333,-0.222336,0.961105,-0.528863,-0.082817,-0.057189,89.374069,22.712189,-146.139145,,,
729706141.908607,-13.137388,3.623421,166.832884,-0.075333,-0.222336,0.961105,-0.528863,-0.082817,-0.057189,89.374069,22.712189,-146.139145,,,
729706141.911818,-13.292004,3.590576,166.820742,-0.071976,-0.220459,0.959106,-0.535677,-0.110263,-0.082698,89.374069,22.712189,-146.139145,,,
729706141.915142,-13.44768,3.551608,166.806022,-0.071976,-0.220459,0.959106,-0.535677,-0.110263,-0.082698,89.374069,22.712189,-146.139145,,,
729706141.918467,-13.44768,3.551608,166.806022,-0.071976,-0.220459,0.959106,-0.535677,-0.110263,-0.082698,89.374069,22.712189,-146.139145,,,
729706141.921798,-13.604121,3.5059,166.789118,-0.067795,-0.226807,0.950531,-0.540254,-0.15342,-0.096918,89.058197,23.752365,-146.069519,,,
729706141.925138,-13.761797,3.453718,166.769389,-0.067795,-0.226807,0.950531,-0.540254,-0.15342,-0.096918,89.058197,23.752365,-146.069519,,,
729706141.928483,-13.761797,3.453718,166.769389,-0.067795,-0.226807,0.950531,-0.540254,-0.15342,-0.096918,89.058197,23.752365,-146.069519,,,
729706141.931867,-13.920917,3.395549,166.746935,-0.060745,-0.230362,0.94342,-0.549238,-0.190177,-0.11473,89.058197,23.752365,-146.069519,,,
729706141.935122,-14.081293,3.331808,166.722309,-0.060745,-0.230362,0.94342,-0.549238,-0.190177,-0.11473,89.058197,23.752365,-146.069519,,,
729706141.938479,-14.081293,3.331808,166.722309,-0.060745,-0.230362,0.94342,-0.549238,-0.190177,-0.11473,89.058197,23.752365,-146.069519,,,
729706141.941818,-14.243636,3.262477,166.695762,-0.058838,-0.237335,0.942337,-0.562271,-0.225307,-0.127034,89.058197,23.752365,-146.069519,,,
729706141.945133,-14.408252,3.187387,166.666142,-0.058838,-0.237335,0.942337,-0.562271,-0.225307,-0.127034,89.058197,23.752365,-146.069519,,,
729706141.948489,-14.408252,3.187387,166.666142,-0.058838,-0.237335,0.942337,-0.562271,-0.225307,-0.127034,89.058197,23.752365,-146.069519,,,
729706141.951808,-14.574951,3.106575,166.632817,-0.04985,-0.240402,0.9422,-0.575564,-0.258055,-0.151051,89.058197,23.752365,-146.069519,,,
729706141.955138,-14.741483,3.020352,166.595008,-0.04985,-0.240402,0.9422,-0.575564,-0.258055,-0.151051,89.058197,23.752365,-146.069519,,,
729706141.958549,-14.741483,3.020352,166.595008,-0.04985,-0.240402,0.9422,-0.575564,-0.258055,-0.151051,89.058197,23.752365,-146.069519,,,
729706141.961789,-14.90621,2.931563,166.551916,-0.038528,-0.249908,0.952621,-0.561463,-0.265691,-0.183909,88.422409,25.015335,-146.252914,,,
729706141.965138,-15.068022,2.843271,166.503723,-0.038528,-0.249908,0.952621,-0.561463,-0.265691,-0.183909,88.422409,25.015335,-146.252914,,,
729706141.968481,-15.068022,2.843271,166.503723,-0.038528,-0.249908,0.952621,-0.561463,-0.265691,-0.183909,88.422409,25.015335,-146.252914,,,
729706141.971878,-15.223952,2.756307,166.452056,-0.037628,-0.266754,0.974014,-0.519802,-0.24915,-0.203213,88.422409,25.015335,-146.252914,,,
729706141.97513,-15.371661,2.671993,166.399115,-0.037628,-0.266754,0.974014,-0.519802,-0.24915,-0.203213,88.422409,25.015335,-146.252914,,,
729706141.978484,-15.371661,2.671993,166.399115,-0.037628,-0.266754,0.974014,-0.519802,-0.24915,-0.203213,88.422409,25.015335,-146.252914,,,
729706141.981811,-15.510217,2.59212,166.346984,-0.044266,-0.285294,0.997452,-0.456805,-0.218758,-0.193089,88.422409,25.015335,-146.252914,,,
729706141.985174,-15.637564,2.517689,166.297674,-0.044266,-0.285294,0.997452,-0.456805,-0.218758,-0.193089,88.422409,25.015335,-146.252914,,,
729706141.988469,-15.637564,2.517689,166.297674,-0.044266,-0.285294,0.997452,-0.456805,-0.218758,-0.193089,88.422409,25.015335,-146.252914,,,
729706141.991819,-15.752665,2.449271,166.253087,-0.049072,-0.298904,1.007858,-0.373295,-0.185026,-0.156377,88.422409,25.015335,-146.252914,,,
729706141.995139,-15.857914,2.386161,166.214923,-0.049072,-0.298904,1.007858,-0.373295,-0.185026,-0.156377,88.422409,25.015335,-146.252914,,,
729706141.998522,-15.857914,2.386161,166.214923,-0.049072,-0.298904,1.007858,-0.373295,-0.185026,-0.156377,88.422409,25.015335,-146.252914,,,
729706142.001796,-15.955557,2.327781,166.183708,-0.04718,-0.305527,0.991257,-0.322746,-0.164988,-0.106815,88.422409,25.015335,-146.252914,,,
729706142.00514,-16.043766,2.275405,166.159968,-0.04718,-0.305527,0.991257,-0.322746,-0.164988,-0.106815,88.011978,25.767822,-146.38559,,,
729706142.008487,-16.043766,2.275405,166.159968,-0.04718,-0.305527,0.991257,-0.322746,-0.164988,-0.106815,88.011978,25.767822,-146.38559,,,
729706142.011857,-16.120777,2.230812,166.143654,-0.045181,-0.309326,0.993973,-0.247061,-0.124945,-0.053529,88.011978,25.767822,-146.38559,,,
729706142.015132,-16.187528,2.195805,166.134277,-0.045181,-0.309326,0.993973,-0.247061,-0.124945,-0.053529,88.011978,25.767822,-146.38559,,,
729706142.018479,-16.187528,2.195805,166.134277,-0.045181,-0.309326,0.993973,-0.247061,-0.124945,-0.053529,88.011978,25.767822,-146.38559,,,
729706142.02182,-16.245015,2.171757,166.130826,-0.042557,-0.306808,1.009949,-0.184234,-0.060117,-0.011231,88.011978,25.767822,-146.38559,,,
729706142.025133,-16.29538,2.159755,166.132317,-0.042557,-0.306808,1.009949,-0.184234,-0.060117,-0.011231,88.011978,25.767822,-146.38559,,,
729706142.028479,-16.29538,2.159755,166.132317,-0.042557,-0.306808,1.009949,-0.184234,-0.060117,-0.011231,88.011978,25.767822,-146.38559,,,
729706142.03181,-16.340396,2.158793,166.137876,-0.033813,-0.301773,1.000122,-0.148106,0.008808,0.017328,88.011978,25.767822,-146.38559,,,
729706142.035133,-16.381025,2.165894,166.14683,-0.033813,-0.301773,1.000122,-0.148106,0.008808,0.017328,88.011978,25.767822,-146.38559,,,
729706142.038521,-16.381025,2.165894,166.14683,-0.033813,-0.301773,1.000122,-0.148106,0.008808,0.017328,88.011978,25.767822,-146.38559,,,
729706142.041804,-16.418811,2.178429,166.15865,-0.035904,-0.296326,0.981323,-0.129113,0.040974,0.037145,88.011978,25.767822,-146.38559,,,
729706142.045136,-16.454611,2.194314,166.172646,-0.035904,-0.296326,0.981323,-0.129113,0.040974,0.037145,88.137344,25.989105,-146.24263,,,
729706142.048557,-16.454611,2.194314,166.172646,-0.035904,-0.296326,0.981323,-0.129113,0.040974,0.037145,88.137344,25.989105,-146.24263,,,
729706142.05187,-16.488949,2.213071,166.187851,-0.037292,-0.289474,0.969208,-0.119373,0.058525,0.045526,88.137344,25.989105,-146.24263,,,
729706142.055136,-16.523265,2.234601,166.20372,-0.037292,-0.289474,0.969208,-0.119373,0.058525,0.045526,88.137344,25.989105,-146.24263,,,
729706142.058511,-16.523265,2.234601,166.20372,-0.037292,-0.289474,0.969208,-0.119373,0.058525,0.045526,88.137344,25.989105,-146.24263,,,
729706142.061806,-16.559173,2.257418,166.219232,-0.037582,-0.286774,0.96022,-0.130494,0.068124,0.042621,88.137344,25.989105,-146.24263,,,
729706142.065146,-16.597354,2.279076,166.234111,-0.037582,-0.286774,0.96022,-0.130494,0.068124,0.042621,88.137344,25.989105,-146.24263,,,
729706142.068502,-16.597354,2.279076,166.234111,-0.037582,-0.286774,0.96022,-0.130494,0.068124,0.042621,88.137344,25.989105,-146.24263,,,
729706142.071824,-16.637013,2.297247,166.248209,-0.035126,-0.285004,0.942154,-0.140713,0.045305,0.036921,88.137344,25.989105,-146.24263,,,
729706142.075144,-16.67677,2.309655,166.260441,-0.035126,-0.285004,0.942154,-0.140713,0.045305,0.036921,88.137344,25.989105,-146.24263,,,
729706142.078543,-16.67677,2.309655,166.260441,-0.035126,-0.285004,0.942154,-0.140713,0.045305,0.036921,88.137344,25.989105,-146.24263,,,
729706142.081837,-16.716061,2.31577,166.27082,-0.038559,-0.287491,0.940659,-0.137082,0.005095,0.024664,88.137344,25.989105,-146.24263,,,
729706142.085132,-16.754738,2.316921,166.279693,-0.038559,-0.287491,0.940659,-0.137082,0.005095,0.024664,88.28009,26.230743,-146.276001,,,
729706142.088493,-16.754738,2.316921,166.279693,-0.038559,-0.287491,0.940659,-0.137082,0.005095,0.024664,88.28009,26.230743,-146.276001,,,
729706142.09183,-16.79291,2.313596,166.286883,-0.03653,-0.284164,0.9431,-0.133151,-0.022764,0.013583,88.28009,26.230743,-146.276001,,,
729706142.095137,-16.830438,2.305128,166.291262,-0.03653,-0.284164,0.9431,-0.133151,-0.022764,0.013583,88.28009,26.230743,-146.276001,,,
729706142.098493,-16.830438,2.305128,166.291262,-0.03653,-0.284164,0.9431,-0.133151,-0.022764,0.013583,88.28009,26.230743,-146.276001,,,
729706142.101916,-16.867455,2.291023,166.292536,-0.032425,-0.282791,0.939774,-0.128744,-0.055802,-0.006916,88.28009,26.230743,-146.276001,,,
729706142.10514,-16.904157,2.272082,166.29137,-0.032425,-0.282791,0.939774,-0.128744,-0.055802,-0.006916,88.28009,26.230743,-146.276001,,,
729706142.108495,-16.904157,2.272082,166.29137,-0.032425,-0.282791,0.939774,-0.128744,-0.055802,-0.006916,88.28009,26.230743,-146.276001,,,
729706142.111811,-16.940753,2.249676,166.288032,-0.030594,-0.283524,0.940063,-0.127437,-0.075528,-0.021248,88.28009,26.230743,-146.276001,,,
729706142.115145,-16.978089,2.22495,166.283033,-0.030594,-0.283524,0.940063,-0.127437,-0.075528,-0.021248,88.28009,26.230743,-146.276001,,,
729706142.118491,-16.978089,2.22495,166.283033,-0.030594,-0.283524,0.940063,-0.127437,-0.075528,-0.021248,88.28009,26.230743,-146.276001,,,
729706142.121825,-17.01677,2.199267,166.277328,-0.031067,-0.28479,0.940659,-0.136653,-0.080726,-0.026178,88.28009,26.230743,-146.276001,,,
729706142.125144,-17.057502,2.172769,166.271622,-0.031067,-0.28479,0.940659,-0.136653,-0.080726,-0.026178,87.9375,26.531509,-146.453156,,,
729706142.128552,-17.057502,2.172769,166.271622,-0.031067,-0.28479,0.940659,-0.136653,-0.080726,-0.026178,87.9375,26.531509,-146.453156,,,
729706142.131814,-17.101567,2.144202,166.266645,-0.030151,-0.289291,0.93512,-0.157108,-0.097244,-0.022155,87.9375,26.531509,-146.453156,,,
729706142.135136,-17.148573,2.112733,166.26197,-0.030151,-0.289291,0.93512,-0.157108,-0.097244,-0.022155,87.9375,26.531509,-146.453156,,,
729706142.13849,-17.148573,2.112733,166.26197,-0.030151,-0.289291,0.93512,-0.157108,-0.097244,-0.022155,87.9375,26.531509,-146.453156,,,
729706142.141883,-17.200506,2.077938,166.257064,-0.03009,-0.289062,0.928192,-0.186811,-0.119276,-0.024396,87.9375,26.531509,-146.453156,,,
729706142.145136,-17.256816,2.040408,166.252612,-0.03009,-0.289062,0.928192,-0.186811,-0.119276,-0.024396,87.9375,26.531509,-146.453156,,,
729706142.148492,-17.256816,2.040408,166.252612,-0.03009,-0.289062,0.928192,-0.186811,-0.119276,-0.024396,87.9375,26.531509,-146.453156,,,
729706142.151824,-17.320337,2.000209,166.247872,-0.026794,-0.286041,0.921387,-0.231847,-0.13628,-0.027335,87.9375,26.531509,-146.453156,,,
729706142.155146,-17.389827,1.95738,166.241717,-0.026794,-0.286041,0.921387,-0.231847,-0.13628,-0.027335,87.9375,26.531509,-146.453156,,,
729706142.158489,-17.389827,1.95738,166.241717,-0.026794,-0.286041,0.921387,-0.231847,-0.13628,-0.027335,87.9375,26.531509,-146.453156,,,
729706142.161825,-17.466107,1.911838,166.2338,-0.024933,-0.285995,0.918915,-0.275157,-0.149801,-0.039576,87.9375,26.531509,-146.453156,,,
729706142.165144,-17.548452,1.865872,166.224177,-0.024933,-0.285995,0.918915,-0.275157,-0.149801,-0.039576,87.9375,26.531509,-146.453156,,,
729706142.168553,-17.548452,1.865872,166.224177,-0.024933,-0.285995,0.918915,-0.275157,-0.149801,-0.039576,87.635223,26.968857,-146.343811,,,
729706142.17182,-17.639019,1.818248,166.212327,-0.021988,-0.286774,0.920807,-0.327029,-0.152204,-0.054179,87.635223,26.968857,-146.343811,,,
729706142.175146,-17.734759,1.769735,166.199024,-0.021988,-0.286774,0.920807,-0.327029,-0.152204,-0.054179,87.635223,26.968857,-146.343811,,,
729706142.178488,-17.734759,1.769735,166.199024,-0.021988,-0.286774,0.920807,-0.327029,-0.152204,-0.054179,87.635223,26.968857,-146.343811,,,
729706142.181876,-17.837301,1.718423,166.184364,-0.019577,-0.29213,0.91864,-0.364183,-0.165997,-0.062827,87.635223,26.968857,-146.343811,,,
729706142.185137,-17.942567,1.664462,166.168734,-0.019577,-0.29213,0.91864,-0.364183,-0.165997,-0.062827,87.635223,26.968857,-146.343811,,,
729706142.188491,-17.942567,1.664462,166.168734,-0.019577,-0.29213,0.91864,-0.364183,-0.165997,-0.062827,87.635223,26.968857,-146.343811,,,
729706142.19182,-18.053679,1.609274,166.151994,-0.019058,-0.29451,0.920105,-0.39301,-0.170262,-0.06969,87.635223,26.968857,-146.343811,,,
729706142.195234,-18.167456,1.55356,166.134154,-0.019058,-0.29451,0.920105,-0.39301,-0.170262,-0.06969,87.635223,26.968857,-146.343811,,,
729706142.198479,-18.167456,1.55356,166.134154,-0.019058,-0.29451,0.920105,-0.39301,-0.170262,-0.06969,87.635223,26.968857,-146.343811,,,
729706142.201833,-18.285452,1.49516,166.114485,-0.011185,-0.304642,0.920822,-0.411964,-0.182449,-0.080671,87.635223,26.968857,-146.343811,,,
729706142.205143,-18.40274,1.435183,166.093308,-0.011185,-0.304642,0.920822,-0.411964,-0.182449,-0.080671,87.635223,26.968857,-146.343811,,,
729706142.20847,-18.40274,1.435183,166.093308,-0.011185,-0.304642,0.920822,-0.411964,-0.182449,-0.080671,87.291794,27.735687,-146.359039,,,
729706142.211835,-18.520208,1.375388,166.070828,-0.006561,-0.32048,0.934082,-0.404472,-0.175823,-0.087415,87.291794,27.735687,-146.359039,,,
729706142.215142,-18.634484,1.32,166.04782,-0.006561,-0.32048,0.934082,-0.404472,-0.175823,-0.087415,87.291794,27.735687,-146.359039,,,
729706142.218554,-18.634484,1.32,166.04782,-0.006561,-0.32048,0.934082,-0.404472,-0.175823,-0.087415,87.291794,27.735687,-146.359039,,,
729706142.221818,-18.746189,1.269189,166.024548,-0.005676,-0.326035,0.95578,-0.378706,-0.1399,-0.086703,87.291794,27.735687,-146.359039,,,
729706142.225145,-18.853297,1.223162,166.001072,-0.005676,-0.326035,0.95578,-0.378706,-0.1399,-0.086703,87.291794,27.735687,-146.359039,,,
729706142.228491,-18.853297,1.223162,166.001072,-0.005676,-0.326035,0.95578,-0.378706,-0.1399,-0.086703,87.291794,27.735687,-146.359039,,,
729706142.231881,-18.955266,1.181808,165.978105,-0.003967,-0.332336,0.963852,-0.343325,-0.108311,-0.081952,87.291794,27.735687,-146.359039,,,
729706142.235178,-19.052467,1.14516,165.956307,-0.003967,-0.332336,0.963852,-0.343325,-0.108311,-0.081952,87.291794,27.735687,-146.359039,,,
729706142.238487,-19.052467,1.14516,165.956307,-0.003967,-0.332336,0.963852,-0.343325,-0.108311,-0.081952,87.291794,27.735687,-146.359039,,,
729706142.241826,-19.146188,1.114758,165.935757,-0.004059,-0.335388,0.965164,-0.319506,-0.067472,-0.072815,87.291794,27.735687,-146.359039,,,
729706142.245148,-19.236821,1.091371,165.917308,-0.004059,-0.335388,0.965164,-0.319506,-0.067472,-0.072815,87.291794,27.735687,-146.359039,,,
729706142.248473,-19.236821,1.091371,165.917308,-0.004059,-0.335388,0.965164,-0.319506,-0.067472,-0.072815,87.111969,28.384659,-146.19136,,,
729706142.251822,-19.325174,1.074303,165.902293,-0.009201,-0.340439,0.959091,-0.304147,-0.031204,-0.049657,87.111969,28.384659,-146.19136,,,
729706142.255145,-19.41244,1.062707,165.891406,-0.009201,-0.340439,0.959091,-0.304147,-0.031204,-0.049657,87.111969,28.384659,-146.19136,,,
729706142.258532,-19.41244,1.062707,165.891406,-0.009201,-0.340439,0.959091,-0.304147,-0.031204,-0.049657,87.111969,28.384659,-146.19136,,,
729706142.261818,-19.500409,1.055634,165.884452,-0.011765,-0.344711,0.946747,-0.309489,-0.008747,-0.0238,87.111969,28.384659,-146.19136,,,
729706142.265145,-19.591581,1.051346,165.880822,-0.011765,-0.344711,0.946747,-0.309489,-0.008747,-0.0238,87.111969,28.384659,-146.19136,,,
729706142.268506,-19.591581,1.051346,165.880822,-0.011765,-0.344711,0.946747,-0.309489,-0.008747,-0.0238,87.111969,28.384659,-146.19136,,,
729706142.271888,-19.686476,1.048193,165.879819,-0.012009,-0.342911,0.928406,-0.335665,-0.007001,-0.006994,87.111969,28.384659,-146.19136,,,
729706142.275145,-19.785137,1.045507,165.880847,-0.012009,-0.342911,0.928406,-0.335665,-0.007001,-0.006994,87.111969,28.384659,-146.19136,,,
729706142.278494,-19.785137,1.045507,165.880847,-0.012009,-0.342911,0.928406,-0.335665,-0.007001,-0.006994,87.111969,28.384659,-146.19136,,,
729706142.281833,-19.886611,1.042583,165.882993,-0.013275,-0.34198,0.929657,-0.355303,-0.011334,7e-06,87.111969,28.384659,-146.19136,,,
729706142.285147,-19.98961,1.039379,165.88503,-0.013275,-0.34198,0.929657,-0.355303,-0.011334,7e-06,87.111969,28.384659,-146.19136,,,
729706142.28854,-19.98961,1.039379,165.88503,-0.013275,-0.34198,0.929657,-0.355303,-0.011334,7e-06,87.055634,29.228241,-145.96489,,,
729706142.291822,-20.094309,1.035133,165.885743,-0.011536,-0.343384,0.934387,-0.366895,-0.015479,-0.008839,87.055634,29.228241,-145.96489,,,
729706142.295145,-20.199862,1.028192,165.884816,-0.011536,-0.343384,0.934387,-0.366895,-0.015479,-0.008839,87.055634,29.228241,-145.96489,,,
729706142.298479,-20.199862,1.028192,165.884816,-0.011536,-0.343384,0.934387,-0.366895,-0.015479,-0.008839,87.055634,29.228241,-145.96489,,,
729706142.301848,-20.306496,1.018467,165.882267,-0.009491,-0.34671,0.929749,-0.374157,-0.030985,-0.01946,87.055634,29.228241,-145.96489,,,
729706142.30514,-20.414586,1.00634,165.878675,-0.009491,-0.34671,0.929749,-0.374157,-0.030985,-0.01946,87.055634,29.228241,-145.96489,,,
729706142.308496,-20.414586,1.00634,165.878675,-0.009491,-0.34671,0.929749,-0.374157,-0.030985,-0.01946,87.055634,29.228241,-145.96489,,,
729706142.311881,-20.52212,0.989804,165.873489,-0.014938,-0.350693,0.924164,-0.370019,-0.057796,-0.029599,87.055634,29.228241,-145.96489,,,
729706142.315136,-20.627709,0.966119,165.866914,-0.014938,-0.350693,0.924164,-0.370019,-0.057796,-0.029599,87.055634,29.228241,-145.96489,,,
729706142.3185,-20.627709,0.966119,165.866914,-0.014938,-0.350693,0.924164,-0.370019,-0.057796,-0.029599,87.055634,29.228241,-145.96489,,,
729706142.321833,-20.730782,0.934936,165.860104,-0.016022,-0.357651,0.921021,-0.35241,-0.109398,-0.03043,87.055634,29.228241,-145.96489,,,
729706142.325142,-20.830991,0.897148,165.85228,-0.016022,-0.357651,0.921021,-0.35241,-0.109398,-0.03043,87.055634,29.228241,-145.96489,,,
729706142.328491,-20.830991,0.897148,165.85228,-0.016022,-0.357651,0.921021,-0.35241,-0.109398,-0.03043,87.055634,29.228241,-145.96489,,,
729706142.331823,-20.928276,0.853711,165.843099,-0.012497,-0.360001,0.918945,-0.331847,-0.145263,-0.038398,86.762924,29.920212,-146.044373,,,
729706142.335139,-21.021563,0.803022,165.832391,-0.012497,-0.360001,0.918945,-0.331847,-0.145263,-0.038398,86.762924,29.920212,-146.044373,,,
729706142.338532,-21.021563,0.803022,165.832391,-0.012497,-0.360001,0.918945,-0.331847,-0.145263,-0.038398,86.762924,29.920212,-146.044373,,,
729706142.341816,-21.111393,0.743216,165.819411,-0.008682,-0.357025,0.915298,-0.307826,-0.203101,-0.052181,86.762924,29.920212,-146.044373,,,
729706142.345142,-21.199613,0.673904,165.803403,-0.008682,-0.357025,0.915298,-0.307826,-0.203101,-0.052181,86.762924,29.920212,-146.044373,,,
729706142.348483,-21.199613,0.673904,165.803403,-0.008682,-0.357025,0.915298,-0.307826,-0.203101,-0.052181,86.762924,29.920212,-146.044373,,,
729706142.351897,-21.287828,0.595484,165.783835,-0.003754,-0.358246,0.90239,-0.307878,-0.257545,-0.074468,86.762924,29.920212,-146.044373,,,
729706142.355154,-21.378,0.509479,165.760207,-0.003754,-0.358246,0.90239,-0.307878,-0.257545,-0.074468,86.762924,29.920212,-146.044373,,,
729706142.358494,-21.378,0.509479,165.760207,-0.003754,-0.358246,0.90239,-0.307878,-0.257545,-0.074468,86.762924,29.920212,-146.044373,,,
729706142.361814,-21.47033,0.416571,165.732547,-0.003662,-0.359711,0.900635,-0.32313,-0.29529,-0.099689,86.762924,29.920212,-146.044373,,,
729706142.365144,-21.563817,0.317529,165.701512,-0.003662,-0.359711,0.900635,-0.32313,-0.29529,-0.099689,86.762924,29.920212,-146.044373,,,
729706142.368491,-21.563817,0.317529,165.701512,-0.003662,-0.359711,0.900635,-0.32313,-0.29529,-0.099689,86.762924,29.920212,-146.044373,,,
729706142.371834,-21.658308,0.214158,165.66772,-0.003494,-0.363754,0.907898,-0.330567,-0.318204,-0.116363,86.338943,30.587372,-145.991211,,,
729706142.375215,-21.7549,0.108401,165.631842,-0.003494,-0.363754,0.907898,-0.330567,-0.318204,-0.116363,86.338943,30.587372,-145.991211,,,
729706142.378549,-21.7549,0.108401,165.631842,-0.003494,-0.363754,0.907898,-0.330567,-0.318204,-0.116363,86.338943,30.587372,-145.991211,,,
729706142.381819,-21.853892,0.003334,165.594702,0.000671,-0.366043,0.90889,-0.347933,-0.30991,-0.12319,86.338943,30.587372,-145.991211,,,
729706142.385144,-21.954912,-0.099632,165.556708,0.000671,-0.366043,0.90889,-0.347933,-0.30991,-0.12319,86.338943,30.587372,-145.991211,,,
729706142.3885,-21.954912,-0.099632,165.556708,0.000671,-0.366043,0.90889,-0.347933,-0.30991,-0.12319,86.338943,30.587372,-145.991211,,,
729706142.391876,-22.057727,-0.199973,165.518923,0.002792,-0.37088,0.915649,-0.36108,-0.291903,-0.120431,86.338943,30.587372,-145.991211,,,
729706142.395165,-22.163404,-0.296567,165.482362,0.002792,-0.37088,0.915649,-0.36108,-0.291903,-0.120431,86.338943,30.587372,-145.991211,,,
729706142.398493,-22.163404,-0.296567,165.482362,0.002792,-0.37088,0.915649,-0.36108,-0.291903,-0.120431,86.338943,30.587372,-145.991211,,,
729706142.401837,-22.272841,-0.388835,165.446882,0.007721,-0.377777,0.915604,-0.387822,-0.264317,-0.111971,86.338943,30.587372,-145.991211,,,
729706142.405152,-22.386245,-0.476036,165.413242,0.007721,-0.377777,0.915604,-0.387822,-0.264317,-0.111971,86.338943,30.587372,-145.991211,,,
729706142.408491,-22.386245,-0.476036,165.413242,0.007721,-0.377777,0.915604,-0.387822,-0.264317,-0.111971,86.338943,30.587372,-145.991211,,,
729706142.411812,-22.503534,-0.557359,165.382367,0.008163,-0.380219,0.909866,-0.415067,-0.230324,-0.092606,85.668274,31.460831,-146.127304,,,
729706142.415158,-22.625446,-0.632932,165.354344,0.008163,-0.380219,0.909866,-0.415067,-0.230324,-0.092606,85.668274,31.460831,-146.127304,,,
729706142.41854,-22.625446,-0.632932,165.354344,0.008163,-0.380219,0.909866,-0.415067,-0.230324,-0.092606,85.668274,31.460831,-146.127304,,,
729706142.421806,-22.753936,-0.7037,165.32946,0.008835,-0.38327,0.904434,-0.46074,-0.204835,-0.070633,85.668274,31.460831,-146.127304,,,
729706142.425144,-22.889227,-0.771516,165.307527,0.008835,-0.38327,0.904434,-0.46074,-0.204835,-0.070633,85.668274,31.460831,-146.127304,,,
729706142.428487,-22.889227,-0.771516,165.307527,0.008835,-0.38327,0.904434,-0.46074,-0.204835,-0.070633,85.668274,31.460831,-146.127304,,,
729706142.431903,-23.03214,-0.837262,165.287779,0.010361,-0.387665,0.894547,-0.513639,-0.195944,-0.054645,85.668274,31.460831,-146.127304,,,
729706142.435163,-23.184023,-0.90049,165.269132,0.010361,-0.387665,0.894547,-0.513639,-0.195944,-0.054645,85.668274,31.460831,-146.127304,,,
729706142.438472,-23.184023,-0.90049,165.269132,0.010361,-0.387665,0.894547,-0.513639,-0.195944,-0.054645,85.668274,31.460831,-146.127304,,,
729706142.441837,-23.34485,-0.961376,165.250805,0.01297,-0.386902,0.892624,-0.575833,-0.180131,-0.050312,85.668274,31.460831,-146.127304,,,
729706142.445209,-23.514263,-1.019873,165.232462,0.01297,-0.386902,0.892624,-0.575833,-0.180131,-0.050312,85.668274,31.460831,-146.127304,,,
729706142.448471,-23.514263,-1.019873,165.232462,0.01297,-0.386902,0.892624,-0.575833,-0.180131,-0.050312,85.668274,31.460831,-146.127304,,,
729706142.451851,-23.692531,-1.076133,165.214052,0.013794,-0.39444,0.897415,-0.637437,-0.163969,-0.048225,85.668274,31.460831,-146.127304,,,
729706142.455138,-23.879846,-1.130072,165.195969,0.013794,-0.39444,0.897415,-0.637437,-0.163969,-0.048225,85.204697,32.225601,-146.095535,,,
729706142.458531,-23.879846,-1.130072,165.195969,0.013794,-0.39444,0.897415,-0.637437,-0.163969,-0.048225,85.204697,32.225601,-146.095535,,,
729706142.461821,-24.074863,-1.180953,165.178532,0.012726,-0.404327,0.899796,-0.690883,-0.144075,-0.041667,85.204697,32.225601,-146.095535,,,
729706142.465159,-24.275828,-1.228664,165.162456,0.012726,-0.404327,0.899796,-0.690883,-0.144075,-0.041667,85.204697,32.225601,-146.095535,,,
729706142.468491,-24.275828,-1.228664,165.162456,0.012726,-0.404327,0.899796,-0.690883,-0.144075,-0.041667,85.204697,32.225601,-146.095535,,,
729706142.471873,-24.48032,-1.273973,165.14885,0.008743,-0.419006,0.911621,-0.714942,-0.134058,-0.02413,85.204697,32.225601,-146.095535,,,
729706142.475183,-24.686433,-1.317929,165.138042,0.008743,-0.419006,0.911621,-0.714942,-0.134058,-0.02413,85.204697,32.225601,-146.095535,,,
729706142.478486,-24.686433,-1.317929,165.138042,0.008743,-0.419006,0.911621,-0.714942,-0.134058,-0.02413,85.204697,32.225601,-146.095535,,,
729706142.481829,-24.893869,-1.360336,165.130275,0.010147,-0.428543,0.916733,-0.72349,-0.131878,-0.003479,85.204697,32.225601,-146.095535,,,
729706142.485219,-25.103288,-1.40077,165.125156,0.010147,-0.428543,0.916733,-0.72349,-0.131878,-0.003479,85.204697,32.225601,-146.095535,,,
729706142.488493,-25.103288,-1.40077,165.125156,0.010147,-0.428543,0.916733,-0.72349,-0.131878,-0.003479,85.204697,32.225601,-146.095535,,,
729706142.491835,-25.314156,-1.439762,165.122739,0.013931,-0.434341,0.910034,-0.732909,-0.129718,0.014872,85.204697,32.225601,-146.095535,,,
729706142.495222,-25.524253,-1.478764,165.123574,0.013931,-0.434341,0.910034,-0.732909,-0.129718,0.014872,84.831772,33.714966,-145.837219,,,
729706142.498528,-25.524253,-1.478764,165.123574,0.013931,-0.434341,0.910034,-0.732909,-0.129718,0.014872,84.831772,33.714966,-145.837219,,,
729706142.501819,-25.734092,-1.519065,165.12612,0.013382,-0.437973,0.908905,-0.731102,-0.144015,0.026549,84.831772,33.714966,-145.837219,,,
729706142.505192,-25.944406,-1.55961,165.12882,0.013382,-0.437973,0.908905,-0.731102,-0.144015,0.026549,84.831772,33.714966,-145.837219,,,
729706142.508485,-25.944406,-1.55961,165.12882,0.013382,-0.437973,0.908905,-0.731102,-0.144015,0.026549,84.831772,33.714966,-145.837219,,,
729706142.511886,-26.154519,-1.598444,165.131371,0.020309,-0.435776,0.911926,-0.730037,-0.131791,0.026549,84.831772,33.714966,-145.837219,,,
729706142.515184,-26.364869,-1.636734,165.132146,0.020309,-0.435776,0.911926,-0.730037,-0.131791,0.026549,84.831772,33.714966,-145.837219,,,
729706142.518427,-26.364869,-1.636734,165.132146,0.020309,-0.435776,0.911926,-0.730037,-0.131791,0.026549,84.831772,33.714966,-145.837219,,,
729706142.521834,-26.577017,-1.676009,165.130212,0.023911,-0.43457,0.911819,-0.743313,-0.130337,0.010972,84.831772,33.714966,-145.837219,,,
729706142.525264,-26.791533,-1.716676,165.125656,0.023911,-0.43457,0.911819,-0.743313,-0.130337,0.010972,84.831772,33.714966,-145.837219,,,
729706142.52848,-26.791533,-1.716676,165.125656,0.023911,-0.43457,0.911819,-0.743313,-0.130337,0.010972,84.831772,33.714966,-145.837219,,,
729706142.531817,-27.008416,-1.75961,165.118038,0.025391,-0.444855,0.893661,-0.760733,-0.136465,-0.006412,84.831772,33.714966,-145.837219,,,
729706142.535191,-27.227748,-1.803483,165.107792,0.025391,-0.444855,0.893661,-0.760733,-0.136465,-0.006412,84.410843,35.351257,-144.995407,,,
729706142.5385,-27.227748,-1.803483,165.107792,0.025391,-0.444855,0.893661,-0.760733,-0.136465,-0.006412,84.410843,35.351257,-144.995407,,,
729706142.541817,-27.449114,-1.847269,165.095238,0.023224,-0.457901,0.896759,-0.77569,-0.128305,-0.018968,84.410843,35.351257,-144.995407,,,
729706142.545242,-27.670876,-1.891393,165.080712,0.023224,-0.457901,0.896759,-0.77569,-0.128305,-0.018968,84.410843,35.351257,-144.995407,,,
729706142.548577,-27.670876,-1.891393,165.080712,0.023224,-0.457901,0.896759,-0.77569,-0.128305,-0.018968,84.410843,35.351257,-144.995407,,,
729706142.551825,-27.888845,-1.935199,165.065491,0.020493,-0.477859,0.901321,-0.749813,-0.123594,-0.02276,84.410843,35.351257,-144.995407,,,
729706142.555153,-27.888845,-1.935199,165.052323,0.020493,-0.477859,0.901321,-0.749813,-0.123594,-0.02276,84.410843,35.351257,-144.995407,,,
729706142.558492,-28.0989,-1.977774,165.052323,0.020493,-0.477859,0.901321,-0.749813,-0.123594,-0.02276,84.410843,35.351257,-144.995407,,,
729706142.561824,-28.296963,-2.019066,165.042361,0.015518,-0.501129,0.92746,-0.665977,-0.124997,-0.004807,84.410843,35.351257,-144.995407,,,
729706142.565247,-28.481899,-2.060841,165.035204,0.015518,-0.501129,0.92746,-0.665977,-0.124997,-0.004807,84.410843,35.351257,-144.995407,,,
729706142.568489,-28.481899,-2.060841,165.035204,0.015518,-0.501129,0.92746,-0.665977,-0.124997,-0.004807,84.410843,35.351257,-144.995407,,,
729706142.57191,-28.654437,-2.104648,165.031303,0.019089,-0.501816,0.931854,-0.578989,-0.149886,0.013014,84.410843,35.351257,-144.995407,,,
729706142.575139,-28.654437,-2.104648,165.031303,0.019089,-0.501816,0.931854,-0.578989,-0.149886,0.013014,84.209854,36.712189,-145.447052,,,
729706142.578484,-28.814966,-2.15018,165.030661,0.019089,-0.501816,0.931854,-0.578989,-0.149886,0.013014,84.209854,36.712189,-145.447052,,,
729706142.581814,-28.964029,-2.198032,165.032968,0.020477,-0.494125,0.923737,-0.498285,-0.175929,0.028875,84.209854,36.712189,-145.447052,,,
729706142.585255,-29.10288,-2.249135,165.037427,0.020477,-0.494125,0.923737,-0.498285,-0.175929,0.028875,84.209854,36.712189,-145.447052,,,
729706142.588478,-29.10288,-2.249135,165.037427,0.020477,-0.494125,0.923737,-0.498285,-0.175929,0.028875,84.209854,36.712189,-145.447052,,,
729706142.591829,-29.233761,-2.302985,165.04256,0.021576,-0.489304,0.910599,-0.442437,-0.197374,0.031581,84.209854,36.712189,-145.447052,,,
729706142.595152,-29.233761,-2.302985,165.04256,0.021576,-0.489304,0.910599,-0.442437,-0.197374,0.031581,84.209854,36.712189,-145.447052,,,
729706142.598493,-29.358979,-2.35864,165.04681,0.021576,-0.489304,0.910599,-0.442437,-0.197374,0.031581,84.209854,36.712189,-145.447052,,,
729706142.601836,-29.479821,-2.415269,165.049002,0.029709,-0.485504,0.902328,-0.412276,-0.197117,0.018648,84.209854,36.712189,-145.447052,,,
729706142.605181,-29.479821,-2.415269,165.049002,0.029709,-0.485504,0.902328,-0.412276,-0.197117,0.018648,84.209854,36.712189,-145.447052,,,
729706142.60855,-29.597947,-2.470995,165.048837,0.029709,-0.485504,0.902328,-0.412276,-0.197117,0.018648,84.209854,36.712189,-145.447052,,,
729706142.611815,-29.715372,-2.524139,165.045372,0.030655,-0.488449,0.898392,-0.408134,-0.167726,-0.000747,84.209854,36.712189,-145.447052,,,
729706142.615177,-29.715372,-2.524139,165.045372,0.030655,-0.488449,0.898392,-0.408134,-0.167726,-0.000747,84.209854,36.712189,-145.447052,,,
729706142.618501,-29.831612,-2.57553,165.037167,0.030655,-0.488449,0.898392,-0.408134,-0.167726,-0.000747,84.044693,37.423172,-144.757339,,,
729706142.621818,-29.943972,-2.625879,165.02471,0.043381,-0.492905,0.89682,-0.382196,-0.145592,-0.026841,84.044693,37.423172,-144.757339,,,
729706142.625149,-29.943972,-2.625879,165.02471,0.043381,-0.492905,0.89682,-0.382196,-0.145592,-0.026841,84.044693,37.423172,-144.757339,,,
729706142.628521,-30.049476,-2.674831,165.010125,0.043381,-0.492905,0.89682,-0.382196,-0.145592,-0.026841,84.044693,37.423172,-144.757339,,,
729706142.631819,-30.147287,-2.720472,164.995159,0.043747,-0.505569,0.913971,-0.32878,-0.121043,-0.030896,84.044693,37.423172,-144.757339,,,
729706142.635237,-30.147287,-2.720472,164.995159,0.043747,-0.505569,0.913971,-0.32878,-0.121043,-0.030896,84.044693,37.423172,-144.757339,,,
729706142.638496,-30.237329,-2.761104,164.982114,0.043747,-0.505569,0.913971,-0.32878,-0.121043,-0.030896,84.044693,37.423172,-144.757339,,,
729706142.641837,-30.320566,-2.796805,164.972047,0.037491,-0.514297,0.915588,-0.280491,-0.097024,-0.0148,84.044693,37.423172,-144.757339,,,
729706142.645159,-30.320566,-2.796805,164.972047,0.037491,-0.514297,0.915588,-0.280491,-0.097024,-0.0148,84.044693,37.423172,-144.757339,,,
729706142.648565,-30.398313,-2.827779,164.965248,0.037491,-0.514297,0.915588,-0.280491,-0.097024,-0.0148,84.044693,37.423172,-144.757339,,,
729706142.651833,-30.472685,-2.855148,164.96274,0.039597,-0.514709,0.897507,-0.255695,-0.087004,0.010082,84.044693,37.423172,-144.757339,,,
729706142.655164,-30.472685,-2.855148,164.96274,0.039597,-0.514709,0.897507,-0.255695,-0.087004,0.010082,84.044693,37.423172,-144.757339,,,
729706142.6585,-30.545287,-2.879241,164.96452,0.039597,-0.514709,0.897507,-0.255695,-0.087004,0.010082,83.728821,38.110886,-144.876587,,,
729706142.661821,-30.616162,-2.900809,164.970014,0.04303,-0.514572,0.884415,-0.242691,-0.082663,0.031913,83.728821,38.110886,-144.876587,,,
729706142.66516,-30.616162,-2.900809,164.970014,0.04303,-0.514572,0.884415,-0.242691,-0.082663,0.031913,83.728821,38.110886,-144.876587,,,
729706142.668501,-30.686886,-2.919787,164.978383,0.04303,-0.514572,0.884415,-0.242691,-0.082663,0.031913,83.728821,38.110886,-144.876587,,,
729706142.671825,-30.759531,-2.934201,164.988403,0.0466,-0.508453,0.880951,-0.255668,-0.056866,0.042606,83.728821,38.110886,-144.876587,,,
729706142.675222,-30.759531,-2.934201,164.988403,0.0466,-0.508453,0.880951,-0.255668,-0.056866,0.042606,83.728821,38.110886,-144.876587,,,
729706142.678495,-30.835401,-2.943744,164.999336,0.0466,-0.508453,0.880951,-0.255668,-0.056866,0.042606,83.728821,38.110886,-144.876587,,,
729706142.681825,-30.915112,-2.948441,165.011467,0.047729,-0.505112,0.876389,-0.282153,-0.027515,0.051171,83.728821,38.110886,-144.876587,,,
729706142.68517,-30.915112,-2.948441,165.011467,0.047729,-0.505112,0.876389,-0.282153,-0.027515,0.051171,83.728821,38.110886,-144.876587,,,
729706142.688555,-30.998889,-2.949133,165.024665,0.047729,-0.505112,0.876389,-0.282153,-0.027515,0.051171,83.728821,38.110886,-144.876587,,,
729706142.691817,-31.087712,-2.946247,165.038997,0.044983,-0.506348,0.871048,-0.31707,-0.006821,0.059673,83.728821,38.110886,-144.876587,,,
729706142.695173,-31.087712,-2.946247,165.038997,0.044983,-0.506348,0.871048,-0.31707,-0.006821,0.059673,83.728821,38.110886,-144.876587,,,
729706142.698505,-31.18105,-2.939234,165.054516,0.044983,-0.506348,0.871048,-0.31707,-0.006821,0.059673,83.79599,38.576477,-144.493225,,,
729706142.701831,-31.276107,-2.927824,165.070532,0.045853,-0.506027,0.871582,-0.329063,0.02185,0.063052,83.79599,38.576477,-144.493225,,,
729706142.705152,-31.276107,-2.927824,165.070532,0.045853,-0.506027,0.871582,-0.329063,0.02185,0.063052,83.79599,38.576477,-144.493225,,,
729706142.708494,-31.37308,-2.911305,165.087682,0.045853,-0.506027,0.871582,-0.329063,0.02185,0.063052,83.79599,38.576477,-144.493225,,,
729706142.711825,-31.472827,-2.890467,165.106141,0.04718,-0.50705,0.874908,-0.348245,0.046958,0.071529,83.79599,38.576477,-144.493225,,,
729706142.715231,-31.472827,-2.890467,165.106141,0.04718,-0.50705,0.874908,-0.348245,0.046958,0.071529,83.79599,38.576477,-144.493225,,,
729706142.718516,-31.575445,-2.868663,165.124998,0.04718,-0.50705,0.874908,-0.348245,0.046958,0.071529,83.79599,38.576477,-144.493225,,,
729706142.721819,-31.681769,-2.847566,165.144511,0.047104,-0.506882,0.858627,-0.374041,0.039419,0.07634,83.79599,38.576477,-144.493225,,,
729706142.725176,-31.681769,-2.847566,165.144511,0.047104,-0.506882,0.858627,-0.374041,0.039419,0.07634,83.79599,38.576477,-144.493225,,,
729706142.728565,-31.793009,-2.827917,165.165138,0.047104,-0.506882,0.858627,-0.374041,0.039419,0.07634,83.79599,38.576477,-144.493225,,,
729706142.731814,-31.910473,-2.812131,165.186167,0.038315,-0.510452,0.833939,-0.417476,0.010759,0.080472,83.79599,38.576477,-144.493225,,,
729706142.735188,-31.910473,-2.812131,165.186167,0.038315,-0.510452,0.833939,-0.417476,0.010759,0.080472,83.79599,38.576477,-144.493225,,,
729706142.738518,-32.035367,-2.802858,165.206632,0.038315,-0.510452,0.833939,-0.417476,0.010759,0.080472,83.906357,39.1371,-143.923264,,,
729706142.741864,-32.168273,-2.802541,165.226434,0.032562,-0.512558,0.808289,-0.473496,-0.049478,0.07906,83.906357,39.1371,-143.923264,,,
729706142.74515,-32.168273,-2.802541,165.226434,0.032562,-0.512558,0.808289,-0.473496,-0.049478,0.07906,83.906357,39.1371,-143.923264,,,
