Time (sec),Pitch (deg),Roll (deg),Yaw(deg),X-Acceleration (g),Y-Acceleration (g),Z-Acceleration (g),Pitch Rate (deg/sec),Roll Rate (deg/sec),Yaw Rate (deg/sec),Magnetic Field in X direction (uT),Magnetic Field in Y direction (uT),Magnetic Field in Z Direction (uT),Latitude (deg),Longitude (deg),Altitude (m)
729706791.925182,-0.227171,1.687749,-22.982169,-0.030991,0.000519,0.991211,-0.007493,0.002373,0.004463,60.350632,30.848236,-146.405197,,,
729706791.926829,-0.230001,1.6872,120.929782,-0.030991,0.000519,0.991211,-0.007493,0.002373,0.004463,60.350632,30.848236,-146.405197,,,
729706791.927633,-0.230011,1.687166,-22.980402,-0.030991,0.000519,0.991211,-0.007493,0.002373,0.004463,60.350632,30.848236,-146.405197,,,
729706791.930143,-0.233742,1.685651,120.931352,-0.030212,-0.000916,0.993912,-0.013216,-0.005197,0.002911,60.350632,30.848236,-146.405197,,,
729706791.933229,-0.233752,1.685617,-22.978834,-0.030212,-0.000916,0.993912,-0.013216,-0.005197,0.002911,60.350632,30.848236,-146.405197,,,
729706791.933517,-0.233742,1.685651,120.931352,-0.030212,-0.000916,0.993912,-0.013216,-0.005197,0.002911,60.350632,30.848236,-146.405197,,,
729706791.934351,-0.233752,1.685617,-22.978834,-0.030212,-0.000916,0.993912,-0.013216,-0.005197,0.002911,60.350632,30.848236,-146.405197,,,
729706791.93683,-0.237082,1.682455,120.932099,-0.030212,-0.000916,0.993912,-0.013216,-0.005197,0.002911,60.350632,30.848236,-146.405197,,,
729706791.938362,-0.237092,1.682422,-22.978079,-0.030212,-0.000916,0.993912,-0.013216,-0.005197,0.002911,60.350632,30.848236,-146.405197,,,
729706791.940148,-0.239554,1.678965,120.93197,-0.031158,-0.003403,0.996155,-0.007459,-0.009605,-0.003054,60.350632,30.848236,-146.405197,,,
729706791.942526,-0.239563,1.678932,-22.978206,-0.031158,-0.003403,0.996155,-0.007459,-0.009605,-0.003054,60.350632,30.848236,-146.405197,,,
729706791.943559,-0.239554,1.678965,120.93197,-0.031158,-0.003403,0.996155,-0.007459,-0.009605,-0.003054,60.350632,30.848236,-146.405197,,,
729706791.944296,-0.239563,1.678932,-22.978206,-0.031158,-0.003403,0.996155,-0.007459,-0.009605,-0.003054,60.350632,30.848236,-146.405197,,,
729706791.946808,-0.241286,1.674765,120.931158,-0.031158,-0.003403,0.996155,-0.007459,-0.009605,-0.003054,60.350632,30.848236,-146.405197,,,
729706791.948009,-0.241296,1.674731,-22.979026,-0.031158,-0.003403,0.996155,-0.007459,-0.009605,-0.003054,60.350632,30.848236,-146.405197,,,
729706791.950144,-0.242395,1.670365,120.929756,-0.02861,-0.005875,0.999313,-0.001979,-0.013027,-0.007001,60.350632,30.848236,-146.405197,,,
729706791.951631,-0.242405,1.670331,-22.980427,-0.02861,-0.005875,0.999313,-0.001979,-0.013027,-0.007001,60.350632,30.848236,-146.405197,,,
729706791.953501,-0.242395,1.670365,120.929756,-0.02861,-0.005875,0.999313,-0.001979,-0.013027,-0.007001,60.350632,30.848236,-146.405197,,,
729706791.954288,-0.242405,1.670331,-22.980427,-0.02861,-0.005875,0.999313,-0.001979,-0.013027,-0.007001,60.350632,30.848236,-146.405197,,,
729706791.956882,-0.242741,1.665326,120.927506,-0.02861,-0.005875,0.999313,-0.001979,-0.013027,-0.007001,60.350632,30.848236,-146.405197,,,
729706791.957716,-0.242751,1.665292,-22.982674,-0.02861,-0.005875,0.999313,-0.001979,-0.013027,-0.007001,60.350632,30.848236,-146.405197,,,
729706791.960168,-0.242756,1.661398,120.924943,-0.027634,-0.006958,1.001144,0.002079,-0.010175,-0.009007,60.350632,30.848236,-146.405197,,,
729706791.962679,-0.242766,1.661364,-22.985235,-0.027634,-0.006958,1.001144,0.002079,-0.010175,-0.009007,60.350632,30.848236,-146.405197,,,
729706791.96352,-0.242756,1.661398,120.924943,-0.027634,-0.006958,1.001144,0.002079,-0.010175,-0.009007,60.350632,30.848236,-146.405197,,,
729706791.964294,-0.242766,1.661364,-22.985235,-0.027634,-0.006958,1.001144,0.002079,-0.010175,-0.009007,60.350632,30.848236,-146.405197,,,
729706791.966905,-0.241885,1.657018,120.922955,-0.027634,-0.006958,1.001144,0.002079,-0.010175,-0.009007,60.378159,31.007172,-146.330856,,,
729706791.968386,-0.241895,1.656985,-22.987224,-0.027634,-0.006958,1.001144,0.002079,-0.010175,-0.009007,60.378159,31.007172,-146.330856,,,
729706791.970148,-0.240631,1.654219,120.921742,-0.029831,-0.007065,0.999329,0.00498,-0.004743,-0.003539,60.378159,31.007172,-146.330856,,,
729706791.971742,-0.24064,1.654186,-22.988436,-0.029831,-0.007065,0.999329,0.00498,-0.004743,-0.003539,60.378159,31.007172,-146.330856,,,
729706791.973499,-0.240631,1.654219,120.921742,-0.029831,-0.007065,0.999329,0.00498,-0.004743,-0.003539,60.378159,31.007172,-146.330856,,,
729706791.974351,-0.24064,1.654186,-22.988436,-0.029831,-0.007065,0.999329,0.00498,-0.004743,-0.003539,60.378159,31.007172,-146.330856,,,
729706791.976826,-0.238959,1.651732,120.921507,-0.029831,-0.007065,0.999329,0.00498,-0.004743,-0.003539,60.378159,31.007172,-146.330856,,,
729706791.977616,-0.238968,1.651699,-22.988679,-0.029831,-0.007065,0.999329,0.00498,-0.004743,-0.003539,60.378159,31.007172,-146.330856,,,
729706791.98017,-0.236996,1.649685,120.922066,-0.030853,-0.006607,0.999878,0.007991,-0.003297,0.00209,60.378159,31.007172,-146.330856,,,
729706791.982394,-0.237006,1.649651,-22.988114,-0.030853,-0.006607,0.999878,0.007991,-0.003297,0.00209,60.378159,31.007172,-146.330856,,,
729706791.983574,-0.236996,1.649685,120.922066,-0.030853,-0.006607,0.999878,0.007991,-0.003297,0.00209,60.378159,31.007172,-146.330856,,,
729706791.98436,-0.237006,1.649651,-22.988114,-0.030853,-0.006607,0.999878,0.007991,-0.003297,0.00209,60.378159,31.007172,-146.330856,,,
729706791.986809,-0.235409,1.648254,120.923801,-0.030853,-0.006607,0.999878,0.007991,-0.003297,0.00209,60.378159,31.007172,-146.330856,,,
729706791.987628,-0.235418,1.648221,-22.986381,-0.030853,-0.006607,0.999878,0.007991,-0.003297,0.00209,60.378159,31.007172,-146.330856,,,
729706791.990185,-0.234933,1.647151,120.926425,-0.030563,-0.004715,0.996292,0.003205,-0.00093,0.008221,60.378159,31.007172,-146.330856,,,
729706791.992234,-0.234942,1.647118,-22.983755,-0.030563,-0.004715,0.996292,0.003205,-0.00093,0.008221,60.378159,31.007172,-146.330856,,,
729706791.993514,-0.234933,1.647151,120.926425,-0.030563,-0.004715,0.996292,0.003205,-0.00093,0.008221,60.378159,31.007172,-146.330856,,,
729706791.994293,-0.234942,1.647118,-22.983755,-0.030563,-0.004715,0.996292,0.003205,-0.00093,0.008221,60.378159,31.007172,-146.330856,,,
729706791.996895,-0.23389,1.646742,120.929045,-0.030563,-0.004715,0.996292,0.003205,-0.00093,0.008221,60.378159,31.007172,-146.330856,,,
729706791.99762,-0.2339,1.646708,-22.981133,-0.030563,-0.004715,0.996292,0.003205,-0.00093,0.008221,60.378159,31.007172,-146.330856,,,
729706792.000161,-0.233805,1.646676,120.9318,-0.030243,-0.00589,0.997528,0.001219,0.003132,0.00915,60.378159,31.007172,-146.330856,,,
729706792.002401,-0.233815,1.646643,-22.978374,-0.030243,-0.00589,0.997528,0.001219,0.003132,0.00915,60.378159,31.007172,-146.330856,,,
729706792.003519,-0.233805,1.646676,120.9318,-0.030243,-0.00589,0.997528,0.001219,0.003132,0.00915,60.378159,31.007172,-146.330856,,,
729706792.004295,-0.233815,1.646643,-22.978374,-0.030243,-0.00589,0.997528,0.001219,0.003132,0.00915,60.378159,31.007172,-146.330856,,,
729706792.006815,-0.23296,1.647572,120.934311,-0.030243,-0.00589,0.997528,0.001219,0.003132,0.00915,60.358795,31.031265,-146.377106,,,
729706792.008394,-0.232969,1.647539,-22.975861,-0.030243,-0.00589,0.997528,0.001219,0.003132,0.00915,60.358795,31.031265,-146.377106,,,
729706792.010151,-0.232492,1.648719,120.93647,-0.030243,-0.00589,0.997528,0.001219,0.003132,0.00915,60.358795,31.031265,-146.377106,,,
729706792.011439,-0.232501,1.648685,-22.973702,-0.027939,-0.006012,1.000519,0.001475,0.006399,0.006713,60.358795,31.031265,-146.377106,,,
729706792.013504,-0.232492,1.648719,120.93647,-0.027939,-0.006012,1.000519,0.001475,0.006399,0.006713,60.358795,31.031265,-146.377106,,,
729706792.014284,-0.232501,1.648685,-22.973702,-0.027939,-0.006012,1.000519,0.001475,0.006399,0.006713,60.358795,31.031265,-146.377106,,,
729706792.016814,-0.231864,1.649463,120.938928,-0.027939,-0.006012,1.000519,0.001475,0.006399,0.006713,60.358795,31.031265,-146.377106,,,
729706792.017638,-0.231874,1.649429,-22.971241,-0.027939,-0.006012,1.000519,0.001475,0.006399,0.006713,60.358795,31.031265,-146.377106,,,
729706792.020219,-0.231683,1.648679,120.941187,-0.027939,-0.006012,1.000519,-4.4e-05,-0.002678,0.005266,60.358795,31.031265,-146.377106,,,
729706792.023242,-0.231693,1.648645,-22.968986,-0.031586,-0.006088,0.99678,-4.4e-05,-0.002678,0.005266,60.358795,31.031265,-146.377106,,,
729706792.023558,-0.231683,1.648679,120.941187,-0.031586,-0.006088,0.99678,-4.4e-05,-0.002678,0.005266,60.358795,31.031265,-146.377106,,,
729706792.024421,-0.231693,1.648645,-22.968986,-0.031586,-0.006088,0.99678,-4.4e-05,-0.002678,0.005266,60.358795,31.031265,-146.377106,,,
729706792.026831,-0.231475,1.64686,120.943348,-0.031586,-0.006088,0.99678,-4.4e-05,-0.002678,0.005266,60.358795,31.031265,-146.377106,,,
729706792.027622,-0.231484,1.646826,-22.966834,-0.031586,-0.006088,0.99678,-4.4e-05,-0.002678,0.005266,60.358795,31.031265,-146.377106,,,
729706792.030147,-0.230979,1.643763,120.945721,-0.031586,-0.006088,0.99678,0.000812,-0.009147,0.006877,60.358795,31.031265,-146.377106,,,
729706792.032997,-0.230989,1.643729,-22.964458,-0.028915,-0.006546,0.995483,0.000812,-0.009147,0.006877,60.358795,31.031265,-146.377106,,,
729706792.033528,-0.230979,1.643763,120.945721,-0.028915,-0.006546,0.995483,0.000812,-0.009147,0.006877,60.358795,31.031265,-146.377106,,,
729706792.034292,-0.230989,1.643729,-22.964458,-0.028915,-0.006546,0.995483,0.000812,-0.009147,0.006877,60.358795,31.031265,-146.377106,,,
729706792.036803,-0.231011,1.639498,120.947973,-0.028915,-0.006546,0.995483,0.000812,-0.009147,0.006877,60.358795,31.031265,-146.377106,,,
729706792.037639,-0.231021,1.639464,-22.962209,-0.028915,-0.006546,0.995483,0.000812,-0.009147,0.006877,60.358795,31.031265,-146.377106,,,
729706792.040267,-0.230372,1.635016,120.94994,-0.028915,-0.006546,0.995483,0.003091,-0.01245,0.004909,60.358795,31.031265,-146.377106,,,
729706792.041928,-0.230381,1.634982,-22.960245,-0.024658,-0.005676,0.996857,0.003091,-0.01245,0.004909,60.358795,31.031265,-146.377106,,,
729706792.04352,-0.230372,1.635016,120.94994,-0.024658,-0.005676,0.996857,0.003091,-0.01245,0.004909,60.358795,31.031265,-146.377106,,,
729706792.044301,-0.230381,1.634982,-22.960245,-0.024658,-0.005676,0.996857,0.003091,-0.01245,0.004909,60.358795,31.031265,-146.377106,,,
729706792.046809,-0.229564,1.630691,120.951211,-0.024658,-0.005676,0.996857,0.003091,-0.01245,0.004909,60.530396,30.800461,-146.364182,,,
729706792.048277,-0.229573,1.630658,-22.958975,-0.024658,-0.005676,0.996857,0.003091,-0.01245,0.004909,60.530396,30.800461,-146.364182,,,
729706792.050145,-0.229564,1.630691,120.951211,-0.024658,-0.005676,0.996857,0.003091,-0.01245,0.004909,60.530396,30.800461,-146.364182,,,
729706792.052345,-0.228157,1.626805,-22.958509,-0.021149,-0.004196,0.999786,0.004992,-0.009246,-0.000618,60.530396,30.800461,-146.364182,,,
729706792.053514,-0.228147,1.626838,120.951677,-0.021149,-0.004196,0.999786,0.004992,-0.009246,-0.000618,60.530396,30.800461,-146.364182,,,
729706792.054289,-0.228157,1.626805,-22.958509,-0.021149,-0.004196,0.999786,0.004992,-0.009246,-0.000618,60.530396,30.800461,-146.364182,,,
729706792.056814,-0.227514,1.624105,120.951132,-0.021149,-0.004196,0.999786,0.004992,-0.009246,-0.000618,60.530396,30.800461,-146.364182,,,
729706792.058119,-0.227523,1.624072,-22.959041,-0.021149,-0.004196,0.999786,0.004992,-0.009246,-0.000618,60.530396,30.800461,-146.364182,,,
729706792.060189,-0.227514,1.621948,120.950092,-0.021149,-0.004196,0.999786,0.004449,-0.003199,-0.004192,60.530396,30.800461,-146.364182,,,
729706792.06123,-0.226521,1.621915,-22.960079,-0.020615,-0.003189,0.997086,0.004449,-0.003199,-0.004192,60.530396,30.800461,-146.364182,,,
729706792.063501,-0.226511,1.621948,120.950092,-0.020615,-0.003189,0.997086,0.004449,-0.003199,-0.004192,60.530396,30.800461,-146.364182,,,
729706792.064286,-0.226521,1.621915,-22.960079,-0.020615,-0.003189,0.997086,0.004449,-0.003199,-0.004192,60.530396,30.800461,-146.364182,,,
729706792.066803,-0.22575,1.620987,120.94858,-0.020615,-0.003189,0.997086,0.004449,-0.003199,-0.004192,60.530396,30.800461,-146.364182,,,
729706792.067622,-0.22576,1.620953,-22.961604,-0.020615,-0.003189,0.997086,0.004449,-0.003199,-0.004192,60.530396,30.800461,-146.364182,,,
729706792.070137,-0.22575,1.620987,120.94858,-0.020615,-0.003189,0.997086,0.004449,-0.003199,-0.004192,60.530396,30.800461,-146.364182,,,
729706792.072886,-0.224059,1.620457,-22.963319,-0.022125,-0.003845,0.996582,0.00927,0.001581,-0.005403,60.530396,30.800461,-146.364182,,,
729706792.073563,-0.22405,1.62049,120.946867,-0.022125,-0.003845,0.996582,0.00927,0.001581,-0.005403,60.530396,30.800461,-146.364182,,,
729706792.074361,-0.224059,1.620457,-22.963319,-0.022125,-0.003845,0.996582,0.00927,0.001581,-0.005403,60.530396,30.800461,-146.364182,,,
729706792.076802,-0.221502,1.621176,120.945817,-0.022125,-0.003845,0.996582,0.00927,0.001581,-0.005403,60.530396,30.800461,-146.364182,,,
729706792.077645,-0.221512,1.621143,-22.964371,-0.022125,-0.003845,0.996582,0.00927,0.001581,-0.005403,60.530396,30.800461,-146.364182,,,
729706792.080133,-0.221502,1.621176,120.945817,-0.022125,-0.003845,0.996582,0.00927,0.001581,-0.005403,60.530396,30.800461,-146.364182,,,
729706792.081496,-0.218772,1.622378,-22.96487,-0.021667,-0.003555,0.997284,0.010196,0.008015,-0.001595,60.530396,30.800461,-146.364182,,,
729706792.083494,-0.218762,1.622411,120.945302,-0.021667,-0.003555,0.997284,0.010196,0.008015,-0.001595,60.530396,30.800461,-146.364182,,,
729706792.084286,-0.218772,1.622378,-22.96487,-0.021667,-0.003555,0.997284,0.010196,0.008015,-0.001595,60.530396,30.800461,-146.364182,,,
729706792.086802,-0.216144,1.62436,120.945463,-0.021667,-0.003555,0.997284,0.010196,0.008015,-0.001595,60.530396,30.800461,-146.364182,,,
729706792.088281,-0.216154,1.624326,-22.964717,-0.021667,-0.003555,0.997284,0.010196,0.008015,-0.001595,60.342041,30.915009,-146.404495,,,
729706792.090179,-0.216144,1.62436,120.945463,-0.021667,-0.003555,0.997284,0.010196,0.008015,-0.001595,60.342041,30.915009,-146.404495,,,
729706792.091951,-0.213161,1.626553,-22.964604,-0.022156,-0.003082,0.993759,0.010011,0.010089,-0.001878,60.342041,30.915009,-146.404495,,,
729706792.093529,-0.213151,1.626587,120.945576,-0.022156,-0.003082,0.993759,0.010011,0.010089,-0.001878,60.342041,30.915009,-146.404495,,,
729706792.094366,-0.213161,1.626553,-22.964604,-0.022156,-0.003082,0.993759,0.010011,0.010089,-0.001878,60.342041,30.915009,-146.404495,,,
729706792.096806,-0.211062,1.629277,120.945453,-0.022156,-0.003082,0.993759,0.010011,0.010089,-0.001878,60.342041,30.915009,-146.404495,,,
729706792.097646,-0.211072,1.629243,-22.964721,-0.022156,-0.003082,0.993759,0.010011,0.010089,-0.001878,60.342041,30.915009,-146.404495,,,
729706792.100177,-0.211062,1.629277,120.945453,-0.022156,-0.003082,0.993759,0.010011,0.010089,-0.001878,60.342041,30.915009,-146.404495,,,
729706792.102968,-0.21005,1.632269,-22.965104,-0.021774,0.000778,0.991638,0.000704,0.013526,-0.00398,60.342041,30.915009,-146.404495,,,
729706792.103574,-0.210041,1.632302,120.94507,-0.021774,0.000778,0.991638,0.000704,0.013526,-0.00398,60.342041,30.915009,-146.404495,,,
729706792.104344,-0.21005,1.632269,-22.965104,-0.021774,0.000778,0.991638,0.000704,0.013526,-0.00398,60.342041,30.915009,-146.404495,,,
729706792.10684,-0.210977,1.635966,120.944117,-0.021774,0.000778,0.991638,0.000704,0.013526,-0.00398,60.342041,30.915009,-146.404495,,,
729706792.108165,-0.210987,1.635933,-22.966059,-0.021774,0.000778,0.991638,0.000704,0.013526,-0.00398,60.342041,30.915009,-146.404495,,,
729706792.1103,-0.210977,1.635966,120.944117,-0.021774,0.000778,0.991638,0.000704,0.013526,-0.00398,60.342041,30.915009,-146.404495,,,
729706792.112571,-0.212855,1.639348,-22.967341,-0.022278,0.002258,0.988495,-0.007754,0.014472,-0.006511,60.342041,30.915009,-146.404495,,,
729706792.113524,-0.212846,1.639382,120.942839,-0.022278,0.002258,0.988495,-0.007754,0.014472,-0.006511,60.342041,30.915009,-146.404495,,,
729706792.114348,-0.212855,1.639348,-22.967341,-0.022278,0.002258,0.988495,-0.007754,0.014472,-0.006511,60.342041,30.915009,-146.404495,,,
729706792.116899,-0.216288,1.642155,120.940955,-0.022278,0.002258,0.988495,-0.007754,0.014472,-0.006511,60.342041,30.915009,-146.404495,,,
729706792.11804,-0.216297,1.642121,-22.969225,-0.022278,0.002258,0.988495,-0.007754,0.014472,-0.006511,60.342041,30.915009,-146.404495,,,
729706792.120276,-0.216288,1.642155,120.940955,-0.022278,0.002258,0.988495,-0.007754,0.014472,-0.006511,60.342041,30.915009,-146.404495,,,
729706792.120989,-0.220452,1.64481,-22.971551,-0.023026,0.002625,0.991333,-0.014705,0.011881,-0.009762,60.342041,30.915009,-146.404495,,,
729706792.123363,-0.220442,1.644843,120.938626,-0.023026,0.002625,0.991333,-0.014705,0.011881,-0.009762,60.342041,30.915009,-146.404495,,,
729706792.124363,-0.220452,1.64481,-22.971551,-0.023026,0.002625,0.991333,-0.014705,0.011881,-0.009762,60.342041,30.915009,-146.404495,,,
729706792.126863,-0.225753,1.646335,120.935803,-0.023026,0.002625,0.991333,-0.014705,0.011881,-0.009762,60.342041,30.915009,-146.404495,,,
729706792.129159,-0.225763,1.646301,-22.97437,-0.023026,0.002625,0.991333,-0.014705,0.011881,-0.009762,60.31218,31.002335,-146.434555,,,
729706792.130271,-0.225753,1.646335,120.935803,-0.023026,0.002625,0.991333,-0.014705,0.011881,-0.009762,60.31218,31.002335,-146.434555,,,
729706792.133267,-0.231382,1.647211,-22.977356,-0.027679,-0.00032,0.992722,-0.01788,0.00313,-0.011047,60.31218,31.002335,-146.434555,,,
729706792.133587,-0.231373,1.647245,120.932812,-0.027679,-0.00032,0.992722,-0.01788,0.00313,-0.011047,60.31218,31.002335,-146.434555,,,
729706792.134351,-0.231382,1.647211,-22.977356,-0.027679,-0.00032,0.992722,-0.01788,0.00313,-0.011047,60.31218,31.002335,-146.434555,,,
729706792.136839,-0.236519,1.645543,120.930296,-0.027679,-0.00032,0.992722,-0.01788,0.00313,-0.011047,60.31218,31.002335,-146.434555,,,
729706792.13812,-0.236529,1.64551,-22.979885,-0.027679,-0.00032,0.992722,-0.01788,0.00313,-0.011047,60.31218,31.002335,-146.434555,,,
729706792.140186,-0.236519,1.645543,120.930296,-0.027679,-0.00032,0.992722,-0.01788,0.00313,-0.011047,60.31218,31.002335,-146.434555,,,
729706792.143502,-0.241075,1.643878,-22.98221,-0.03215,-0.005981,0.998062,-0.013465,-0.004219,-0.009519,60.31218,31.002335,-146.434555,,,
729706792.143818,-0.241065,1.643912,120.927969,-0.03215,-0.005981,0.998062,-0.013465,-0.004219,-0.009519,60.31218,31.002335,-146.434555,,,
729706792.144292,-0.241075,1.643878,-22.98221,-0.03215,-0.005981,0.998062,-0.013465,-0.004219,-0.009519,60.31218,31.002335,-146.434555,,,
729706792.146617,-0.244911,1.640501,120.925742,-0.03215,-0.005981,0.998062,-0.013465,-0.004219,-0.009519,60.31218,31.002335,-146.434555,,,
729706792.147706,-0.244921,1.640468,-22.984438,-0.03215,-0.005981,0.998062,-0.013465,-0.004219,-0.009519,60.31218,31.002335,-146.434555,,,
729706792.150192,-0.244911,1.640501,120.925742,-0.03215,-0.005981,0.998062,-0.013465,-0.004219,-0.009519,60.31218,31.002335,-146.434555,,,
729706792.151766,-0.24824,1.637483,-22.986232,-0.034698,-0.007492,1.001968,-0.009053,-0.007417,-0.006338,60.31218,31.002335,-146.434555,,,
729706792.153497,-0.24823,1.637517,120.923949,-0.034698,-0.007492,1.001968,-0.009053,-0.007417,-0.006338,60.31218,31.002335,-146.434555,,,
729706792.154289,-0.24824,1.637483,-22.986232,-0.034698,-0.007492,1.001968,-0.009053,-0.007417,-0.006338,60.31218,31.002335,-146.434555,,,
729706792.156818,-0.250612,1.63387,120.922806,-0.034698,-0.007492,1.001968,-0.009053,-0.007417,-0.006338,60.31218,31.002335,-146.434555,,,
729706792.15811,-0.250622,1.633837,-22.987376,-0.034698,-0.007492,1.001968,-0.009053,-0.007417,-0.006338,60.31218,31.002335,-146.434555,,,
729706792.160225,-0.250612,1.63387,120.922806,-0.034698,-0.007492,1.001968,-0.009053,-0.007417,-0.006338,60.31218,31.002335,-146.434555,,,
729706792.161462,-0.252718,1.631995,-22.988265,-0.03212,-0.008377,1.004379,-0.007051,-0.001869,-0.004557,60.31218,31.002335,-146.434555,,,
729706792.163495,-0.252708,1.632028,120.92192,-0.03212,-0.008377,1.004379,-0.007051,-0.001869,-0.004557,60.31218,31.002335,-146.434555,,,
729706792.164289,-0.252718,1.631995,-22.988265,-0.03212,-0.008377,1.004379,-0.007051,-0.001869,-0.004557,60.31218,31.002335,-146.434555,,,
729706792.166802,-0.254317,1.631339,120.921589,-0.03212,-0.008377,1.004379,-0.007051,-0.001869,-0.004557,60.31218,31.002335,-146.434555,,,
729706792.167615,-0.254327,1.631306,-22.988583,-0.03212,-0.008377,1.004379,-0.007051,-0.001869,-0.004557,60.31218,31.002335,-146.434555,,,
729706792.170151,-0.254317,1.631339,120.921589,-0.03212,-0.008377,1.004379,-0.007051,-0.001869,-0.004557,60.27594,30.986252,-146.355209,,,
729706792.174606,-0.255745,1.633903,-22.987748,-0.035583,-0.009399,1.00441,-0.004432,0.015579,0.003543,60.27594,30.986252,-146.355209,,,
729706792.174914,-0.255735,1.633936,120.922423,-0.035583,-0.009399,1.00441,-0.004432,0.015579,0.003543,60.27594,30.986252,-146.355209,,,
729706792.176681,-0.256865,1.637839,120.924174,-0.035583,-0.009399,1.00441,-0.004432,0.015579,0.003543,60.27594,30.986252,-146.355209,,,
729706792.178027,-0.256874,1.637806,-22.985996,-0.035583,-0.009399,1.00441,-0.004432,0.015579,0.003543,60.27594,30.986252,-146.355209,,,
729706792.180196,-0.256865,1.637839,120.924174,-0.035583,-0.009399,1.00441,-0.004432,0.015579,0.003543,60.27594,30.986252,-146.355209,,,
729706792.181633,-0.258652,1.643665,-22.983456,-0.037369,-0.008774,1.003738,-0.006315,0.022806,0.00904,60.27594,30.986252,-146.355209,,,
729706792.183478,-0.258642,1.643698,120.926714,-0.037369,-0.008774,1.003738,-0.006315,0.022806,0.00904,60.27594,30.986252,-146.355209,,,
729706792.184289,-0.258652,1.643665,-22.983456,-0.037369,-0.008774,1.003738,-0.006315,0.022806,0.00904,60.27594,30.986252,-146.355209,,,
729706792.186802,-0.25983,1.648255,120.930316,-0.037369,-0.008774,1.003738,-0.006315,0.022806,0.00904,60.27594,30.986252,-146.355209,,,
729706792.187955,-0.25984,1.648222,-22.979866,-0.037369,-0.008774,1.003738,-0.006315,0.022806,0.00904,60.27594,30.986252,-146.355209,,,
729706792.190152,-0.25983,1.648255,120.930316,-0.037369,-0.008774,1.003738,-0.006315,0.022806,0.00904,60.27594,30.986252,-146.355209,,,
729706792.191022,-0.261761,1.652651,-22.975506,-0.036621,-0.007797,1.00087,-0.005332,0.015497,0.0144,60.27594,30.986252,-146.355209,,,
729706792.193488,-0.261752,1.652684,120.934677,-0.036621,-0.007797,1.00087,-0.005332,0.015497,0.0144,60.27594,30.986252,-146.355209,,,
729706792.194298,-0.261761,1.652651,-22.975506,-0.036621,-0.007797,1.00087,-0.005332,0.015497,0.0144,60.27594,30.986252,-146.355209,,,
729706792.196843,-0.262053,1.655215,120.939144,-0.036621,-0.007797,1.00087,-0.005332,0.015497,0.0144,60.27594,30.986252,-146.355209,,,
729706792.19821,-0.262063,1.655182,-22.971044,-0.036621,-0.007797,1.00087,-0.005332,0.015497,0.0144,60.27594,30.986252,-146.355209,,,
729706792.200163,-0.262053,1.655215,120.939144,-0.036621,-0.007797,1.00087,-0.005332,0.015497,0.0144,60.27594,30.986252,-146.355209,,,
729706792.202802,-0.262547,1.657775,-22.967107,-0.034958,-0.004578,1.002899,0.000337,0.010526,0.010848,60.27594,30.986252,-146.355209,,,
729706792.203519,-0.262537,1.657808,120.943065,-0.034958,-0.004578,1.002899,0.000337,0.010526,0.010848,60.27594,30.986252,-146.355209,,,
729706792.204294,-0.262547,1.657775,-22.967107,-0.034958,-0.004578,1.002899,0.000337,0.010526,0.010848,60.27594,30.986252,-146.355209,,,
729706792.206802,-0.261078,1.658423,120.946538,-0.034958,-0.004578,1.002899,0.000337,0.010526,0.010848,60.27594,30.986252,-146.355209,,,
729706792.207974,-0.261088,1.658389,-22.963633,-0.034958,-0.004578,1.002899,0.000337,0.010526,0.010848,60.27594,30.986252,-146.355209,,,
729706792.210251,-0.261078,1.658423,120.946538,-0.034958,-0.004578,1.002899,0.000337,0.010526,0.010848,60.27594,30.986252,-146.355209,,,
729706792.2128,-0.259878,1.656769,-22.960585,-0.032654,-0.00351,1.00145,0.004435,-0.008219,0.008041,60.447525,30.976288,-146.313019,,,
729706792.213516,-0.259868,1.656803,120.949589,-0.032654,-0.00351,1.00145,0.004435,-0.008219,0.008041,60.447525,30.976288,-146.313019,,,
729706792.214291,-0.259878,1.656769,-22.960585,-0.032654,-0.00351,1.00145,0.004435,-0.008219,0.008041,60.447525,30.976288,-146.313019,,,
729706792.216805,-0.258226,1.652897,120.951563,-0.032654,-0.00351,1.00145,0.004435,-0.008219,0.008041,60.447525,30.976288,-146.313019,,,
729706792.217979,-0.258236,1.652864,-22.958615,-0.032654,-0.00351,1.00145,0.004435,-0.008219,0.008041,60.447525,30.976288,-146.313019,,,
729706792.220163,-0.258226,1.652897,120.951563,-0.032654,-0.00351,1.00145,0.004435,-0.008219,0.008041,60.447525,30.976288,-146.313019,,,
729706792.221813,-0.255836,1.646742,-22.95741,-0.027481,-0.00563,0.999069,0.011126,-0.022073,0.002946,60.447525,30.976288,-146.313019,,,
729706792.223561,-0.255826,1.646775,120.952768,-0.027481,-0.00563,0.999069,0.011126,-0.022073,0.002946,60.447525,30.976288,-146.313019,,,
729706792.224342,-0.255836,1.646742,-22.95741,-0.027481,-0.00563,0.999069,0.011126,-0.022073,0.002946,60.447525,30.976288,-146.313019,,,
729706792.226812,-0.253429,1.639744,120.95317,-0.027481,-0.00563,0.999069,0.011126,-0.022073,0.002946,60.447525,30.976288,-146.313019,,,
729706792.228315,-0.253439,1.639711,-22.957009,-0.027481,-0.00563,0.999069,0.011126,-0.022073,0.002946,60.447525,30.976288,-146.313019,,,
729706792.230143,-0.253429,1.639744,120.95317,-0.027481,-0.00563,0.999069,0.011126,-0.022073,0.002946,60.447525,30.976288,-146.313019,,,
729706792.2329,-0.250991,1.632265,-22.957629,-0.023972,-0.002975,1.002762,0.009561,-0.02068,-0.004196,60.447525,30.976288,-146.313019,,,
729706792.233515,-0.250981,1.632298,120.952552,-0.023972,-0.002975,1.002762,0.009561,-0.02068,-0.004196,60.447525,30.976288,-146.313019,,,
729706792.234288,-0.250991,1.632265,-22.957629,-0.023972,-0.002975,1.002762,0.009561,-0.02068,-0.004196,60.447525,30.976288,-146.313019,,,
729706792.236813,-0.248392,1.626232,120.952052,-0.023972,-0.002975,1.002762,0.009561,-0.02068,-0.004196,60.447525,30.976288,-146.313019,,,
729706792.237621,-0.248402,1.626199,-22.958125,-0.023972,-0.002975,1.002762,0.009561,-0.02068,-0.004196,60.447525,30.976288,-146.313019,,,
729706792.240154,-0.248392,1.626232,120.952052,-0.023972,-0.002975,1.002762,0.009561,-0.02068,-0.004196,60.447525,30.976288,-146.313019,,,
729706792.242903,-0.245003,1.619646,-22.957914,-0.024261,-0.006088,1.003601,0.011741,-0.01907,0.00088,60.447525,30.976288,-146.313019,,,
729706792.243559,-0.244994,1.619679,120.952264,-0.024261,-0.006088,1.003601,0.011741,-0.01907,0.00088,60.447525,30.976288,-146.313019,,,
729706792.244303,-0.245003,1.619646,-22.957914,-0.024261,-0.006088,1.003601,0.011741,-0.01907,0.00088,60.447525,30.976288,-146.313019,,,
729706792.246824,-0.241874,1.614843,120.95319,-0.024261,-0.006088,1.003601,0.011741,-0.01907,0.00088,60.447525,30.976288,-146.313019,,,
729706792.248309,-0.241884,1.61481,-22.956981,-0.024261,-0.006088,1.003601,0.011741,-0.01907,0.00088,60.447525,30.976288,-146.313019,,,
729706792.250228,-0.241874,1.614843,120.95319,-0.024261,-0.006088,1.003601,0.011741,-0.01907,0.00088,60.447525,30.976288,-146.313019,,,
729706792.251886,-0.237692,1.611271,-22.954895,-0.025604,-0.007385,1.004089,0.014944,-0.006178,0.009049,60.447525,30.976288,-146.313019,,,
729706792.253509,-0.237683,1.611305,120.95528,-0.025604,-0.007385,1.004089,0.014944,-0.006178,0.009049,60.458313,30.872467,-146.403503,,,
729706792.254918,-0.237692,1.611271,-22.954895,-0.025604,-0.007385,1.004089,0.014944,-0.006178,0.009049,60.458313,30.872467,-146.403503,,,
729706792.256811,-0.234243,1.610769,120.958408,-0.025604,-0.007385,1.004089,0.014944,-0.006178,0.009049,60.458313,30.872467,-146.403503,,,
729706792.258093,-0.234253,1.610736,-22.951764,-0.025604,-0.007385,1.004089,0.014944,-0.006178,0.009049,60.458313,30.872467,-146.403503,,,
729706792.260164,-0.234243,1.610769,120.958408,-0.025604,-0.007385,1.004089,0.014944,-0.006178,0.009049,60.458313,30.872467,-146.403503,,,
729706792.262422,-0.23021,1.61156,-22.948071,-0.02272,-0.008865,1.004105,0.014087,0.010919,0.012988,60.458313,30.872467,-146.403503,,,
729706792.263569,-0.2302,1.611593,120.962099,-0.02272,-0.008865,1.004105,0.014087,0.010919,0.012988,60.458313,30.872467,-146.403503,,,
729706792.264287,-0.23021,1.61156,-22.948071,-0.02272,-0.008865,1.004105,0.014087,0.010919,0.012988,60.458313,30.872467,-146.403503,,,
729706792.266813,-0.227159,1.616516,120.966475,-0.02272,-0.008865,1.004105,0.014087,0.010919,0.012988,60.458313,30.872467,-146.403503,,,
729706792.268228,-0.227168,1.616482,-22.9437,-0.02272,-0.008865,1.004105,0.014087,0.010919,0.012988,60.458313,30.872467,-146.403503,,,
729706792.270166,-0.227159,1.616516,120.966475,-0.02272,-0.008865,1.004105,0.014087,0.010919,0.012988,60.458313,30.872467,-146.403503,,,
729706792.27154,-0.223794,1.622827,-22.939336,-0.022446,-0.006104,1.000473,0.011525,0.028961,0.01285,60.458313,30.872467,-146.403503,,,
729706792.273492,-0.223784,1.62286,120.970834,-0.022446,-0.006104,1.000473,0.011525,0.028961,0.01285,60.458313,30.872467,-146.403503,,,
729706792.274389,-0.223794,1.622827,-22.939336,-0.022446,-0.006104,1.000473,0.011525,0.028961,0.01285,60.458313,30.872467,-146.403503,,,
729706792.27681,-0.220866,1.632037,120.974545,-0.022446,-0.006104,1.000473,0.011525,0.028961,0.01285,60.458313,30.872467,-146.403503,,,
729706792.278018,-0.220876,1.632004,-22.935627,-0.022446,-0.006104,1.000473,0.011525,0.028961,0.01285,60.458313,30.872467,-146.403503,,,
729706792.28017,-0.220866,1.632037,120.974545,-0.022446,-0.006104,1.000473,0.011525,0.028961,0.01285,60.458313,30.872467,-146.403503,,,
729706792.281739,-0.21754,1.640843,-22.932565,-0.020004,-0.002625,0.997345,0.011629,0.034334,0.008393,60.458313,30.872467,-146.403503,,,
729706792.283496,-0.21753,1.640877,120.977609,-0.020004,-0.002625,0.997345,0.011629,0.034334,0.008393,60.458313,30.872467,-146.403503,,,
729706792.284284,-0.21754,1.640843,-22.932565,-0.020004,-0.002625,0.997345,0.011629,0.034334,0.008393,60.458313,30.872467,-146.403503,,,
729706792.286809,-0.213755,1.65027,120.97974,-0.020004,-0.002625,0.997345,0.011629,0.034334,0.008393,60.458313,30.872467,-146.403503,,,
729706792.288257,-0.213764,1.650237,-22.930433,-0.020004,-0.002625,0.997345,0.011629,0.034334,0.008393,60.458313,30.872467,-146.403503,,,
729706792.290222,-0.213755,1.65027,120.97974,-0.020004,-0.002625,0.997345,0.011629,0.034334,0.008393,60.458313,30.872467,-146.403503,,,
729706792.292118,-0.209231,1.658176,-22.929309,-0.02034,-0.001404,0.990875,0.017469,0.029103,0.001576,60.458313,30.872467,-146.403503,,,
729706792.293484,-0.209221,1.658209,120.980865,-0.02034,-0.001404,0.990875,0.017469,0.029103,0.001576,60.435867,30.771774,-146.52153,,,
729706792.29493,-0.209231,1.658176,-22.929309,-0.02034,-0.001404,0.990875,0.017469,0.029103,0.001576,60.435867,30.771774,-146.52153,,,
729706792.296814,-0.204117,1.665446,120.981655,-0.02034,-0.001404,0.990875,0.017469,0.029103,0.001576,60.435867,30.771774,-146.52153,,,
729706792.29826,-0.204126,1.665413,-22.928515,-0.02034,-0.001404,0.990875,0.017469,0.029103,0.001576,60.435867,30.771774,-146.52153,,,
729706792.300167,-0.204117,1.665446,120.981655,-0.02034,-0.001404,0.990875,0.017469,0.029103,0.001576,60.435867,30.771774,-146.52153,,,
729706792.302613,-0.198491,1.670587,-22.928158,-0.026031,-0.003845,0.988876,0.020353,0.016415,-0.001365,60.435867,30.771774,-146.52153,,,
729706792.30357,-0.198481,1.67062,120.982014,-0.026031,-0.003845,0.988876,0.020353,0.016415,-0.001365,60.435867,30.771774,-146.52153,,,
729706792.304289,-0.198491,1.670587,-22.928158,-0.026031,-0.003845,0.988876,0.020353,0.016415,-0.001365,60.435867,30.771774,-146.52153,,,
729706792.3068,-0.192447,1.672989,120.982129,-0.026031,-0.003845,0.988876,0.020353,0.016415,-0.001365,60.435867,30.771774,-146.52153,,,
729706792.308046,-0.192456,1.672956,-22.92805,-0.026031,-0.003845,0.988876,0.020353,0.016415,-0.001365,60.435867,30.771774,-146.52153,,,
729706792.310141,-0.192447,1.672989,120.982129,-0.026031,-0.003845,0.988876,0.020353,0.016415,-0.001365,60.435867,30.771774,-146.52153,,,
729706792.312169,-0.186105,1.673399,-22.927807,-0.028122,-0.004776,0.98674,0.021341,-0.000742,-0.000426,60.435867,30.771774,-146.52153,,,
729706792.313517,-0.186096,1.673433,120.982368,-0.028122,-0.004776,0.98674,0.021341,-0.000742,-0.000426,60.435867,30.771774,-146.52153,,,
729706792.314296,-0.186105,1.673399,-22.927807,-0.028122,-0.004776,0.98674,0.021341,-0.000742,-0.000426,60.435867,30.771774,-146.52153,,,
729706792.316806,-0.180934,1.67122,120.982561,-0.028122,-0.004776,0.98674,0.021341,-0.000742,-0.000426,60.435867,30.771774,-146.52153,,,
729706792.318003,-0.180944,1.671186,-22.927609,-0.028122,-0.004776,0.98674,0.021341,-0.000742,-0.000426,60.435867,30.771774,-146.52153,,,
729706792.320162,-0.180934,1.67122,120.982561,-0.028122,-0.004776,0.98674,0.021341,-0.000742,-0.000426,60.435867,30.771774,-146.52153,,,
729706792.321757,-0.177004,1.669199,-22.927348,-0.02626,-0.000992,0.983688,0.01174,-0.0051,-0.000298,60.435867,30.771774,-146.52153,,,
729706792.32349,-0.176994,1.669232,120.982819,-0.02626,-0.000992,0.983688,0.01174,-0.0051,-0.000298,60.435867,30.771774,-146.52153,,,
729706792.324367,-0.177004,1.669199,-22.927348,-0.02626,-0.000992,0.983688,0.01174,-0.0051,-0.000298,60.435867,30.771774,-146.52153,,,
729706792.326802,-0.174396,1.666989,120.983041,-0.02626,-0.000992,0.983688,0.01174,-0.0051,-0.000298,60.435867,30.771774,-146.52153,,,
729706792.327984,-0.174406,1.666956,-22.927143,-0.02626,-0.000992,0.983688,0.01174,-0.0051,-0.000298,60.435867,30.771774,-146.52153,,,
729706792.330231,-0.174396,1.666989,120.983041,-0.02626,-0.000992,0.983688,0.01174,-0.0051,-0.000298,60.435867,30.771774,-146.52153,,,
729706792.334513,-0.172392,1.666476,-22.927073,-0.02475,0.002472,0.986099,0.003639,0.004415,-0.001526,60.427948,30.812164,-146.323578,,,
729706792.33481,-0.172382,1.66651,120.983105,-0.02475,0.002472,0.986099,0.003639,0.004415,-0.001526,60.427948,30.812164,-146.323578,,,
729706792.33672,-0.173226,1.667296,120.982849,-0.02475,0.002472,0.986099,0.003639,0.004415,-0.001526,60.427948,30.812164,-146.323578,,,
729706792.337647,-0.173236,1.667262,-22.927322,-0.02475,0.002472,0.986099,0.003639,0.004415,-0.001526,60.427948,30.812164,-146.323578,,,
729706792.340162,-0.173226,1.667296,120.982849,-0.02475,0.002472,0.986099,0.003639,0.004415,-0.001526,60.427948,30.812164,-146.323578,,,
729706792.344335,-0.175268,1.670537,-22.927983,-0.02652,-0.000977,0.990555,-0.009604,0.016597,-0.00479,60.427948,30.812164,-146.323578,,,
729706792.344652,-0.175258,1.670571,120.982189,-0.02652,-0.000977,0.990555,-0.009604,0.016597,-0.00479,60.427948,30.812164,-146.323578,,,
729706792.34676,-0.17918,1.674406,120.98167,-0.02652,-0.000977,0.990555,-0.009604,0.016597,-0.00479,60.427948,30.812164,-146.323578,,,
729706792.347649,-0.17919,1.674372,-22.928503,-0.02652,-0.000977,0.990555,-0.009604,0.016597,-0.00479,60.427948,30.812164,-146.323578,,,
729706792.350163,-0.17918,1.674406,120.98167,-0.02652,-0.000977,0.990555,-0.009604,0.016597,-0.00479,60.427948,30.812164,-146.323578,,,
729706792.351599,-0.182892,1.680317,-22.92859,-0.027084,-0.002777,0.991119,-0.012818,0.026349,-0.001919,60.427948,30.812164,-146.323578,,,
729706792.353483,-0.182882,1.68035,120.981583,-0.027084,-0.002777,0.991119,-0.012818,0.026349,-0.001919,60.427948,30.812164,-146.323578,,,
729706792.354293,-0.182892,1.680317,-22.92859,-0.027084,-0.002777,0.991119,-0.012818,0.026349,-0.001919,60.427948,30.812164,-146.323578,,,
729706792.356807,-0.187456,1.686139,120.982018,-0.027084,-0.002777,0.991119,-0.012818,0.026349,-0.001919,60.427948,30.812164,-146.323578,,,
729706792.35849,-0.187465,1.686105,-22.928155,-0.027084,-0.002777,0.991119,-0.012818,0.026349,-0.001919,60.427948,30.812164,-146.323578,,,
729706792.360167,-0.187456,1.686139,120.982018,-0.027084,-0.002777,0.991119,-0.012818,0.026349,-0.001919,60.427948,30.812164,-146.323578,,,
729706792.362201,-0.191976,1.693364,-22.92728,-0.03273,-0.004944,0.99353,-0.013835,0.028566,0.001116,60.427948,30.812164,-146.323578,,,
729706792.363521,-0.191966,1.693397,120.982895,-0.03273,-0.004944,0.99353,-0.013835,0.028566,0.001116,60.427948,30.812164,-146.323578,,,
729706792.364292,-0.191976,1.693364,-22.92728,-0.03273,-0.004944,0.99353,-0.013835,0.028566,0.001116,60.427948,30.812164,-146.323578,,,
729706792.366807,-0.196095,1.699529,120.984206,-0.03273,-0.004944,0.99353,-0.013835,0.028566,0.001116,60.427948,30.812164,-146.323578,,,
729706792.368293,-0.196104,1.699495,-22.925973,-0.03273,-0.004944,0.99353,-0.013835,0.028566,0.001116,60.427948,30.812164,-146.323578,,,
729706792.370239,-0.196095,1.699529,120.984206,-0.03273,-0.004944,0.99353,-0.013835,0.028566,0.001116,60.427948,30.812164,-146.323578,,,
729706792.372054,-0.200405,1.706487,-22.924171,-0.035065,-0.004471,0.996231,-0.012997,0.025632,0.004559,60.427948,30.812164,-146.323578,,,
729706792.373501,-0.200395,1.70652,120.986006,-0.035065,-0.004471,0.996231,-0.012997,0.025632,0.004559,60.427948,30.812164,-146.323578,,,
729706792.375044,-0.200405,1.706487,-22.924171,-0.035065,-0.004471,0.996231,-0.012997,0.025632,0.004559,60.7061,30.861847,-146.593628,,,
729706792.376807,-0.20416,1.711978,120.98809,-0.035065,-0.004471,0.996231,-0.012997,0.025632,0.004559,60.7061,30.861847,-146.593628,,,
729706792.377619,-0.20417,1.711944,-22.922087,-0.035065,-0.004471,0.996231,-0.012997,0.025632,0.004559,60.7061,30.861847,-146.593628,,,
729706792.380156,-0.20416,1.711978,120.98809,-0.035065,-0.004471,0.996231,-0.012997,0.025632,0.004559,60.7061,30.861847,-146.593628,,,
729706792.38227,-0.208295,1.716621,-22.919542,-0.03511,-0.00676,0.995026,-0.014276,0.013963,0.007691,60.7061,30.861847,-146.593628,,,
729706792.383572,-0.208285,1.716654,120.990634,-0.03511,-0.00676,0.995026,-0.014276,0.013963,0.007691,60.7061,30.861847,-146.593628,,,
729706792.384362,-0.208295,1.716621,-22.919542,-0.03511,-0.00676,0.995026,-0.014276,0.013963,0.007691,60.7061,30.861847,-146.593628,,,
729706792.386802,-0.212793,1.718627,120.993251,-0.03511,-0.00676,0.995026,-0.014276,0.013963,0.007691,60.7061,30.861847,-146.593628,,,
729706792.38762,-0.212803,1.718593,-22.916917,-0.03511,-0.00676,0.995026,-0.014276,0.013963,0.007691,60.7061,30.861847,-146.593628,,,
729706792.390154,-0.212793,1.718627,120.993251,-0.03511,-0.00676,0.995026,-0.014276,0.013963,0.007691,60.7061,30.861847,-146.593628,,,
729706792.393646,-0.217636,1.718817,-22.914837,-0.034866,-0.006241,0.993439,-0.017024,-0.000217,0.003843,60.7061,30.861847,-146.593628,,,
729706792.393935,-0.217626,1.71885,120.995334,-0.034866,-0.006241,0.993439,-0.017024,-0.000217,0.003843,60.7061,30.861847,-146.593628,,,
729706792.394252,-0.217636,1.718817,-22.914837,-0.034866,-0.006241,0.993439,-0.017024,-0.000217,0.003843,60.7061,30.861847,-146.593628,,,
729706792.396819,-0.223472,1.718194,120.997255,-0.034866,-0.006241,0.993439,-0.017024,-0.000217,0.003843,60.7061,30.861847,-146.593628,,,
729706792.39762,-0.223481,1.71816,-22.912913,-0.034866,-0.006241,0.993439,-0.017024,-0.000217,0.003843,60.7061,30.861847,-146.593628,,,
729706792.400162,-0.223472,1.718194,120.997255,-0.034866,-0.006241,0.993439,-0.017024,-0.000217,0.003843,60.7061,30.861847,-146.593628,,,
729706792.402854,-0.230088,1.718375,-22.911443,-0.034393,-0.004059,0.996613,-0.02272,0.004168,0.000505,60.7061,30.861847,-146.593628,,,
729706792.403518,-0.230079,1.718409,120.998727,-0.034393,-0.004059,0.996613,-0.02272,0.004168,0.000505,60.7061,30.861847,-146.593628,,,
729706792.404293,-0.230088,1.718375,-22.911443,-0.034393,-0.004059,0.996613,-0.02272,0.004168,0.000505,60.7061,30.861847,-146.593628,,,
729706792.406808,-0.235662,1.717566,120.999747,-0.034393,-0.004059,0.996613,-0.02272,0.004168,0.000505,60.7061,30.861847,-146.593628,,,
729706792.408042,-0.235671,1.717532,-22.910424,-0.034393,-0.004059,0.996613,-0.02272,0.004168,0.000505,60.7061,30.861847,-146.593628,,,
729706792.410227,-0.235662,1.717566,120.999747,-0.034393,-0.004059,0.996613,-0.02272,0.004168,0.000505,60.7061,30.861847,-146.593628,,,
729706792.410969,-0.235671,1.717532,-22.910424,-0.034393,-0.004059,0.996613,-0.020007,0.001547,0.002317,60.7061,30.861847,-146.593628,,,
729706792.413496,-0.241598,1.717044,121.001017,-0.032715,-0.005936,1.00174,-0.020007,0.001547,0.002317,60.7061,30.861847,-146.593628,,,
729706792.41459,-0.241608,1.71701,-22.909151,-0.032715,-0.005936,1.00174,-0.020007,0.001547,0.002317,60.7061,30.861847,-146.593628,,,
729706792.416812,-0.246246,1.716145,121.002371,-0.032715,-0.005936,1.00174,-0.020007,0.001547,0.002317,60.550598,30.845352,-146.35231,,,
729706792.418604,-0.246255,1.716111,-22.907796,-0.032715,-0.005936,1.00174,-0.020007,0.001547,0.002317,60.550598,30.845352,-146.35231,,,
729706792.420184,-0.246246,1.716145,121.002371,-0.032715,-0.005936,1.00174,-0.020007,0.001547,0.002317,60.550598,30.845352,-146.35231,,,
729706792.420958,-0.246255,1.716111,-22.907796,-0.032715,-0.005936,1.00174,-0.020007,0.001547,0.002317,60.550598,30.845352,-146.35231,,,
729706792.423466,-0.251219,1.715042,121.003566,-0.03067,-0.010788,1.00943,-0.016818,-0.003349,0.001263,60.550598,30.845352,-146.35231,,,
729706792.425744,-0.251229,1.715009,-22.906616,-0.03067,-0.010788,1.00943,-0.016818,-0.003349,0.001263,60.550598,30.845352,-146.35231,,,
729706792.426823,-0.254666,1.713291,121.005225,-0.03067,-0.010788,1.00943,-0.016818,-0.003349,0.001263,60.550598,30.845352,-146.35231,,,
729706792.428194,-0.254676,1.713257,-22.904956,-0.03067,-0.010788,1.00943,-0.016818,-0.003349,0.001263,60.550598,30.845352,-146.35231,,,
729706792.430167,-0.254666,1.713291,121.005225,-0.03067,-0.010788,1.00943,-0.016818,-0.003349,0.001263,60.550598,30.845352,-146.35231,,,
729706792.430953,-0.254676,1.713257,-22.904956,-0.03067,-0.010788,1.00943,-0.016818,-0.003349,0.001263,60.550598,30.845352,-146.35231,,,
729706792.433492,-0.256975,1.712665,121.007538,-0.031815,-0.011459,1.011002,-0.006644,0.001658,0.006122,60.550598,30.845352,-146.35231,,,
729706792.436095,-0.256984,1.712632,-22.902645,-0.031815,-0.011459,1.011002,-0.006644,0.001658,0.006122,60.550598,30.845352,-146.35231,,,
729706792.436831,-0.258265,1.713156,121.009957,-0.031815,-0.011459,1.011002,-0.006644,0.001658,0.006122,60.550598,30.845352,-146.35231,,,
729706792.437633,-0.258275,1.713122,-22.900228,-0.031815,-0.011459,1.011002,-0.006644,0.001658,0.006122,60.550598,30.845352,-146.35231,,,
729706792.440133,-0.258265,1.713156,121.009957,-0.031815,-0.011459,1.011002,-0.006644,0.001658,0.006122,60.550598,30.845352,-146.35231,,,
729706792.441043,-0.258275,1.713122,-22.900228,-0.031815,-0.011459,1.011002,-0.006644,0.001658,0.006122,60.550598,30.845352,-146.35231,,,
729706792.443484,-0.258183,1.715033,121.012442,-0.02951,-0.010269,1.015518,0.003038,0.011,0.006847,60.550598,30.845352,-146.35231,,,
729706792.445788,-0.258192,1.715,-22.897744,-0.02951,-0.010269,1.015518,0.003038,0.011,0.006847,60.550598,30.845352,-146.35231,,,
729706792.446823,-0.256909,1.718764,121.014618,-0.02951,-0.010269,1.015518,0.003038,0.011,0.006847,60.550598,30.845352,-146.35231,,,
729706792.448,-0.256919,1.71873,-22.895553,-0.02951,-0.010269,1.015518,0.003038,0.011,0.006847,60.550598,30.845352,-146.35231,,,
729706792.45022,-0.256909,1.718764,121.014618,-0.02951,-0.010269,1.015518,0.003038,0.011,0.006847,60.550598,30.845352,-146.35231,,,
729706792.451015,-0.256919,1.71873,-22.895553,-0.02951,-0.010269,1.015518,0.003038,0.011,0.006847,60.550598,30.845352,-146.35231,,,
729706792.453494,-0.255119,1.722822,121.016191,-0.02652,-0.008728,1.013031,0.006359,0.017883,0.002694,60.550598,30.845352,-146.35231,,,
729706792.455413,-0.255129,1.722789,-22.893979,-0.02652,-0.008728,1.013031,0.006359,0.017883,0.002694,60.550598,30.845352,-146.35231,,,
729706792.45681,-0.25325,1.727943,121.017198,-0.02652,-0.008728,1.013031,0.006359,0.017883,0.002694,60.508072,30.91243,-146.711624,,,
729706792.459202,-0.253259,1.727909,-22.892976,-0.02652,-0.008728,1.013031,0.006359,0.017883,0.002694,60.508072,30.91243,-146.711624,,,
729706792.460204,-0.25325,1.727943,121.017198,-0.02652,-0.008728,1.013031,0.006359,0.017883,0.002694,60.508072,30.91243,-146.711624,,,
729706792.461057,-0.253259,1.727909,-22.892976,-0.02652,-0.008728,1.013031,0.006359,0.017883,0.002694,60.508072,30.91243,-146.711624,,,
729706792.463486,-0.250942,1.732407,121.017869,-0.026367,-0.007599,1.00589,0.009185,0.017937,0.000507,60.508072,30.91243,-146.711624,,,
729706792.464297,-0.250952,1.732373,-22.892308,-0.026367,-0.007599,1.00589,0.009185,0.017937,0.000507,60.508072,30.91243,-146.711624,,,
729706792.4668,-0.248569,1.737437,121.018284,-0.026367,-0.007599,1.00589,0.009185,0.017937,0.000507,60.508072,30.91243,-146.711624,,,
729706792.467988,-0.248579,1.737403,-22.891898,-0.026367,-0.007599,1.00589,0.009185,0.017937,0.000507,60.508072,30.91243,-146.711624,,,
729706792.470161,-0.248569,1.737437,121.018284,-0.026367,-0.007599,1.00589,0.009185,0.017937,0.000507,60.508072,30.91243,-146.711624,,,
729706792.471025,-0.248579,1.737403,-22.891898,-0.026367,-0.007599,1.00589,0.009185,0.017937,0.000507,60.508072,30.91243,-146.711624,,,
729706792.473582,-0.246285,1.741167,121.018706,-0.027008,-0.006973,1.005066,0.006066,0.014134,0.000485,60.508072,30.91243,-146.711624,,,
729706792.474695,-0.246295,1.741133,-22.891479,-0.027008,-0.006973,1.005066,0.006066,0.014134,0.000485,60.508072,30.91243,-146.711624,,,
729706792.476817,-0.243887,1.74423,121.019446,-0.027008,-0.006973,1.005066,0.006066,0.014134,0.000485,60.508072,30.91243,-146.711624,,,
729706792.477997,-0.243896,1.744196,-22.890741,-0.027008,-0.006973,1.005066,0.006066,0.014134,0.000485,60.508072,30.91243,-146.711624,,,
729706792.480178,-0.243887,1.74423,121.019446,-0.027008,-0.006973,1.005066,0.006066,0.014134,0.000485,60.508072,30.91243,-146.711624,,,
729706792.480985,-0.243896,1.744196,-22.890741,-0.027008,-0.006973,1.005066,0.006066,0.014134,0.000485,60.508072,30.91243,-146.711624,,,
729706792.483487,-0.240831,1.744628,121.020019,-0.026978,-0.004501,1.000244,0.010303,-0.000582,-0.000536,60.508072,30.91243,-146.711624,,,
729706792.486971,-0.240841,1.744595,-22.890168,-0.026978,-0.004501,1.000244,0.010303,-0.000582,-0.000536,60.508072,30.91243,-146.711624,,,
729706792.487246,-0.237763,1.742952,121.02021,-0.026978,-0.004501,1.000244,0.010303,-0.000582,-0.000536,60.508072,30.91243,-146.711624,,,
729706792.487561,-0.237773,1.742918,-22.889977,-0.026978,-0.004501,1.000244,0.010303,-0.000582,-0.000536,60.508072,30.91243,-146.711624,,,
729706792.49018,-0.237763,1.742952,121.02021,-0.026978,-0.004501,1.000244,0.010303,-0.000582,-0.000536,60.508072,30.91243,-146.711624,,,
729706792.491053,-0.237773,1.742918,-22.889977,-0.026978,-0.004501,1.000244,0.010303,-0.000582,-0.000536,60.508072,30.91243,-146.711624,,,
729706792.493476,-0.234334,1.73831,121.019964,-0.023758,-0.001724,0.996078,0.01228,-0.016983,-0.003515,60.508072,30.91243,-146.711624,,,
729706792.495129,-0.234344,1.738276,-22.890223,-0.023758,-0.001724,0.996078,0.01228,-0.016983,-0.003515,60.508072,30.91243,-146.711624,,,
729706792.496817,-0.232019,1.732309,121.018641,-0.023758,-0.001724,0.996078,0.01228,-0.016983,-0.003515,60.505325,30.939484,-146.161804,,,
729706792.498388,-0.232029,1.732276,-22.891539,-0.023758,-0.001724,0.996078,0.01228,-0.016983,-0.003515,60.505325,30.939484,-146.161804,,,
729706792.500222,-0.232019,1.732309,121.018641,-0.023758,-0.001724,0.996078,0.01228,-0.016983,-0.003515,60.505325,30.939484,-146.161804,,,
729706792.500968,-0.232029,1.732276,-22.891539,-0.023758,-0.001724,0.996078,0.01228,-0.016983,-0.003515,60.505325,30.939484,-146.161804,,,
729706792.503477,-0.229999,1.726029,121.015822,-0.021301,-0.001099,0.996094,0.006591,-0.018559,-0.01413,60.505325,30.939484,-146.161804,,,
729706792.504527,-0.230009,1.725996,-22.894355,-0.021301,-0.001099,0.996094,0.006591,-0.018559,-0.01413,60.505325,30.939484,-146.161804,,,
729706792.506807,-0.229653,1.721006,121.011519,-0.021301,-0.001099,0.996094,0.006591,-0.018559,-0.01413,60.505325,30.939484,-146.161804,,,
729706792.508337,-0.229663,1.720973,-22.898654,-0.021301,-0.001099,0.996094,0.006591,-0.018559,-0.01413,60.505325,30.939484,-146.161804,,,
729706792.510175,-0.229653,1.721006,121.011519,-0.021301,-0.001099,0.996094,0.006591,-0.018559,-0.01413,60.505325,30.939484,-146.161804,,,
729706792.511021,-0.229663,1.720973,-22.898654,-0.021301,-0.001099,0.996094,0.006591,-0.018559,-0.01413,60.505325,30.939484,-146.161804,,,
729706792.513536,-0.229315,1.71773,121.006092,-0.019852,-0.000168,0.999893,0.000404,-0.005776,-0.022131,60.505325,30.939484,-146.161804,,,
729706792.514963,-0.229325,1.717697,-22.904083,-0.019852,-0.000168,0.999893,0.000404,-0.005776,-0.022131,60.505325,30.939484,-146.161804,,,
729706792.516818,-0.231224,1.716316,121.00011,-0.019852,-0.000168,0.999893,0.000404,-0.005776,-0.022131,60.505325,30.939484,-146.161804,,,
729706792.517875,-0.231234,1.716283,-22.910071,-0.019852,-0.000168,0.999893,0.000404,-0.005776,-0.022131,60.505325,30.939484,-146.161804,,,
729706792.520142,-0.231224,1.716316,121.00011,-0.019852,-0.000168,0.999893,0.000404,-0.005776,-0.022131,60.505325,30.939484,-146.161804,,,
729706792.521013,-0.231234,1.716283,-22.910071,-0.019852,-0.000168,0.999893,0.000404,-0.005776,-0.022131,60.505325,30.939484,-146.161804,,,
729706792.523491,-0.233099,1.716249,120.994462,-0.022171,-0.00325,0.997864,-0.006364,0.004049,-0.019951,60.505325,30.939484,-146.161804,,,
729706792.526977,-0.233109,1.716215,-22.915721,-0.022171,-0.00325,0.997864,-0.006364,0.004049,-0.019951,60.505325,30.939484,-146.161804,,,
729706792.527253,-0.235908,1.717401,120.989605,-0.022171,-0.00325,0.997864,-0.006364,0.004049,-0.019951,60.505325,30.939484,-146.161804,,,
729706792.527958,-0.235917,1.717368,-22.920582,-0.022171,-0.00325,0.997864,-0.006364,0.004049,-0.019951,60.505325,30.939484,-146.161804,,,
729706792.530173,-0.235908,1.717401,120.989605,-0.022171,-0.00325,0.997864,-0.006364,0.004049,-0.019951,60.505325,30.939484,-146.161804,,,
729706792.530977,-0.235917,1.717368,-22.920582,-0.022171,-0.00325,0.997864,-0.006364,0.004049,-0.019951,60.505325,30.939484,-146.161804,,,
729706792.533503,-0.237906,1.720479,120.986016,-0.024734,-0.005005,0.999649,-0.006143,0.015146,-0.011092,60.505325,30.939484,-146.161804,,,
729706792.534937,-0.237915,1.720446,-22.924167,-0.024734,-0.005005,0.999649,-0.006143,0.015146,-0.011092,60.505325,30.939484,-146.161804,,,
729706792.536815,-0.240888,1.723654,120.983702,-0.024734,-0.005005,0.999649,-0.006143,0.015146,-0.011092,60.505325,30.939484,-146.161804,,,
729706792.538285,-0.240897,1.723621,-22.926472,-0.024734,-0.005005,0.999649,-0.006143,0.015146,-0.011092,60.51001,30.811035,-146.329941,,,
729706792.540241,-0.240888,1.723654,120.983702,-0.024734,-0.005005,0.999649,-0.006143,0.015146,-0.011092,60.51001,30.811035,-146.329941,,,
729706792.541114,-0.240897,1.723621,-22.926472,-0.024734,-0.005005,0.999649,-0.006143,0.015146,-0.011092,60.51001,30.811035,-146.329941,,,
729706792.543477,-0.243356,1.727961,120.982091,-0.027847,-0.005844,0.994934,-0.006729,0.018846,-0.006274,60.51001,30.811035,-146.329941,,,
729706792.54506,-0.243366,1.727927,-22.928085,-0.027847,-0.005844,0.994934,-0.006729,0.018846,-0.006274,60.51001,30.811035,-146.329941,,,
729706792.546814,-0.245502,1.732653,120.981065,-0.027847,-0.005844,0.994934,-0.006729,0.018846,-0.006274,60.51001,30.811035,-146.329941,,,
729706792.547957,-0.245512,1.73262,-22.92911,-0.027847,-0.005844,0.994934,-0.006729,0.018846,-0.006274,60.51001,30.811035,-146.329941,,,
729706792.550152,-0.245502,1.732653,120.981065,-0.027847,-0.005844,0.994934,-0.006729,0.018846,-0.006274,60.51001,30.811035,-146.329941,,,
729706792.55099,-0.245512,1.73262,-22.92911,-0.027847,-0.005844,0.994934,-0.006729,0.018846,-0.006274,60.51001,30.811035,-146.329941,,,
729706792.553558,-0.246583,1.738377,120.979747,-0.029755,-0.002136,0.993134,-0.002191,0.022748,-0.008234,60.51001,30.811035,-146.329941,,,
729706792.555133,-0.246593,1.738343,-22.930433,-0.029755,-0.002136,0.993134,-0.002191,0.022748,-0.008234,60.51001,30.811035,-146.329941,,,
729706792.55682,-0.247636,1.743178,120.977791,-0.029755,-0.002136,0.993134,-0.002191,0.022748,-0.008234,60.51001,30.811035,-146.329941,,,
729706792.557667,-0.247646,1.743145,-22.932386,-0.029755,-0.002136,0.993134,-0.002191,0.022748,-0.008234,60.51001,30.811035,-146.329941,,,
729706792.560142,-0.247636,1.743178,120.977791,-0.029755,-0.002136,0.993134,-0.002191,0.022748,-0.008234,60.51001,30.811035,-146.329941,,,
729706792.560949,-0.247646,1.743145,-22.932386,-0.029755,-0.002136,0.993134,-0.002191,0.022748,-0.008234,60.51001,30.811035,-146.329941,,,
729706792.563494,-0.248395,1.746612,120.975519,-0.030899,-0.00235,0.99205,-0.001973,0.01052,-0.010462,60.51001,30.811035,-146.329941,,,
729706792.564848,-0.248405,1.746579,-22.934659,-0.030899,-0.00235,0.99205,-0.001973,0.01052,-0.010462,60.51001,30.811035,-146.329941,,,
729706792.566816,-0.249498,1.746951,120.972914,-0.030899,-0.00235,0.99205,-0.001973,0.01052,-0.010462,60.51001,30.811035,-146.329941,,,
729706792.567864,-0.249508,1.746918,-22.937263,-0.030899,-0.00235,0.99205,-0.001973,0.01052,-0.010462,60.51001,30.811035,-146.329941,,,
729706792.570151,-0.249498,1.746951,120.972914,-0.030899,-0.00235,0.99205,-0.001973,0.01052,-0.010462,60.51001,30.811035,-146.329941,,,
729706792.570952,-0.249508,1.746918,-22.937263,-0.030899,-0.00235,0.99205,-0.001973,0.01052,-0.010462,60.51001,30.811035,-146.329941,,,
729706792.573471,-0.251778,1.745896,120.96997,-0.035004,-0.003983,0.984131,-0.00826,-0.003008,-0.013039,60.51001,30.811035,-146.329941,,,
729706792.576179,-0.251787,1.745862,-22.940205,-0.035004,-0.003983,0.984131,-0.00826,-0.003008,-0.013039,60.51001,30.811035,-146.329941,,,
729706792.576825,-0.254875,1.741815,120.966718,-0.035004,-0.003983,0.984131,-0.00826,-0.003008,-0.013039,60.51001,30.811035,-146.329941,,,
729706792.57799,-0.254885,1.741782,-22.94345,-0.035004,-0.003983,0.984131,-0.00826,-0.003008,-0.013039,60.51001,30.811035,-146.329941,,,
729706792.580219,-0.254875,1.741815,120.966718,-0.035004,-0.003983,0.984131,-0.00826,-0.003008,-0.013039,60.544327,30.80481,-146.420441,,,
729706792.581676,-0.254885,1.741782,-22.94345,-0.035004,-0.003983,0.984131,-0.00826,-0.003008,-0.013039,60.544327,30.80481,-146.420441,,,
729706792.583524,-0.259409,1.736725,120.962947,-0.034866,-0.00061,0.984222,-0.015029,-0.017189,-0.016922,60.544327,30.80481,-146.420441,,,
729706792.585618,-0.259419,1.736692,-22.947223,-0.034866,-0.00061,0.984222,-0.015029,-0.017189,-0.016922,60.544327,30.80481,-146.420441,,,
729706792.586815,-0.26403,1.729574,120.958872,-0.034866,-0.00061,0.984222,-0.015029,-0.017189,-0.016922,60.544327,30.80481,-146.420441,,,
729706792.587947,-0.26404,1.729541,-22.951312,-0.034866,-0.00061,0.984222,-0.015029,-0.017189,-0.016922,60.544327,30.80481,-146.420441,,,
729706792.590164,-0.26403,1.729574,120.958872,-0.034866,-0.00061,0.984222,-0.015029,-0.017189,-0.016922,60.544327,30.80481,-146.420441,,,
729706792.591011,-0.26404,1.729541,-22.951312,-0.034866,-0.00061,0.984222,-0.015029,-0.017189,-0.016922,60.544327,30.80481,-146.420441,,,
729706792.593558,-0.270203,1.724014,120.954759,-0.033661,-0.002136,0.987946,-0.021428,-0.01579,-0.017321,60.544327,30.80481,-146.420441,,,
729706792.595384,-0.270212,1.723981,-22.955426,-0.033661,-0.002136,0.987946,-0.021428,-0.01579,-0.017321,60.544327,30.80481,-146.420441,,,
729706792.596819,-0.27661,1.718354,120.950219,-0.033661,-0.002136,0.987946,-0.021428,-0.01579,-0.017321,60.544327,30.80481,-146.420441,,,
729706792.59796,-0.27662,1.71832,-22.959965,-0.033661,-0.002136,0.987946,-0.021428,-0.01579,-0.017321,60.544327,30.80481,-146.420441,,,
729706792.60021,-0.27661,1.718354,120.950219,-0.033661,-0.002136,0.987946,-0.021428,-0.01579,-0.017321,60.544327,30.80481,-146.420441,,,
729706792.600942,-0.27662,1.71832,-22.959965,-0.033661,-0.002136,0.987946,-0.021428,-0.01579,-0.017321,60.544327,30.80481,-146.420441,,,
729706792.603486,-0.28372,1.715747,120.946245,-0.033859,-0.004379,0.993179,-0.023391,-0.003394,-0.013487,60.544327,30.80481,-146.420441,,,
729706792.604738,-0.28373,1.715714,-22.963944,-0.033859,-0.004379,0.993179,-0.023391,-0.003394,-0.013487,60.544327,30.80481,-146.420441,,,
729706792.606811,-0.291156,1.714146,120.94294,-0.033859,-0.004379,0.993179,-0.023391,-0.003394,-0.013487,60.544327,30.80481,-146.420441,,,
729706792.60861,-0.291166,1.714113,-22.967231,-0.033859,-0.004379,0.993179,-0.023391,-0.003394,-0.013487,60.544327,30.80481,-146.420441,,,
729706792.610176,-0.291156,1.714146,120.94294,-0.033859,-0.004379,0.993179,-0.023391,-0.003394,-0.013487,60.544327,30.80481,-146.420441,,,
729706792.61096,-0.291166,1.714113,-22.967231,-0.033859,-0.004379,0.993179,-0.023391,-0.003394,-0.013487,60.544327,30.80481,-146.420441,,,
729706792.61349,-0.299115,1.715197,120.93972,-0.035828,-0.00473,0.997955,-0.026155,0.00946,-0.013074,60.544327,30.80481,-146.420441,,,
729706792.616801,-0.299124,1.715163,-22.970453,-0.035828,-0.00473,0.997955,-0.026155,0.00946,-0.013074,60.544327,30.80481,-146.420441,,,
729706792.617066,-0.307216,1.71775,120.937206,-0.035828,-0.00473,0.997955,-0.026155,0.00946,-0.013074,60.544327,30.80481,-146.420441,,,
729706792.61797,-0.307226,1.717716,-22.972969,-0.035828,-0.00473,0.997955,-0.026155,0.00946,-0.013074,60.544327,30.80481,-146.420441,,,
729706792.620148,-0.307216,1.71775,120.937206,-0.035828,-0.00473,0.997955,-0.026155,0.00946,-0.013074,60.429184,31.062515,-146.51767,,,
729706792.621678,-0.307226,1.717716,-22.972969,-0.035828,-0.00473,0.997955,-0.026155,0.00946,-0.013074,60.429184,31.062515,-146.51767,,,
729706792.623476,-0.315195,1.722288,120.935758,-0.035217,-0.005707,0.999359,-0.025508,0.019368,-0.005585,60.429184,31.062515,-146.51767,,,
729706792.625256,-0.315205,1.722255,-22.974413,-0.035217,-0.005707,0.999359,-0.025508,0.019368,-0.005585,60.429184,31.062515,-146.51767,,,
729706792.626838,-0.322246,1.727419,120.935602,-0.035217,-0.005707,0.999359,-0.025508,0.019368,-0.005585,60.429184,31.062515,-146.51767,,,
729706792.627988,-0.322255,1.727386,-22.974565,-0.035217,-0.005707,0.999359,-0.025508,0.019368,-0.005585,60.429184,31.062515,-146.51767,,,
729706792.630175,-0.322246,1.727419,120.935602,-0.035217,-0.005707,0.999359,-0.025508,0.019368,-0.005585,60.429184,31.062515,-146.51767,,,
729706792.631028,-0.322255,1.727386,-22.974565,-0.035217,-0.005707,0.999359,-0.025508,0.019368,-0.005585,60.429184,31.062515,-146.51767,,,
729706792.633557,-0.328493,1.733216,120.936389,-0.037827,-0.005676,1.000061,-0.019298,0.023219,0.001151,60.429184,31.062515,-146.51767,,,
729706792.636134,-0.328502,1.733182,-22.973778,-0.037827,-0.005676,1.000061,-0.019298,0.023219,0.001151,60.429184,31.062515,-146.51767,,,
729706792.63687,-0.332306,1.73903,120.937703,-0.037827,-0.005676,1.000061,-0.019298,0.023219,0.001151,60.429184,31.062515,-146.51767,,,
729706792.637987,-0.332315,1.738996,-22.972469,-0.037827,-0.005676,1.000061,-0.019298,0.023219,0.001151,60.429184,31.062515,-146.51767,,,
729706792.640164,-0.332306,1.73903,120.937703,-0.037827,-0.005676,1.000061,-0.019298,0.023219,0.001151,60.429184,31.062515,-146.51767,,,
729706792.641079,-0.332315,1.738996,-22.972469,-0.037827,-0.005676,1.000061,-0.019298,0.023219,0.001151,60.429184,31.062515,-146.51767,,,
729706792.643513,-0.335125,1.743373,120.939444,-0.036346,-0.006836,1.002319,-0.008215,0.013331,0.004523,60.429184,31.062515,-146.51767,,,
729706792.645182,-0.335135,1.743339,-22.970728,-0.036346,-0.006836,1.002319,-0.008215,0.013331,0.004523,60.429184,31.062515,-146.51767,,,
729706792.646893,-0.337069,1.746291,120.941058,-0.036346,-0.006836,1.002319,-0.008215,0.013331,0.004523,60.429184,31.062515,-146.51767,,,
729706792.648041,-0.337079,1.746257,-22.969117,-0.036346,-0.006836,1.002319,-0.008215,0.013331,0.004523,60.429184,31.062515,-146.51767,,,
729706792.650147,-0.337069,1.746291,120.941058,-0.036346,-0.006836,1.002319,-0.008215,0.013331,0.004523,60.429184,31.062515,-146.51767,,,
