Time (sec),Pitch (deg),Roll (deg),Yaw(deg),X-Acceleration (g),Y-Acceleration (g),Z-Acceleration (g),Pitch Rate (deg/sec),Roll Rate (deg/sec),Yaw Rate (deg/sec),Magnetic Field in X direction (uT),Magnetic Field in Y direction (uT),Magnetic Field in Z Direction (uT),Latitude (deg),Longitude (deg),Altitude (m)
729705796.679981,-0.277153,-1.367018,77.591013,0.014908,-0.009979,0.991592,0.005606,-0.058404,0.017156,86.921005,34.456924,-150.344681,,,
729705796.683399,-0.275973,-1.380234,77.596673,0.014908,-0.009979,0.991592,0.005606,-0.058404,0.017156,86.921005,34.456924,-150.344681,,,
729705796.68665,-0.275973,-1.380234,77.596673,0.014908,-0.009979,0.991592,0.005606,-0.058404,0.017156,86.921005,34.456924,-150.344681,,,
729705796.689991,-0.27422,-1.398198,77.60239,0.022858,-0.002182,0.994827,0.006864,-0.060847,0.017671,86.921005,34.456924,-150.344681,,,
729705796.693313,-0.273652,-1.413686,77.6076,0.022858,-0.002182,0.994827,0.006864,-0.060847,0.017671,86.921005,34.456924,-150.344681,,,
729705796.696647,-0.273652,-1.413686,77.6076,0.022858,-0.002182,0.994827,0.006864,-0.060847,0.017671,86.524323,34.681717,-150.175079,,,
729705796.699999,-0.271872,-1.43413,77.612043,0.029861,0.004028,0.995728,0.006537,-0.0697,0.012601,86.524323,34.681717,-150.175079,,,
729705796.703316,-0.27232,-1.451159,77.615938,0.029861,0.004028,0.995728,0.006537,-0.0697,0.012601,86.524323,34.681717,-150.175079,,,
729705796.706743,-0.27232,-1.451159,77.615938,0.029861,0.004028,0.995728,0.006537,-0.0697,0.012601,86.524323,34.681717,-150.175079,,,
729705796.709989,-0.273098,-1.472897,77.618964,0.030563,0.007751,0.995728,-0.003573,-0.073318,0.006933,86.524323,34.681717,-150.175079,,,
729705796.713316,-0.275674,-1.489772,77.621014,0.030563,0.007751,0.995728,-0.003573,-0.073318,0.006933,86.524323,34.681717,-150.175079,,,
729705796.716656,-0.275674,-1.489772,77.621014,0.030563,0.007751,0.995728,-0.003573,-0.073318,0.006933,86.524323,34.681717,-150.175079,,,
729705796.720057,-0.279172,-1.511056,77.622257,0.034668,0.00882,0.997177,-0.014246,-0.069489,0.001788,86.524323,34.681717,-150.175079,,,
729705796.723301,-0.284489,-1.527524,77.623137,0.034668,0.00882,0.997177,-0.014246,-0.069489,0.001788,86.524323,34.681717,-150.175079,,,
729705796.726668,-0.284489,-1.527524,77.623137,0.034668,0.00882,0.997177,-0.014246,-0.069489,0.001788,86.524323,34.681717,-150.175079,,,
729705796.730002,-0.290365,-1.547956,77.62354,0.034622,0.005615,0.99704,-0.019472,-0.066875,-0.001163,86.524323,34.681717,-150.175079,,,
729705796.733325,-0.297981,-1.562826,77.623294,0.034622,0.005615,0.99704,-0.019472,-0.066875,-0.001163,86.524323,34.681717,-150.175079,,,
729705796.736651,-0.297981,-1.562826,77.623294,0.034622,0.005615,0.99704,-0.019472,-0.066875,-0.001163,86.524323,34.681717,-150.175079,,,
729705796.739995,-0.303977,-1.581207,77.623462,0.03418,0.002045,1.001114,-0.018075,-0.059513,0.001825,86.520294,34.606903,-150.114929,,,
729705796.743324,-0.311213,-1.593564,77.624395,0.03418,0.002045,1.001114,-0.018075,-0.059513,0.001825,86.520294,34.606903,-150.114929,,,
729705796.746714,-0.311213,-1.593564,77.624395,0.03418,0.002045,1.001114,-0.018075,-0.059513,0.001825,86.520294,34.606903,-150.114929,,,
729705796.749985,-0.315475,-1.60919,77.625923,0.032013,-0.0047,1.00563,-0.01092,-0.049859,0.005955,86.520294,34.606903,-150.114929,,,
729705796.753341,-0.31935,-1.620301,77.628286,0.032013,-0.0047,1.00563,-0.01092,-0.049859,0.005955,86.520294,34.606903,-150.114929,,,
729705796.756686,-0.31935,-1.620301,77.628286,0.032013,-0.0047,1.00563,-0.01092,-0.049859,0.005955,86.520294,34.606903,-150.114929,,,
729705796.760053,-0.319894,-1.634683,77.631534,0.031952,-0.008408,1.005875,0.000272,-0.043962,0.011991,86.520294,34.606903,-150.114929,,,
729705796.763332,-0.319962,-1.644965,77.636035,0.031952,-0.008408,1.005875,0.000272,-0.043962,0.011991,86.520294,34.606903,-150.114929,,,
729705796.766662,-0.319962,-1.644965,77.636035,0.031952,-0.008408,1.005875,0.000272,-0.043962,0.011991,86.520294,34.606903,-150.114929,,,
729705796.769983,-0.318953,-1.655435,77.641503,0.030594,-0.007874,1.006668,0.006696,-0.029602,0.018579,86.520294,34.606903,-150.114929,,,
729705796.773316,-0.315364,-1.662764,77.647667,0.030594,-0.007874,1.006668,0.006696,-0.029602,0.018579,86.520294,34.606903,-150.114929,,,
729705796.776653,-0.315364,-1.662764,77.647667,0.030594,-0.007874,1.006668,0.006696,-0.029602,0.018579,86.520294,34.606903,-150.114929,,,
729705796.779995,-0.313281,-1.667952,77.654496,0.034622,-0.006454,1.009399,0.008598,-0.010399,0.023183,86.556046,34.534897,-150.110916,,,
729705796.783353,-0.307707,-1.671076,77.661398,0.034622,-0.006454,1.009399,0.008598,-0.010399,0.023183,86.556046,34.534897,-150.110916,,,
729705796.786641,-0.307707,-1.671076,77.661398,0.034622,-0.006454,1.009399,0.008598,-0.010399,0.023183,86.556046,34.534897,-150.110916,,,
729705796.789996,-0.303579,-1.671829,77.668919,0.037964,-0.00737,1.006271,0.017675,0.002759,0.027163,86.556046,34.534897,-150.110916,,,
729705796.793332,-0.294841,-1.672856,77.677171,0.037964,-0.00737,1.006271,0.017675,0.002759,0.027163,86.556046,34.534897,-150.110916,,,
729705796.796647,-0.294841,-1.672856,77.677171,0.037964,-0.00737,1.006271,0.017675,0.002759,0.027163,86.556046,34.534897,-150.110916,,,
729705796.799984,-0.288348,-1.67207,77.68487,0.036636,-0.008362,1.006577,0.025655,0.006554,0.023034,86.556046,34.534897,-150.110916,,,
729705796.803331,-0.278253,-1.672656,77.691886,0.036636,-0.008362,1.006577,0.025655,0.006554,0.023034,86.556046,34.534897,-150.110916,,,
729705796.806658,-0.278253,-1.672656,77.691886,0.036636,-0.008362,1.006577,0.025655,0.006554,0.023034,86.556046,34.534897,-150.110916,,,
729705796.810053,-0.271313,-1.671606,77.6983,0.033112,-0.005127,1.001022,0.025409,0.006938,0.018886,86.556046,34.534897,-150.110916,,,
729705796.813362,-0.262606,-1.672494,77.704147,0.033112,-0.005127,1.001022,0.025409,0.006938,0.018886,86.556046,34.534897,-150.110916,,,
729705796.816662,-0.262606,-1.672494,77.704147,0.033112,-0.005127,1.001022,0.025409,0.006938,0.018886,86.556046,34.534897,-150.110916,,,
729705796.820006,-0.256734,-1.673405,77.709557,0.031326,-0.004761,0.998459,0.020785,-0.004444,0.015905,86.380569,34.526886,-150.115753,,,
729705796.823412,-0.250253,-1.677668,77.714603,0.031326,-0.004761,0.998459,0.020785,-0.004444,0.015905,86.380569,34.526886,-150.115753,,,
729705796.826632,-0.250253,-1.677668,77.714603,0.031326,-0.004761,0.998459,0.020785,-0.004444,0.015905,86.380569,34.526886,-150.115753,,,
729705796.829982,-0.244922,-1.683313,77.719725,0.029251,-0.010132,0.99353,0.018714,-0.020652,0.01652,86.380569,34.526886,-150.115753,,,
729705796.833418,-0.240082,-1.692184,77.724523,0.029251,-0.010132,0.99353,0.018714,-0.020652,0.01652,86.380569,34.526886,-150.115753,,,
729705796.836668,-0.240082,-1.692184,77.724523,0.029251,-0.010132,0.99353,0.018714,-0.020652,0.01652,86.380569,34.526886,-150.115753,,,
729705796.839989,-0.234032,-1.702619,77.728876,0.029465,-0.016739,0.992126,0.022199,-0.036188,0.01326,86.380569,34.526886,-150.115753,,,
729705796.843346,-0.228973,-1.714542,77.732699,0.029465,-0.016739,0.992126,0.022199,-0.036188,0.01326,86.380569,34.526886,-150.115753,,,
729705796.846719,-0.228973,-1.714542,77.732699,0.029465,-0.016739,0.992126,0.022199,-0.036188,0.01326,86.380569,34.526886,-150.115753,,,
729705796.849991,-0.222707,-1.726965,77.736255,0.031616,-0.016251,0.992676,0.023893,-0.042461,0.011338,86.380569,34.526886,-150.115753,,,
729705796.85337,-0.216875,-1.740435,77.73985,0.031616,-0.016251,0.992676,0.023893,-0.042461,0.011338,86.380569,34.526886,-150.115753,,,
729705796.856651,-0.216875,-1.740435,77.73985,0.031616,-0.016251,0.992676,0.023893,-0.042461,0.011338,86.380569,34.526886,-150.115753,,,
729705796.86,-0.210666,-1.75334,77.743314,0.036255,-0.014618,0.994781,0.021302,-0.041795,0.010571,86.297134,34.589951,-150.058716,,,
729705796.863372,-0.205482,-1.766118,77.747531,0.036255,-0.014618,0.994781,0.021302,-0.041795,0.010571,86.297134,34.589951,-150.058716,,,
729705796.866655,-0.205482,-1.766118,77.747531,0.036255,-0.014618,0.994781,0.021302,-0.041795,0.010571,86.297134,34.589951,-150.058716,,,
729705796.870061,-0.200353,-1.77459,77.753003,0.038467,-0.017181,0.993439,0.016201,-0.022386,0.019363,86.297134,34.589951,-150.058716,,,
729705796.873341,-0.196891,-1.78249,77.759446,0.038467,-0.017181,0.993439,0.016201,-0.022386,0.019363,86.297134,34.589951,-150.058716,,,
729705796.876653,-0.196891,-1.78249,77.759446,0.038467,-0.017181,0.993439,0.016201,-0.022386,0.019363,86.297134,34.589951,-150.058716,,,
729705796.879998,-0.192541,-1.786187,77.766294,0.047089,-0.018356,0.992981,0.015453,-0.006495,0.022139,86.297134,34.589951,-150.058716,,,
729705796.883321,-0.192541,-1.788749,77.773425,0.047089,-0.018356,0.992981,0.015453,-0.006495,0.022139,86.297134,34.589951,-150.058716,,,
729705796.886641,-0.190212,-1.788749,77.773425,0.047089,-0.018356,0.992981,0.015453,-0.006495,0.022139,86.297134,34.589951,-150.058716,,,
729705796.889983,-0.188347,-1.788489,77.780168,0.053482,-0.010513,0.987274,0.006382,0.006691,0.019725,86.297134,34.589951,-150.058716,,,
729705796.893305,-0.188347,-1.788489,77.786232,0.053482,-0.010513,0.987274,0.006382,0.006691,0.019725,86.297134,34.589951,-150.058716,,,
729705796.896698,-0.187758,-1.787821,77.786232,0.053482,-0.010513,0.987274,0.006382,0.006691,0.019725,86.297134,34.589951,-150.058716,,,
729705796.900058,-0.187162,-1.787294,77.791089,0.05397,-0.005646,0.983276,0.00502,0.00324,0.011399,86.297134,34.589951,-150.058716,,,
729705796.903368,-0.187162,-1.787294,77.79433,0.05397,-0.005646,0.983276,0.00502,0.00324,0.011399,86.227951,34.498825,-150.315277,,,
729705796.906648,-0.187006,-1.787857,77.79433,0.05397,-0.005646,0.983276,0.00502,0.00324,0.011399,86.227951,34.498825,-150.315277,,,
729705796.909976,-0.186551,-1.789267,77.796116,0.055099,-0.002548,0.980118,0.001239,-0.001272,0.001428,86.227951,34.498825,-150.315277,,,
729705796.913329,-0.186551,-1.789267,77.796116,0.055099,-0.002548,0.980118,0.001239,-0.001272,0.001428,86.227951,34.498825,-150.315277,,,
729705796.916651,-0.188716,-1.790836,77.795661,0.055099,-0.002548,0.980118,0.001239,-0.001272,0.001428,86.227951,34.498825,-150.315277,,,
729705796.920039,-0.187444,-1.794695,77.793361,0.056519,-0.002533,0.983429,0.005808,-0.012282,-0.01156,86.227951,34.498825,-150.315277,,,
729705796.923311,-0.187444,-1.794695,77.793361,0.056519,-0.002533,0.983429,0.005808,-0.012282,-0.01156,86.227951,34.498825,-150.315277,,,
729705796.926656,-0.188701,-1.799443,77.789772,0.056519,-0.002533,0.983429,0.005808,-0.012282,-0.01156,86.227951,34.498825,-150.315277,,,
729705796.929994,-0.185814,-1.805098,77.784784,0.052902,-0.004272,0.982895,0.010806,-0.0184,-0.021518,86.227951,34.498825,-150.315277,,,
729705796.93336,-0.185814,-1.805098,77.784784,0.052902,-0.004272,0.982895,0.010806,-0.0184,-0.021518,86.227951,34.498825,-150.315277,,,
729705796.936644,-0.185863,-1.811604,77.779258,0.052902,-0.004272,0.982895,0.010806,-0.0184,-0.021518,86.227951,34.498825,-150.315277,,,
729705796.939992,-0.183598,-1.816748,77.773528,0.048218,-0.005859,0.986359,0.006679,-0.013047,-0.022859,86.227951,34.498825,-150.315277,,,
729705796.943322,-0.183598,-1.816748,77.773528,0.048218,-0.005859,0.986359,0.006679,-0.013047,-0.022859,86.227264,34.377243,-149.839874,,,
729705796.946733,-0.184588,-1.822179,77.767699,0.048218,-0.005859,0.986359,0.006679,-0.013047,-0.022859,86.227264,34.377243,-149.839874,,,
729705796.949989,-0.184247,-1.824915,77.762239,0.044418,-0.005127,0.987503,-0.003381,-0.004606,-0.019989,86.227264,34.377243,-149.839874,,,
729705796.953319,-0.184247,-1.824915,77.762239,0.044418,-0.005127,0.987503,-0.003381,-0.004606,-0.019989,86.227264,34.377243,-149.839874,,,
729705796.956656,-0.189542,-1.828883,77.756796,0.044418,-0.005127,0.987503,-0.003381,-0.004606,-0.019989,86.227264,34.377243,-149.839874,,,
729705796.959989,-0.192073,-1.828745,77.751314,0.039337,-0.002045,0.988708,-0.010961,0.006203,-0.020018,86.227264,34.377243,-149.839874,,,
729705796.963311,-0.192073,-1.828745,77.751314,0.039337,-0.002045,0.988708,-0.010961,0.006203,-0.020018,86.227264,34.377243,-149.839874,,,
729705796.966662,-0.199292,-1.832508,77.745227,0.039337,-0.002045,0.988708,-0.010961,0.006203,-0.020018,86.227264,34.377243,-149.839874,,,
729705796.969979,-0.204467,-1.829566,77.73836,0.035141,-0.001572,0.988129,-0.017437,0.016222,-0.025354,86.227264,34.377243,-149.839874,,,
729705796.97337,-0.204467,-1.829566,77.73836,0.035141,-0.001572,0.988129,-0.017437,0.016222,-0.025354,86.227264,34.377243,-149.839874,,,
729705796.976658,-0.210665,-1.831281,77.731473,0.035141,-0.001572,0.988129,-0.017437,0.016222,-0.025354,86.227264,34.377243,-149.839874,,,
729705796.979977,-0.216439,-1.826694,77.724486,0.031647,0.000595,0.992264,-0.021128,0.018878,-0.02607,86.227264,34.377243,-149.839874,,,
729705796.983365,-0.216439,-1.826694,77.724486,0.031647,0.000595,0.992264,-0.021128,0.018878,-0.02607,86.279343,34.558685,-150.015167,,,
729705796.986705,-0.221798,-1.827862,77.717791,0.031647,0.000595,0.992264,-0.021128,0.018878,-0.02607,86.279343,34.558685,-150.015167,,,
729705796.989973,-0.226344,-1.823486,77.712354,0.025116,-0.002518,0.995728,-0.013343,0.016255,-0.017693,86.279343,34.558685,-150.015167,,,
729705796.993324,-0.226344,-1.823486,77.712354,0.025116,-0.002518,0.995728,-0.013343,0.016255,-0.017693,86.279343,34.558685,-150.015167,,,
729705796.996658,-0.229491,-1.827251,77.707841,0.025116,-0.002518,0.995728,-0.013343,0.016255,-0.017693,86.279343,34.558685,-150.015167,,,
729705796.999979,-0.231822,-1.826427,77.703852,0.020996,-0.004822,0.99501,-0.005702,0.002253,-0.014524,86.279343,34.558685,-150.015167,,,
729705797.003317,-0.231822,-1.826427,77.703852,0.020996,-0.004822,0.99501,-0.005702,0.002253,-0.014524,86.279343,34.558685,-150.015167,,,
729705797.006667,-0.233311,-1.83344,77.699591,0.020996,-0.004822,0.99501,-0.005702,0.002253,-0.014524,86.279343,34.558685,-150.015167,,,
729705797.009978,-0.234595,-1.835756,77.694596,0.023849,-0.002167,0.996826,-0.003093,-0.007633,-0.01992,86.279343,34.558685,-150.015167,,,
729705797.013385,-0.234595,-1.835756,77.694596,0.023849,-0.002167,0.996826,-0.003093,-0.007633,-0.01992,86.279343,34.558685,-150.015167,,,
729705797.016661,-0.23535,-1.84469,77.688497,0.023849,-0.002167,0.996826,-0.003093,-0.007633,-0.01992,86.279343,34.558685,-150.015167,,,
729705797.019986,-0.235475,-1.849949,77.681141,0.024872,-0.000259,0.999496,-0.001584,-0.016779,-0.028868,86.279343,34.558685,-150.015167,,,
729705797.023355,-0.235475,-1.849949,77.681141,0.024872,-0.000259,0.999496,-0.001584,-0.016779,-0.028868,86.301208,34.453583,-150.129166,,,
729705797.026706,-0.236444,-1.859129,77.672907,0.024872,-0.000259,0.999496,-0.001584,-0.016779,-0.028868,86.301208,34.453583,-150.129166,,,
729705797.029966,-0.237038,-1.863663,77.663597,0.027542,-0.000381,1.003006,-0.001645,-0.010632,-0.036497,86.301208,34.453583,-150.129166,,,
729705797.033328,-0.237038,-1.863663,77.663597,0.027542,-0.000381,1.003006,-0.001645,-0.010632,-0.036497,86.301208,34.453583,-150.129166,,,
729705797.036653,-0.236917,-1.869227,77.653914,0.027542,-0.000381,1.003006,-0.001645,-0.010632,-0.036497,86.301208,34.453583,-150.129166,,,
729705797.039974,-0.235411,-1.869934,77.644688,0.024445,-0.006943,1.007431,0.009955,0.004873,-0.03371,86.301208,34.453583,-150.129166,,,
729705797.043317,-0.235411,-1.869934,77.644688,0.024445,-0.006943,1.007431,0.009955,0.004873,-0.03371,86.301208,34.453583,-150.129166,,,
729705797.046664,-0.231064,-1.869365,77.635904,0.024445,-0.006943,1.007431,0.009955,0.004873,-0.03371,86.301208,34.453583,-150.129166,,,
729705797.04997,-0.2249,-1.865058,77.628387,0.023758,-0.015137,1.00972,0.026572,0.022781,-0.025481,86.301208,34.453583,-150.129166,,,
729705797.053371,-0.2249,-1.865058,77.628387,0.023758,-0.015137,1.00972,0.026572,0.022781,-0.025481,86.301208,34.453583,-150.129166,,,
729705797.056645,-0.214189,-1.857643,77.622123,0.023758,-0.015137,1.00972,0.026572,0.022781,-0.025481,86.301208,34.453583,-150.129166,,,
729705797.059972,-0.200816,-1.845991,77.617249,0.021317,-0.01857,1.01152,0.052132,0.050087,-0.016582,86.301208,34.453583,-150.129166,,,
729705797.063313,-0.200816,-1.845991,77.617249,0.021317,-0.01857,1.01152,0.052132,0.050087,-0.016582,86.301208,34.453583,-150.129166,,,
729705797.066724,-0.183976,-1.830113,77.614068,0.021317,-0.01857,1.01152,0.052132,0.050087,-0.016582,86.301331,34.258652,-149.668564,,,
729705797.069971,-0.165321,-1.81317,77.612402,0.020172,-0.014618,1.008926,0.069216,0.065274,-0.006496,86.301331,34.258652,-149.668564,,,
729705797.073339,-0.165321,-1.81317,77.612402,0.020172,-0.014618,1.008926,0.069216,0.065274,-0.006496,86.301331,34.258652,-149.668564,,,
729705797.076658,-0.145407,-1.792783,77.612162,0.020172,-0.014618,1.008926,0.069216,0.065274,-0.006496,86.301331,34.258652,-149.668564,,,
729705797.079977,-0.124442,-1.775987,77.612638,0.01828,-0.007553,0.999542,0.074982,0.05873,-0.001503,86.301331,34.258652,-149.668564,,,
729705797.083321,-0.124442,-1.775987,77.612638,0.01828,-0.007553,0.999542,0.074982,0.05873,-0.001503,86.301331,34.258652,-149.668564,,,
729705797.086654,-0.103124,-1.759049,77.613395,0.01828,-0.007553,0.999542,0.074982,0.05873,-0.001503,86.301331,34.258652,-149.668564,,,
729705797.089982,-0.081213,-1.746156,77.614237,0.014084,-0.002304,0.987946,0.075776,0.045077,-0.000892,86.301331,34.258652,-149.668564,,,
729705797.093374,-0.081213,-1.746156,77.614237,0.014084,-0.002304,0.987946,0.075776,0.045077,-0.000892,86.301331,34.258652,-149.668564,,,
729705797.09666,-0.060111,-1.734357,77.614504,0.014084,-0.002304,0.987946,0.075776,0.045077,-0.000892,86.301331,34.258652,-149.668564,,,
729705797.099977,-0.040428,-1.727907,77.613849,0.012115,0.002304,0.978256,0.066303,0.018175,-0.007017,86.301331,34.258652,-149.668564,,,
729705797.103326,-0.040428,-1.727907,77.613849,0.012115,0.002304,0.978256,0.066303,0.018175,-0.007017,86.301331,34.258652,-149.668564,,,
729705797.10671,-0.021986,-1.723909,77.611976,0.012115,0.002304,0.978256,0.066303,0.018175,-0.007017,86.539154,34.22525,-149.971436,,,
729705797.109973,-0.004563,-1.724046,77.608907,0.016464,0.003845,0.976608,0.060908,-0.003235,-0.015195,86.539154,34.22525,-149.971436,,,
729705797.113326,-0.004563,-1.724046,77.608907,0.016464,0.003845,0.976608,0.060908,-0.003235,-0.015195,86.539154,34.22525,-149.971436,,,
729705797.116656,0.011583,-1.726187,77.604903,0.016464,0.003845,0.976608,0.060908,-0.003235,-0.015195,86.539154,34.22525,-149.971436,,,
729705797.119976,0.026691,-1.731152,77.599516,0.021698,0.001938,0.97821,0.049431,-0.015852,-0.024535,86.539154,34.22525,-149.971436,,,
729705797.123413,0.026691,-1.731152,77.599516,0.021698,0.001938,0.97821,0.049431,-0.015852,-0.024535,86.539154,34.22525,-149.971436,,,
729705797.126649,0.037845,-1.734986,77.594124,0.021698,0.001938,0.97821,0.049431,-0.015852,-0.024535,86.539154,34.22525,-149.971436,,,
729705797.129974,0.050634,-1.740143,77.589714,0.025528,0.001068,0.983566,0.042041,-0.012458,-0.017481,86.539154,34.22525,-149.971436,,,
729705797.13339,0.050634,-1.740143,77.589714,0.025528,0.001068,0.983566,0.042041,-0.012458,-0.017481,86.539154,34.22525,-149.971436,,,
729705797.136648,0.05754,-1.741522,77.586023,0.025528,0.001068,0.983566,0.042041,-0.012458,-0.017481,86.539154,34.22525,-149.971436,,,
729705797.13998,0.066998,-1.743259,77.583645,0.027573,0.001358,0.985794,0.028823,0.000566,-0.007923,86.539154,34.22525,-149.971436,,,
729705797.143316,0.066998,-1.743259,77.583645,0.027573,0.001358,0.985794,0.028823,0.000566,-0.007923,86.539154,34.22525,-149.971436,,,
729705797.146649,0.069818,-1.740576,77.582924,0.027573,0.001358,0.985794,0.028823,0.000566,-0.007923,86.272583,34.295517,-150.055557,,,
729705797.150031,0.075096,-1.738339,77.583462,0.03476,-0.000427,0.983551,0.01577,0.014991,0.001198,86.272583,34.295517,-150.055557,,,
729705797.153325,0.075096,-1.738339,77.583462,0.03476,-0.000427,0.983551,0.01577,0.014991,0.001198,86.272583,34.295517,-150.055557,,,
729705797.156657,0.075834,-1.731064,77.585012,0.03476,-0.000427,0.983551,0.01577,0.014991,0.001198,86.272583,34.295517,-150.055557,,,
729705797.159974,0.078387,-1.72477,77.586996,0.040863,0.002625,0.985062,0.007765,0.028971,0.004422,86.272583,34.295517,-150.055557,,,
729705797.16331,0.078387,-1.72477,77.586996,0.040863,0.002625,0.985062,0.007765,0.028971,0.004422,86.272583,34.295517,-150.055557,,,
729705797.166658,0.078051,-1.713317,77.588811,0.040863,0.002625,0.985062,0.007765,0.028971,0.004422,86.272583,34.295517,-150.055557,,,
729705797.169978,0.077945,-1.705041,77.590045,0.043472,0.008194,0.985977,-0.00058,0.03206,0.000595,86.272583,34.295517,-150.055557,,,
729705797.173393,0.077945,-1.705041,77.590045,0.043472,0.008194,0.985977,-0.00058,0.03206,0.000595,86.272583,34.295517,-150.055557,,,
729705797.176658,0.077287,-1.69339,77.590023,0.043472,0.008194,0.985977,-0.00058,0.03206,0.000595,86.272583,34.295517,-150.055557,,,
729705797.179981,0.076725,-1.68842,77.588882,0.03949,0.010315,0.983932,-0.001038,0.015895,-0.007234,86.272583,34.295517,-150.055557,,,
729705797.183321,0.076725,-1.68842,77.588882,0.03949,0.010315,0.983932,-0.001038,0.015895,-0.007234,86.272583,34.295517,-150.055557,,,
729705797.186685,0.076672,-1.682382,77.587405,0.03949,0.010315,0.983932,-0.001038,0.015895,-0.007234,86.272583,34.295517,-150.055557,,,
729705797.189975,0.075842,-1.683839,77.586018,0.030014,0.009705,0.979004,-0.002678,-0.007582,-0.006656,86.349106,34.207962,-149.64502,,,
729705797.193329,0.075842,-1.683839,77.586018,0.030014,0.009705,0.979004,-0.002678,-0.007582,-0.006656,86.349106,34.207962,-149.64502,,,
729705797.196715,0.076054,-1.685375,77.585573,0.030014,0.009705,0.979004,-0.002678,-0.007582,-0.006656,86.349106,34.207962,-149.64502,,,
729705797.199978,0.07582,-1.691168,77.586587,0.028641,0.008041,0.983932,-0.001581,-0.019098,0.003462,86.349106,34.207962,-149.64502,,,
729705797.203328,0.07582,-1.691168,77.586587,0.028641,0.008041,0.983932,-0.001581,-0.019098,0.003462,86.349106,34.207962,-149.64502,,,
729705797.206655,0.074801,-1.696777,77.58843,0.028641,0.008041,0.983932,-0.001581,-0.019098,0.003462,86.349106,34.207962,-149.64502,,,
729705797.210066,0.072192,-1.703622,77.590512,0.034027,0.010971,0.985229,-0.011819,-0.019458,0.005433,86.349106,34.207962,-149.64502,,,
729705797.213306,0.072192,-1.703622,77.590512,0.034027,0.010971,0.985229,-0.011819,-0.019458,0.005433,86.349106,34.207962,-149.64502,,,
729705797.216658,0.066832,-1.70881,77.592141,0.034027,0.010971,0.985229,-0.011819,-0.019458,0.005433,86.349106,34.207962,-149.64502,,,
729705797.219976,0.058617,-1.712059,77.593698,0.037964,0.013809,0.984863,-0.031807,-0.001623,0.005518,86.349106,34.207962,-149.64502,,,
729705797.223391,0.058617,-1.712059,77.593698,0.037964,0.013809,0.984863,-0.031807,-0.001623,0.005518,86.349106,34.207962,-149.64502,,,
729705797.226652,0.047744,-1.711225,77.594942,0.037964,0.013809,0.984863,-0.031807,-0.001623,0.005518,86.349106,34.207962,-149.64502,,,
729705797.229981,0.034607,-1.706176,77.595682,0.039352,0.01442,0.997025,-0.048745,0.026157,0.002464,86.401138,34.341187,-150.02684,,,
729705797.233378,0.034607,-1.706176,77.595682,0.039352,0.01442,0.997025,-0.048745,0.026157,0.002464,86.401138,34.341187,-150.02684,,,
729705797.2367,0.01967,-1.699236,77.596996,0.039352,0.01442,0.997025,-0.048745,0.026157,0.002464,86.401138,34.341187,-150.02684,,,
729705797.239988,0.004909,-1.688375,77.599088,0.040787,0.01004,1.002884,-0.04767,0.04296,0.007817,86.401138,34.341187,-150.02684,,,
729705797.243334,0.004909,-1.688375,77.599088,0.040787,0.01004,1.002884,-0.04767,0.04296,0.007817,86.401138,34.341187,-150.02684,,,
729705797.246648,-0.007323,-1.678995,77.601528,0.040787,0.01004,1.002884,-0.04767,0.04296,0.007817,86.401138,34.341187,-150.02684,,,
729705797.249974,-0.019372,-1.667439,77.604425,0.038956,0.005646,1.004654,-0.039799,0.041403,0.010766,86.401138,34.341187,-150.02684,,,
729705797.253325,-0.019372,-1.667439,77.604425,0.038956,0.005646,1.004654,-0.039799,0.041403,0.010766,86.401138,34.341187,-150.02684,,,
729705797.256652,-0.02801,-1.659398,77.608091,0.038956,0.005646,1.004654,-0.039799,0.041403,0.010766,86.401138,34.341187,-150.02684,,,
729705797.25998,-0.036296,-1.649807,77.612154,0.031586,0.003128,1.008926,-0.023963,0.033209,0.013054,86.401138,34.341187,-150.02684,,,
729705797.263343,-0.036296,-1.649807,77.612154,0.031586,0.003128,1.008926,-0.023963,0.033209,0.013054,86.401138,34.341187,-150.02684,,,
729705797.266657,-0.040035,-1.644283,77.61624,0.031586,0.003128,1.008926,-0.023963,0.033209,0.013054,86.401138,34.341187,-150.02684,,,
729705797.269975,-0.044727,-1.639597,77.620154,0.025436,0.00351,1.009445,-0.012015,0.015909,0.011475,86.456451,34.437912,-149.908661,,,
729705797.273321,-0.044727,-1.639597,77.620154,0.025436,0.00351,1.009445,-0.012015,0.015909,0.011475,86.456451,34.437912,-149.908661,,,
729705797.276729,-0.04548,-1.637056,77.623155,0.025436,0.00351,1.009445,-0.012015,0.015909,0.011475,86.456451,34.437912,-149.908661,,,
729705797.27997,-0.046472,-1.636897,77.624993,0.025955,0.003616,1.009689,0.001727,0.000317,0.002928,86.456451,34.437912,-149.908661,,,
729705797.283322,-0.046472,-1.636897,77.624993,0.025955,0.003616,1.009689,0.001727,0.000317,0.002928,86.456451,34.437912,-149.908661,,,
729705797.286657,-0.042753,-1.638501,77.625723,0.025955,0.003616,1.009689,0.001727,0.000317,0.002928,86.456451,34.437912,-149.908661,,,
729705797.289986,-0.039684,-1.639285,77.625949,0.024368,-0.002655,1.015427,0.015273,0.001058,-0.000994,86.456451,34.437912,-149.908661,,,
729705797.293308,-0.039684,-1.639285,77.625949,0.024368,-0.002655,1.015427,0.015273,0.001058,-0.000994,86.456451,34.437912,-149.908661,,,
729705797.296666,-0.031182,-1.641768,77.62641,0.024368,-0.002655,1.015427,0.015273,0.001058,-0.000994,86.456451,34.437912,-149.908661,,,
729705797.299979,-0.024487,-1.639483,77.62778,0.021652,-0.00972,1.017319,0.025888,0.017185,0.005015,86.456451,34.437912,-149.908661,,,
729705797.303385,-0.024487,-1.639483,77.62778,0.021652,-0.00972,1.017319,0.025888,0.017185,0.005015,86.456451,34.437912,-149.908661,,,
729705797.306658,-0.012941,-1.636067,77.63037,0.021652,-0.00972,1.017319,0.025888,0.017185,0.005015,86.456451,34.437912,-149.908661,,,
729705797.310066,-0.004057,-1.625221,77.634798,0.021835,-0.014862,1.021027,0.033782,0.050421,0.017572,86.70372,34.234024,-150.039627,,,
729705797.313298,-0.004057,-1.625221,77.634798,0.021835,-0.014862,1.021027,0.033782,0.050421,0.017572,86.70372,34.234024,-150.039627,,,
729705797.316682,0.008946,-1.612093,77.641619,0.021835,-0.014862,1.021027,0.033782,0.050421,0.017572,86.70372,34.234024,-150.039627,,,
729705797.319978,0.019192,-1.590897,77.650478,0.024353,-0.017624,1.020142,0.036893,0.084868,0.031765,86.70372,34.234024,-150.039627,,,
729705797.323312,0.019192,-1.590897,77.650478,0.024353,-0.017624,1.020142,0.036893,0.084868,0.031765,86.70372,34.234024,-150.039627,,,
729705797.326658,0.031656,-1.568647,77.661966,0.024353,-0.017624,1.020142,0.036893,0.084868,0.031765,86.70372,34.234024,-150.039627,,,
729705797.32998,0.042852,-1.539788,77.676143,0.024796,-0.014481,1.010834,0.041698,0.106307,0.050426,86.70372,34.234024,-150.039627,,,
729705797.333428,0.042852,-1.539788,77.676143,0.024796,-0.014481,1.010834,0.041698,0.106307,0.050426,86.70372,34.234024,-150.039627,,,
729705797.336647,0.055004,-1.511753,77.692201,0.024796,-0.014481,1.010834,0.041698,0.106307,0.050426,86.70372,34.234024,-150.039627,,,
729705797.339989,0.066881,-1.480593,77.709626,0.021881,-0.008438,1.000732,0.044698,0.111903,0.05984,86.70372,34.234024,-150.039627,,,
729705797.343351,0.066881,-1.480593,77.709626,0.021881,-0.008438,1.000732,0.044698,0.111903,0.05984,86.70372,34.234024,-150.039627,,,
729705797.346648,0.079314,-1.450341,77.727385,0.021881,-0.008438,1.000732,0.044698,0.111903,0.05984,86.70372,34.234024,-150.039627,,,
729705797.349981,0.09146,-1.421675,77.744543,0.027176,-0.002151,0.993271,0.046288,0.097938,0.055646,86.70372,34.234024,-150.039627,,,
729705797.353311,0.09146,-1.421675,77.744543,0.027176,-0.002151,0.993271,0.046288,0.097938,0.055646,86.924622,34.366211,-149.945312,,,
729705797.356686,0.104796,-1.397079,77.760631,0.027176,-0.002151,0.993271,0.046288,0.097938,0.055646,86.924622,34.366211,-149.945312,,,
729705797.359988,0.117414,-1.376507,77.774987,0.031921,0.002274,0.986649,0.044904,0.067735,0.043654,86.924622,34.366211,-149.945312,,,
729705797.363311,0.117414,-1.376507,77.774987,0.031921,0.002274,0.986649,0.044904,0.067735,0.043654,86.924622,34.366211,-149.945312,,,
729705797.366652,0.129958,-1.360996,77.786507,0.031921,0.002274,0.986649,0.044904,0.067735,0.043654,86.924622,34.366211,-149.945312,,,
729705797.369979,0.143047,-1.35061,77.794809,0.036743,0.008728,0.98262,0.045771,0.030422,0.021208,86.924622,34.366211,-149.945312,,,
729705797.373305,0.143047,-1.35061,77.794809,0.036743,0.008728,0.98262,0.045771,0.030422,0.021208,86.924622,34.366211,-149.945312,,,
729705797.376653,0.153873,-1.345327,77.799992,0.036743,0.008728,0.98262,0.045771,0.030422,0.021208,86.924622,34.366211,-149.945312,,,
729705797.380008,0.166422,-1.345416,77.802126,0.042953,0.012161,0.98143,0.041638,-0.003987,5.8e-05,86.924622,34.366211,-149.945312,,,
729705797.383397,0.166422,-1.345416,77.802126,0.042953,0.012161,0.98143,0.041638,-0.003987,5.8e-05,86.924622,34.366211,-149.945312,,,
729705797.386658,0.173494,-1.348152,77.801461,0.042953,0.012161,0.98143,0.041638,-0.003987,5.8e-05,86.924622,34.366211,-149.945312,,,
729705797.389975,0.183425,-1.353054,77.798822,0.049683,0.01149,0.984009,0.035652,-0.015857,-0.013615,86.924622,34.366211,-149.945312,,,
729705797.393309,0.183425,-1.353054,77.798822,0.049683,0.01149,0.984009,0.035652,-0.015857,-0.013615,86.8853,34.140289,-149.982391,,,
729705797.396657,0.1883,-1.357295,77.794778,0.049683,0.01149,0.984009,0.035652,-0.015857,-0.013615,86.8853,34.140289,-149.982391,,,
729705797.400037,0.196611,-1.360211,77.789292,0.052231,0.009598,0.987839,0.027684,-0.003794,-0.023552,86.8853,34.140289,-149.982391,,,
729705797.403321,0.196611,-1.360211,77.789292,0.052231,0.009598,0.987839,0.027684,-0.003794,-0.023552,86.8853,34.140289,-149.982391,,,
729705797.406712,0.199368,-1.360924,77.783528,0.052231,0.009598,0.987839,0.027684,-0.003794,-0.023552,86.8853,34.140289,-149.982391,,,
729705797.410025,0.20597,-1.357545,77.778577,0.049454,0.005936,0.992584,0.0201,0.020658,-0.017684,86.8853,34.140289,-149.982391,,,
729705797.413311,0.20597,-1.357545,77.778577,0.049454,0.005936,0.992584,0.0201,0.020658,-0.017684,86.8853,34.140289,-149.982391,,,
729705797.416653,0.208237,-1.350036,77.774949,0.049454,0.005936,0.992584,0.0201,0.020658,-0.017684,86.8853,34.140289,-149.982391,,,
729705797.419976,0.213432,-1.338928,77.772692,0.042374,-0.000687,0.993866,0.016627,0.048915,-0.008052,86.8853,34.140289,-149.982391,,,
729705797.423321,0.213432,-1.338928,77.772692,0.042374,-0.000687,0.993866,0.016627,0.048915,-0.008052,86.8853,34.140289,-149.982391,,,
729705797.426687,0.215106,-1.325162,77.77167,0.042374,-0.000687,0.993866,0.016627,0.048915,-0.008052,86.8853,34.140289,-149.982391,,,
729705797.430055,0.21721,-1.309828,77.771985,0.035156,0.000793,0.990982,0.00498,0.058604,0.001537,86.8853,34.140289,-149.982391,,,
729705797.433301,0.21721,-1.309828,77.771985,0.035156,0.000793,0.990982,0.00498,0.058604,0.001537,87.012939,34.063293,-149.95813,,,
729705797.43668,0.216513,-1.296076,77.772999,0.035156,0.000793,0.990982,0.00498,0.058604,0.001537,87.012939,34.063293,-149.95813,,,
729705797.439977,0.214284,-1.282243,77.77387,0.026642,0.004669,0.985275,-0.010654,0.046179,0.000954,87.012939,34.063293,-149.95813,,,
729705797.443306,0.214284,-1.282243,77.77387,0.026642,0.004669,0.985275,-0.010654,0.046179,0.000954,87.012939,34.063293,-149.95813,,,
729705797.44665,0.210461,-1.274625,77.773602,0.026642,0.004669,0.985275,-0.010654,0.046179,0.000954,87.012939,34.063293,-149.95813,,,
729705797.449977,0.203612,-1.266757,77.771303,0.025299,0.006897,0.981094,-0.028974,0.02528,-0.012782,87.012939,34.063293,-149.95813,,,
729705797.453325,0.203612,-1.266757,77.771303,0.025299,0.006897,0.981094,-0.028974,0.02528,-0.012782,87.012939,34.063293,-149.95813,,,
729705797.456734,0.195708,-1.26701,77.767236,0.025299,0.006897,0.981094,-0.028974,0.02528,-0.012782,87.012939,34.063293,-149.95813,,,
729705797.459966,0.183987,-1.266545,77.761299,0.021317,0.006714,0.982025,-0.042991,-0.002541,-0.025408,87.012939,34.063293,-149.95813,,,
729705797.463307,0.183987,-1.266545,77.761299,0.021317,0.006714,0.982025,-0.042991,-0.002541,-0.025408,87.012939,34.063293,-149.95813,,,
729705797.466653,0.17298,-1.276089,77.753614,0.021317,0.006714,0.982025,-0.042991,-0.002541,-0.025408,87.012939,34.063293,-149.95813,,,
729705797.46998,0.159121,-1.28123,77.744985,0.014709,0.000351,0.98877,-0.047954,-0.017726,-0.031719,87.012939,34.063293,-149.95813,,,
729705797.473311,0.159121,-1.28123,77.744985,0.014709,0.000351,0.98877,-0.047954,-0.017726,-0.031719,86.794403,34.078857,-149.89563,,,
729705797.476653,0.147503,-1.295936,77.735938,0.014709,0.000351,0.98877,-0.047954,-0.017726,-0.031719,86.794403,34.078857,-149.89563,,,
729705797.479978,0.133644,-1.302939,77.72722,0.013153,-0.007538,1.000427,-0.04873,-0.018187,-0.029191,86.794403,34.078857,-149.89563,,,
729705797.483375,0.133644,-1.302939,77.72722,0.013153,-0.007538,1.000427,-0.04873,-0.018187,-0.029191,86.794403,34.078857,-149.89563,,,
729705797.486646,0.121623,-1.317114,77.719537,0.013153,-0.007538,1.000427,-0.04873,-0.018187,-0.029191,86.794403,34.078857,-149.89563,,,
729705797.489991,0.10962,-1.323494,77.713819,0.012115,-0.012268,1.006058,-0.039044,-0.017487,-0.015583,86.794403,34.078857,-149.89563,,,
729705797.493301,0.10962,-1.323494,77.713819,0.012115,-0.012268,1.006058,-0.039044,-0.017487,-0.015583,86.794403,34.078857,-149.89563,,,
729705797.496636,0.098674,-1.335194,77.710608,0.012115,-0.012268,1.006058,-0.039044,-0.017487,-0.015583,86.794403,34.078857,-149.89563,,,
729705797.499973,0.087714,-1.339898,77.708872,0.017212,-0.010178,1.009018,-0.03858,-0.011526,-0.005312,86.794403,34.078857,-149.89563,,,
729705797.503303,0.087714,-1.339898,77.708872,0.017212,-0.010178,1.009018,-0.03858,-0.011526,-0.005312,86.794403,34.078857,-149.89563,,,
729705797.506707,0.075621,-1.347524,77.707178,0.017212,-0.010178,1.009018,-0.03858,-0.011526,-0.005312,86.794403,34.078857,-149.89563,,,
729705797.509965,0.063622,-1.349048,77.705158,0.021851,-0.006744,1.010559,-0.043063,-0.000377,-0.007396,86.794403,34.078857,-149.89563,,,
729705797.513322,0.063622,-1.349048,77.705158,0.021851,-0.006744,1.010559,-0.043063,-0.000377,-0.007396,86.794403,34.078857,-149.89563,,,
729705797.516636,0.051595,-1.350646,77.702135,0.021851,-0.006744,1.010559,-0.043063,-0.000377,-0.007396,86.954132,34.096542,-149.733398,,,
729705797.519974,0.038443,-1.348656,77.69781,0.024872,-0.002502,1.01004,-0.045735,0.012689,-0.016401,86.954132,34.096542,-149.733398,,,
729705797.523307,0.038443,-1.348656,77.69781,0.024872,-0.002502,1.01004,-0.045735,0.012689,-0.016401,86.954132,34.096542,-149.733398,,,
729705797.526638,0.026642,-1.346068,77.693085,0.024872,-0.002502,1.01004,-0.045735,0.012689,-0.016401,86.954132,34.096542,-149.733398,,,
729705797.529969,0.014801,-1.342447,77.68779,0.021927,-0.007553,1.010727,-0.038687,0.015311,-0.02054,86.954132,34.096542,-149.733398,,,
729705797.533392,0.014801,-1.342447,77.68779,0.021927,-0.007553,1.010727,-0.038687,0.015311,-0.02054,86.954132,34.096542,-149.733398,,,
729705797.536658,0.005807,-1.339696,77.682807,0.021927,-0.007553,1.010727,-0.038687,0.015311,-0.02054,86.954132,34.096542,-149.733398,,,
729705797.539978,-0.003041,-1.337872,77.679463,0.016815,-0.013748,1.009094,-0.025967,0.007424,-0.009391,86.954132,34.096542,-149.733398,,,
729705797.543328,-0.003041,-1.337872,77.679463,0.016815,-0.013748,1.009094,-0.025967,0.007424,-0.009391,86.954132,34.096542,-149.733398,,,
729705797.546706,-0.009163,-1.335911,77.676802,0.016815,-0.013748,1.009094,-0.025967,0.007424,-0.009391,86.954132,34.096542,-149.733398,,,
729705797.549959,-0.015063,-1.336394,77.674434,0.01738,-0.01387,1.009674,-0.017664,-0.000408,-0.00757,86.954132,34.096542,-149.733398,,,
729705797.553321,-0.015063,-1.336394,77.674434,0.01738,-0.01387,1.009674,-0.017664,-0.000408,-0.00757,86.954132,34.096542,-149.733398,,,
729705797.556644,-0.020519,-1.334561,77.672322,0.01738,-0.01387,1.009674,-0.017664,-0.000408,-0.00757,87.161789,34.080368,-149.997238,,,
729705797.559997,-0.024145,-1.334587,77.669572,0.019272,-0.008179,1.007309,-0.010805,0.003396,-0.012172,87.161789,34.080368,-149.997238,,,
729705797.563297,-0.024145,-1.334587,77.669572,0.019272,-0.008179,1.007309,-0.010805,0.003396,-0.012172,87.161789,34.080368,-149.997238,,,
729705797.566637,-0.029866,-1.331256,77.666126,0.019272,-0.008179,1.007309,-0.010805,0.003396,-0.012172,87.161789,34.080368,-149.997238,,,
729705797.569972,-0.032985,-1.330475,77.66212,0.018661,-0.005478,1.003845,-0.009807,0.006522,-0.016112,87.161789,34.080368,-149.997238,,,
729705797.573397,-0.032985,-1.330475,77.66212,0.018661,-0.005478,1.003845,-0.009807,0.006522,-0.016112,87.161789,34.080368,-149.997238,,,
729705797.576658,-0.038118,-1.326985,77.658171,0.018661,-0.005478,1.003845,-0.009807,0.006522,-0.016112,87.161789,34.080368,-149.997238,,,
729705797.579992,-0.040317,-1.326202,77.654535,0.018173,-0.005875,1.000961,-0.007233,0.004092,-0.013958,87.161789,34.080368,-149.997238,,,
729705797.583329,-0.040317,-1.326202,77.654535,0.018173,-0.005875,1.000961,-0.007233,0.004092,-0.013958,87.161789,34.080368,-149.997238,,,
729705797.586705,-0.044809,-1.325394,77.651151,0.018173,-0.005875,1.000961,-0.007233,0.004092,-0.013958,87.161789,34.080368,-149.997238,,,
729705797.589964,-0.047078,-1.326327,77.647566,0.01738,-0.005966,0.998062,-0.006149,-0.002233,-0.0153,87.161789,34.080368,-149.997238,,,
729705797.593335,-0.047078,-1.326327,77.647566,0.01738,-0.005966,0.998062,-0.006149,-0.002233,-0.0153,87.161789,34.080368,-149.997238,,,
729705797.596634,-0.049383,-1.328016,77.643702,0.01738,-0.005966,0.998062,-0.006149,-0.002233,-0.0153,86.876495,34.257904,-149.907806,,,
729705797.599968,-0.049929,-1.329609,77.639546,0.018097,-0.005371,0.998993,0.001323,-0.00306,-0.017505,86.876495,34.257904,-149.907806,,,
729705797.603334,-0.049929,-1.329609,77.639546,0.018097,-0.005371,0.998993,0.001323,-0.00306,-0.017505,86.876495,34.257904,-149.907806,,,
729705797.606637,-0.050017,-1.331474,77.634868,0.018097,-0.005371,0.998993,0.001323,-0.00306,-0.017505,86.876495,34.257904,-149.907806,,,
729705797.61001,-0.04819,-1.333601,77.629879,0.020096,-0.003799,1.00116,0.008748,-0.005474,-0.019906,86.876495,34.257904,-149.907806,,,
729705797.613373,-0.04819,-1.333601,77.629879,0.020096,-0.003799,1.00116,0.008748,-0.005474,-0.019906,86.876495,34.257904,-149.907806,,,
729705797.616652,-0.048218,-1.335238,77.624368,0.020096,-0.003799,1.00116,0.008748,-0.005474,-0.019906,86.876495,34.257904,-149.907806,,,
729705797.619971,-0.046261,-1.338347,77.618299,0.023758,-0.004105,0.996643,0.004729,-0.006561,-0.023672,86.876495,34.257904,-149.907806,,,
729705797.623339,-0.046261,-1.338347,77.618299,0.023758,-0.004105,0.996643,0.004729,-0.006561,-0.023672,86.876495,34.257904,-149.907806,,,
729705797.626688,-0.048668,-1.339247,77.612294,0.023758,-0.004105,0.996643,0.004729,-0.006561,-0.023672,86.876495,34.257904,-149.907806,,,
729705797.629966,-0.048417,-1.34124,77.606968,0.021683,-0.003372,0.995209,-0.000163,-0.001728,-0.018911,86.876495,34.257904,-149.907806,,,
729705797.633315,-0.048417,-1.34124,77.606968,0.021683,-0.003372,0.995209,-0.000163,-0.001728,-0.018911,86.876495,34.257904,-149.907806,,,
729705797.63664,-0.051416,-1.340971,77.60295,0.021683,-0.003372,0.995209,-0.000163,-0.001728,-0.018911,86.715225,34.563477,-149.980408,,,
729705797.639971,-0.052947,-1.34203,77.600424,0.022034,-0.003922,0.993896,-0.006724,-3.8e-05,-0.008333,86.715225,34.563477,-149.980408,,,
729705797.643334,-0.052947,-1.34203,77.600424,0.022034,-0.003922,0.993896,-0.006724,-3.8e-05,-0.008333,86.715225,34.563477,-149.980408,,,
729705797.646649,-0.056495,-1.34154,77.598574,0.022034,-0.003922,0.993896,-0.006724,-3.8e-05,-0.008333,86.715225,34.563477,-149.980408,,,
729705797.649974,-0.058571,-1.341398,77.597187,0.022034,-0.003922,0.993896,-0.006724,-3.8e-05,-0.008333,86.715225,34.563477,-149.980408,,,
729705797.653374,-0.058571,-1.341398,77.597187,0.025787,-0.003357,0.995712,-0.00516,0.005745,-0.005145,86.715225,34.563477,-149.980408,,,
729705797.656645,-0.061035,-1.338713,77.595487,0.025787,-0.003357,0.995712,-0.00516,0.005745,-0.005145,86.715225,34.563477,-149.980408,,,
729705797.660011,-0.061449,-1.336888,77.593422,0.027557,-0.002914,0.999252,0.001058,0.010283,-0.007805,86.715225,34.563477,-149.980408,,,
729705797.663323,-0.061449,-1.336888,77.593422,0.027557,-0.002914,0.999252,0.001058,0.010283,-0.007805,86.715225,34.563477,-149.980408,,,
729705797.666702,-0.062302,-1.333179,77.591304,0.027557,-0.002914,0.999252,0.001058,0.010283,-0.007805,86.715225,34.563477,-149.980408,,,
729705797.669977,-0.061443,-1.330828,77.589031,0.027008,0.000854,0.996185,0.003932,0.009956,-0.008941,86.715225,34.563477,-149.980408,,,
729705797.673323,-0.061443,-1.330828,77.589031,0.027008,0.000854,0.996185,0.003932,0.009956,-0.008941,86.715225,34.563477,-149.980408,,,
729705797.676654,-0.061528,-1.328203,77.586916,0.027008,0.000854,0.996185,0.003932,0.009956,-0.008941,86.715225,34.563477,-149.980408,,,
729705797.679979,-0.060129,-1.328893,77.584207,0.03035,0.005157,0.991852,0.005388,-0.00194,-0.013091,86.89296,34.382538,-149.940048,,,
729705797.683326,-0.060129,-1.328893,77.584207,0.03035,0.005157,0.991852,0.005388,-0.00194,-0.013091,86.89296,34.382538,-149.940048,,,
729705797.686637,-0.060352,-1.329764,77.580708,0.03035,0.005157,0.991852,0.005388,-0.00194,-0.013091,86.89296,34.382538,-149.940048,,,
729705797.689971,-0.062021,-1.332923,77.576658,0.03302,0.009628,0.984894,-0.009946,-0.010726,-0.016576,86.89296,34.382538,-149.940048,,,
729705797.693306,-0.062021,-1.332923,77.576658,0.03302,0.009628,0.984894,-0.009946,-0.010726,-0.016576,86.89296,34.382538,-149.940048,,,
729705797.696635,-0.066641,-1.336153,77.571709,0.03302,0.009628,0.984894,-0.009946,-0.010726,-0.016576,86.89296,34.382538,-149.940048,,,
729705797.699996,-0.072281,-1.339092,77.566021,0.032104,0.011429,0.987549,-0.022056,-0.007122,-0.021441,86.89296,34.382538,-149.940048,,,
729705797.703319,-0.072281,-1.339092,77.566021,0.032104,0.011429,0.987549,-0.022056,-0.007122,-0.021441,86.89296,34.382538,-149.940048,,,
729705797.706728,-0.079668,-1.340886,77.559677,0.032104,0.011429,0.987549,-0.022056,-0.007122,-0.021441,86.89296,34.382538,-149.940048,,,
729705797.709985,-0.079668,-1.340886,77.553234,0.032104,0.011429,0.987549,-0.022056,-0.007122,-0.021441,86.89296,34.382538,-149.940048,,,
729705797.713302,-0.087413,-1.341584,77.553234,0.029877,0.003571,0.994247,-0.028699,0.002096,-0.021971,86.89296,34.382538,-149.940048,,,
729705797.716638,-0.095622,-1.341083,77.547432,0.029877,0.003571,0.994247,-0.028699,0.002096,-0.021971,86.89296,34.382538,-149.940048,,,
729705797.719999,-0.095622,-1.341083,77.547432,0.025497,-0.002075,0.999512,-0.02273,0.008885,-0.019035,86.832947,34.398956,-149.898621,,,
729705797.723321,-0.102425,-1.340009,77.54206,0.025497,-0.002075,0.999512,-0.02273,0.008885,-0.019035,86.832947,34.398956,-149.898621,,,
729705797.726644,-0.1087,-1.338323,77.537111,0.025497,-0.002075,0.999512,-0.02273,0.008885,-0.019035,86.832947,34.398956,-149.898621,,,
729705797.730058,-0.1087,-1.336103,77.533042,0.022018,-0.006989,1.000824,-0.012924,0.011429,-0.01314,86.832947,34.398956,-149.898621,,,
729705797.733308,-0.113196,-1.336103,77.533042,0.022018,-0.006989,1.000824,-0.012924,0.011429,-0.01314,86.832947,34.398956,-149.898621,,,
729705797.736639,-0.116456,-1.334317,77.529875,0.022018,-0.006989,1.000824,-0.012924,0.011429,-0.01314,86.832947,34.398956,-149.898621,,,
729705797.740021,-0.116456,-1.334317,77.529875,0.022018,-0.006989,1.000824,-0.012924,0.011429,-0.01314,86.832947,34.398956,-149.898621,,,
729705797.743374,-0.118044,-1.331189,77.527326,0.01886,-0.008362,1.001572,-0.003089,0.013081,-0.009095,86.832947,34.398956,-149.898621,,,
729705797.746636,-0.118559,-1.32971,77.525355,0.01886,-0.008362,1.001572,-0.003089,0.013081,-0.009095,86.832947,34.398956,-149.898621,,,
729705797.750034,-0.118559,-1.32971,77.525355,0.01886,-0.008362,1.001572,-0.003089,0.013081,-0.009095,86.832947,34.398956,-149.898621,,,
729705797.753311,-0.119122,-1.327277,77.523992,0.02092,-0.005707,0.994202,-0.003119,0.012537,-0.00488,86.832947,34.398956,-149.898621,,,
729705797.756638,-0.119054,-1.326413,77.523121,0.02092,-0.005707,0.994202,-0.003119,0.012537,-0.00488,86.832947,34.398956,-149.898621,,,
729705797.759969,-0.119054,-1.326413,77.523121,0.02092,-0.005707,0.994202,-0.003119,0.012537,-0.00488,86.755035,34.437546,-150.00592,,,
729705797.763305,-0.121442,-1.324487,77.522186,0.024612,-0.003021,0.989441,-0.009735,0.010999,-0.005185,86.755035,34.437546,-150.00592,,,
729705797.766645,-0.122913,-1.324874,77.520544,0.024612,-0.003021,0.989441,-0.009735,0.010999,-0.005185,86.755035,34.437546,-150.00592,,,
729705797.77005,-0.122913,-1.324874,77.520544,0.024612,-0.003021,0.989441,-0.009735,0.010999,-0.005185,86.755035,34.437546,-150.00592,,,
729705797.773311,-0.128631,-1.323583,77.518128,0.027283,0.000809,0.984787,-0.022915,0.007315,-0.010296,86.755035,34.437546,-150.00592,,,
729705797.776639,-0.132596,-1.325806,77.51485,0.027283,0.000809,0.984787,-0.022915,0.007315,-0.010296,86.755035,34.437546,-150.00592,,,
729705797.780028,-0.132596,-1.325806,77.51485,0.027283,0.000809,0.984787,-0.022915,0.007315,-0.010296,86.755035,34.437546,-150.00592,,,
729705797.783364,-0.141484,-1.325283,77.510165,0.026138,0.002686,0.987396,-0.033705,0.006726,-0.019926,86.755035,34.437546,-150.00592,,,
729705797.786639,-0.148909,-1.326823,77.504299,0.026138,0.002686,0.987396,-0.033705,0.006726,-0.019926,86.755035,34.437546,-150.00592,,,
729705797.790028,-0.148909,-1.326823,77.504299,0.026138,0.002686,0.987396,-0.033705,0.006726,-0.019926,86.755035,34.437546,-150.00592,,,
729705797.793314,-0.159426,-1.32687,77.498028,0.023895,0.003281,0.990402,-0.038099,0.001752,-0.022732,86.755035,34.437546,-150.00592,,,
729705797.796638,-0.169889,-1.328572,77.491286,0.023895,0.003281,0.990402,-0.038099,0.001752,-0.022732,86.755035,34.437546,-150.00592,,,
729705797.800049,-0.169889,-1.328572,77.491286,0.023895,0.003281,0.990402,-0.038099,0.001752,-0.022732,86.755035,34.437546,-150.00592,,,
729705797.803302,-0.181681,-1.330096,77.483822,0.020508,-0.001648,0.995407,-0.042494,-0.004479,-0.027667,86.946075,34.392883,-149.793152,,,
729705797.806635,-0.194096,-1.33229,77.475929,0.020508,-0.001648,0.995407,-0.042494,-0.004479,-0.027667,86.946075,34.392883,-149.793152,,,
729705797.810014,-0.194096,-1.33229,77.475929,0.020508,-0.001648,0.995407,-0.042494,-0.004479,-0.027667,86.946075,34.392883,-149.793152,,,
729705797.813306,-0.205197,-1.333615,77.468469,0.018661,-0.007584,0.999466,-0.035942,-0.000596,-0.024782,86.946075,34.392883,-149.793152,,,
729705797.816636,-0.216135,-1.333447,77.461523,0.018661,-0.007584,0.999466,-0.035942,-0.000596,-0.024782,86.946075,34.392883,-149.793152,,,
729705797.820015,-0.216135,-1.333447,77.461523,0.018661,-0.007584,0.999466,-0.035942,-0.000596,-0.024782,86.946075,34.392883,-149.793152,,,
729705797.823378,-0.224317,-1.333694,77.45513,0.017181,-0.010391,1.005493,-0.02442,0.003173,-0.021235,86.946075,34.392883,-149.793152,,,
729705797.82657,-0.230797,-1.332122,77.44942,0.017181,-0.010391,1.005493,-0.02442,0.003173,-0.021235,86.946075,34.392883,-149.793152,,,
729705797.830026,-0.230797,-1.332122,77.44942,0.017181,-0.010391,1.005493,-0.02442,0.003173,-0.021235,86.946075,34.392883,-149.793152,,,
729705797.833306,-0.233923,-1.331155,77.444907,0.018555,-0.01326,1.00528,-0.00686,0.006056,-0.013236,86.946075,34.392883,-149.793152,,,
729705797.836638,-0.235705,-1.330318,77.442417,0.018555,-0.01326,1.00528,-0.00686,0.006056,-0.013236,86.946075,34.392883,-149.793152,,,
729705797.840006,-0.235705,-1.330318,77.442417,0.018555,-0.01326,1.00528,-0.00686,0.006056,-0.013236,86.946075,34.392883,-149.793152,,,
729705797.843299,-0.236842,-1.32983,77.44131,0.019012,-0.014664,0.999695,-0.003707,0.004792,-0.003635,86.772858,34.371704,-149.988373,,,
729705797.846633,-0.237387,-1.330577,77.440787,0.019012,-0.014664,0.999695,-0.003707,0.004792,-0.003635,86.772858,34.371704,-149.988373,,,
729705797.850075,-0.237387,-1.330577,77.440787,0.019012,-0.014664,0.999695,-0.003707,0.004792,-0.003635,86.772858,34.371704,-149.988373,,,
729705797.853323,-0.239053,-1.330702,77.440273,0.020035,-0.011978,0.997421,-0.005016,0.003032,-0.003567,86.772858,34.371704,-149.988373,,,
729705797.85664,-0.239047,-1.33085,77.439758,0.020035,-0.011978,0.997421,-0.005016,0.003032,-0.003567,86.772858,34.371704,-149.988373,,,
729705797.859968,-0.239047,-1.33085,77.439758,0.020035,-0.011978,0.997421,-0.005016,0.003032,-0.003567,86.772858,34.371704,-149.988373,,,
729705797.863375,-0.240419,-1.328364,77.438616,0.020599,-0.006592,1.000961,-0.004381,0.014497,-0.008009,86.772858,34.371704,-149.988373,,,
729705797.866634,-0.240241,-1.324741,77.436422,0.020599,-0.006592,1.000961,-0.004381,0.014497,-0.008009,86.772858,34.371704,-149.988373,,,
729705797.869989,-0.240241,-1.324741,77.436422,0.020599,-0.006592,1.000961,-0.004381,0.014497,-0.008009,86.772858,34.371704,-149.988373,,,
729705797.873318,-0.242408,-1.318661,77.433501,0.020401,-0.004349,1.002045,-0.007735,0.026483,-0.013012,86.772858,34.371704,-149.988373,,,
729705797.876632,-0.244059,-1.311024,77.430439,0.020401,-0.004349,1.002045,-0.007735,0.026483,-0.013012,86.772858,34.371704,-149.988373,,,
729705797.879981,-0.244059,-1.311024,77.430439,0.020401,-0.004349,1.002045,-0.007735,0.026483,-0.013012,86.772858,34.371704,-149.988373,,,
729705797.883302,-0.247322,-1.303024,77.427455,0.019943,-0.001617,0.999557,-0.010334,0.030835,-0.012412,86.880829,34.439835,-149.93602,,,
729705797.886627,-0.249966,-1.294283,77.424927,0.019943,-0.001617,0.999557,-0.010334,0.030835,-0.012412,86.880829,34.439835,-149.93602,,,
729705797.890038,-0.249966,-1.294283,77.424927,0.019943,-0.001617,0.999557,-0.010334,0.030835,-0.012412,86.880829,34.439835,-149.93602,,,
729705797.893311,-0.251959,-1.286217,77.423158,0.020721,-0.001984,0.997452,-0.006487,0.031007,-0.007163,86.880829,34.439835,-149.93602,,,
729705797.896636,-0.254616,-1.277939,77.421612,0.020721,-0.001984,0.997452,-0.006487,0.031007,-0.007163,86.880829,34.439835,-149.93602,,,
729705797.899974,-0.254616,-1.277939,77.421612,0.020721,-0.001984,0.997452,-0.006487,0.031007,-0.007163,86.880829,34.439835,-149.93602,,,
729705797.903396,-0.255646,-1.27245,77.420236,0.017838,-0.002991,0.994507,-0.003086,0.020046,-0.005983,86.880829,34.439835,-149.93602,,,
729705797.906635,-0.259171,-1.266792,77.418995,0.017838,-0.002991,0.994507,-0.003086,0.020046,-0.005983,86.880829,34.439835,-149.93602,,,
729705797.909991,-0.259171,-1.266792,77.418995,0.017838,-0.002991,0.994507,-0.003086,0.020046,-0.005983,86.880829,34.439835,-149.93602,,,
729705797.913306,-0.261803,-1.263855,77.417183,0.02182,-0.001663,0.989761,-0.009288,0.009384,-0.009844,86.880829,34.439835,-149.93602,,,
729705797.916643,-0.267384,-1.261801,77.414768,0.02182,-0.001663,0.989761,-0.009288,0.009384,-0.009844,86.880829,34.439835,-149.93602,,,
729705797.919981,-0.267384,-1.261801,77.414768,0.02182,-0.001663,0.989761,-0.009288,0.009384,-0.009844,86.880829,34.439835,-149.93602,,,
729705797.923307,-0.271561,-1.262996,77.41178,0.026108,0.002274,0.988556,-0.01661,-0.00628,-0.013689,86.786255,34.503296,-150.16777,,,
729705797.926637,-0.278959,-1.266439,77.40815,0.026108,0.002274,0.988556,-0.01661,-0.00628,-0.013689,86.786255,34.503296,-150.16777,,,
729705797.930047,-0.278959,-1.266439,77.40815,0.026108,0.002274,0.988556,-0.01661,-0.00628,-0.013689,86.786255,34.503296,-150.16777,,,
729705797.933308,-0.284823,-1.272602,77.404094,0.024979,0.003784,0.990601,-0.021586,-0.020564,-0.01657,86.786255,34.503296,-150.16777,,,
729705797.936641,-0.291793,-1.278894,77.399001,0.024979,0.003784,0.990601,-0.021586,-0.020564,-0.01657,86.786255,34.503296,-150.16777,,,
729705797.939979,-0.291793,-1.278894,77.399001,0.024979,0.003784,0.990601,-0.021586,-0.020564,-0.01657,86.786255,34.503296,-150.16777,,,
729705797.943363,-0.296814,-1.285449,77.393508,0.026901,0.003433,0.997726,-0.015686,-0.018954,-0.019471,86.786255,34.503296,-150.16777,,,
729705797.946633,-0.300493,-1.290534,77.388182,0.026901,0.003433,0.997726,-0.015686,-0.018954,-0.019471,86.786255,34.503296,-150.16777,,,
729705797.949995,-0.300493,-1.290534,77.388182,0.026901,0.003433,0.997726,-0.015686,-0.018954,-0.019471,86.786255,34.503296,-150.16777,,,
729705797.953308,-0.302417,-1.294992,77.383553,0.026077,-0.002441,1.004822,-0.002801,-0.011377,-0.014892,86.786255,34.503296,-150.16777,,,
729705797.956636,-0.302116,-1.298032,77.380383,0.026077,-0.002441,1.004822,-0.002801,-0.011377,-0.014892,86.786255,34.503296,-150.16777,,,
729705797.959985,-0.302116,-1.298032,77.380383,0.026077,-0.002441,1.004822,-0.002801,-0.011377,-0.014892,86.786255,34.503296,-150.16777,,,
729705797.963298,-0.301031,-1.299937,77.378185,0.025543,-0.00325,1.009735,0.006328,0.000176,-0.008276,86.786255,34.503296,-150.16777,,,
729705797.966632,-0.298265,-1.29915,77.376313,0.025543,-0.00325,1.009735,0.006328,0.000176,-0.008276,86.881439,34.56189,-149.790421,,,
729705797.970024,-0.298265,-1.29915,77.376313,0.025543,-0.00325,1.009735,0.006328,0.000176,-0.008276,86.881439,34.56189,-149.790421,,,
729705797.973298,-0.296246,-1.297192,77.374467,0.026093,0.00116,1.011337,0.007161,0.01281,-0.008072,86.881439,34.56189,-149.790421,,,
729705797.976641,-0.293879,-1.293113,77.372644,0.026093,0.00116,1.011337,0.007161,0.01281,-0.008072,86.881439,34.56189,-149.790421,,,
729705797.979979,-0.293879,-1.293113,77.372644,0.026093,0.00116,1.011337,0.007161,0.01281,-0.008072,86.881439,34.56189,-149.790421,,,
729705797.983359,-0.292708,-1.289609,77.370636,0.03035,0.004501,1.00383,0.003317,0.016036,-0.009226,86.881439,34.56189,-149.790421,,,
729705797.986634,-0.291622,-1.285052,77.368216,0.03035,0.004501,1.00383,0.003317,0.016036,-0.009226,86.881439,34.56189,-149.790421,,,
729705797.989987,-0.291622,-1.285052,77.368216,0.03035,0.004501,1.00383,0.003317,0.016036,-0.009226,86.881439,34.56189,-149.790421,,,
729705797.993319,-0.290802,-1.281037,77.36488,0.033554,0.001511,1.003021,0.002964,0.017868,-0.015589,86.881439,34.56189,-149.790421,,,
729705797.996631,-0.288041,-1.277962,77.360652,0.033554,0.001511,1.003021,0.002964,0.017868,-0.015589,86.881439,34.56189,-149.790421,,,
729705797.999986,-0.288041,-1.277962,77.360652,0.033554,0.001511,1.003021,0.002964,0.017868,-0.015589,86.881439,34.56189,-149.790421,,,
729705798.003309,-0.286302,-1.274846,77.355952,0.030426,-0.000488,1.006897,0.006227,0.013534,-0.019009,86.881439,34.56189,-149.790421,,,
729705798.00664,-0.282401,-1.272728,77.350943,0.030426,-0.000488,1.006897,0.006227,0.013534,-0.019009,86.911087,34.50798,-149.870758,,,
729705798.009979,-0.282401,-1.272728,77.350943,0.030426,-0.000488,1.006897,0.006227,0.013534,-0.019009,86.911087,34.50798,-149.870758,,,
729705798.013313,-0.279957,-1.270255,77.346101,0.025162,-0.004868,1.009308,0.010252,0.010496,-0.017969,86.911087,34.50798,-149.870758,,,
729705798.016638,-0.273972,-1.268799,77.341602,0.025162,-0.004868,1.009308,0.010252,0.010496,-0.017969,86.911087,34.50798,-149.870758,,,
729705798.02006,-0.273972,-1.268799,77.341602,0.025162,-0.004868,1.009308,0.010252,0.010496,-0.017969,86.911087,34.50798,-149.870758,,,
729705798.023323,-0.26812,-1.265632,77.337864,0.018692,-0.009674,1.017517,0.024073,0.014515,-0.012995,86.911087,34.50798,-149.870758,,,
729705798.026641,-0.258648,-1.262604,77.335349,0.018692,-0.009674,1.017517,0.024073,0.014515,-0.012995,86.911087,34.50798,-149.870758,,,
729705798.029982,-0.258648,-1.262604,77.335349,0.018692,-0.009674,1.017517,0.024073,0.014515,-0.012995,86.911087,34.50798,-149.870758,,,
729705798.033412,-0.24734,-1.257507,77.334263,0.01651,-0.012115,1.024902,0.045898,0.021355,-0.003428,86.911087,34.50798,-149.870758,,,
729705798.036642,-0.232961,-1.252841,77.334142,0.01651,-0.012115,1.024902,0.045898,0.021355,-0.003428,86.911087,34.50798,-149.870758,,,
729705798.039995,-0.232961,-1.252841,77.334142,0.01651,-0.012115,1.024902,0.045898,0.021355,-0.003428,86.911087,34.50798,-149.870758,,,
729705798.043321,-0.216019,-1.246911,77.334201,0.017151,-0.009964,1.027527,0.063992,0.025053,-0.002596,86.911087,34.50798,-149.870758,,,
729705798.046644,-0.195913,-1.239565,77.334572,0.017151,-0.009964,1.027527,0.063992,0.025053,-0.002596,86.961823,34.237686,-149.781647,,,
729705798.049989,-0.195913,-1.239565,77.334572,0.017151,-0.009964,1.027527,0.063992,0.025053,-0.002596,86.961823,34.237686,-149.781647,,,
729705798.053325,-0.173189,-1.227377,77.335213,0.018661,-0.007523,1.035522,0.085698,0.052445,-0.001221,86.961823,34.237686,-149.781647,,,
729705798.05664,-0.146097,-1.21382,77.336341,0.018661,-0.007523,1.035522,0.085698,0.052445,-0.001221,86.961823,34.237686,-149.781647,,,
729705798.060049,-0.146097,-1.21382,77.336341,0.018661,-0.007523,1.035522,0.085698,0.052445,-0.001221,86.961823,34.237686,-149.781647,,,
729705798.063317,-0.118207,-1.196086,77.33753,0.023392,-0.004852,1.031723,0.101646,0.068437,-0.001148,86.961823,34.237686,-149.781647,,,
729705798.066639,-0.086389,-1.180248,77.337863,0.023392,-0.004852,1.031723,0.101646,0.068437,-0.001148,86.961823,34.237686,-149.781647,,,
729705798.069991,-0.086389,-1.180248,77.337863,0.023392,-0.004852,1.031723,0.101646,0.068437,-0.001148,86.961823,34.237686,-149.781647,,,
729705798.073374,-0.053197,-1.161883,77.337882,0.02121,-0.005936,1.024323,0.118371,0.066786,-0.003668,86.961823,34.237686,-149.781647,,,
729705798.076633,-0.018239,-1.147231,77.33878,0.02121,-0.005936,1.024323,0.118371,0.066786,-0.003668,86.961823,34.237686,-149.781647,,,
729705798.079989,-0.018239,-1.147231,77.33878,0.02121,-0.005936,1.024323,0.118371,0.066786,-0.003668,86.961823,34.237686,-149.781647,,,
729705798.083312,0.017571,-1.132565,77.34051,0.015549,-0.00441,1.010223,0.126361,0.049595,0.002043,86.961823,34.237686,-149.781647,,,
729705798.086633,0.053006,-1.121874,77.342734,0.015549,-0.00441,1.010223,0.126361,0.049595,0.002043,87.235291,34.156998,-149.902359,,,
729705798.089989,0.053006,-1.121874,77.342734,0.015549,-0.00441,1.010223,0.126361,0.049595,0.002043,87.235291,34.156998,-149.902359,,,
729705798.093375,0.088458,-1.112632,77.345015,0.012131,0.00058,0.999664,0.123101,0.028762,0.002537,87.235291,34.156998,-149.902359,,,
729705798.096625,0.122192,-1.106898,77.346631,0.012131,0.00058,0.999664,0.123101,0.028762,0.002537,87.235291,34.156998,-149.902359,,,
729705798.100026,0.122192,-1.106898,77.346631,0.012131,0.00058,0.999664,0.123101,0.028762,0.002537,87.235291,34.156998,-149.902359,,,
729705798.103299,0.157895,-1.103684,77.348119,0.014725,0.006119,0.989426,0.125714,0.008674,0.001479,87.235291,34.156998,-149.902359,,,
729705798.106642,0.190538,-1.102117,77.349217,0.014725,0.006119,0.989426,0.125714,0.008674,0.001479,87.235291,34.156998,-149.902359,,,
729705798.109965,0.190538,-1.102117,77.349217,0.014725,0.006119,0.989426,0.125714,0.008674,0.001479,87.235291,34.156998,-149.902359,,,
729705798.113385,0.224738,-1.102307,77.349529,0.023712,0.011246,0.982132,0.118428,6.1e-05,-0.003873,87.235291,34.156998,-149.902359,,,
729705798.116632,0.254402,-1.103686,77.349202,0.023712,0.011246,0.982132,0.118428,6.1e-05,-0.003873,87.235291,34.156998,-149.902359,,,
729705798.119978,0.254402,-1.103686,77.349202,0.023712,0.011246,0.982132,0.118428,6.1e-05,-0.003873,87.235291,34.156998,-149.902359,,,
729705798.123327,0.28513,-1.107179,77.348426,0.029892,0.013458,0.973999,0.102087,-0.011981,-0.006636,87.235291,34.156998,-149.902359,,,
729705798.126638,0.309361,-1.110717,77.347442,0.029892,0.013458,0.973999,0.102087,-0.011981,-0.006636,87.235291,34.156998,-149.902359,,,
729705798.130006,0.309361,-1.110717,77.347442,0.029892,0.013458,0.973999,0.102087,-0.011981,-0.006636,87.047302,34.170181,-149.66246,,,
729705798.133316,0.333327,-1.114804,77.346391,0.03183,0.00943,0.967224,0.076972,-0.010656,-0.006569,87.047302,34.170181,-149.66246,,,
