Time (sec),Pitch (deg),Roll (deg),Yaw(deg),X-Acceleration (g),Y-Acceleration (g),Z-Acceleration (g),Pitch Rate (deg/sec),Roll Rate (deg/sec),Yaw Rate (deg/sec),Magnetic Field in X direction (uT),Magnetic Field in Y direction (uT),Magnetic Field in Z Direction (uT),Latitude (deg),Longitude (deg),Altitude (m)
729716727.133243,-7.670237,3.809311,140.188233,-0.069656,-0.170074,1.027359,0.618305,0.214098,0.224241,91.249115,42.648087,-146.026886,,,
729716727.134719,-7.670238,3.809311,101.57503,-0.069656,-0.170074,1.027359,0.618305,0.214098,0.224241,91.249115,42.648087,-146.026886,,,
729716727.135065,-7.670236,3.809314,104.651881,-0.069656,-0.170074,1.027359,0.618305,0.214098,0.224241,91.249115,42.648087,-146.026886,,,
729716727.135725,-7.670237,3.809311,140.188233,-0.069656,-0.170074,1.027359,0.618305,0.214098,0.224241,91.249115,42.648087,-146.026886,,,
729716727.138882,-7.487324,3.875029,101.627007,-0.069656,-0.170074,1.027359,0.63262,0.198469,0.205784,91.249115,42.648087,-146.026886,,,
729716727.139723,-7.487321,3.875032,104.703858,-0.069656,-0.170074,1.027359,0.63262,0.198469,0.205784,91.249115,42.648087,-146.026886,,,
729716727.139823,-7.487322,3.875029,140.240211,-0.069656,-0.170074,1.027359,0.63262,0.198469,0.205784,91.249115,42.648087,-146.026886,,,
729716727.14198,-7.303031,3.938072,101.675311,-0.072662,-0.144669,1.016541,0.63262,0.198469,0.205784,91.249115,42.648087,-146.026886,,,
729716727.142739,-7.303029,3.938075,104.752162,-0.072662,-0.144669,1.016541,0.63262,0.198469,0.205784,91.249115,42.648087,-146.026886,,,
729716727.142847,-7.303029,3.938072,140.288513,-0.072662,-0.144669,1.016541,0.63262,0.198469,0.205784,91.249115,42.648087,-146.026886,,,
729716727.144772,-7.303031,3.938072,101.675311,-0.072662,-0.144669,1.016541,0.63262,0.198469,0.205784,91.249115,42.648087,-146.026886,,,
729716727.145054,-7.303029,3.938075,104.752162,-0.072662,-0.144669,1.016541,0.63262,0.198469,0.205784,91.249115,42.648087,-146.026886,,,
729716727.145724,-7.303029,3.938072,140.288513,-0.072662,-0.144669,1.016541,0.63262,0.198469,0.205784,91.249115,42.648087,-146.026886,,,
729716727.149273,-7.120149,3.998937,101.717386,-0.072662,-0.144669,1.016541,0.605712,0.189625,0.15814,91.249115,42.648087,-146.026886,,,
729716727.150574,-7.120147,3.99894,104.794237,-0.072662,-0.144669,1.016541,0.605712,0.189625,0.15814,91.249115,42.648087,-146.026886,,,
729716727.150724,-7.120148,3.998938,140.330588,-0.072662,-0.144669,1.016541,0.605712,0.189625,0.15814,91.249115,42.648087,-146.026886,,,
729716727.151996,-6.94146,4.057615,101.752553,-0.063858,-0.112747,1.000641,0.605712,0.189625,0.15814,91.249115,42.648087,-146.026886,,,
729716727.152853,-6.941458,4.057618,104.829405,-0.063858,-0.112747,1.000641,0.605712,0.189625,0.15814,91.249115,42.648087,-146.026886,,,
729716727.15297,-6.941459,4.057615,140.36576,-0.063858,-0.112747,1.000641,0.605712,0.189625,0.15814,91.249115,42.648087,-146.026886,,,
729716727.15465,-6.94146,4.057615,101.752553,-0.063858,-0.112747,1.000641,0.605712,0.189625,0.15814,91.249115,42.648087,-146.026886,,,
729716727.155073,-6.941458,4.057618,104.829405,-0.063858,-0.112747,1.000641,0.605712,0.189625,0.15814,91.249115,42.648087,-146.026886,,,
729716727.155724,-6.941459,4.057615,140.36576,-0.063858,-0.112747,1.000641,0.605712,0.189625,0.15814,91.249115,42.648087,-146.026886,,,
729716727.158887,-6.768899,4.11185,101.781306,-0.063858,-0.112747,1.000641,0.564814,0.153594,0.108929,91.249115,42.648087,-146.026886,,,
729716727.159761,-6.768897,4.111853,104.858157,-0.063858,-0.112747,1.000641,0.564814,0.153594,0.108929,91.249115,42.648087,-146.026886,,,
729716727.159859,-6.768897,4.11185,140.394512,-0.063858,-0.112747,1.000641,0.564814,0.153594,0.108929,91.249115,42.648087,-146.026886,,,
729716727.161964,-6.60333,4.159636,101.803841,-0.057693,-0.093704,0.983917,0.564814,0.153594,0.108929,91.249115,42.648087,-146.026886,,,
729716727.162704,-6.603328,4.159638,104.880692,-0.057693,-0.093704,0.983917,0.564814,0.153594,0.108929,91.249115,42.648087,-146.026886,,,
729716727.162814,-6.603328,4.159636,140.417047,-0.057693,-0.093704,0.983917,0.564814,0.153594,0.108929,91.249115,42.648087,-146.026886,,,
729716727.164755,-6.60333,4.159636,101.803841,-0.057693,-0.093704,0.983917,0.564814,0.153594,0.108929,91.249115,42.648087,-146.026886,,,
729716727.165057,-6.603328,4.159638,104.880692,-0.057693,-0.093704,0.983917,0.564814,0.153594,0.108929,91.249115,42.648087,-146.026886,,,
729716727.165723,-6.603328,4.159636,140.417047,-0.057693,-0.093704,0.983917,0.564814,0.153594,0.108929,91.249115,42.648087,-146.026886,,,
729716727.168884,-6.445216,4.200354,101.820365,-0.057693,-0.093704,0.983917,0.510302,0.10673,0.071661,91.249115,42.648087,-146.026886,,,
729716727.169733,-6.445214,4.200357,104.897216,-0.057693,-0.093704,0.983917,0.510302,0.10673,0.071661,91.249115,42.648087,-146.026886,,,
729716727.169841,-6.445215,4.200355,140.433572,-0.057693,-0.093704,0.983917,0.510302,0.10673,0.071661,91.249115,42.648087,-146.026886,,,
729716727.172217,-6.295271,4.23263,101.832054,-0.057755,-0.088409,0.963577,0.510302,0.10673,0.071661,91.778122,41.454681,-146.303116,,,
729716727.173177,-6.295269,4.232633,104.908905,-0.057755,-0.088409,0.963577,0.510302,0.10673,0.071661,91.778122,41.454681,-146.303116,,,
729716727.173281,-6.295269,4.23263,140.445259,-0.057755,-0.088409,0.963577,0.510302,0.10673,0.071661,91.778122,41.454681,-146.303116,,,
729716727.174744,-6.295271,4.23263,101.832054,-0.057755,-0.088409,0.963577,0.510302,0.10673,0.071661,91.778122,41.454681,-146.303116,,,
729716727.175092,-6.295269,4.232633,104.908905,-0.057755,-0.088409,0.963577,0.510302,0.10673,0.071661,91.778122,41.454681,-146.303116,,,
729716727.17575,-6.295269,4.23263,140.445259,-0.057755,-0.088409,0.963577,0.510302,0.10673,0.071661,91.778122,41.454681,-146.303116,,,
729716727.178965,-6.153542,4.254737,101.8391,-0.057755,-0.088409,0.963577,0.460562,0.026929,0.030602,91.778122,41.454681,-146.303116,,,
729716727.180084,-6.15354,4.25474,104.915951,-0.057755,-0.088409,0.963577,0.460562,0.026929,0.030602,91.778122,41.454681,-146.303116,,,
729716727.180232,-6.15354,4.254737,140.452305,-0.057755,-0.088409,0.963577,0.460562,0.026929,0.030602,91.778122,41.454681,-146.303116,,,
729716727.182113,-6.01986,4.265582,101.840488,-0.060623,-0.091614,0.954346,0.460562,0.026929,0.030602,91.778122,41.454681,-146.303116,,,
729716727.18287,-6.019859,4.265584,104.917339,-0.060623,-0.091614,0.954346,0.460562,0.026929,0.030602,91.778122,41.454681,-146.303116,,,
729716727.182985,-6.019859,4.265582,140.453691,-0.060623,-0.091614,0.954346,0.460562,0.026929,0.030602,91.778122,41.454681,-146.303116,,,
729716727.184792,-6.01986,4.265582,101.840488,-0.060623,-0.091614,0.954346,0.460562,0.026929,0.030602,91.778122,41.454681,-146.303116,,,
729716727.185059,-6.019859,4.265584,104.917339,-0.060623,-0.091614,0.954346,0.460562,0.026929,0.030602,91.778122,41.454681,-146.303116,,,
729716727.185727,-6.019859,4.265582,140.453691,-0.060623,-0.091614,0.954346,0.460562,0.026929,0.030602,91.778122,41.454681,-146.303116,,,
729716727.190199,-5.894456,4.265596,101.835949,-0.060623,-0.091614,0.954346,0.396249,-0.029887,-0.015538,91.778122,41.454681,-146.303116,,,
729716727.192129,-5.894455,4.265598,104.9128,-0.060623,-0.091614,0.954346,0.396249,-0.029887,-0.015538,91.778122,41.454681,-146.303116,,,
729716727.19227,-5.778471,4.257398,140.438131,-0.056046,-0.083282,0.945526,0.396249,-0.029887,-0.015538,91.778122,41.454681,-146.303116,,,
729716727.193028,-5.778473,4.257398,101.824928,-0.056046,-0.083282,0.945526,0.396249,-0.029887,-0.015538,91.778122,41.454681,-146.303116,,,
729716727.194771,-5.778473,4.257398,101.824928,-0.056046,-0.083282,0.945526,0.396249,-0.029887,-0.015538,91.778122,41.454681,-146.303116,,,
729716727.195635,-5.778471,4.2574,104.901779,-0.056046,-0.083282,0.945526,0.396249,-0.029887,-0.015538,91.778122,41.454681,-146.303116,,,
729716727.195778,-5.778471,4.257398,140.438131,-0.056046,-0.083282,0.945526,0.396249,-0.029887,-0.015538,91.778122,41.454681,-146.303116,,,
729716727.199111,-5.673199,4.245261,101.807015,-0.056046,-0.083282,0.945526,0.329864,-0.035976,-0.068251,91.778122,41.454681,-146.303116,,,
729716727.200023,-5.673197,4.245264,104.883866,-0.056046,-0.083282,0.945526,0.329864,-0.035976,-0.068251,91.778122,41.454681,-146.303116,,,
729716727.200129,-5.673197,4.245261,140.420218,-0.056046,-0.083282,0.945526,0.329864,-0.035976,-0.068251,91.778122,41.454681,-146.303116,,,
729716727.201989,-5.577762,4.231617,101.782403,-0.054535,-0.074188,0.948273,0.329864,-0.035976,-0.068251,91.778122,41.454681,-146.303116,,,
729716727.202766,-5.577761,4.23162,104.859254,-0.054535,-0.074188,0.948273,0.329864,-0.035976,-0.068251,91.778122,41.454681,-146.303116,,,
729716727.202882,-5.577761,4.231617,140.395605,-0.054535,-0.074188,0.948273,0.329864,-0.035976,-0.068251,91.778122,41.454681,-146.303116,,,
729716727.204779,-5.577762,4.231617,101.782403,-0.054535,-0.074188,0.948273,0.329864,-0.035976,-0.068251,91.778122,41.454681,-146.303116,,,
729716727.205062,-5.577761,4.23162,104.859254,-0.054535,-0.074188,0.948273,0.329864,-0.035976,-0.068251,91.778122,41.454681,-146.303116,,,
729716727.205725,-5.577761,4.231617,140.395605,-0.054535,-0.074188,0.948273,0.329864,-0.035976,-0.068251,91.778122,41.454681,-146.303116,,,
729716727.208788,-5.48881,4.216085,101.75123,-0.054535,-0.074188,0.948273,0.31078,-0.040516,-0.114482,91.778122,41.454681,-146.303116,,,
729716727.209544,-5.488809,4.216088,104.828081,-0.054535,-0.074188,0.948273,0.31078,-0.040516,-0.114482,91.778122,41.454681,-146.303116,,,
729716727.209655,-5.488809,4.216085,140.364433,-0.054535,-0.074188,0.948273,0.31078,-0.040516,-0.114482,91.778122,41.454681,-146.303116,,,
729716727.212113,-5.402092,4.199629,101.713941,-0.044678,-0.063538,0.955643,0.31078,-0.040516,-0.114482,91.778122,41.454681,-146.303116,,,
729716727.213272,-5.402091,4.199632,104.790792,-0.044678,-0.063538,0.955643,0.31078,-0.040516,-0.114482,91.599533,40.868515,-146.738907,,,
729716727.213409,-5.402091,4.199629,140.327146,-0.044678,-0.063538,0.955643,0.31078,-0.040516,-0.114482,91.599533,40.868515,-146.738907,,,
729716727.215036,-5.402092,4.199629,101.713941,-0.044678,-0.063538,0.955643,0.31078,-0.040516,-0.114482,91.599533,40.868515,-146.738907,,,
729716727.215203,-5.402091,4.199632,104.790792,-0.044678,-0.063538,0.955643,0.31078,-0.040516,-0.114482,91.599533,40.868515,-146.738907,,,
729716727.215711,-5.402091,4.199629,140.327146,-0.044678,-0.063538,0.955643,0.31078,-0.040516,-0.114482,91.599533,40.868515,-146.738907,,,
729716727.219278,-5.314247,4.181987,101.672515,-0.044678,-0.063538,0.955643,0.329163,-0.053704,-0.128788,91.599533,40.868515,-146.738907,,,
729716727.220538,-5.314246,4.18199,104.749366,-0.044678,-0.063538,0.955643,0.329163,-0.053704,-0.128788,91.599533,40.868515,-146.738907,,,
729716727.220698,-5.314246,4.181988,140.28572,-0.044678,-0.063538,0.955643,0.329163,-0.053704,-0.128788,91.599533,40.868515,-146.738907,,,
729716727.222351,-5.223674,4.162769,101.629494,-0.053131,-0.072418,0.970718,0.329163,-0.053704,-0.128788,91.599533,40.868515,-146.738907,,,
729716727.223591,-5.223672,4.162772,104.706345,-0.053131,-0.072418,0.970718,0.329163,-0.053704,-0.128788,91.599533,40.868515,-146.738907,,,
729716727.223739,-5.223672,4.162769,140.242699,-0.053131,-0.072418,0.970718,0.329163,-0.053704,-0.128788,91.599533,40.868515,-146.738907,,,
729716727.224619,-5.223674,4.162769,101.629494,-0.053131,-0.072418,0.970718,0.329163,-0.053704,-0.128788,91.599533,40.868515,-146.738907,,,
729716727.225072,-5.223672,4.162772,104.706345,-0.053131,-0.072418,0.970718,0.329163,-0.053704,-0.128788,91.599533,40.868515,-146.738907,,,
729716727.225721,-5.223672,4.162769,140.242699,-0.053131,-0.072418,0.970718,0.329163,-0.053704,-0.128788,91.599533,40.868515,-146.738907,,,
729716727.22887,-5.130452,4.14328,101.587137,-0.053131,-0.072418,0.970718,0.340838,-0.039257,-0.110491,91.599533,40.868515,-146.738907,,,
729716727.229723,-5.130451,4.143283,104.663988,-0.053131,-0.072418,0.970718,0.340838,-0.039257,-0.110491,91.599533,40.868515,-146.738907,,,
729716727.229825,-5.130451,4.14328,140.200343,-0.053131,-0.072418,0.970718,0.340838,-0.039257,-0.110491,91.599533,40.868515,-146.738907,,,
729716727.231977,-5.035832,4.126406,101.547392,-0.068771,-0.092117,0.968811,0.340838,-0.039257,-0.110491,91.599533,40.868515,-146.738907,,,
729716727.232742,-5.035831,4.126408,104.624243,-0.068771,-0.092117,0.968811,0.340838,-0.039257,-0.110491,91.599533,40.868515,-146.738907,,,
729716727.232859,-5.035831,4.126406,140.160598,-0.068771,-0.092117,0.968811,0.340838,-0.039257,-0.110491,91.599533,40.868515,-146.738907,,,
729716727.234815,-5.035832,4.126406,101.547392,-0.068771,-0.092117,0.968811,0.340838,-0.039257,-0.110491,91.599533,40.868515,-146.738907,,,
729716727.235104,-5.035831,4.126408,104.624243,-0.068771,-0.092117,0.968811,0.340838,-0.039257,-0.110491,91.599533,40.868515,-146.738907,,,
729716727.235753,-5.035831,4.126406,140.160598,-0.068771,-0.092117,0.968811,0.340838,-0.039257,-0.110491,91.599533,40.868515,-146.738907,,,
729716727.240068,-4.941375,4.116817,101.511202,-0.068771,-0.092117,0.968811,0.325798,0.020662,-0.084242,91.599533,40.868515,-146.738907,,,
729716727.242033,-4.941374,4.116819,104.588053,-0.068771,-0.092117,0.968811,0.325798,0.020662,-0.084242,91.599533,40.868515,-146.738907,,,
729716727.242209,-4.849331,4.116848,140.092881,-0.060074,-0.09552,0.976181,0.325798,0.020662,-0.084242,91.599533,40.868515,-146.738907,,,
729716727.24326,-4.849332,4.116848,101.479679,-0.060074,-0.09552,0.976181,0.325798,0.020662,-0.084242,91.599533,40.868515,-146.738907,,,
729716727.244774,-4.849332,4.116848,101.479679,-0.060074,-0.09552,0.976181,0.325798,0.020662,-0.084242,91.599533,40.868515,-146.738907,,,
729716727.246176,-4.849331,4.11685,104.55653,-0.060074,-0.09552,0.976181,0.325798,0.020662,-0.084242,91.599533,40.868515,-146.738907,,,
729716727.246378,-4.762538,4.128607,140.066964,-0.060074,-0.09552,0.976181,0.276415,0.111682,-0.047951,91.599533,40.868515,-146.738907,,,
729716727.249275,-4.76254,4.128607,101.453762,-0.060074,-0.09552,0.976181,0.276415,0.111682,-0.047951,91.599533,40.868515,-146.738907,,,
729716727.250555,-4.762538,4.12861,104.530613,-0.060074,-0.09552,0.976181,0.276415,0.111682,-0.047951,91.599533,40.868515,-146.738907,,,
729716727.250707,-4.762538,4.128607,140.066964,-0.060074,-0.09552,0.976181,0.276415,0.111682,-0.047951,91.599533,40.868515,-146.738907,,,
729716727.252409,-4.682682,4.154727,101.433978,-0.050034,-0.086243,0.974213,0.276415,0.111682,-0.047951,91.599533,40.868515,-146.738907,,,
729716727.2539,-4.682681,4.154729,104.510829,-0.050034,-0.086243,0.974213,0.276415,0.111682,-0.047951,91.708755,40.227554,-146.753387,,,
729716727.254018,-4.682681,4.154727,140.04718,-0.050034,-0.086243,0.974213,0.276415,0.111682,-0.047951,91.708755,40.227554,-146.753387,,,
729716727.254939,-4.682682,4.154727,101.433978,-0.050034,-0.086243,0.974213,0.276415,0.111682,-0.047951,91.708755,40.227554,-146.753387,,,
729716727.255113,-4.682681,4.154729,104.510829,-0.050034,-0.086243,0.974213,0.276415,0.111682,-0.047951,91.708755,40.227554,-146.753387,,,
729716727.255722,-4.682681,4.154727,140.04718,-0.050034,-0.086243,0.974213,0.276415,0.111682,-0.047951,91.708755,40.227554,-146.753387,,,
729716727.259257,-4.610914,4.19443,101.419846,-0.050034,-0.086243,0.974213,0.214043,0.197311,-0.020997,91.708755,40.227554,-146.753387,,,
729716727.260497,-4.610912,4.194433,104.496696,-0.050034,-0.086243,0.974213,0.214043,0.197311,-0.020997,91.708755,40.227554,-146.753387,,,
729716727.260648,-4.610912,4.194431,140.033047,-0.050034,-0.086243,0.974213,0.214043,0.197311,-0.020997,91.708755,40.227554,-146.753387,,,
729716727.261681,-4.610914,4.19443,101.419846,-0.048248,-0.072067,0.96463,0.214043,0.197311,-0.020997,91.708755,40.227554,-146.753387,,,
729716727.262781,-4.547767,4.245947,104.486243,-0.048248,-0.072067,0.96463,0.214043,0.197311,-0.020997,91.708755,40.227554,-146.753387,,,
729716727.26296,-4.547767,4.245944,140.022597,-0.048248,-0.072067,0.96463,0.214043,0.197311,-0.020997,91.708755,40.227554,-146.753387,,,
729716727.265401,-4.547768,4.245944,101.409392,-0.048248,-0.072067,0.96463,0.214043,0.197311,-0.020997,91.708755,40.227554,-146.753387,,,
729716727.265621,-4.547767,4.245947,104.486243,-0.048248,-0.072067,0.96463,0.214043,0.197311,-0.020997,91.708755,40.227554,-146.753387,,,
729716727.265763,-4.547767,4.245944,140.022597,-0.048248,-0.072067,0.96463,0.214043,0.197311,-0.020997,91.708755,40.227554,-146.753387,,,
729716727.2691,-4.492205,4.306334,101.400252,-0.048248,-0.072067,0.96463,0.171103,0.242691,-0.022539,91.708755,40.227554,-146.753387,,,
729716727.270202,-4.492203,4.306337,104.477103,-0.048248,-0.072067,0.96463,0.171103,0.242691,-0.022539,91.708755,40.227554,-146.753387,,,
729716727.270347,-4.492203,4.306335,140.013457,-0.048248,-0.072067,0.96463,0.171103,0.242691,-0.022539,91.708755,40.227554,-146.753387,,,
729716727.272132,-4.442962,4.372688,101.390241,-0.048172,-0.062012,0.957947,0.171103,0.242691,-0.022539,91.708755,40.227554,-146.753387,,,
729716727.273086,-4.44296,4.37269,104.467092,-0.048172,-0.062012,0.957947,0.171103,0.242691,-0.022539,91.708755,40.227554,-146.753387,,,
729716727.273258,-4.44296,4.372688,140.003446,-0.048172,-0.062012,0.957947,0.171103,0.242691,-0.022539,91.708755,40.227554,-146.753387,,,
729716727.274761,-4.442962,4.372688,101.390241,-0.048172,-0.062012,0.957947,0.171103,0.242691,-0.022539,91.708755,40.227554,-146.753387,,,
729716727.27511,-4.44296,4.37269,104.467092,-0.048172,-0.062012,0.957947,0.171103,0.242691,-0.022539,91.708755,40.227554,-146.753387,,,
729716727.275765,-4.44296,4.372688,140.003446,-0.048172,-0.062012,0.957947,0.171103,0.242691,-0.022539,91.708755,40.227554,-146.753387,,,
729716727.279085,-4.398697,4.441903,101.378253,-0.048172,-0.062012,0.957947,0.136146,0.243644,-0.048049,91.708755,40.227554,-146.753387,,,
729716727.280174,-4.398696,4.441905,104.455104,-0.048172,-0.062012,0.957947,0.136146,0.243644,-0.048049,91.708755,40.227554,-146.753387,,,
729716727.280317,-4.398696,4.441903,139.991456,-0.048172,-0.062012,0.957947,0.136146,0.243644,-0.048049,91.708755,40.227554,-146.753387,,,
729716727.281587,-4.398697,4.441903,101.378253,-0.048172,-0.057739,0.95433,0.136146,0.243644,-0.048049,91.708755,40.227554,-146.753387,,,
729716727.282724,-4.359444,4.510564,104.439878,-0.058685,-0.057739,0.95433,0.136146,0.243644,-0.048049,91.708755,40.227554,-146.753387,,,
729716727.282889,-4.359444,4.510562,139.976229,-0.058685,-0.057739,0.95433,0.136146,0.243644,-0.048049,91.708755,40.227554,-146.753387,,,
729716727.285558,-4.359446,4.510562,101.363027,-0.058685,-0.057739,0.95433,0.136146,0.243644,-0.048049,91.708755,40.227554,-146.753387,,,
729716727.285776,-4.359444,4.510564,104.439878,-0.058685,-0.057739,0.95433,0.136146,0.243644,-0.048049,91.708755,40.227554,-146.753387,,,
729716727.285889,-4.359444,4.510562,139.976229,-0.058685,-0.057739,0.95433,0.136146,0.243644,-0.048049,91.708755,40.227554,-146.753387,,,
729716727.289197,-4.325296,4.576235,101.34384,-0.058685,-0.057739,0.95433,0.108804,0.209616,-0.076068,91.708755,40.227554,-146.753387,,,
729716727.290448,-4.325294,4.576237,104.420691,-0.058685,-0.057739,0.95433,0.108804,0.209616,-0.076068,91.708755,40.227554,-146.753387,,,
729716727.290594,-4.325294,4.576235,139.957043,-0.058685,-0.057739,0.95433,0.108804,0.209616,-0.076068,91.708755,40.227554,-146.753387,,,
729716727.291313,-4.325296,4.576235,101.34384,-0.058685,-0.057739,0.95433,0.108804,0.209616,-0.076068,91.708755,40.227554,-146.753387,,,
729716727.292686,-4.295128,4.635393,104.397953,-0.069214,-0.05513,0.942688,0.108804,0.209616,-0.076068,91.708755,40.227554,-146.753387,,,
729716727.292855,-4.295127,4.63539,139.934305,-0.069214,-0.05513,0.942688,0.108804,0.209616,-0.076068,91.708755,40.227554,-146.753387,,,
729716727.296133,-4.295129,4.63539,101.321102,-0.069214,-0.05513,0.942688,0.108804,0.209616,-0.076068,92.126495,39.920151,-146.715149,,,
729716727.297277,-4.295128,4.635393,104.397953,-0.069214,-0.05513,0.942688,0.088545,0.125917,-0.094084,92.126495,39.920151,-146.715149,,,
729716727.297431,-4.268422,4.684145,139.908425,-0.069214,-0.05513,0.942688,0.088545,0.125917,-0.094084,92.126495,39.920151,-146.715149,,,
729716727.298907,-4.268423,4.684145,101.29522,-0.069214,-0.05513,0.942688,0.088545,0.125917,-0.094084,92.126495,39.920151,-146.715149,,,
729716727.299456,-4.268422,4.684148,104.372071,-0.069214,-0.05513,0.942688,0.088545,0.125917,-0.094084,92.126495,39.920151,-146.715149,,,
729716727.299553,-4.268422,4.684145,139.908425,-0.069214,-0.05513,0.942688,0.088545,0.125917,-0.094084,92.126495,39.920151,-146.715149,,,
729716727.302131,-4.245033,4.720827,101.267132,-0.081268,-0.05777,0.930542,0.088545,0.125917,-0.094084,92.126495,39.920151,-146.715149,,,
729716727.302908,-4.245031,4.72083,104.343983,-0.081268,-0.05777,0.930542,0.088545,0.125917,-0.094084,92.126495,39.920151,-146.715149,,,
729716727.303025,-4.245031,4.720828,139.880337,-0.081268,-0.05777,0.930542,0.088545,0.125917,-0.094084,92.126495,39.920151,-146.715149,,,
729716727.304799,-4.245033,4.720827,101.267132,-0.081268,-0.05777,0.930542,0.088545,0.125917,-0.094084,92.126495,39.920151,-146.715149,,,
729716727.305107,-4.245031,4.72083,104.343983,-0.081268,-0.05777,0.930542,0.088545,0.125917,-0.094084,92.126495,39.920151,-146.715149,,,
729716727.305754,-4.245031,4.720828,139.880337,-0.081268,-0.05777,0.930542,0.088545,0.125917,-0.094084,92.126495,39.920151,-146.715149,,,
729716727.30926,-4.224884,4.746261,101.237714,-0.081268,-0.05777,0.930542,0.066599,0.061092,-0.106294,92.126495,39.920151,-146.715149,,,
729716727.310513,-4.224883,4.746264,104.314565,-0.081268,-0.05777,0.930542,0.066599,0.061092,-0.106294,92.126495,39.920151,-146.715149,,,
729716727.310636,-4.224882,4.746262,139.850918,-0.081268,-0.05777,0.930542,0.066599,0.061092,-0.106294,92.126495,39.920151,-146.715149,,,
729716727.311282,-4.224884,4.746261,101.237714,-0.081268,-0.05777,0.930542,0.066599,0.061092,-0.106294,92.126495,39.920151,-146.715149,,,
729716727.312193,-4.207928,4.76303,104.283677,-0.08287,-0.060806,0.926071,0.066599,0.061092,-0.106294,92.126495,39.920151,-146.715149,,,
729716727.312412,-4.207928,4.763028,139.82003,-0.08287,-0.060806,0.926071,0.066599,0.061092,-0.106294,92.126495,39.920151,-146.715149,,,
729716727.315372,-4.20793,4.763028,101.206826,-0.08287,-0.060806,0.926071,0.066599,0.061092,-0.106294,92.126495,39.920151,-146.715149,,,
729716727.315595,-4.207928,4.76303,104.283677,-0.08287,-0.060806,0.926071,0.066599,0.061092,-0.106294,92.126495,39.920151,-146.715149,,,
729716727.315752,-4.207928,4.763028,139.82003,-0.08287,-0.060806,0.926071,0.066599,0.061092,-0.106294,92.126495,39.920151,-146.715149,,,
729716727.319266,-4.193038,4.773484,101.175026,-0.08287,-0.060806,0.926071,0.062032,0.022535,-0.104719,92.126495,39.920151,-146.715149,,,
729716727.32049,-4.193036,4.773487,104.251877,-0.08287,-0.060806,0.926071,0.062032,0.022535,-0.104719,92.126495,39.920151,-146.715149,,,
729716727.320604,-4.193036,4.773484,139.788231,-0.08287,-0.060806,0.926071,0.062032,0.022535,-0.104719,92.126495,39.920151,-146.715149,,,
729716727.32128,-4.193038,4.773484,101.175026,-0.08287,-0.060806,0.926071,0.062032,0.022535,-0.104719,92.126495,39.920151,-146.715149,,,
729716727.322296,-4.178017,4.778981,104.220689,-0.083282,-0.063461,0.938675,0.062032,0.022535,-0.104719,92.126495,39.920151,-146.715149,,,
729716727.322423,-4.178017,4.778979,139.757043,-0.083282,-0.063461,0.938675,0.062032,0.022535,-0.104719,92.126495,39.920151,-146.715149,,,
729716727.325617,-4.178018,4.778979,101.143838,-0.083282,-0.063461,0.938675,0.062032,0.022535,-0.104719,92.126495,39.920151,-146.715149,,,
729716727.32584,-4.178017,4.778981,104.220689,-0.083282,-0.063461,0.938675,0.062032,0.022535,-0.104719,92.126495,39.920151,-146.715149,,,
729716727.325954,-4.178017,4.778979,139.757043,-0.083282,-0.063461,0.938675,0.062032,0.022535,-0.104719,92.126495,39.920151,-146.715149,,,
729716727.329603,-4.162131,4.77949,101.114486,-0.083282,-0.063461,0.938675,0.059848,-0.008264,-0.082615,92.126495,39.920151,-146.715149,,,
729716727.330919,-4.162129,4.779492,104.191337,-0.083282,-0.063461,0.938675,0.059848,-0.008264,-0.082615,92.126495,39.920151,-146.715149,,,
729716727.33103,-4.162129,4.77949,139.727693,-0.083282,-0.063461,0.938675,0.059848,-0.008264,-0.082615,92.126495,39.920151,-146.715149,,,
729716727.331322,-4.162131,4.77949,101.114486,-0.083282,-0.063461,0.938675,0.059848,-0.008264,-0.082615,92.126495,39.920151,-146.715149,,,
729716727.332332,-4.14747,4.775854,104.165407,-0.093262,-0.070236,0.948334,0.059848,-0.008264,-0.082615,92.126495,39.920151,-146.715149,,,
729716727.332452,-4.14747,4.775852,139.701759,-0.093262,-0.070236,0.948334,0.059848,-0.008264,-0.082615,92.126495,39.920151,-146.715149,,,
729716727.335734,-4.147471,4.775852,101.088556,-0.093262,-0.070236,0.948334,0.059848,-0.008264,-0.082615,92.060608,39.798874,-146.903351,,,
729716727.336203,-4.14747,4.775854,104.165407,-0.093262,-0.070236,0.948334,0.059848,-0.008264,-0.082615,92.060608,39.798874,-146.903351,,,
729716727.336311,-4.14747,4.775852,139.701759,-0.093262,-0.070236,0.948334,0.059848,-0.008264,-0.082615,92.060608,39.798874,-146.903351,,,
729716727.338791,-4.135925,4.769584,101.066478,-0.093262,-0.070236,0.948334,0.027347,-0.0155,-0.062845,92.060608,39.798874,-146.903351,,,
729716727.339654,-4.135924,4.769586,104.143329,-0.093262,-0.070236,0.948334,0.027347,-0.0155,-0.062845,92.060608,39.798874,-146.903351,,,
729716727.339772,-4.135924,4.769584,139.679684,-0.093262,-0.070236,0.948334,0.027347,-0.0155,-0.062845,92.060608,39.798874,-146.903351,,,
729716727.34147,-4.135925,4.769584,101.066478,-0.093262,-0.070236,0.948334,0.027347,-0.0155,-0.062845,92.060608,39.798874,-146.903351,,,
729716727.342282,-4.128678,4.762321,104.124923,-0.093918,-0.070343,0.9422,0.027347,-0.0155,-0.062845,92.060608,39.798874,-146.903351,,,
729716727.342415,-4.128677,4.762319,139.661277,-0.093918,-0.070343,0.9422,0.027347,-0.0155,-0.062845,92.060608,39.798874,-146.903351,,,
729716727.345629,-4.128679,4.762319,101.048072,-0.093918,-0.070343,0.9422,0.027347,-0.0155,-0.062845,92.060608,39.798874,-146.903351,,,
729716727.345851,-4.128678,4.762321,104.124923,-0.093918,-0.070343,0.9422,0.027347,-0.0155,-0.062845,92.060608,39.798874,-146.903351,,,
729716727.345964,-4.128677,4.762319,139.661277,-0.093918,-0.070343,0.9422,0.027347,-0.0155,-0.062845,92.060608,39.798874,-146.903351,,,
729716727.349492,-4.126899,4.7554,101.032739,-0.093918,-0.070343,0.9422,-0.021118,-0.003751,-0.049702,92.060608,39.798874,-146.903351,,,
729716727.350713,-4.126897,4.755403,104.10959,-0.093918,-0.070343,0.9422,-0.021118,-0.003751,-0.049702,92.060608,39.798874,-146.903351,,,
729716727.350824,-4.126897,4.7554,139.645943,-0.093918,-0.070343,0.9422,-0.021118,-0.003751,-0.049702,92.060608,39.798874,-146.903351,,,
729716727.351241,-4.126899,4.7554,101.032739,-0.093918,-0.070343,0.9422,-0.021118,-0.003751,-0.049702,92.060608,39.798874,-146.903351,,,
729716727.352234,-4.132025,4.751268,104.095676,-0.088089,-0.061996,0.946716,-0.021118,-0.003751,-0.049702,92.060608,39.798874,-146.903351,,,
729716727.352385,-4.132025,4.751266,139.632028,-0.088089,-0.061996,0.946716,-0.021118,-0.003751,-0.049702,92.060608,39.798874,-146.903351,,,
729716727.355569,-4.132027,4.751266,101.018825,-0.088089,-0.061996,0.946716,-0.021118,-0.003751,-0.049702,92.060608,39.798874,-146.903351,,,
729716727.355788,-4.132025,4.751268,104.095676,-0.088089,-0.061996,0.946716,-0.021118,-0.003751,-0.049702,92.060608,39.798874,-146.903351,,,
729716727.35591,-4.132025,4.751266,139.632028,-0.088089,-0.061996,0.946716,-0.021118,-0.003751,-0.049702,92.060608,39.798874,-146.903351,,,
729716727.359617,-4.144879,4.749845,101.00464,-0.088089,-0.061996,0.946716,-0.076244,0.020636,-0.060821,92.060608,39.798874,-146.903351,,,
729716727.361073,-4.144877,4.749847,104.081491,-0.088089,-0.061996,0.946716,-0.076244,0.020636,-0.060821,92.060608,39.798874,-146.903351,,,
729716727.361186,-4.144877,4.749845,139.617844,-0.088089,-0.061996,0.946716,-0.076244,0.020636,-0.060821,92.060608,39.798874,-146.903351,,,
729716727.361364,-4.144879,4.749845,101.00464,-0.088089,-0.061996,0.946716,-0.076244,0.020636,-0.060821,92.060608,39.798874,-146.903351,,,
729716727.36222,-4.166202,4.753399,104.065831,-0.077606,-0.051483,0.947006,-0.076244,0.020636,-0.060821,92.060608,39.798874,-146.903351,,,
729716727.362387,-4.166202,4.753397,139.602182,-0.077606,-0.051483,0.947006,-0.076244,0.020636,-0.060821,92.060608,39.798874,-146.903351,,,
729716727.365317,-4.166203,4.753397,100.98898,-0.077606,-0.051483,0.947006,-0.076244,0.020636,-0.060821,92.060608,39.798874,-146.903351,,,
729716727.365472,-4.166202,4.753399,104.065831,-0.077606,-0.051483,0.947006,-0.076244,0.020636,-0.060821,92.060608,39.798874,-146.903351,,,
729716727.365677,-4.166202,4.753397,139.602182,-0.077606,-0.051483,0.947006,-0.076244,0.020636,-0.060821,92.060608,39.798874,-146.903351,,,
729716727.368895,-4.194461,4.762007,100.97156,-0.077606,-0.051483,0.947006,-0.123271,0.068352,-0.082836,92.060608,39.798874,-146.903351,,,
729716727.369742,-4.194459,4.762009,104.048411,-0.077606,-0.051483,0.947006,-0.123271,0.068352,-0.082836,92.060608,39.798874,-146.903351,,,
729716727.369848,-4.194459,4.762007,139.584766,-0.077606,-0.051483,0.947006,-0.123271,0.068352,-0.082836,92.060608,39.798874,-146.903351,,,
729716727.371404,-4.194461,4.762007,100.97156,-0.077606,-0.051483,0.947006,-0.123271,0.068352,-0.082836,92.060608,39.798874,-146.903351,,,
729716727.372373,-4.229641,4.777118,104.028403,-0.073761,-0.045212,0.955765,-0.123271,0.068352,-0.082836,92.060608,39.798874,-146.903351,,,
729716727.372488,-4.229641,4.777116,139.564757,-0.073761,-0.045212,0.955765,-0.123271,0.068352,-0.082836,92.060608,39.798874,-146.903351,,,
729716727.375744,-4.229643,4.777116,100.951552,-0.073761,-0.045212,0.955765,-0.123271,0.068352,-0.082836,92.060608,39.798874,-146.903351,,,
729716727.376003,-4.229641,4.777118,104.028403,-0.073761,-0.045212,0.955765,-0.123271,0.068352,-0.082836,92.060608,39.798874,-146.903351,,,
729716727.376117,-4.229641,4.777116,139.564757,-0.073761,-0.045212,0.955765,-0.123271,0.068352,-0.082836,92.060608,39.798874,-146.903351,,,
729716727.379587,-4.270101,4.799324,100.927965,-0.073761,-0.045212,0.955765,-0.143104,0.113694,-0.108734,92.218277,39.987228,-146.819931,,,
729716727.380909,-4.270099,4.799326,104.004816,-0.073761,-0.045212,0.955765,-0.143104,0.113694,-0.108734,92.218277,39.987228,-146.819931,,,
729716727.381017,-4.270099,4.799324,139.541172,-0.073761,-0.045212,0.955765,-0.143104,0.113694,-0.108734,92.218277,39.987228,-146.819931,,,
729716727.381282,-4.270101,4.799324,100.927965,-0.073761,-0.045212,0.955765,-0.143104,0.113694,-0.108734,92.218277,39.987228,-146.819931,,,
729716727.382294,-4.313174,4.827762,103.977975,-0.072388,-0.047714,0.967148,-0.143104,0.113694,-0.108734,92.218277,39.987228,-146.819931,,,
729716727.38244,-4.313174,4.82776,139.51433,-0.072388,-0.047714,0.967148,-0.143104,0.113694,-0.108734,92.218277,39.987228,-146.819931,,,
729716727.385345,-4.313175,4.82776,100.901124,-0.072388,-0.047714,0.967148,-0.143104,0.113694,-0.108734,92.218277,39.987228,-146.819931,,,
729716727.385495,-4.313174,4.827762,103.977975,-0.072388,-0.047714,0.967148,-0.143104,0.113694,-0.108734,92.218277,39.987228,-146.819931,,,
729716727.385673,-4.313174,4.82776,139.51433,-0.072388,-0.047714,0.967148,-0.143104,0.113694,-0.108734,92.218277,39.987228,-146.819931,,,
729716727.388804,-4.354914,4.859703,100.872378,-0.072388,-0.047714,0.967148,-0.124483,0.116192,-0.110655,92.218277,39.987228,-146.819931,,,
729716727.389565,-4.354913,4.859706,103.949229,-0.072388,-0.047714,0.967148,-0.124483,0.116192,-0.110655,92.218277,39.987228,-146.819931,,,
729716727.389688,-4.354913,4.859703,139.485582,-0.072388,-0.047714,0.967148,-0.124483,0.116192,-0.110655,92.218277,39.987228,-146.819931,,,
729716727.391382,-4.354914,4.859703,100.872378,-0.072388,-0.047714,0.967148,-0.124483,0.116192,-0.110655,92.218277,39.987228,-146.819931,,,
729716727.392347,-4.394125,4.89055,103.920532,-0.089142,-0.064148,0.969421,-0.124483,0.116192,-0.110655,92.218277,39.987228,-146.819931,,,
729716727.392459,-4.394125,4.890548,139.456885,-0.089142,-0.064148,0.969421,-0.124483,0.116192,-0.110655,92.218277,39.987228,-146.819931,,,
729716727.395748,-4.394126,4.890548,100.843681,-0.089142,-0.064148,0.969421,-0.124483,0.116192,-0.110655,92.218277,39.987228,-146.819931,,,
729716727.395984,-4.394125,4.89055,103.920532,-0.089142,-0.064148,0.969421,-0.124483,0.116192,-0.110655,92.218277,39.987228,-146.819931,,,
729716727.396101,-4.394125,4.890548,139.456885,-0.089142,-0.064148,0.969421,-0.124483,0.116192,-0.110655,92.218277,39.987228,-146.819931,,,
729716727.399172,-4.429287,4.917338,100.816571,-0.089142,-0.064148,0.969421,-0.093778,0.082692,-0.093553,92.218277,39.987228,-146.819931,,,
729716727.400276,-4.429285,4.917341,103.893422,-0.089142,-0.064148,0.969421,-0.093778,0.082692,-0.093553,92.218277,39.987228,-146.819931,,,
729716727.400378,-4.429285,4.917339,139.429774,-0.089142,-0.064148,0.969421,-0.093778,0.082692,-0.093553,92.218277,39.987228,-146.819931,,,
729716727.401335,-4.429287,4.917338,100.816571,-0.089142,-0.064148,0.969421,-0.093778,0.082692,-0.093553,92.218277,39.987228,-146.819931,,,
729716727.402585,-4.460385,4.939645,103.868858,-0.106644,-0.081909,0.963135,-0.093778,0.082692,-0.093553,92.218277,39.987228,-146.819931,,,
729716727.40273,-4.460385,4.939642,139.40521,-0.106644,-0.081909,0.963135,-0.093778,0.082692,-0.093553,92.218277,39.987228,-146.819931,,,
729716727.406038,-4.460386,4.939642,100.792007,-0.106644,-0.081909,0.963135,-0.093778,0.082692,-0.093553,92.218277,39.987228,-146.819931,,,
729716727.406302,-4.460385,4.939645,103.868858,-0.106644,-0.081909,0.963135,-0.093778,0.082692,-0.093553,92.218277,39.987228,-146.819931,,,
729716727.406491,-4.460385,4.939642,139.40521,-0.106644,-0.081909,0.963135,-0.093778,0.082692,-0.093553,92.218277,39.987228,-146.819931,,,
729716727.409257,-4.487503,4.957953,100.770726,-0.106644,-0.081909,0.963135,-0.077981,0.056171,-0.068348,92.218277,39.987228,-146.819931,,,
729716727.410446,-4.487501,4.957955,103.847577,-0.106644,-0.081909,0.963135,-0.077981,0.056171,-0.068348,92.218277,39.987228,-146.819931,,,
729716727.410552,-4.487501,4.957953,139.383929,-0.106644,-0.081909,0.963135,-0.077981,0.056171,-0.068348,92.218277,39.987228,-146.819931,,,
729716727.411312,-4.487503,4.957953,100.770726,-0.106644,-0.081909,0.963135,-0.077981,0.056171,-0.068348,92.218277,39.987228,-146.819931,,,
729716727.412273,-4.51164,4.972517,103.829698,-0.111816,-0.084763,0.971481,-0.077981,0.056171,-0.068348,92.218277,39.987228,-146.819931,,,
729716727.412403,-4.51164,4.972514,139.366051,-0.111816,-0.084763,0.971481,-0.077981,0.056171,-0.068348,92.218277,39.987228,-146.819931,,,
729716727.415328,-4.511641,4.972514,100.752848,-0.111816,-0.084763,0.971481,-0.077981,0.056171,-0.068348,92.218277,39.987228,-146.819931,,,
729716727.415484,-4.51164,4.972517,103.829698,-0.111816,-0.084763,0.971481,-0.077981,0.056171,-0.068348,92.218277,39.987228,-146.819931,,,
729716727.415672,-4.51164,4.972514,139.366051,-0.111816,-0.084763,0.971481,-0.077981,0.056171,-0.068348,92.218277,39.987228,-146.819931,,,
729716727.419515,-4.535051,4.983612,100.738737,-0.111816,-0.084763,0.971481,-0.083704,0.020386,-0.034211,92.167191,40.530655,-146.754211,,,
729716727.420763,-4.535049,4.983614,103.815588,-0.111816,-0.084763,0.971481,-0.083704,0.020386,-0.034211,92.167191,40.530655,-146.754211,,,
729716727.420872,-4.535049,4.983612,139.351941,-0.111816,-0.084763,0.971481,-0.083704,0.020386,-0.034211,92.167191,40.530655,-146.754211,,,
729716727.421231,-4.535051,4.983612,100.738737,-0.111816,-0.084763,0.971481,-0.083704,0.020386,-0.034211,92.167191,40.530655,-146.754211,,,
729716727.422186,-4.559874,4.989501,103.806412,-0.111404,-0.083649,0.965103,-0.083704,0.020386,-0.034211,92.167191,40.530655,-146.754211,,,
729716727.422393,-4.559874,4.989499,139.342765,-0.111404,-0.083649,0.965103,-0.083704,0.020386,-0.034211,92.167191,40.530655,-146.754211,,,
729716727.425246,-4.559876,4.989499,100.729562,-0.111404,-0.083649,0.965103,-0.083704,0.020386,-0.034211,92.167191,40.530655,-146.754211,,,
729716727.425394,-4.559874,4.989501,103.806412,-0.111404,-0.083649,0.965103,-0.083704,0.020386,-0.034211,92.167191,40.530655,-146.754211,,,
729716727.425683,-4.559874,4.989499,139.342765,-0.111404,-0.083649,0.965103,-0.083704,0.020386,-0.034211,92.167191,40.530655,-146.754211,,,
729716727.4289,-4.586893,4.991126,100.725768,-0.111404,-0.083649,0.965103,-0.111904,0.00292,-0.005176,92.167191,40.530655,-146.754211,,,
729716727.429943,-4.586892,4.991128,103.802619,-0.111404,-0.083649,0.965103,-0.111904,0.00292,-0.005176,92.167191,40.530655,-146.754211,,,
729716727.430049,-4.586892,4.991126,139.338972,-0.111404,-0.083649,0.965103,-0.111904,0.00292,-0.005176,92.167191,40.530655,-146.754211,,,
729716727.431335,-4.586893,4.991126,100.725768,-0.111404,-0.083649,0.965103,-0.111904,0.00292,-0.005176,92.167191,40.530655,-146.754211,,,
729716727.432054,-4.618518,4.991224,103.803107,-0.111221,-0.08223,0.958542,-0.111904,0.00292,-0.005176,92.167191,40.530655,-146.754211,,,
729716727.432391,-4.618518,4.991222,139.339462,-0.111221,-0.08223,0.958542,-0.111904,0.00292,-0.005176,92.167191,40.530655,-146.754211,,,
729716727.435111,-4.618519,4.991222,100.726256,-0.111221,-0.08223,0.958542,-0.111904,0.00292,-0.005176,92.167191,40.530655,-146.754211,,,
729716727.435257,-4.618518,4.991224,103.803107,-0.111221,-0.08223,0.958542,-0.111904,0.00292,-0.005176,92.167191,40.530655,-146.754211,,,
729716727.4357,-4.618518,4.991222,139.339462,-0.111221,-0.08223,0.958542,-0.111904,0.00292,-0.005176,92.167191,40.530655,-146.754211,,,
729716727.438897,-4.655716,4.993766,100.728743,-0.111221,-0.08223,0.958542,-0.164715,0.033233,-0.003907,92.167191,40.530655,-146.754211,,,
729716727.439928,-4.655714,4.993769,103.805594,-0.111221,-0.08223,0.958542,-0.164715,0.033233,-0.003907,92.167191,40.530655,-146.754211,,,
729716727.440069,-4.655714,4.993767,139.341948,-0.111221,-0.08223,0.958542,-0.164715,0.033233,-0.003907,92.167191,40.530655,-146.754211,,,
729716727.441389,-4.655716,4.993766,100.728743,-0.111221,-0.08223,0.958542,-0.164715,0.033233,-0.003907,92.167191,40.530655,-146.754211,,,
729716727.442879,-4.700944,5.001115,103.808943,-0.094437,-0.074829,0.968994,-0.164715,0.033233,-0.003907,92.167191,40.530655,-146.754211,,,
729716727.443083,-4.700944,5.001113,139.345297,-0.094437,-0.074829,0.968994,-0.164715,0.033233,-0.003907,92.167191,40.530655,-146.754211,,,
729716727.44569,-4.700945,5.001113,100.732093,-0.094437,-0.074829,0.968994,-0.164715,0.033233,-0.003907,92.167191,40.530655,-146.754211,,,
729716727.445918,-4.700944,5.001115,103.808943,-0.094437,-0.074829,0.968994,-0.164715,0.033233,-0.003907,92.167191,40.530655,-146.754211,,,
729716727.446031,-4.700944,5.001113,139.345297,-0.094437,-0.074829,0.968994,-0.164715,0.033233,-0.003907,92.167191,40.530655,-146.754211,,,
729716727.449194,-4.754419,5.013339,100.7355,-0.094437,-0.074829,0.968994,-0.228642,0.065981,-0.014343,92.167191,40.530655,-146.754211,,,
729716727.450316,-4.754418,5.013341,103.812351,-0.094437,-0.074829,0.968994,-0.228642,0.065981,-0.014343,92.167191,40.530655,-146.754211,,,
729716727.450462,-4.754417,5.013339,139.348704,-0.094437,-0.074829,0.968994,-0.228642,0.065981,-0.014343,92.167191,40.530655,-146.754211,,,
729716727.451335,-4.754419,5.013339,100.7355,-0.094437,-0.074829,0.968994,-0.228642,0.065981,-0.014343,92.167191,40.530655,-146.754211,,,
729716727.452501,-4.817802,5.030644,103.814821,-0.082489,-0.067398,0.969406,-0.228642,0.065981,-0.014343,92.167191,40.530655,-146.754211,,,
729716727.452664,-4.817802,5.030642,139.351174,-0.082489,-0.067398,0.969406,-0.228642,0.065981,-0.014343,92.167191,40.530655,-146.754211,,,
729716727.455463,-4.817803,5.030641,100.73797,-0.082489,-0.067398,0.969406,-0.228642,0.065981,-0.014343,92.167191,40.530655,-146.754211,,,
729716727.455694,-4.817802,5.030644,103.814821,-0.082489,-0.067398,0.969406,-0.228642,0.065981,-0.014343,92.167191,40.530655,-146.754211,,,
729716727.455826,-4.817802,5.030642,139.351174,-0.082489,-0.067398,0.969406,-0.228642,0.065981,-0.014343,92.167191,40.530655,-146.754211,,,
729716727.459518,-4.890295,5.052118,100.739024,-0.082489,-0.067398,0.969406,-0.299849,0.089429,-0.034785,92.673447,40.809357,-146.529144,,,
729716727.461197,-4.890293,5.052121,103.815875,-0.082489,-0.067398,0.969406,-0.299849,0.089429,-0.034785,92.673447,40.809357,-146.529144,,,
729716727.461356,-4.890293,5.052118,139.352228,-0.082489,-0.067398,0.969406,-0.299849,0.089429,-0.034785,92.673447,40.809357,-146.529144,,,
729716727.461573,-4.890295,5.052118,100.739024,-0.082489,-0.067398,0.969406,-0.299849,0.089429,-0.034785,92.673447,40.809357,-146.529144,,,
729716727.462227,-4.974317,5.076779,103.815393,-0.082916,-0.066254,0.965363,-0.299849,0.089429,-0.034785,92.673447,40.809357,-146.529144,,,
729716727.462463,-4.974317,5.076776,139.351746,-0.082916,-0.066254,0.965363,-0.299849,0.089429,-0.034785,92.673447,40.809357,-146.529144,,,
729716727.465319,-4.974318,5.076776,100.738542,-0.082916,-0.066254,0.965363,-0.299849,0.089429,-0.034785,92.673447,40.809357,-146.529144,,,
729716727.465534,-4.974317,5.076779,103.815393,-0.082916,-0.066254,0.965363,-0.299849,0.089429,-0.034785,92.673447,40.809357,-146.529144,,,
729716727.465701,-4.974317,5.076776,139.351746,-0.082916,-0.066254,0.965363,-0.299849,0.089429,-0.034785,92.673447,40.809357,-146.529144,,,
729716727.46911,-5.067655,5.10227,100.736533,-0.082916,-0.066254,0.965363,-0.357876,0.098103,-0.045151,92.673447,40.809357,-146.529144,,,
729716727.470351,-5.067654,5.102272,103.813384,-0.082916,-0.066254,0.965363,-0.357876,0.098103,-0.045151,92.673447,40.809357,-146.529144,,,
729716727.470509,-5.067653,5.10227,139.349737,-0.082916,-0.066254,0.965363,-0.357876,0.098103,-0.045151,92.673447,40.809357,-146.529144,,,
729716727.471317,-5.067655,5.10227,100.736533,-0.082916,-0.066254,0.965363,-0.357876,0.098103,-0.045151,92.673447,40.809357,-146.529144,,,
729716727.472485,-5.169482,5.128673,103.81015,-0.082733,-0.068832,0.957275,-0.357876,0.098103,-0.045151,92.673447,40.809357,-146.529144,,,
729716727.472648,-5.169482,5.12867,139.346503,-0.082733,-0.068832,0.957275,-0.357876,0.098103,-0.045151,92.673447,40.809357,-146.529144,,,
729716727.475599,-5.169484,5.12867,100.733299,-0.082733,-0.068832,0.957275,-0.357876,0.098103,-0.045151,92.673447,40.809357,-146.529144,,,
729716727.475826,-5.169482,5.128673,103.81015,-0.082733,-0.068832,0.957275,-0.357876,0.098103,-0.045151,92.673447,40.809357,-146.529144,,,
729716727.475947,-5.169482,5.12867,139.346503,-0.082733,-0.068832,0.957275,-0.357876,0.098103,-0.045151,92.673447,40.809357,-146.529144,,,
729716727.479252,-5.275602,5.156502,100.728823,-0.082733,-0.068832,0.957275,-0.366957,0.099823,-0.057627,92.673447,40.809357,-146.529144,,,
729716727.480555,-5.275601,5.156504,103.805674,-0.082733,-0.068832,0.957275,-0.366957,0.099823,-0.057627,92.673447,40.809357,-146.529144,,,
729716727.480745,-5.275601,5.156502,139.342029,-0.082733,-0.068832,0.957275,-0.366957,0.099823,-0.057627,92.673447,40.809357,-146.529144,,,
729716727.481381,-5.275602,5.156502,100.728823,-0.082733,-0.068832,0.957275,-0.366957,0.099823,-0.057627,92.673447,40.809357,-146.529144,,,
729716727.482786,-5.382373,5.183638,103.800002,-0.080887,-0.08168,0.966736,-0.366957,0.099823,-0.057627,92.673447,40.809357,-146.529144,,,
729716727.482963,-5.382373,5.183636,139.336358,-0.080887,-0.08168,0.966736,-0.366957,0.099823,-0.057627,92.673447,40.809357,-146.529144,,,
729716727.485708,-5.382375,5.183636,100.723151,-0.080887,-0.08168,0.966736,-0.366957,0.099823,-0.057627,92.673447,40.809357,-146.529144,,,
729716727.485932,-5.382373,5.183638,103.800002,-0.080887,-0.08168,0.966736,-0.366957,0.099823,-0.057627,92.673447,40.809357,-146.529144,,,
729716727.48605,-5.382373,5.183636,139.336358,-0.080887,-0.08168,0.966736,-0.366957,0.099823,-0.057627,92.673447,40.809357,-146.529144,,,
729716727.489041,-5.484575,5.208096,100.717116,-0.080887,-0.08168,0.966736,-0.312254,0.062875,-0.052471,92.673447,40.809357,-146.529144,,,
729716727.490281,-5.484573,5.208098,103.793967,-0.080887,-0.08168,0.966736,-0.312254,0.062875,-0.052471,92.673447,40.809357,-146.529144,,,
729716727.490452,-5.484573,5.208096,139.330324,-0.080887,-0.08168,0.966736,-0.312254,0.062875,-0.052471,92.673447,40.809357,-146.529144,,,
729716727.491329,-5.484575,5.208096,100.717116,-0.080887,-0.08168,0.966736,-0.312254,0.062875,-0.052471,92.673447,40.809357,-146.529144,,,
729716727.492718,-5.578247,5.225848,103.787417,-0.091461,-0.104294,0.986679,-0.312254,0.062875,-0.052471,92.673447,40.809357,-146.529144,,,
729716727.492887,-5.578247,5.225846,139.323773,-0.091461,-0.104294,0.986679,-0.312254,0.062875,-0.052471,92.673447,40.809357,-146.529144,,,
729716727.496216,-5.578249,5.225845,100.710566,-0.091461,-0.104294,0.986679,-0.312254,0.062875,-0.052471,92.673447,40.809357,-146.529144,,,
729716727.496522,-5.578247,5.225848,103.787417,-0.091461,-0.104294,0.986679,-0.312254,0.062875,-0.052471,92.673447,40.809357,-146.529144,,,
729716727.496707,-5.578247,5.225846,139.323773,-0.091461,-0.104294,0.986679,-0.312254,0.062875,-0.052471,92.673447,40.809357,-146.529144,,,
729716727.500128,-5.660609,5.237781,100.704245,-0.091461,-0.104294,0.986679,-0.241695,0.017261,-0.041161,92.576614,41.731766,-145.943298,,,
729716727.501936,-5.660607,5.237783,103.781096,-0.091461,-0.104294,0.986679,-0.241695,0.017261,-0.041161,92.576614,41.731766,-145.943298,,,
729716727.502096,-5.733552,5.242893,139.312197,-0.102615,-0.112137,0.99469,-0.241695,0.017261,-0.041161,92.576614,41.731766,-145.943298,,,
729716727.502827,-5.733553,5.242893,100.698991,-0.102615,-0.112137,0.99469,-0.241695,0.017261,-0.041161,92.576614,41.731766,-145.943298,,,
729716727.502982,-5.733552,5.242893,139.312197,-0.102615,-0.112137,0.99469,-0.241695,0.017261,-0.041161,92.576614,41.731766,-145.943298,,,
729716727.504797,-5.733553,5.242893,100.698991,-0.102615,-0.112137,0.99469,-0.241695,0.017261,-0.041161,92.576614,41.731766,-145.943298,,,
729716727.505648,-5.733552,5.242895,103.775842,-0.102615,-0.112137,0.99469,-0.241695,0.017261,-0.041161,92.576614,41.731766,-145.943298,,,
729716727.505812,-5.733552,5.242893,139.312197,-0.102615,-0.112137,0.99469,-0.241695,0.017261,-0.041161,92.576614,41.731766,-145.943298,,,
729716727.509954,-5.797457,5.245944,100.695313,-0.102615,-0.112137,0.99469,-0.191149,-0.001109,-0.027952,92.576614,41.731766,-145.943298,,,
729716727.511929,-5.797455,5.245947,103.772164,-0.102615,-0.112137,0.99469,-0.191149,-0.001109,-0.027952,92.576614,41.731766,-145.943298,,,
729716727.512105,-5.854755,5.244845,139.306008,-0.101562,-0.112518,0.998749,-0.191149,-0.001109,-0.027952,92.576614,41.731766,-145.943298,,,
729716727.513072,-5.854756,5.244845,100.692802,-0.101562,-0.112518,0.998749,-0.191149,-0.001109,-0.027952,92.576614,41.731766,-145.943298,,,
729716727.513234,-5.854755,5.244845,139.306008,-0.101562,-0.112518,0.998749,-0.191149,-0.001109,-0.027952,92.576614,41.731766,-145.943298,,,
729716727.514757,-5.854756,5.244845,100.692802,-0.101562,-0.112518,0.998749,-0.191149,-0.001109,-0.027952,92.576614,41.731766,-145.943298,,,
729716727.515791,-5.854755,5.244847,103.769653,-0.101562,-0.112518,0.998749,-0.191149,-0.001109,-0.027952,92.576614,41.731766,-145.943298,,,
729716727.515951,-5.854755,5.244845,139.306008,-0.101562,-0.112518,0.998749,-0.191149,-0.001109,-0.027952,92.576614,41.731766,-145.943298,,,
729716727.518875,-5.905245,5.24045,100.691465,-0.101562,-0.112518,0.998749,-0.157758,-0.032003,-0.012444,92.576614,41.731766,-145.943298,,,
729716727.519777,-5.905244,5.240453,103.768316,-0.101562,-0.112518,0.998749,-0.157758,-0.032003,-0.012444,92.576614,41.731766,-145.943298,,,
729716727.519921,-5.905244,5.240451,139.304668,-0.101562,-0.112518,0.998749,-0.157758,-0.032003,-0.012444,92.576614,41.731766,-145.943298,,,
729716727.521372,-5.905245,5.24045,100.691465,-0.101562,-0.112518,0.998749,-0.157758,-0.032003,-0.012444,92.576614,41.731766,-145.943298,,,
729716727.521757,-5.905244,5.240453,103.768316,-0.101562,-0.112518,0.998749,-0.157758,-0.032003,-0.012444,92.576614,41.731766,-145.943298,,,
729716727.522387,-5.952688,5.231474,139.304765,-0.097626,-0.115326,0.992218,-0.157758,-0.032003,-0.012444,92.576614,41.731766,-145.943298,,,
729716727.525619,-5.952689,5.231474,100.691563,-0.097626,-0.115326,0.992218,-0.157758,-0.032003,-0.012444,92.576614,41.731766,-145.943298,,,
729716727.526594,-5.952688,5.231476,103.768414,-0.097626,-0.115326,0.992218,-0.157758,-0.032003,-0.012444,92.576614,41.731766,-145.943298,,,
729716727.526761,-5.952688,5.231474,139.304765,-0.097626,-0.115326,0.992218,-0.157758,-0.032003,-0.012444,92.576614,41.731766,-145.943298,,,
729716727.528958,-5.994898,5.219192,100.693145,-0.097626,-0.115326,0.992218,-0.15394,-0.039829,-0.004632,92.576614,41.731766,-145.943298,,,
729716727.530065,-5.994897,5.219195,103.769996,-0.097626,-0.115326,0.992218,-0.15394,-0.039829,-0.004632,92.576614,41.731766,-145.943298,,,
729716727.530177,-5.994897,5.219193,139.30635,-0.097626,-0.115326,0.992218,-0.15394,-0.039829,-0.004632,92.576614,41.731766,-145.943298,,,
729716727.531318,-5.994898,5.219192,100.693145,-0.097626,-0.115326,0.992218,-0.15394,-0.039829,-0.004632,92.576614,41.731766,-145.943298,,,
729716727.531769,-5.994897,5.219195,103.769996,-0.097626,-0.115326,0.992218,-0.15394,-0.039829,-0.004632,92.576614,41.731766,-145.943298,,,
729716727.532388,-6.039079,5.206993,139.308809,-0.089523,-0.11319,0.990982,-0.15394,-0.039829,-0.004632,92.576614,41.731766,-145.943298,,,
729716727.53578,-6.039081,5.206993,100.695603,-0.089523,-0.11319,0.990982,-0.15394,-0.039829,-0.004632,92.576614,41.731766,-145.943298,,,
729716727.536773,-6.039079,5.206996,103.772454,-0.089523,-0.11319,0.990982,-0.15394,-0.039829,-0.004632,92.576614,41.731766,-145.943298,,,
729716727.536915,-6.039079,5.206993,139.308809,-0.089523,-0.11319,0.990982,-0.179947,-0.000987,-0.011016,92.576614,41.731766,-145.943298,,,
729716727.538937,-6.08241,5.197344,100.698323,-0.089523,-0.11319,0.990982,-0.179947,-0.000987,-0.011016,92.576614,41.731766,-145.943298,,,
729716727.540443,-6.082408,5.197346,103.775174,-0.089523,-0.11319,0.990982,-0.179947,-0.000987,-0.011016,92.530228,41.840591,-146.215012,,,
729716727.540558,-6.082409,5.197344,139.311527,-0.089523,-0.11319,0.990982,-0.179947,-0.000987,-0.011016,92.530228,41.840591,-146.215012,,,
729716727.541585,-6.08241,5.197344,100.698323,-0.089523,-0.11319,0.990982,-0.179947,-0.000987,-0.011016,92.530228,41.840591,-146.215012,,,
729716727.542446,-6.133093,5.194462,103.777424,-0.078857,-0.101608,0.99614,-0.179947,-0.000987,-0.011016,92.530228,41.840591,-146.215012,,,
729716727.542566,-6.133093,5.19446,139.313777,-0.078857,-0.101608,0.99614,-0.179947,-0.000987,-0.011016,92.530228,41.840591,-146.215012,,,
729716727.545758,-6.133094,5.19446,100.700573,-0.078857,-0.101608,0.99614,-0.179947,-0.000987,-0.011016,92.530228,41.840591,-146.215012,,,
729716727.545986,-6.133093,5.194462,103.777424,-0.078857,-0.101608,0.99614,-0.179947,-0.000987,-0.011016,92.530228,41.840591,-146.215012,,,
729716727.546112,-6.133093,5.19446,139.313777,-0.078857,-0.101608,0.99614,-0.179947,-0.000987,-0.011016,92.530228,41.840591,-146.215012,,,
729716727.549725,-6.185679,5.200532,100.700693,-0.078857,-0.101608,0.99614,-0.219218,0.078159,-0.033418,92.530228,41.840591,-146.215012,,,
729716727.551541,-6.185677,5.200534,103.777544,-0.078857,-0.101608,0.99614,-0.219218,0.078159,-0.033418,92.530228,41.840591,-146.215012,,,
729716727.551745,-6.185677,5.200532,139.313898,-0.078857,-0.101608,0.99614,-0.219218,0.078159,-0.033418,92.530228,41.840591,-146.215012,,,
729716727.552484,-6.247675,5.218616,100.69781,-0.067581,-0.09375,1.00145,-0.219218,0.078159,-0.033418,92.530228,41.840591,-146.215012,,,
729716727.5526,-6.247673,5.218616,139.311016,-0.067581,-0.09375,1.00145,-0.219218,0.078159,-0.033418,92.530228,41.840591,-146.215012,,,
729716727.554819,-6.247675,5.218616,100.69781,-0.067581,-0.09375,1.00145,-0.219218,0.078159,-0.033418,92.530228,41.840591,-146.215012,,,
729716727.555774,-6.247673,5.218618,103.774661,-0.067581,-0.09375,1.00145,-0.219218,0.078159,-0.033418,92.530228,41.840591,-146.215012,,,
729716727.555888,-6.247673,5.218616,139.311016,-0.067581,-0.09375,1.00145,-0.219218,0.078159,-0.033418,92.530228,41.840591,-146.215012,,,
729716727.559253,-6.311937,5.247345,100.691548,-0.067581,-0.09375,1.00145,-0.250862,0.156137,-0.057593,92.530228,41.840591,-146.215012,,,
729716727.56039,-6.311936,5.247348,103.768399,-0.067581,-0.09375,1.00145,-0.250862,0.156137,-0.057593,92.530228,41.840591,-146.215012,,,
729716727.560542,-6.311936,5.247345,139.304756,-0.067581,-0.09375,1.00145,-0.250862,0.156137,-0.057593,92.530228,41.840591,-146.215012,,,
729716727.56132,-6.311937,5.247345,100.691548,-0.067581,-0.09375,1.00145,-0.250862,0.156137,-0.057593,92.530228,41.840591,-146.215012,,,
729716727.561813,-6.311936,5.247348,103.768399,-0.067581,-0.09375,1.00145,-0.250862,0.156137,-0.057593,92.530228,41.840591,-146.215012,,,
729716727.562502,-6.383819,5.287266,139.295995,-0.057465,-0.095749,0.999908,-0.250862,0.156137,-0.057593,92.530228,41.840591,-146.215012,,,
729716727.565868,-6.38382,5.287266,100.682793,-0.057465,-0.095749,0.999908,-0.250862,0.156137,-0.057593,92.530228,41.840591,-146.215012,,,
729716727.567323,-6.383818,5.287269,103.759643,-0.057465,-0.095749,0.999908,-0.217067,0.218804,-0.055733,92.530228,41.840591,-146.215012,,,
729716727.567485,-6.454142,5.336597,139.286771,-0.057465,-0.095749,0.999908,-0.217067,0.218804,-0.055733,92.530228,41.840591,-146.215012,,,
729716727.56911,-6.454144,5.336597,100.673569,-0.057465,-0.095749,0.999908,-0.217067,0.218804,-0.055733,92.530228,41.840591,-146.215012,,,
729716727.569974,-6.454142,5.336599,103.75042,-0.057465,-0.095749,0.999908,-0.217067,0.218804,-0.055733,92.530228,41.840591,-146.215012,,,
729716727.570118,-6.454142,5.336597,139.286771,-0.057465,-0.095749,0.999908,-0.217067,0.218804,-0.055733,92.530228,41.840591,-146.215012,,,
729716727.571516,-6.454144,5.336597,100.673569,-0.057465,-0.095749,0.999908,-0.217067,0.218804,-0.055733,92.530228,41.840591,-146.215012,,,
729716727.571766,-6.454142,5.336599,103.75042,-0.057465,-0.095749,0.999908,-0.217067,0.218804,-0.055733,92.530228,41.840591,-146.215012,,,
729716727.572428,-6.520054,5.394903,139.277825,-0.072098,-0.11586,1.003647,-0.217067,0.218804,-0.055733,92.530228,41.840591,-146.215012,,,
729716727.576001,-6.520056,5.394903,100.664623,-0.072098,-0.11586,1.003647,-0.217067,0.218804,-0.055733,92.530228,41.840591,-146.215012,,,
729716727.577606,-6.520054,5.394905,103.741474,-0.072098,-0.11586,1.003647,-0.163226,0.236028,-0.049764,92.530228,41.840591,-146.215012,,,
729716727.577722,-6.577757,5.45997,139.268338,-0.072098,-0.11586,1.003647,-0.163226,0.236028,-0.049764,92.530228,41.840591,-146.215012,,,
729716727.578469,-6.577759,5.45997,100.655136,-0.072098,-0.11586,1.003647,-0.163226,0.236028,-0.049764,92.530228,41.840591,-146.215012,,,
729716727.57903,-6.577757,5.459972,103.731987,-0.072098,-0.11586,1.003647,-0.163226,0.236028,-0.049764,92.530228,41.840591,-146.215012,,,
729716727.579139,-6.577757,5.45997,139.268338,-0.072098,-0.11586,1.003647,-0.163226,0.236028,-0.049764,92.530228,41.840591,-146.215012,,,
729716727.582015,-6.577759,5.45997,100.655136,-0.072098,-0.11586,1.003647,-0.163226,0.236028,-0.049764,92.690704,42.475113,-145.463181,,,
729716727.583587,-6.628274,5.5252,103.722091,-0.079422,-0.131561,1.017761,-0.163226,0.236028,-0.049764,92.690704,42.475113,-145.463181,,,
729716727.583716,-6.628274,5.525198,139.258444,-0.079422,-0.131561,1.017761,-0.163226,0.236028,-0.049764,92.690704,42.475113,-145.463181,,,
729716727.585376,-6.628276,5.525198,100.64524,-0.079422,-0.131561,1.017761,-0.163226,0.236028,-0.049764,92.690704,42.475113,-145.463181,,,
729716727.585531,-6.628274,5.5252,103.722091,-0.079422,-0.131561,1.017761,-0.163226,0.236028,-0.049764,92.690704,42.475113,-145.463181,,,
729716727.585658,-6.628274,5.525198,139.258444,-0.079422,-0.131561,1.017761,-0.163226,0.236028,-0.049764,92.690704,42.475113,-145.463181,,,
729716727.588879,-6.670554,5.588451,100.636289,-0.079422,-0.131561,1.017761,-0.110279,0.199189,-0.032501,92.690704,42.475113,-145.463181,,,
729716727.589734,-6.670552,5.588453,103.71314,-0.079422,-0.131561,1.017761,-0.110279,0.199189,-0.032501,92.690704,42.475113,-145.463181,,,
729716727.589839,-6.670552,5.588451,139.249492,-0.079422,-0.131561,1.017761,-0.110279,0.199189,-0.032501,92.690704,42.475113,-145.463181,,,
729716727.591464,-6.670554,5.588451,100.636289,-0.079422,-0.131561,1.017761,-0.110279,0.199189,-0.032501,92.690704,42.475113,-145.463181,,,
729716727.591785,-6.670552,5.588453,103.71314,-0.079422,-0.131561,1.017761,-0.110279,0.199189,-0.032501,92.690704,42.475113,-145.463181,,,
729716727.592421,-6.705776,5.645533,139.24249,-0.091248,-0.140671,0.993408,-0.110279,0.199189,-0.032501,92.690704,42.475113,-145.463181,,,
729716727.595928,-6.705778,5.645533,100.629287,-0.091248,-0.140671,0.993408,-0.110279,0.199189,-0.032501,92.690704,42.475113,-145.463181,,,
729716727.596965,-6.705776,5.645535,103.706138,-0.091248,-0.140671,0.993408,-0.110279,0.199189,-0.032501,92.690704,42.475113,-145.463181,,,
729716727.597065,-6.733098,5.695717,139.238261,-0.091248,-0.140671,0.993408,-0.067296,0.143133,-0.009993,92.690704,42.475113,-145.463181,,,
729716727.598712,-6.7331,5.695717,100.625058,-0.091248,-0.140671,0.993408,-0.067296,0.143133,-0.009993,92.690704,42.475113,-145.463181,,,
729716727.599636,-6.733098,5.695719,103.701909,-0.091248,-0.140671,0.993408,-0.067296,0.143133,-0.009993,92.690704,42.475113,-145.463181,,,
729716727.599759,-6.733098,5.695717,139.238261,-0.091248,-0.140671,0.993408,-0.067296,0.143133,-0.009993,92.690704,42.475113,-145.463181,,,
729716727.601452,-6.7331,5.695717,100.625058,-0.091248,-0.140671,0.993408,-0.067296,0.143133,-0.009993,92.690704,42.475113,-145.463181,,,
729716727.601774,-6.733098,5.695719,103.701909,-0.091248,-0.140671,0.993408,-0.067296,0.143133,-0.009993,92.690704,42.475113,-145.463181,,,
729716727.602424,-6.754401,5.737794,139.236696,-0.113571,-0.143585,0.985779,-0.067296,0.143133,-0.009993,92.690704,42.475113,-145.463181,,,
729716727.605673,-6.754403,5.737794,100.623493,-0.113571,-0.143585,0.985779,-0.067296,0.143133,-0.009993,92.690704,42.475113,-145.463181,,,
729716727.606529,-6.754401,5.737797,103.700343,-0.113571,-0.143585,0.985779,-0.067296,0.143133,-0.009993,92.690704,42.475113,-145.463181,,,
729716727.606666,-6.754401,5.737794,139.236696,-0.113571,-0.143585,0.985779,-0.067296,0.143133,-0.009993,92.690704,42.475113,-145.463181,,,
729716727.609853,-6.771365,5.769886,100.623772,-0.113571,-0.143585,0.985779,-0.046239,0.069809,0.00312,92.690704,42.475113,-145.463181,,,
729716727.611332,-6.771363,5.769888,103.700623,-0.113571,-0.143585,0.985779,-0.046239,0.069809,0.00312,92.690704,42.475113,-145.463181,,,
729716727.611454,-6.771363,5.769886,139.236974,-0.113571,-0.143585,0.985779,-0.046239,0.069809,0.00312,92.690704,42.475113,-145.463181,,,
729716727.611596,-6.771365,5.769886,100.623772,-0.113571,-0.143585,0.985779,-0.046239,0.069809,0.00312,92.690704,42.475113,-145.463181,,,
729716727.61176,-6.771363,5.769888,103.700623,-0.113571,-0.143585,0.985779,-0.046239,0.069809,0.00312,92.690704,42.475113,-145.463181,,,
729716727.612391,-6.785275,5.792509,139.239109,-0.115479,-0.138916,0.982391,-0.046239,0.069809,0.00312,92.690704,42.475113,-145.463181,,,
729716727.61565,-6.785277,5.792509,100.625907,-0.115479,-0.138916,0.982391,-0.046239,0.069809,0.00312,92.690704,42.475113,-145.463181,,,
729716727.616624,-6.785275,5.792511,103.702758,-0.115479,-0.138916,0.982391,-0.046239,0.069809,0.00312,92.690704,42.475113,-145.463181,,,
729716727.616766,-6.785275,5.792509,139.239109,-0.115479,-0.138916,0.982391,-0.046239,0.069809,0.00312,92.690704,42.475113,-145.463181,,,
729716727.618827,-6.79598,5.801478,100.628955,-0.115479,-0.138916,0.982391,-0.045615,0.005281,0.007376,92.690704,42.475113,-145.463181,,,
