Time (sec),Pitch (deg),Roll (deg),Yaw(deg),X-Acceleration (g),Y-Acceleration (g),Z-Acceleration (g),Pitch Rate (deg/sec),Roll Rate (deg/sec),Yaw Rate (deg/sec),Magnetic Field in X direction (uT),Magnetic Field in Y direction (uT),Magnetic Field in Z Direction (uT),Latitude (deg),Longitude (deg),Altitude (m)
729706512.498319,-1.247652,-0.929108,165.845038,0.010696,-0.022614,0.999405,-0.032412,0.023432,-0.017996,86.488129,13.156143,-147.222153,,,
729706512.501734,-1.247652,-0.929108,165.845038,0.010696,-0.022614,0.999405,-0.032412,0.023432,-0.017996,86.488129,13.156143,-147.222153,,,
729706512.505007,-1.256926,-0.922368,165.840592,0.010696,-0.022614,0.999405,-0.032412,0.023432,-0.017996,86.76062,13.141235,-146.91774,,,
729706512.508318,-1.265838,-0.91529,165.836988,0.006775,-0.026962,1.00148,-0.028944,0.02776,-0.012174,86.76062,13.141235,-146.91774,,,
729706512.511662,-1.265838,-0.91529,165.836988,0.006775,-0.026962,1.00148,-0.028944,0.02776,-0.012174,86.76062,13.141235,-146.91774,,,
729706512.515046,-1.273068,-0.907223,165.834069,0.006775,-0.026962,1.00148,-0.028944,0.02776,-0.012174,86.76062,13.141235,-146.91774,,,
729706512.518313,-1.278891,-0.901289,165.831715,0.00853,-0.028366,1.001007,-0.016578,0.022411,-0.008201,86.76062,13.141235,-146.91774,,,
729706512.521672,-1.278891,-0.901289,165.831715,0.00853,-0.028366,1.001007,-0.016578,0.022411,-0.008201,86.76062,13.141235,-146.91774,,,
729706512.524996,-1.282318,-0.894998,165.829922,0.00853,-0.028366,1.001007,-0.016578,0.022411,-0.008201,86.76062,13.141235,-146.91774,,,
729706512.528318,-1.283074,-0.892399,165.828579,0.004974,-0.030685,1.001144,0.001188,0.009098,-0.005051,86.76062,13.141235,-146.91774,,,
729706512.531662,-1.283074,-0.892399,165.828579,0.004974,-0.030685,1.001144,0.001188,0.009098,-0.005051,86.76062,13.141235,-146.91774,,,
729706512.534995,-1.282626,-0.890092,165.827168,0.004974,-0.030685,1.001144,0.001188,0.009098,-0.005051,86.76062,13.141235,-146.91774,,,
729706512.538326,-1.279867,-0.891397,165.824577,0.008469,-0.028549,0.994324,0.01214,-0.002902,-0.013132,86.76062,13.141235,-146.91774,,,
729706512.541715,-1.279867,-0.891397,165.824577,0.008469,-0.028549,0.994324,0.01214,-0.002902,-0.013132,86.76062,13.141235,-146.91774,,,
729706512.544994,-1.276703,-0.891522,165.821069,0.008469,-0.028549,0.994324,0.01214,-0.002902,-0.013132,86.664185,13.362579,-146.952911,,,
729706512.54832,-1.272202,-0.895431,165.817154,0.011322,-0.02858,0.992584,0.016773,-0.012787,-0.015666,86.664185,13.362579,-146.952911,,,
729706512.551664,-1.272202,-0.895431,165.817154,0.011322,-0.02858,0.992584,0.016773,-0.012787,-0.015666,86.664185,13.362579,-146.952911,,,
729706512.555061,-1.266153,-0.898665,165.813261,0.011322,-0.02858,0.992584,0.016773,-0.012787,-0.015666,86.664185,13.362579,-146.952911,,,
729706512.558314,-1.259865,-0.902696,165.809594,0.011948,-0.02832,0.994934,0.020053,-0.007929,-0.013897,86.664185,13.362579,-146.952911,,,
729706512.56167,-1.259865,-0.902696,165.809594,0.011948,-0.02832,0.994934,0.020053,-0.007929,-0.013897,86.664185,13.362579,-146.952911,,,
729706512.565001,-1.254496,-0.904659,165.806304,0.011948,-0.02832,0.994934,0.020053,-0.007929,-0.013897,86.664185,13.362579,-146.952911,,,
729706512.568319,-1.250834,-0.906574,165.803458,0.014816,-0.025513,0.988297,0.010358,-0.002735,-0.010534,86.664185,13.362579,-146.952911,,,
729706512.571672,-1.250834,-0.906574,165.803458,0.014816,-0.025513,0.988297,0.010358,-0.002735,-0.010534,86.664185,13.362579,-146.952911,,,
729706512.57499,-1.248907,-0.907781,165.801245,0.014816,-0.025513,0.988297,0.010358,-0.002735,-0.010534,86.664185,13.362579,-146.952911,,,
729706512.57832,-1.250271,-0.908871,165.799768,0.016357,-0.02095,0.980896,-0.011385,0.001195,-0.004985,86.664185,13.362579,-146.952911,,,
729706512.581749,-1.250271,-0.908871,165.799768,0.016357,-0.02095,0.980896,-0.011385,0.001195,-0.004985,86.664185,13.362579,-146.952911,,,
729706512.584762,-1.2557,-0.907186,165.798638,0.016357,-0.02095,0.980896,-0.011385,0.001195,-0.004985,86.582611,13.247452,-147.006317,,,
729706512.588362,-1.263559,-0.905569,165.796981,0.020264,-0.015488,0.97673,-0.032539,0.011066,-0.008058,86.582611,13.247452,-147.006317,,,
729706512.591669,-1.263559,-0.905569,165.796981,0.020264,-0.015488,0.97673,-0.032539,0.011066,-0.008058,86.582611,13.247452,-147.006317,,,
729706512.595065,-1.27518,-0.901115,165.794661,0.020264,-0.015488,0.97673,-0.032539,0.011066,-0.008058,86.582611,13.247452,-147.006317,,,
729706512.598313,-1.288298,-0.89674,165.791961,0.014313,-0.018127,0.981094,-0.048348,0.021573,-0.010185,86.582611,13.247452,-147.006317,,,
729706512.601671,-1.288298,-0.89674,165.791961,0.014313,-0.018127,0.981094,-0.048348,0.021573,-0.010185,86.582611,13.247452,-147.006317,,,
729706512.604984,-1.304009,-0.889124,165.789467,0.014313,-0.018127,0.981094,-0.048348,0.021573,-0.010185,86.582611,13.247452,-147.006317,,,
729706512.608319,-1.31966,-0.882823,165.787474,0.014374,-0.020493,0.982834,-0.055724,0.026073,-0.006304,86.582611,13.247452,-147.006317,,,
729706512.61165,-1.31966,-0.882823,165.787474,0.014374,-0.020493,0.982834,-0.055724,0.026073,-0.006304,86.582611,13.247452,-147.006317,,,
729706512.614982,-1.337386,-0.873968,165.786146,0.014374,-0.020493,0.982834,-0.055724,0.026073,-0.006304,86.582611,13.247452,-147.006317,,,
729706512.61832,-1.354252,-0.866038,165.78566,0.010681,-0.021454,0.985657,-0.057291,0.032755,-0.000156,86.582611,13.247452,-147.006317,,,
729706512.621736,-1.354252,-0.866038,165.78566,0.010681,-0.021454,0.985657,-0.057291,0.032755,-0.000156,86.582611,13.247452,-147.006317,,,
729706512.624999,-1.37176,-0.856054,165.785688,0.010681,-0.021454,0.985657,-0.057291,0.032755,-0.000156,86.582611,13.247452,-147.006317,,,
729706512.628325,-1.387832,-0.847481,165.786046,0.007767,-0.025238,0.992416,-0.052191,0.030318,0.0022,86.687576,13.503754,-147.046249,,,
729706512.631665,-1.387832,-0.847481,165.786046,0.007767,-0.025238,0.992416,-0.052191,0.030318,0.0022,86.687576,13.503754,-147.046249,,,
729706512.635066,-1.402689,-0.839794,165.78765,0.007767,-0.025238,0.992416,-0.052191,0.030318,0.0022,86.687576,13.503754,-147.046249,,,
729706512.638317,-1.414474,-0.834106,165.790091,0.007339,-0.024933,0.996613,-0.036433,0.02079,0.007882,86.687576,13.503754,-147.046249,,,
729706512.641653,-1.414474,-0.834106,165.790091,0.007339,-0.024933,0.996613,-0.036433,0.02079,0.007882,86.687576,13.503754,-147.046249,,,
729706512.644995,-1.425508,-0.829781,165.792047,0.007339,-0.024933,0.996613,-0.036433,0.02079,0.007882,86.687576,13.503754,-147.046249,,,
729706512.648327,-1.435631,-0.827615,165.793419,0.007446,-0.023972,0.992859,-0.033035,0.006994,0.00377,86.687576,13.503754,-147.046249,,,
729706512.651682,-1.435631,-0.827615,165.793419,0.007446,-0.023972,0.992859,-0.033035,0.006994,0.00377,86.687576,13.503754,-147.046249,,,
729706512.655021,-1.445203,-0.827243,165.794543,0.007446,-0.023972,0.992859,-0.033035,0.006994,0.00377,86.687576,13.503754,-147.046249,,,
729706512.658317,-1.45581,-0.827342,165.79505,0.011841,-0.021088,0.994476,-0.03892,0.001822,-0.000493,86.687576,13.503754,-147.046249,,,
729706512.661734,-1.45581,-0.827342,165.79505,0.011841,-0.021088,0.994476,-0.03892,0.001822,-0.000493,86.687576,13.503754,-147.046249,,,
729706512.664989,-1.466255,-0.828406,165.794798,0.011841,-0.021088,0.994476,-0.03892,0.001822,-0.000493,86.687576,13.503754,-147.046249,,,
729706512.668319,-1.478445,-0.827739,165.794152,0.011307,-0.024017,1.001785,-0.043499,0.007494,-0.003392,86.657639,13.74469,-147.142075,,,
729706512.671674,-1.478445,-0.827739,165.794152,0.011307,-0.024017,1.001785,-0.043499,0.007494,-0.003392,86.657639,13.74469,-147.142075,,,
729706512.675105,-1.48912,-0.826961,165.793898,0.011307,-0.024017,1.001785,-0.043499,0.007494,-0.003392,86.657639,13.74469,-147.142075,,,
729706512.678306,-1.501401,-0.825766,165.794242,0.011383,-0.02919,1.005371,-0.042949,0.005792,0.000608,86.657639,13.74469,-147.142075,,,
729706512.681685,-1.501401,-0.825766,165.794242,0.011383,-0.02919,1.005371,-0.042949,0.005792,0.000608,86.657639,13.74469,-147.142075,,,
729706512.684982,-1.512879,-0.825285,165.795114,0.011383,-0.02919,1.005371,-0.042949,0.005792,0.000608,86.657639,13.74469,-147.142075,,,
729706512.688319,-1.524619,-0.825638,165.797159,0.010925,-0.031647,1.004227,-0.038971,0.001688,0.008772,86.657639,13.74469,-147.142075,,,
729706512.691661,-1.524619,-0.825638,165.797159,0.010925,-0.031647,1.004227,-0.038971,0.001688,0.008772,86.657639,13.74469,-147.142075,,,
729706512.694995,-1.534834,-0.826263,165.799723,0.010925,-0.031647,1.004227,-0.038971,0.001688,0.008772,86.657639,13.74469,-147.142075,,,
729706512.698317,-1.545191,-0.827251,165.801735,0.01207,-0.031525,1.00795,-0.033668,-1e-06,0.004848,86.657639,13.74469,-147.142075,,,
729706512.701753,-1.545191,-0.827251,165.801735,0.01207,-0.031525,1.00795,-0.033668,-1e-06,0.004848,86.657639,13.74469,-147.142075,,,
729706512.705008,-1.553702,-0.827047,165.803128,0.01207,-0.031525,1.00795,-0.033668,-1e-06,0.004848,86.657639,13.74469,-147.142075,,,
729706512.708325,-1.561321,-0.827904,165.803985,0.015579,-0.030869,1.01207,-0.023474,0.001683,0.001212,86.752518,13.554886,-147.01207,,,
729706512.711674,-1.561321,-0.827904,165.803985,0.015579,-0.030869,1.01207,-0.023474,0.001683,0.001212,86.752518,13.554886,-147.01207,,,
729706512.715082,-1.566947,-0.827044,165.804602,0.015579,-0.030869,1.01207,-0.023474,0.001683,0.001212,86.752518,13.554886,-147.01207,,,
729706512.718316,-1.570673,-0.827521,165.805248,0.014709,-0.031555,1.013626,-0.008767,0.001493,0.001477,86.752518,13.554886,-147.01207,,,
729706512.721671,-1.570673,-0.827521,165.805248,0.014709,-0.031555,1.013626,-0.008767,0.001493,0.001477,86.752518,13.554886,-147.01207,,,
729706512.725019,-1.57163,-0.826333,165.805925,0.014709,-0.031555,1.013626,-0.008767,0.001493,0.001477,86.752518,13.554886,-147.01207,,,
729706512.728323,-1.57096,-0.827175,165.806844,0.014832,-0.0336,1.010483,0.005988,-0.00093,0.003329,86.752518,13.554886,-147.01207,,,
729706512.73167,-1.57096,-0.827175,165.806844,0.014832,-0.0336,1.010483,0.005988,-0.00093,0.003329,86.752518,13.554886,-147.01207,,,
729706512.735009,-1.567942,-0.82733,165.808583,0.014832,-0.0336,1.010483,0.005988,-0.00093,0.003329,86.752518,13.554886,-147.01207,,,
729706512.73832,-1.564635,-0.829138,165.810955,0.013168,-0.03241,1.005859,0.012627,-0.005427,0.007838,86.752518,13.554886,-147.01207,,,
729706512.741741,-1.564635,-0.829138,165.810955,0.013168,-0.03241,1.005859,0.012627,-0.005427,0.007838,86.752518,13.554886,-147.01207,,,
729706512.744994,-1.560411,-0.831524,165.813696,0.013168,-0.03241,1.005859,0.012627,-0.005427,0.007838,86.752518,13.554886,-147.01207,,,
729706512.748333,-1.557418,-0.835345,165.816042,0.015869,-0.026413,0.996002,0.010864,-0.011363,0.005216,86.696823,13.593643,-147.282669,,,
729706512.751667,-1.557418,-0.835345,165.816042,0.015869,-0.026413,0.996002,0.010864,-0.011363,0.005216,86.696823,13.593643,-147.282669,,,
729706512.755066,-1.555254,-0.839141,165.817966,0.015869,-0.026413,0.996002,0.010864,-0.011363,0.005216,86.696823,13.593643,-147.282669,,,
729706512.758337,-1.555123,-0.843314,165.819273,0.018692,-0.022202,0.989731,-0.003728,-0.010034,0.001274,86.696823,13.593643,-147.282669,,,
729706512.761672,-1.555123,-0.843314,165.819273,0.018692,-0.022202,0.989731,-0.003728,-0.010034,0.001274,86.696823,13.593643,-147.282669,,,
729706512.765011,-1.557595,-0.846273,165.819961,0.018692,-0.022202,0.989731,-0.003728,-0.010034,0.001274,86.696823,13.593643,-147.282669,,,
729706512.768334,-1.560409,-0.849524,165.820482,0.020035,-0.022308,0.987305,-0.010507,-0.007291,0.000359,86.696823,13.593643,-147.282669,,,
729706512.771677,-1.560409,-0.849524,165.820482,0.020035,-0.022308,0.987305,-0.010507,-0.007291,0.000359,86.696823,13.593643,-147.282669,,,
729706512.775005,-1.565311,-0.85135,165.820243,0.020035,-0.022308,0.987305,-0.010507,-0.007291,0.000359,86.696823,13.593643,-147.282669,,,
729706512.778268,-1.565311,-0.853568,165.819228,0.020035,-0.022308,0.987305,-0.010507,-0.003878,-0.004801,86.696823,13.593643,-147.282669,,,
729706512.781734,-1.570687,-0.853568,165.819228,0.023499,-0.023987,0.990738,-0.01899,-0.003878,-0.004801,86.696823,13.593643,-147.282669,,,
729706512.785003,-1.577019,-0.855716,165.818508,0.023499,-0.023987,0.990738,-0.01899,-0.003878,-0.004801,86.696823,13.593643,-147.282669,,,
729706512.788357,-1.582639,-0.8579,165.818517,0.023056,-0.028336,0.990036,-0.018497,-0.003612,0.00028,86.696823,13.593643,-147.282669,,,
729706512.79167,-1.582639,-0.8579,165.818517,0.023056,-0.028336,0.990036,-0.018497,-0.003612,0.00028,86.68866,13.419968,-147.190704,,,
729706512.795064,-1.588652,-0.860132,165.818893,0.023056,-0.028336,0.990036,-0.018497,-0.003612,0.00028,86.68866,13.419968,-147.190704,,,
729706512.798323,-1.593491,-0.863071,165.818765,0.021805,-0.031784,0.990875,-0.013276,-0.008693,-0.003356,86.68866,13.419968,-147.190704,,,
729706512.801669,-1.593491,-0.863071,165.818765,0.021805,-0.031784,0.990875,-0.013276,-0.008693,-0.003356,86.68866,13.419968,-147.190704,,,
729706512.804998,-1.596801,-0.866302,165.817739,0.021805,-0.031784,0.990875,-0.013276,-0.008693,-0.003356,86.68866,13.419968,-147.190704,,,
729706512.808322,-1.598276,-0.869028,165.815588,0.021805,-0.031784,0.990875,-0.00502,-0.004137,-0.011304,86.68866,13.419968,-147.190704,,,
729706512.811681,-1.598276,-0.869028,165.815588,0.024506,-0.028442,0.998398,-0.00502,-0.004137,-0.011304,86.68866,13.419968,-147.190704,,,
729706512.814987,-1.599878,-0.870017,165.812048,0.024506,-0.028442,0.998398,-0.00502,-0.004137,-0.011304,86.68866,13.419968,-147.190704,,,
729706512.818358,-1.599441,-0.86899,165.807539,0.027069,-0.026703,1.005676,0.003353,0.012284,-0.018152,86.68866,13.419968,-147.190704,,,
729706512.821728,-1.599441,-0.86899,165.807539,0.027069,-0.026703,1.005676,0.003353,0.012284,-0.018152,86.68866,13.419968,-147.190704,,,
729706512.82499,-1.599,-0.865143,165.802765,0.027069,-0.026703,1.005676,0.003353,0.012284,-0.018152,86.68866,13.419968,-147.190704,,,
729706512.828356,-1.599,-0.860111,165.798157,0.027069,-0.026703,1.005676,0.004111,0.023012,-0.016929,86.68866,13.419968,-147.190704,,,
729706512.831686,-1.598213,-0.860111,165.798157,0.02243,-0.029892,1.005371,0.004111,0.023012,-0.016929,86.540314,13.630234,-147.185226,,,
729706512.834984,-1.597388,-0.854343,165.793791,0.02243,-0.029892,1.005371,0.004111,0.023012,-0.016929,86.540314,13.630234,-147.185226,,,
729706512.838368,-1.597388,-0.854343,165.790262,0.02243,-0.029892,1.005371,-0.007274,0.028175,-0.011033,86.540314,13.630234,-147.185226,,,
729706512.841736,-1.598852,-0.847273,165.790262,0.017456,-0.03038,1.00145,-0.007274,0.028175,-0.011033,86.540314,13.630234,-147.185226,,,
729706512.844949,-1.600821,-0.841931,165.78796,0.017456,-0.03038,1.00145,-0.007274,0.028175,-0.011033,86.540314,13.630234,-147.185226,,,
729706512.848409,-1.600821,-0.841931,165.787151,0.017456,-0.03038,1.00145,-0.007274,0.028175,-0.011033,86.540314,13.630234,-147.185226,,,
729706512.851658,-1.60423,-0.837862,165.787151,0.01474,-0.0289,0.996155,-0.011129,0.010906,-0.000788,86.540314,13.630234,-147.185226,,,
729706512.854988,-1.606735,-0.838784,165.787266,0.01474,-0.0289,0.996155,-0.011129,0.010906,-0.000788,86.540314,13.630234,-147.185226,,,
729706512.858324,-1.606735,-0.838784,165.787266,0.01474,-0.0289,0.996155,-0.011129,0.010906,-0.000788,86.540314,13.630234,-147.185226,,,
729706512.861653,-1.610732,-0.841228,165.786913,0.010361,-0.028488,0.986908,-0.015617,-0.01003,-0.004278,86.540314,13.630234,-147.185226,,,
729706512.864987,-1.615275,-0.848531,165.785552,0.010361,-0.028488,0.986908,-0.015617,-0.01003,-0.004278,86.540314,13.630234,-147.185226,,,
729706512.868373,-1.615275,-0.848531,165.785552,0.010361,-0.028488,0.986908,-0.015617,-0.01003,-0.004278,86.540314,13.630234,-147.185226,,,
729706512.87169,-1.621116,-0.855968,165.78295,0.01622,-0.023544,0.985519,-0.022797,-0.02468,-0.013267,86.609131,13.531952,-147.192368,,,
729706512.875026,-1.629312,-0.865764,165.778779,0.01622,-0.023544,0.985519,-0.022797,-0.02468,-0.013267,86.609131,13.531952,-147.192368,,,
729706512.87839,-1.629312,-0.865764,165.778779,0.01622,-0.023544,0.985519,-0.022797,-0.02468,-0.013267,86.609131,13.531952,-147.192368,,,
729706512.881668,-1.639659,-0.873614,165.773216,0.019424,-0.020584,0.987015,-0.041253,-0.020626,-0.022971,86.609131,13.531952,-147.192368,,,
729706512.884991,-1.652837,-0.880725,165.766377,0.019424,-0.020584,0.987015,-0.041253,-0.020626,-0.022971,86.609131,13.531952,-147.192368,,,
729706512.888381,-1.652837,-0.880725,165.766377,0.019424,-0.020584,0.987015,-0.041253,-0.020626,-0.022971,86.609131,13.531952,-147.192368,,,
729706512.891677,-1.668127,-0.883118,165.759115,0.023651,-0.026276,0.993698,-0.058535,0.000734,-0.025967,86.609131,13.531952,-147.192368,,,
729706512.894992,-1.684532,-0.883636,165.751574,0.023651,-0.026276,0.993698,-0.058535,0.000734,-0.025967,86.609131,13.531952,-147.192368,,,
729706512.898331,-1.684532,-0.883636,165.751574,0.023651,-0.026276,0.993698,-0.058535,0.000734,-0.025967,86.609131,13.531952,-147.192368,,,
729706512.901771,-1.701186,-0.876713,165.744419,0.022842,-0.033875,1.010986,-0.058466,0.03712,-0.023701,86.609131,13.531952,-147.192368,,,
729706512.905054,-1.717107,-0.867526,165.738595,0.022842,-0.033875,1.010986,-0.058466,0.03712,-0.023701,86.609131,13.531952,-147.192368,,,
729706512.908394,-1.717107,-0.867526,165.738595,0.022842,-0.033875,1.010986,-0.058466,0.03712,-0.023701,86.609131,13.531952,-147.192368,,,
729706512.911718,-1.731755,-0.853342,165.734657,0.017197,-0.041656,1.019272,-0.047875,0.057631,-0.011166,86.696793,13.629211,-147.188293,,,
729706512.914987,-1.744208,-0.838376,165.733354,0.017197,-0.041656,1.019272,-0.047875,0.057631,-0.011166,86.696793,13.629211,-147.188293,,,
729706512.918356,-1.744208,-0.838376,165.733354,0.017197,-0.041656,1.019272,-0.047875,0.057631,-0.011166,86.696793,13.629211,-147.188293,,,
729706512.921664,-1.754065,-0.821784,165.734374,0.014725,-0.044037,1.019699,-0.02907,0.061846,0.004513,86.696793,13.629211,-147.188293,,,
729706512.924996,-1.761078,-0.805214,165.735766,0.014725,-0.044037,1.019699,-0.02907,0.061846,0.004513,86.696793,13.629211,-147.188293,,,
729706512.928355,-1.761078,-0.805214,165.735766,0.014725,-0.044037,1.019699,-0.02907,0.061846,0.004513,86.696793,13.629211,-147.188293,,,
729706512.931665,-1.767068,-0.788324,165.7368,0.016266,-0.036011,1.015823,-0.020733,0.060932,0.001784,86.696793,13.629211,-147.188293,,,
729706512.934989,-1.772393,-0.772002,165.736536,0.016266,-0.036011,1.015823,-0.020733,0.060932,0.001784,86.696793,13.629211,-147.188293,,,
729706512.938385,-1.772393,-0.772002,165.736536,0.016266,-0.036011,1.015823,-0.020733,0.060932,0.001784,86.696793,13.629211,-147.188293,,,
729706512.941734,-1.777247,-0.757727,165.73455,0.013077,-0.030777,1.006607,-0.015569,0.049656,-0.010225,86.696793,13.629211,-147.188293,,,
729706512.944989,-1.781423,-0.745538,165.731713,0.013077,-0.030777,1.006607,-0.015569,0.049656,-0.010225,86.696793,13.629211,-147.188293,,,
729706512.94837,-1.781423,-0.745538,165.731713,0.013077,-0.030777,1.006607,-0.015569,0.049656,-0.010225,86.696793,13.629211,-147.188293,,,
729706512.951726,-1.786678,-0.73596,165.728532,0.005997,-0.0298,0.995697,-0.019252,0.03187,-0.012563,86.696793,13.629211,-147.188293,,,
729706512.954987,-1.791136,-0.730642,165.725817,0.005997,-0.0298,0.995697,-0.019252,0.03187,-0.012563,86.797104,13.702652,-146.961273,,,
729706512.958335,-1.791136,-0.730642,165.725817,0.005997,-0.0298,0.995697,-0.019252,0.03187,-0.012563,86.797104,13.702652,-146.961273,,,
729706512.961681,-1.79771,-0.727816,165.723813,0.004913,-0.030106,0.985916,-0.023981,0.006454,-0.007772,86.797104,13.702652,-146.961273,,,
729706512.964993,-1.804056,-0.73004,165.721996,0.004913,-0.030106,0.985916,-0.023981,0.006454,-0.007772,86.797104,13.702652,-146.961273,,,
729706512.96844,-1.804056,-0.73004,165.721996,0.004913,-0.030106,0.985916,-0.023981,0.006454,-0.007772,86.797104,13.702652,-146.961273,,,
729706512.97166,-1.813116,-0.731902,165.720564,0.00737,-0.03183,0.981918,-0.032931,-0.004888,-0.00545,86.797104,13.702652,-146.961273,,,
729706512.974995,-1.823327,-0.736415,165.719883,0.00737,-0.03183,0.981918,-0.032931,-0.004888,-0.00545,86.797104,13.702652,-146.961273,,,
729706512.978341,-1.823327,-0.736415,165.719883,0.00737,-0.03183,0.981918,-0.032931,-0.004888,-0.00545,86.797104,13.702652,-146.961273,,,
729706512.981728,-1.8355,-0.73848,165.720271,0.010406,-0.031662,0.983978,-0.044281,-0.003321,0.001667,86.797104,13.702652,-146.961273,,,
729706512.98498,-1.849548,-0.741019,165.720753,0.010406,-0.031662,0.983978,-0.044281,-0.003321,0.001667,86.797104,13.702652,-146.961273,,,
729706512.988335,-1.849548,-0.741019,165.720753,0.010406,-0.031662,0.983978,-0.044281,-0.003321,0.001667,86.797104,13.702652,-146.961273,,,
729706512.991664,-1.86317,-0.740127,165.721344,0.015808,-0.031403,0.988907,-0.047488,0.010264,0.002129,86.797104,13.702652,-146.961273,,,
729706512.994986,-1.878673,-0.736739,165.722178,0.015808,-0.031403,0.988907,-0.047488,0.010264,0.002129,87.056656,13.836456,-147.029648,,,
729706512.998329,-1.878673,-0.736739,165.722178,0.015808,-0.031403,0.988907,-0.047488,0.010264,0.002129,87.056656,13.836456,-147.029648,,,
729706513.001669,-1.89186,-0.729489,165.723126,0.017303,-0.03421,0.995209,-0.042952,0.034834,0.002737,87.056656,13.836456,-147.029648,,,
729706513.004992,-1.904906,-0.719309,165.724356,0.017303,-0.03421,0.995209,-0.042952,0.034834,0.002737,87.056656,13.836456,-147.029648,,,
729706513.0084,-1.904906,-0.719309,165.724356,0.017303,-0.03421,0.995209,-0.042952,0.034834,0.002737,87.056656,13.836456,-147.029648,,,
729706513.011667,-1.916344,-0.706161,165.72573,0.019623,-0.037308,0.994919,-0.038948,0.053368,0.003627,87.056656,13.836456,-147.029648,,,
729706513.015074,-1.927409,-0.691678,165.727189,0.019623,-0.037308,0.994919,-0.038948,0.053368,0.003627,87.056656,13.836456,-147.029648,,,
729706513.018327,-1.927409,-0.691678,165.727189,0.019623,-0.037308,0.994919,-0.038948,0.053368,0.003627,87.056656,13.836456,-147.029648,,,
729706513.021739,-1.937547,-0.675933,165.729319,0.017792,-0.037354,0.993607,-0.031711,0.057268,0.008025,87.056656,13.836456,-147.029648,,,
729706513.024982,-1.944561,-0.660418,165.73248,0.017792,-0.037354,0.993607,-0.031711,0.057268,0.008025,87.056656,13.836456,-147.029648,,,
729706513.02834,-1.944561,-0.660418,165.73248,0.017792,-0.037354,0.993607,-0.031711,0.057268,0.008025,87.056656,13.836456,-147.029648,,,
729706513.03169,-1.949764,-0.646453,165.735788,0.013626,-0.039612,0.991455,-0.014256,0.049159,0.008914,87.056656,13.836456,-147.029648,,,
729706513.034991,-1.952308,-0.632711,165.738842,0.013626,-0.039612,0.991455,-0.014256,0.049159,0.008914,86.937851,13.791885,-146.790131,,,
729706513.038339,-1.952308,-0.632711,165.738842,0.013626,-0.039612,0.991455,-0.014256,0.049159,0.008914,86.937851,13.791885,-146.790131,,,
729706513.041669,-1.954615,-0.622492,165.741093,0.016739,-0.038803,0.989182,-0.008021,0.035381,0.003574,86.937851,13.791885,-146.790131,,,
729706513.044991,-1.957252,-0.613654,165.742242,0.016739,-0.038803,0.989182,-0.008021,0.035381,0.003574,86.937851,13.791885,-146.790131,,,
729706513.048396,-1.957252,-0.613654,165.742242,0.016739,-0.038803,0.989182,-0.008021,0.035381,0.003574,86.937851,13.791885,-146.790131,,,
729706513.051657,-1.96129,-0.608008,165.74207,0.017166,-0.035614,0.979904,-0.015547,0.019574,-0.005321,86.937851,13.791885,-146.790131,,,
729706513.054987,-1.967071,-0.603418,165.740171,0.017166,-0.035614,0.979904,-0.015547,0.019574,-0.005321,86.937851,13.791885,-146.790131,,,
729706513.058317,-1.967071,-0.603418,165.740171,0.017166,-0.035614,0.979904,-0.015547,0.019574,-0.005321,86.937851,13.791885,-146.790131,,,
729706513.061736,-1.97614,-0.600686,165.736182,0.016846,-0.031036,0.971786,-0.036575,0.011717,-0.019537,86.937851,13.791885,-146.790131,,,
729706513.064982,-1.987944,-0.598827,165.730811,0.016846,-0.031036,0.971786,-0.036575,0.011717,-0.019537,86.937851,13.791885,-146.790131,,,
729706513.068331,-1.987944,-0.598827,165.730811,0.016846,-0.031036,0.971786,-0.036575,0.011717,-0.019537,86.937851,13.791885,-146.790131,,,
729706513.071667,-2.003408,-0.59631,165.724809,0.015121,-0.030685,0.973267,-0.058304,0.012072,-0.023806,86.937851,13.791885,-146.790131,,,
729706513.075026,-2.020437,-0.595493,165.718385,0.015121,-0.030685,0.973267,-0.058304,0.012072,-0.023806,86.937851,13.791885,-146.790131,,,
729706513.07834,-2.020437,-0.595493,165.718385,0.015121,-0.030685,0.973267,-0.058304,0.012072,-0.023806,86.956696,13.835815,-146.704056,,,
729706513.081686,-2.038827,-0.593085,165.712529,0.012833,-0.038757,0.981445,-0.066311,0.014274,-0.020102,86.956696,13.835815,-146.704056,,,
729706513.084987,-2.057743,-0.590921,165.707215,0.012833,-0.038757,0.981445,-0.066311,0.014274,-0.020102,86.956696,13.835815,-146.704056,,,
729706513.088389,-2.057743,-0.590921,165.707215,0.012833,-0.038757,0.981445,-0.066311,0.014274,-0.020102,86.956696,13.835815,-146.704056,,,
729706513.091662,-2.076227,-0.584863,165.702842,0.011017,-0.04538,0.99408,-0.063648,0.029994,-0.013976,86.956696,13.835815,-146.704056,,,
729706513.094993,-2.094226,-0.577349,165.699352,0.011017,-0.04538,0.99408,-0.063648,0.029994,-0.013976,86.956696,13.835815,-146.704056,,,
729706513.098334,-2.094226,-0.577349,165.699352,0.011017,-0.04538,0.99408,-0.063648,0.029994,-0.013976,86.956696,13.835815,-146.704056,,,
729706513.101723,-2.110797,-0.566262,165.696978,0.008438,-0.045486,1.004364,-0.054571,0.04413,-0.006699,86.956696,13.835815,-146.704056,,,
729706513.104984,-2.125671,-0.555383,165.6951,0.008438,-0.045486,1.004364,-0.054571,0.04413,-0.006699,86.956696,13.835815,-146.704056,,,
729706513.108341,-2.125671,-0.555383,165.6951,0.008438,-0.045486,1.004364,-0.054571,0.04413,-0.006699,86.956696,13.835815,-146.704056,,,
729706513.11166,-2.13774,-0.543504,165.692815,0.006226,-0.044235,1.008469,-0.036854,0.044386,-0.009981,86.956696,13.835815,-146.704056,,,
729706513.114987,-2.147869,-0.533507,165.690303,0.006226,-0.044235,1.008469,-0.036854,0.044386,-0.009981,86.956696,13.835815,-146.704056,,,
729706513.118331,-2.147869,-0.533507,165.690303,0.006226,-0.044235,1.008469,-0.036854,0.044386,-0.009981,87.082352,13.643265,-147.10527,,,
729706513.121684,-2.155045,-0.524477,165.687407,0.004044,-0.043457,1.006699,-0.019897,0.029642,-0.013134,87.082352,13.643265,-147.10527,,,
729706513.124997,-2.159124,-0.519829,165.683932,0.004044,-0.043457,1.006699,-0.019897,0.029642,-0.013134,87.082352,13.643265,-147.10527,,,
729706513.128318,-2.159124,-0.519829,165.683932,0.004044,-0.043457,1.006699,-0.019897,0.029642,-0.013134,87.082352,13.643265,-147.10527,,,
729706513.131761,-2.160889,-0.515821,165.679899,-0.002777,-0.04393,1.003952,-0.003842,0.012302,-0.017641,87.082352,13.643265,-147.10527,,,
729706513.134978,-2.161342,-0.516444,165.675453,-0.002777,-0.04393,1.003952,-0.003842,0.012302,-0.017641,87.082352,13.643265,-147.10527,,,
729706513.138387,-2.161342,-0.516444,165.675453,-0.002777,-0.04393,1.003952,-0.003842,0.012302,-0.017641,87.082352,13.643265,-147.10527,,,
729706513.141673,-2.16227,-0.518502,165.671701,-0.005539,-0.043839,0.997025,-0.002786,-0.008544,-0.013228,87.082352,13.643265,-147.10527,,,
729706513.144985,-2.162613,-0.525209,165.668621,-0.005539,-0.043839,0.997025,-0.002786,-0.008544,-0.013228,87.082352,13.643265,-147.10527,,,
729706513.148336,-2.162613,-0.525209,165.668621,-0.005539,-0.043839,0.997025,-0.002786,-0.008544,-0.013228,87.082352,13.643265,-147.10527,,,
729706513.151724,-2.164742,-0.532946,165.66631,-0.006668,-0.041687,0.993607,-0.007525,-0.027552,-0.008322,87.082352,13.643265,-147.10527,,,
729706513.154986,-2.167212,-0.543175,165.664507,-0.006668,-0.041687,0.993607,-0.007525,-0.027552,-0.008322,87.082352,13.643265,-147.10527,,,
729706513.158322,-2.167212,-0.543175,165.664507,-0.006668,-0.041687,0.993607,-0.007525,-0.027552,-0.008322,87.16629,13.789383,-146.9422,,,
729706513.161672,-2.171825,-0.553578,165.662602,-0.002319,-0.040131,0.990326,-0.018695,-0.035054,-0.009171,87.16629,13.789383,-146.9422,,,
729706513.164986,-2.177962,-0.565547,165.660289,-0.002319,-0.040131,0.990326,-0.018695,-0.035054,-0.009171,87.16629,13.789383,-146.9422,,,
729706513.168349,-2.177962,-0.565547,165.660289,-0.002319,-0.040131,0.990326,-0.018695,-0.035054,-0.009171,87.16629,13.789383,-146.9422,,,
729706513.171665,-2.184041,-0.578019,165.657561,0.000793,-0.040024,0.99115,-0.024395,-0.041301,-0.012092,87.16629,13.789383,-146.9422,,,
729706513.174991,-2.193099,-0.591213,165.653882,0.000793,-0.040024,0.99115,-0.024395,-0.041301,-0.012092,87.16629,13.789383,-146.9422,,,
729706513.17841,-2.193099,-0.591213,165.653882,0.000793,-0.040024,0.99115,-0.024395,-0.041301,-0.012092,87.16629,13.789383,-146.9422,,,
729706513.181661,-2.202238,-0.604192,165.649499,0.0047,-0.040298,0.987274,-0.033307,-0.038927,-0.016866,87.16629,13.789383,-146.9422,,,
729706513.185005,-2.213146,-0.614839,165.644679,0.0047,-0.040298,0.987274,-0.033307,-0.038927,-0.016866,87.16629,13.789383,-146.9422,,,
729706513.188324,-2.213146,-0.614839,165.644679,0.0047,-0.040298,0.987274,-0.033307,-0.038927,-0.016866,87.16629,13.789383,-146.9422,,,
729706513.191738,-2.22386,-0.625309,165.639936,0.006256,-0.039886,0.989914,-0.03808,-0.031751,-0.016084,87.16629,13.789383,-146.9422,,,
729706513.194976,-2.236404,-0.633981,165.635612,0.006256,-0.039886,0.989914,-0.03808,-0.031751,-0.016084,87.16629,13.789383,-146.9422,,,
729706513.198321,-2.236404,-0.633981,165.635612,0.006256,-0.039886,0.989914,-0.03808,-0.031751,-0.016084,86.939194,14.097641,-147.004227,,,
729706513.201658,-2.250525,-0.642553,165.630955,0.004333,-0.039993,0.988708,-0.054154,-0.023007,-0.017898,86.939194,14.097641,-147.004227,,,
729706513.204985,-2.267569,-0.647937,165.626377,0.004333,-0.039993,0.988708,-0.054154,-0.023007,-0.017898,86.939194,14.097641,-147.004227,,,
729706513.208349,-2.267569,-0.647937,165.626377,0.004333,-0.039993,0.988708,-0.054154,-0.023007,-0.017898,86.939194,14.097641,-147.004227,,,
729706513.211661,-2.285529,-0.655327,165.621761,0.008469,-0.038712,0.986191,-0.065885,-0.021498,-0.017377,86.939194,14.097641,-147.004227,,,
729706513.214992,-2.306675,-0.658277,165.616978,0.008469,-0.038712,0.986191,-0.065885,-0.021498,-0.017377,86.939194,14.097641,-147.004227,,,
729706513.218388,-2.306675,-0.658277,165.616978,0.008469,-0.038712,0.986191,-0.065885,-0.021498,-0.017377,86.939194,14.097641,-147.004227,,,
729706513.221666,-2.329991,-0.663012,165.61211,0.009323,-0.038376,0.993164,-0.086397,-0.00978,-0.016739,86.939194,14.097641,-147.004227,,,
729706513.22499,-2.356312,-0.662042,165.607716,0.009323,-0.038376,0.993164,-0.086397,-0.00978,-0.016739,86.939194,14.097641,-147.004227,,,
729706513.228332,-2.356312,-0.662042,165.607716,0.009323,-0.038376,0.993164,-0.086397,-0.00978,-0.016739,86.939194,14.097641,-147.004227,,,
729706513.231717,-2.385261,-0.664452,165.603587,0.010635,-0.042526,0.993439,-0.107105,-0.006263,-0.013581,86.939194,14.097641,-147.004227,,,
729706513.234984,-2.417728,-0.664518,165.599851,0.010635,-0.042526,0.993439,-0.107105,-0.006263,-0.013581,86.939194,14.097641,-147.004227,,,
729706513.238328,-2.417728,-0.664518,165.599851,0.010635,-0.042526,0.993439,-0.107105,-0.006263,-0.013581,86.939194,14.097641,-147.004227,,,
729706513.24167,-2.454195,-0.669601,165.595603,0.013947,-0.04599,0.991425,-0.134972,-0.016467,-0.015765,86.860352,14.01799,-147.174515,,,
729706513.244986,-2.494321,-0.672423,165.590623,0.013947,-0.04599,0.991425,-0.134972,-0.016467,-0.015765,86.860352,14.01799,-147.174515,,,
729706513.248336,-2.494321,-0.672423,165.590623,0.013947,-0.04599,0.991425,-0.134972,-0.016467,-0.015765,86.860352,14.01799,-147.174515,,,
729706513.251671,-2.538968,-0.676939,165.58477,0.016586,-0.041626,0.991699,-0.16341,-0.011175,-0.020709,86.860352,14.01799,-147.174515,,,
729706513.254989,-2.588285,-0.679057,165.578512,0.016586,-0.041626,0.991699,-0.16341,-0.011175,-0.020709,86.860352,14.01799,-147.174515,,,
729706513.258399,-2.588285,-0.679057,165.578512,0.016586,-0.041626,0.991699,-0.16341,-0.011175,-0.020709,86.860352,14.01799,-147.174515,,,
729706513.261647,-2.643421,-0.682211,165.571888,0.015152,-0.041214,0.990036,-0.200935,-0.004896,-0.022157,86.860352,14.01799,-147.174515,,,
729706513.264985,-2.702441,-0.682808,165.565167,0.015152,-0.041214,0.990036,-0.200935,-0.004896,-0.022157,86.860352,14.01799,-147.174515,,,
729706513.268345,-2.702441,-0.682808,165.565167,0.015152,-0.041214,0.990036,-0.200935,-0.004896,-0.022157,86.860352,14.01799,-147.174515,,,
729706513.271742,-2.766629,-0.682653,165.558666,0.007172,-0.043777,0.987823,-0.229881,0.008638,-0.019841,86.860352,14.01799,-147.174515,,,
729706513.274985,-2.83122,-0.679605,165.553824,0.007172,-0.043777,0.987823,-0.229881,0.008638,-0.019841,86.860352,14.01799,-147.174515,,,
729706513.278341,-2.83122,-0.679605,165.553824,0.007172,-0.043777,0.987823,-0.229881,0.008638,-0.019841,86.860352,14.01799,-147.174515,,,
729706513.281658,-2.896277,-0.676642,165.551245,0.00531,-0.05011,0.994003,-0.22478,0.017916,-0.003653,86.901306,14.606186,-147.244965,,,
729706513.284992,-2.959163,-0.668641,165.55063,0.00531,-0.05011,0.994003,-0.22478,0.017916,-0.003653,86.901306,14.606186,-147.244965,,,
729706513.288333,-2.959163,-0.668641,165.55063,0.00531,-0.05011,0.994003,-0.22478,0.017916,-0.003653,86.901306,14.606186,-147.244965,,,
729706513.29168,-3.024805,-0.657143,165.552117,0.004791,-0.057739,1.006912,-0.231558,0.048626,0.011338,86.901306,14.606186,-147.244965,,,
729706513.29499,-3.088159,-0.642782,165.556075,0.004791,-0.057739,1.006912,-0.231558,0.048626,0.011338,86.901306,14.606186,-147.244965,,,
729706513.298392,-3.088159,-0.642782,165.556075,0.004791,-0.057739,1.006912,-0.231558,0.048626,0.011338,86.901306,14.606186,-147.244965,,,
729706513.301659,-3.151213,-0.62863,165.561763,0.004166,-0.069519,1.000229,-0.213633,0.050652,0.023281,86.901306,14.606186,-147.244965,,,
729706513.304993,-3.208562,-0.613925,165.568815,0.004166,-0.069519,1.000229,-0.213633,0.050652,0.023281,86.901306,14.606186,-147.244965,,,
729706513.308332,-3.208562,-0.613925,165.568815,0.004166,-0.069519,1.000229,-0.213633,0.050652,0.023281,86.901306,14.606186,-147.244965,,,
729706513.3118,-3.265037,-0.598037,165.576542,0.007324,-0.066925,1.014481,-0.190654,0.060203,0.027738,86.901306,14.606186,-147.244965,,,
729706513.314967,-3.317457,-0.580271,165.583749,0.007324,-0.066925,1.014481,-0.190654,0.060203,0.027738,86.901306,14.606186,-147.244965,,,
729706513.318334,-3.317457,-0.580271,165.583749,0.007324,-0.066925,1.014481,-0.190654,0.060203,0.027738,86.901306,14.606186,-147.244965,,,
729706513.321653,-3.371083,-0.56052,165.590271,0.005463,-0.059433,1.007065,-0.187028,0.07149,0.022609,86.995285,15.009338,-147.090088,,,
729706513.324982,-3.421284,-0.542865,165.595914,0.005463,-0.059433,1.007065,-0.187028,0.07149,0.022609,86.995285,15.009338,-147.090088,,,
729706513.328333,-3.421284,-0.542865,165.595914,0.005463,-0.059433,1.007065,-0.187028,0.07149,0.022609,86.995285,15.009338,-147.090088,,,
729706513.331676,-3.47108,-0.527267,165.600394,0.003036,-0.060104,0.995331,-0.168847,0.048887,0.013695,86.995285,15.009338,-147.090088,,,
729706513.334985,-3.51536,-0.517,165.603946,0.003036,-0.060104,0.995331,-0.168847,0.048887,0.013695,86.995285,15.009338,-147.090088,,,
729706513.3384,-3.51536,-0.517,165.603946,0.003036,-0.060104,0.995331,-0.168847,0.048887,0.013695,86.995285,15.009338,-147.090088,,,
729706513.341659,-3.560249,-0.507867,165.606924,0.000763,-0.064377,0.99585,-0.150615,0.029469,0.008742,86.995285,15.009338,-147.090088,,,
729706513.344987,-3.599309,-0.501023,165.609253,0.000763,-0.064377,0.99585,-0.150615,0.029469,0.008742,86.995285,15.009338,-147.090088,,,
729706513.348328,-3.599309,-0.501023,165.609253,0.000763,-0.064377,0.99585,-0.150615,0.029469,0.008742,86.995285,15.009338,-147.090088,,,
729706513.351663,-3.638715,-0.494754,165.611909,-0.002808,-0.066315,0.99765,-0.131655,0.022764,0.010661,86.995285,15.009338,-147.090088,,,
729706513.355059,-3.671955,-0.489502,165.615696,-0.002808,-0.066315,0.99765,-0.131655,0.022764,0.010661,86.995285,15.009338,-147.090088,,,
729706513.358331,-3.671955,-0.489502,165.615696,-0.002808,-0.066315,0.99765,-0.131655,0.022764,0.010661,86.995285,15.009338,-147.090088,,,
729706513.361656,-3.704649,-0.487396,165.62074,-0.002258,-0.072021,0.993103,-0.109251,0.004367,0.019451,87.324509,15.123978,-146.892303,,,
729706513.364984,-3.732724,-0.486562,165.626777,-0.002258,-0.072021,0.993103,-0.109251,0.004367,0.019451,87.324509,15.123978,-146.892303,,,
729706513.368335,-3.732724,-0.486562,165.626777,-0.002258,-0.072021,0.993103,-0.109251,0.004367,0.019451,87.324509,15.123978,-146.892303,,,
729706513.371676,-3.759762,-0.48691,165.6335,0.002258,-0.072296,0.993835,-0.089489,0.000556,0.02437,87.324509,15.123978,-146.892303,,,
729706513.374983,-3.783892,-0.485253,165.641019,0.002258,-0.072296,0.993835,-0.089489,0.000556,0.02437,87.324509,15.123978,-146.892303,,,
729706513.378408,-3.783892,-0.485253,165.641019,0.002258,-0.072296,0.993835,-0.089489,0.000556,0.02437,87.324509,15.123978,-146.892303,,,
729706513.381672,-3.805265,-0.482909,165.649321,0.005096,-0.070221,1.001465,-0.069183,0.011677,0.030101,87.324509,15.123978,-146.892303,,,
729706513.384992,-3.82558,-0.477841,165.658184,0.005096,-0.070221,1.001465,-0.069183,0.011677,0.030101,87.324509,15.123978,-146.892303,,,
729706513.388332,-3.82558,-0.477841,165.658184,0.005096,-0.070221,1.001465,-0.069183,0.011677,0.030101,87.324509,15.123978,-146.892303,,,
729706513.391654,-3.844569,-0.470876,165.666702,0.009903,-0.065506,1.001434,-0.063006,0.028781,0.027915,87.324509,15.123978,-146.892303,,,
729706513.394983,-3.862185,-0.46216,165.674393,0.009903,-0.065506,1.001434,-0.063006,0.028781,0.027915,87.324509,15.123978,-146.892303,,,
729706513.398339,-3.862185,-0.46216,165.674393,0.009903,-0.065506,1.001434,-0.063006,0.028781,0.027915,87.324509,15.123978,-146.892303,,,
729706513.401675,-3.880934,-0.45349,165.680759,0.011658,-0.063263,0.998138,-0.0641,0.03052,0.018742,87.324509,15.123978,-146.892303,,,
729706513.40499,-3.898399,-0.444144,165.686141,0.011658,-0.063263,0.998138,-0.0641,0.03052,0.018742,87.369965,15.257294,-147.160217,,,
729706513.408329,-3.898399,-0.444144,165.686141,0.011658,-0.063263,0.998138,-0.0641,0.03052,0.018742,87.369965,15.257294,-147.160217,,,
729706513.411675,-3.916985,-0.436147,165.690622,0.009537,-0.064713,0.99469,-0.062263,0.027343,0.012837,87.369965,15.257294,-147.160217,,,
729706513.415037,-3.9339,-0.428483,165.694066,0.009537,-0.064713,0.99469,-0.062263,0.027343,0.012837,87.369965,15.257294,-147.160217,,,
729706513.418388,-3.9339,-0.428483,165.694066,0.009537,-0.064713,0.99469,-0.062263,0.027343,0.012837,87.369965,15.257294,-147.160217,,,
729706513.421678,-3.951,-0.424325,165.696518,0.008347,-0.066605,0.992294,-0.057363,0.012128,0.006489,87.369965,15.257294,-147.160217,,,
729706513.424982,-3.966081,-0.422022,165.697881,0.008347,-0.066605,0.992294,-0.057363,0.012128,0.006489,87.369965,15.257294,-147.160217,,,
729706513.428338,-3.966081,-0.422022,165.697881,0.008347,-0.066605,0.992294,-0.057363,0.012128,0.006489,87.369965,15.257294,-147.160217,,,
729706513.431724,-3.979296,-0.426077,165.698447,0.004379,-0.069016,0.989777,-0.04045,-0.018994,0.001703,87.369965,15.257294,-147.160217,,,
729706513.43502,-3.98951,-0.431449,165.699251,0.004379,-0.069016,0.989777,-0.04045,-0.018994,0.001703,87.369965,15.257294,-147.160217,,,
729706513.43837,-3.98951,-0.431449,165.699251,0.004379,-0.069016,0.989777,-0.04045,-0.018994,0.001703,87.369965,15.257294,-147.160217,,,
729706513.441662,-3.997477,-0.441659,165.69969,-0.000137,-0.071899,0.996201,-0.023953,-0.03698,0.000123,87.369965,15.257294,-147.160217,,,
729706513.445016,-4.004658,-0.452532,165.700362,-0.000137,-0.071899,0.996201,-0.023953,-0.03698,0.000123,87.226013,15.425735,-147.18309,,,
729706513.448338,-4.004658,-0.452532,165.700362,-0.000137,-0.071899,0.996201,-0.023953,-0.03698,0.000123,87.226013,15.425735,-147.18309,,,
729706513.451658,-4.011207,-0.466045,165.70092,0.004105,-0.071091,0.993347,-0.023103,-0.045311,2e-05,87.226013,15.425735,-147.18309,,,
729706513.455029,-4.018079,-0.478484,165.702127,0.004105,-0.071091,0.993347,-0.023103,-0.045311,2e-05,87.226013,15.425735,-147.18309,,,
729706513.458341,-4.018079,-0.478484,165.702127,0.004105,-0.071091,0.993347,-0.023103,-0.045311,2e-05,87.226013,15.425735,-147.18309,,,
729706513.461681,-4.025275,-0.49114,165.704564,0.007065,-0.069702,0.989487,-0.027365,-0.04056,0.009128,87.226013,15.425735,-147.18309,,,
729706513.465001,-4.033598,-0.501891,165.707727,0.007065,-0.069702,0.989487,-0.027365,-0.04056,0.009128,87.226013,15.425735,-147.18309,,,
729706513.468381,-4.033598,-0.501891,165.707727,0.007065,-0.069702,0.989487,-0.027365,-0.04056,0.009128,87.226013,15.425735,-147.18309,,,
729706513.471659,-4.044103,-0.510114,165.711264,0.007965,-0.069992,0.993805,-0.039611,-0.022147,0.011876,87.226013,15.425735,-147.18309,,,
729706513.475034,-4.055493,-0.516194,165.715231,0.007965,-0.069992,0.993805,-0.039611,-0.022147,0.011876,87.226013,15.425735,-147.18309,,,
729706513.478348,-4.055493,-0.516194,165.715231,0.007965,-0.069992,0.993805,-0.039611,-0.022147,0.011876,87.226013,15.425735,-147.18309,,,
729706513.481714,-4.068749,-0.520093,165.719861,0.01004,-0.068604,0.997269,-0.045413,-0.009657,0.016346,87.226013,15.425735,-147.18309,,,
729706513.484982,-4.080119,-0.523556,165.724965,0.01004,-0.068604,0.997269,-0.045413,-0.009657,0.016346,87.029175,15.413361,-147.199661,,,
729706513.488338,-4.080119,-0.523556,165.724965,0.01004,-0.068604,0.997269,-0.045413,-0.009657,0.016346,87.029175,15.413361,-147.199661,,,
729706513.491662,-4.091287,-0.525575,165.730512,0.009338,-0.068054,0.996048,-0.035902,-0.003705,0.019072,87.029175,15.413361,-147.199661,,,
729706513.495041,-4.099492,-0.527895,165.736716,0.009338,-0.068054,0.996048,-0.035902,-0.003705,0.019072,87.029175,15.413361,-147.199661,,,
729706513.49832,-4.099492,-0.527895,165.736716,0.009338,-0.068054,0.996048,-0.035902,-0.003705,0.019072,87.029175,15.413361,-147.199661,,,
729706513.501667,-4.105526,-0.531481,165.743203,0.009003,-0.069183,0.995712,-0.015087,-0.011514,0.020936,87.029175,15.413361,-147.199661,,,
729706513.50501,-4.108389,-0.536054,165.749659,0.009003,-0.069183,0.995712,-0.015087,-0.011514,0.020936,87.029175,15.413361,-147.199661,,,
729706513.508382,-4.108389,-0.536054,165.749659,0.009003,-0.069183,0.995712,-0.015087,-0.011514,0.020936,87.029175,15.413361,-147.199661,,,
729706513.51167,-4.110513,-0.542634,165.756152,0.009491,-0.065857,0.99263,-0.005379,-0.022146,0.021297,87.029175,15.413361,-147.199661,,,
729706513.515011,-4.11228,-0.547949,165.762499,0.009491,-0.065857,0.99263,-0.005379,-0.022146,0.021297,87.029175,15.413361,-147.199661,,,
729706513.518332,-4.11228,-0.547949,165.762499,0.009491,-0.065857,0.99263,-0.005379,-0.022146,0.021297,87.029175,15.413361,-147.199661,,,
729706513.521708,-4.115481,-0.555124,165.76817,0.012009,-0.060272,0.983749,-0.01522,-0.023632,0.017439,87.029175,15.413361,-147.199661,,,
729706513.524992,-4.121297,-0.560666,165.772997,0.012009,-0.060272,0.983749,-0.01522,-0.023632,0.017439,87.029175,15.413361,-147.199661,,,
729706513.528329,-4.121297,-0.560666,165.772997,0.012009,-0.060272,0.983749,-0.01522,-0.023632,0.017439,87.109543,15.516693,-147.409302,,,
729706513.531651,-4.129846,-0.56833,165.776657,0.014603,-0.058426,0.977814,-0.034433,-0.025418,0.010458,87.109543,15.516693,-147.409302,,,
729706513.535043,-4.142121,-0.575545,165.779277,0.014603,-0.058426,0.977814,-0.034433,-0.025418,0.010458,87.109543,15.516693,-147.409302,,,
729706513.53832,-4.142121,-0.575545,165.779277,0.014603,-0.058426,0.977814,-0.034433,-0.025418,0.010458,87.109543,15.516693,-147.409302,,,
729706513.541664,-4.15854,-0.583652,165.780718,0.015961,-0.061981,0.973938,-0.061375,-0.026964,0.002842,87.109543,15.516693,-147.409302,,,
729706513.545004,-4.177851,-0.592258,165.781735,0.015961,-0.061981,0.973938,-0.061375,-0.026964,0.002842,87.109543,15.516693,-147.409302,,,
729706513.548378,-4.177851,-0.592258,165.781735,0.015961,-0.061981,0.973938,-0.061375,-0.026964,0.002842,87.109543,15.516693,-147.409302,,,
729706513.551653,-4.201357,-0.603984,165.781893,0.018982,-0.066895,0.972229,-0.088696,-0.043507,-0.002495,87.109543,15.516693,-147.409302,,,
729706513.555023,-4.227346,-0.619463,165.780831,0.018982,-0.066895,0.972229,-0.088696,-0.043507,-0.002495,87.109543,15.516693,-147.409302,,,
729706513.558348,-4.227346,-0.619463,165.780831,0.018982,-0.066895,0.972229,-0.088696,-0.043507,-0.002495,87.109543,15.516693,-147.409302,,,
729706513.56171,-4.256005,-0.639855,165.778054,0.023224,-0.069717,0.968719,-0.102645,-0.075793,-0.014158,87.109543,15.516693,-147.409302,,,
729706513.565049,-4.285516,-0.663801,165.773189,0.023224,-0.069717,0.968719,-0.102645,-0.075793,-0.014158,87.109543,15.516693,-147.409302,,,
729706513.568341,-4.285516,-0.663801,165.773189,0.023224,-0.069717,0.968719,-0.102645,-0.075793,-0.014158,86.898346,15.544617,-147.096832,,,
729706513.571754,-4.317847,-0.688997,165.766312,0.024078,-0.071274,0.977478,-0.116363,-0.082069,-0.02781,86.898346,15.544617,-147.096832,,,
729706513.575047,-4.350995,-0.712045,165.757347,0.024078,-0.071274,0.977478,-0.116363,-0.082069,-0.02781,86.898346,15.544617,-147.096832,,,
729706513.57832,-4.350995,-0.712045,165.757347,0.024078,-0.071274,0.977478,-0.116363,-0.082069,-0.02781,86.898346,15.544617,-147.096832,,,
729706513.581671,-4.386468,-0.731358,165.746958,0.026382,-0.074753,0.992477,-0.125984,-0.052238,-0.037263,86.898346,15.544617,-147.096832,,,
729706513.584829,-4.386468,-0.731358,165.746958,0.026382,-0.074753,0.992477,-0.125984,-0.052238,-0.037263,86.898346,15.544617,-147.096832,,,
729706513.588362,-4.421533,-0.744693,165.736881,0.026382,-0.074753,0.992477,-0.125984,-0.052238,-0.037263,86.898346,15.544617,-147.096832,,,
729706513.591672,-4.459145,-0.753649,165.727781,0.02919,-0.082962,0.997772,-0.134422,-0.017578,-0.029991,86.898346,15.544617,-147.096832,,,
729706513.59502,-4.496336,-0.756738,165.719862,0.02919,-0.082962,0.997772,-0.134422,-0.017578,-0.029991,86.898346,15.544617,-147.096832,,,
729706513.598317,-4.496336,-0.756738,165.719862,0.02919,-0.082962,0.997772,-0.134422,-0.017578,-0.029991,86.898346,15.544617,-147.096832,,,
729706513.601656,-4.537603,-0.754708,165.713454,0.029327,-0.082901,0.997864,-0.146375,0.020969,-0.019066,86.898346,15.544617,-147.096832,,,
729706513.605028,-4.57754,-0.747687,165.708435,0.029327,-0.082901,0.997864,-0.146375,0.020969,-0.019066,86.898346,15.544617,-147.096832,,,
729706513.608398,-4.57754,-0.747687,165.708435,0.029327,-0.082901,0.997864,-0.146375,0.020969,-0.019066,86.95575,15.791779,-147.224365,,,
729706513.611647,-4.621963,-0.736111,165.704083,0.029144,-0.083405,1.00145,-0.156325,0.050964,-0.014434,86.95575,15.791779,-147.224365,,,
729706513.614995,-4.621963,-0.736111,165.704083,0.029144,-0.083405,1.00145,-0.156325,0.050964,-0.014434,86.95575,15.791779,-147.224365,,,
729706513.618321,-4.664311,-0.721876,165.699595,0.029144,-0.083405,1.00145,-0.156325,0.050964,-0.014434,86.95575,15.791779,-147.224365,,,
729706513.621735,-4.710861,-0.704932,165.695308,0.02327,-0.086105,1.001495,-0.164222,0.064973,-0.013403,86.95575,15.791779,-147.224365,,,
729706513.625007,-4.710861,-0.704932,165.695308,0.02327,-0.086105,1.001495,-0.164222,0.064973,-0.013403,86.95575,15.791779,-147.224365,,,
729706513.628358,-4.756433,-0.688514,165.690871,0.02327,-0.086105,1.001495,-0.164222,0.064973,-0.013403,86.95575,15.791779,-147.224365,,,
729706513.631669,-4.806425,-0.672226,165.686197,0.016403,-0.088867,0.994751,-0.176107,0.056652,-0.015646,86.95575,15.791779,-147.224365,,,
729706513.635115,-4.806425,-0.661527,165.680643,0.016403,-0.088867,0.994751,-0.176107,0.056652,-0.015646,86.95575,15.791779,-147.224365,,,
729706513.63833,-4.855381,-0.661527,165.680643,0.016403,-0.088867,0.994751,-0.176107,0.056652,-0.015646,86.95575,15.791779,-147.224365,,,
729706513.641711,-4.908036,-0.651796,165.673869,0.013168,-0.08699,0.983887,-0.187531,0.034492,-0.0254,86.95575,15.791779,-147.224365,,,
729706513.644987,-4.908036,-0.651796,165.673869,0.013168,-0.08699,0.983887,-0.187531,0.034492,-0.0254,86.95575,15.791779,-147.224365,,,
729706513.64832,-4.960703,-0.648144,165.666078,0.013168,-0.08699,0.983887,-0.187531,0.034492,-0.0254,87.06572,16.455688,-147.640503,,,
729706513.651649,-5.01715,-0.645844,165.657583,0.007797,-0.085495,0.978302,-0.19957,0.007916,-0.031728,87.06572,16.455688,-147.640503,,,
729706513.654998,-5.01715,-0.645844,165.657583,0.007797,-0.085495,0.978302,-0.19957,0.007916,-0.031728,87.06572,16.455688,-147.640503,,,
729706513.658337,-5.073141,-0.649459,165.647959,0.007797,-0.085495,0.978302,-0.19957,0.007916,-0.031728,87.06572,16.455688,-147.640503,,,
729706513.661737,-5.133224,-0.651547,165.638488,0.004715,-0.089661,0.983673,-0.213113,-0.00149,-0.032268,87.06572,16.455688,-147.640503,,,
729706513.665,-5.133224,-0.651547,165.638488,0.004715,-0.089661,0.983673,-0.213113,-0.00149,-0.032268,87.06572,16.455688,-147.640503,,,
729706513.668337,-5.194826,-0.656821,165.629399,0.004715,-0.089661,0.983673,-0.213113,-0.00149,-0.032268,87.06572,16.455688,-147.640503,,,
729706513.671659,-5.261011,-0.658677,165.622286,-0.000885,-0.095367,0.989075,-0.234028,-0.000586,-0.020277,87.06572,16.455688,-147.640503,,,
729706513.675062,-5.261011,-0.658677,165.622286,-0.000885,-0.095367,0.989075,-0.234028,-0.000586,-0.020277,87.06572,16.455688,-147.640503,,,
729706513.67833,-5.327687,-0.66374,165.616713,-0.000885,-0.095367,0.989075,-0.234028,-0.000586,-0.020277,87.06572,16.455688,-147.640503,,,
729706513.681656,-5.39646,-0.664325,165.613302,-0.000687,-0.102829,0.995712,-0.239789,0.004942,-0.007425,87.06572,16.455688,-147.640503,,,
729706513.685001,-5.39646,-0.664325,165.613302,-0.000687,-0.102829,0.995712,-0.239789,0.004942,-0.007425,87.06572,16.455688,-147.640503,,,
729706513.688316,-5.46368,-0.666837,165.611605,-0.000687,-0.102829,0.995712,-0.239789,0.004942,-0.007425,87.06572,16.455688,-147.640503,,,
729706513.691651,-5.53292,-0.664359,165.611824,-0.000519,-0.107361,1.003128,-0.240428,0.013147,0.003468,87.127563,16.719696,-147.43718,,,
729706513.695002,-5.53292,-0.664359,165.611824,-0.000519,-0.107361,1.003128,-0.240428,0.013147,0.003468,87.127563,16.719696,-147.43718,,,
729706513.698402,-5.598916,-0.66444,165.612649,-0.000519,-0.107361,1.003128,-0.240428,0.013147,0.003468,87.127563,16.719696,-147.43718,,,
729706513.701715,-5.664133,-0.660352,165.615171,0.001205,-0.110031,1.005295,-0.221919,0.018657,0.012817,87.127563,16.719696,-147.43718,,,
729706513.704976,-5.664133,-0.660352,165.615171,0.001205,-0.110031,1.005295,-0.221919,0.018657,0.012817,87.127563,16.719696,-147.43718,,,
729706513.708332,-5.724513,-0.656386,165.61891,0.001205,-0.110031,1.005295,-0.221919,0.018657,0.012817,87.127563,16.719696,-147.43718,,,
729706513.711652,-5.783955,-0.649866,165.623361,0.001266,-0.111588,1.010986,-0.202777,0.025698,0.016426,87.127563,16.719696,-147.43718,,,
729706513.71501,-5.783955,-0.649866,165.623361,0.001266,-0.111588,1.010986,-0.202777,0.025698,0.016426,87.127563,16.719696,-147.43718,,,
729706513.718333,-5.840206,-0.64348,165.628333,0.001266,-0.111588,1.010986,-0.202777,0.025698,0.016426,87.127563,16.719696,-147.43718,,,
729706513.72165,-5.898475,-0.637301,165.6339,0.004044,-0.1129,0.998947,-0.203789,0.018057,0.019922,87.127563,16.719696,-147.43718,,,
729706513.725048,-5.898475,-0.637301,165.6339,0.004044,-0.1129,0.998947,-0.203789,0.018057,0.019922,87.127563,16.719696,-147.43718,,,
729706513.728322,-5.954808,-0.634787,165.640085,0.004044,-0.1129,0.998947,-0.203789,0.018057,0.019922,87.127563,16.719696,-147.43718,,,
729706513.731651,-6.014165,-0.637202,165.647337,0.001831,-0.114716,0.984421,-0.20772,-0.016463,0.027421,87.043442,17.214233,-147.459595,,,
729706513.734999,-6.014165,-0.637202,165.647337,0.001831,-0.114716,0.984421,-0.20772,-0.016463,0.027421,87.043442,17.214233,-147.459595,,,
729706513.738485,-6.072177,-0.642468,165.655521,0.001831,-0.114716,0.984421,-0.20772,-0.016463,0.027421,87.043442,17.214233,-147.459595,,,
729706513.741648,-6.134917,-0.650434,165.66367,-0.000397,-0.112793,0.982895,-0.222757,-0.028866,0.028128,87.043442,17.214233,-147.459595,,,
729706513.744986,-6.134917,-0.650434,165.66367,-0.000397,-0.112793,0.982895,-0.222757,-0.028866,0.028128,87.043442,17.214233,-147.459595,,,
729706513.748353,-6.19786,-0.65743,165.671184,-0.000397,-0.112793,0.982895,-0.222757,-0.028866,0.028128,87.043442,17.214233,-147.459595,,,
729706513.751661,-6.266365,-0.668234,165.677731,0.004608,-0.107864,0.981125,-0.246562,-0.041097,0.02326,87.043442,17.214233,-147.459595,,,
729706513.754991,-6.266365,-0.668234,165.677731,0.004608,-0.107864,0.981125,-0.246562,-0.041097,0.02326,87.043442,17.214233,-147.459595,,,
729706513.758347,-6.337492,-0.678905,165.684484,0.004608,-0.107864,0.981125,-0.246562,-0.041097,0.02326,87.043442,17.214233,-147.459595,,,
729706513.761668,-6.413336,-0.695955,165.691254,0.004837,-0.112,0.976974,-0.269422,-0.067501,0.025749,87.043442,17.214233,-147.459595,,,
729706513.764991,-6.413336,-0.695955,165.691254,0.004837,-0.112,0.976974,-0.269422,-0.067501,0.025749,87.043442,17.214233,-147.459595,,,
729706513.768362,-6.491377,-0.715594,165.697816,0.004837,-0.112,0.976974,-0.269422,-0.067501,0.025749,87.043442,17.214233,-147.459595,,,
729706513.771792,-6.574354,-0.742722,165.703221,0.001556,-0.11441,0.978943,-0.295249,-0.100955,0.020316,87.10939,17.744202,-147.618484,,,
729706513.774986,-6.574354,-0.742722,165.703221,0.001556,-0.11441,0.978943,-0.295249,-0.100955,0.020316,87.10939,17.744202,-147.618484,,,
729706513.778343,-6.659832,-0.771294,165.708057,0.001556,-0.11441,0.978943,-0.295249,-0.100955,0.020316,87.10939,17.744202,-147.618484,,,
729706513.781655,-6.748532,-0.805047,165.710988,0.004242,-0.113586,0.986252,-0.311092,-0.118827,0.009583,87.10939,17.744202,-147.618484,,,
729706513.784993,-6.748532,-0.805047,165.710988,0.004242,-0.113586,0.986252,-0.311092,-0.118827,0.009583,87.10939,17.744202,-147.618484,,,
729706513.788429,-6.837031,-0.838363,165.712885,0.004242,-0.113586,0.986252,-0.311092,-0.118827,0.009583,87.10939,17.744202,-147.618484,,,
729706513.791654,-6.926982,-0.877088,165.713229,0.007431,-0.121078,0.993378,-0.311813,-0.136634,0.001399,87.10939,17.744202,-147.618484,,,
729706513.795006,-6.926982,-0.877088,165.713229,0.007431,-0.121078,0.993378,-0.311813,-0.136634,0.001399,87.10939,17.744202,-147.618484,,,
729706513.798342,-7.014966,-0.9154,165.713121,0.007431,-0.121078,0.993378,-0.311813,-0.136634,0.001399,87.10939,17.744202,-147.618484,,,
729706513.80166,-7.104793,-0.957882,165.712045,0.007462,-0.126663,0.990448,-0.314088,-0.146206,-0.002533,87.10939,17.744202,-147.618484,,,
729706513.805004,-7.104793,-0.957882,165.712045,0.007462,-0.126663,0.990448,-0.314088,-0.146206,-0.002533,87.10939,17.744202,-147.618484,,,
729706513.808346,-7.194148,-0.998865,165.710387,0.007462,-0.126663,0.990448,-0.314088,-0.146206,-0.002533,87.10939,17.744202,-147.618484,,,
729706513.811667,-7.284946,-1.043255,165.708346,0.007874,-0.125702,0.986984,-0.315302,-0.154213,-0.002748,86.557587,18.307465,-147.802567,,,
729706513.815062,-7.284946,-1.043255,165.708346,0.007874,-0.125702,0.986984,-0.315302,-0.154213,-0.002748,86.557587,18.307465,-147.802567,,,
729706513.818334,-7.373795,-1.086647,165.707398,0.007874,-0.125702,0.986984,-0.315302,-0.154213,-0.002748,86.557587,18.307465,-147.802567,,,
729706513.821656,-7.462681,-1.134812,165.706864,0.006485,-0.127411,0.984451,-0.305898,-0.166952,0.003117,86.557587,18.307465,-147.802567,,,
729706513.824984,-7.462681,-1.134812,165.706864,0.006485,-0.127411,0.984451,-0.305898,-0.166952,0.003117,86.557587,18.307465,-147.802567,,,
729706513.828425,-7.550374,-1.184744,165.706888,0.006485,-0.127411,0.984451,-0.305898,-0.166952,0.003117,86.557587,18.307465,-147.802567,,,
729706513.831648,-7.638064,-1.23497,165.707792,0.007614,-0.133987,0.985123,-0.305785,-0.169963,0.00967,86.557587,18.307465,-147.802567,,,
729706513.835009,-7.638064,-1.23497,165.707792,0.007614,-0.133987,0.985123,-0.305785,-0.169963,0.00967,86.557587,18.307465,-147.802567,,,
729706513.838335,-7.725536,-1.284269,165.709319,0.007614,-0.133987,0.985123,-0.305785,-0.169963,0.00967,86.557587,18.307465,-147.802567,,,
729706513.841657,-7.812712,-1.332879,165.711572,0.01236,-0.136963,0.986176,-0.30351,-0.16595,0.015123,86.557587,18.307465,-147.802567,,,
729706513.845002,-7.812712,-1.332879,165.711572,0.01236,-0.136963,0.986176,-0.30351,-0.16595,0.015123,86.557587,18.307465,-147.802567,,,
729706513.848338,-7.899528,-1.379587,165.714685,0.01236,-0.136963,0.986176,-0.30351,-0.16595,0.015123,86.557587,18.307465,-147.802567,,,
729706513.851651,-7.986197,-1.422189,165.71881,0.015976,-0.139511,0.993835,-0.302096,-0.138374,0.022533,86.557587,18.307465,-147.802567,,,
729706513.855104,-7.986197,-1.422189,165.71881,0.015976,-0.139511,0.993835,-0.302096,-0.138374,0.022533,86.157135,19.020264,-147.939514,,,
729706513.858317,-8.073218,-1.459156,165.7244,0.015976,-0.139511,0.993835,-0.302096,-0.138374,0.022533,86.157135,19.020264,-147.939514,,,
729706513.861661,-8.159982,-1.490482,165.730835,0.016205,-0.144913,1.00351,-0.299935,-0.100007,0.028633,86.157135,19.020264,-147.939514,,,
729706513.864999,-8.159982,-1.490482,165.730835,0.016205,-0.144913,1.00351,-0.299935,-0.100007,0.028633,86.157135,19.020264,-147.939514,,,
729706513.868404,-8.246524,-1.516618,165.737048,0.016205,-0.144913,1.00351,-0.299935,-0.100007,0.028633,86.157135,19.020264,-147.939514,,,
729706513.871644,-8.332347,-1.538015,165.743406,0.026093,-0.144791,1.003708,-0.294697,-0.067264,0.029722,86.157135,19.020264,-147.939514,,,
729706513.875008,-8.332347,-1.538015,165.743406,0.026093,-0.144791,1.003708,-0.294697,-0.067264,0.029722,86.157135,19.020264,-147.939514,,,
729706513.878346,-8.416499,-1.555198,165.749825,0.026093,-0.144791,1.003708,-0.294697,-0.067264,0.029722,86.157135,19.020264,-147.939514,,,
729706513.881658,-8.498566,-1.569634,165.756173,0.02916,-0.14592,1.00119,-0.280223,-0.048229,0.029007,86.157135,19.020264,-147.939514,,,
729706513.885008,-8.498566,-1.569634,165.756173,0.02916,-0.14592,1.00119,-0.280223,-0.048229,0.029007,86.157135,19.020264,-147.939514,,,
729706513.888353,-8.578181,-1.582304,165.762863,0.02916,-0.14592,1.00119,-0.280223,-0.048229,0.029007,86.157135,19.020264,-147.939514,,,
729706513.891658,-8.657242,-1.592402,165.769395,0.028214,-0.146759,0.995605,-0.276438,-0.030326,0.027932,86.157135,19.020264,-147.939514,,,
729706513.894992,-8.657242,-1.592402,165.769395,0.028214,-0.146759,0.995605,-0.276438,-0.030326,0.027932,86.128098,19.575134,-147.787033,,,
729706513.898354,-8.737392,-1.600723,165.774887,0.028214,-0.146759,0.995605,-0.276438,-0.030326,0.027932,86.128098,19.575134,-147.787033,,,
729706513.901655,-8.819777,-1.609097,165.778744,0.031616,-0.142456,0.983047,-0.292351,-0.029123,0.017194,86.128098,19.575134,-147.787033,,,
729706513.904986,-8.819777,-1.609097,165.778744,0.031616,-0.142456,0.983047,-0.292351,-0.029123,0.017194,86.128098,19.575134,-147.787033,,,
729706513.908353,-8.904888,-1.619252,165.781531,0.031616,-0.142456,0.983047,-0.292351,-0.029123,0.017194,86.128098,19.575134,-147.787033,,,
729706513.911656,-8.991895,-1.631385,165.78291,0.031143,-0.143768,0.975815,-0.305763,-0.041498,0.007976,86.128098,19.575134,-147.787033,,,
729706513.914999,-8.991895,-1.631385,165.78291,0.031143,-0.143768,0.975815,-0.305763,-0.041498,0.007976,86.128098,19.575134,-147.787033,,,
729706513.918391,-9.080588,-1.644457,165.782517,0.031143,-0.143768,0.975815,-0.305763,-0.041498,0.007976,86.128098,19.575134,-147.787033,,,
729706513.921651,-9.170844,-1.658484,165.781324,0.027039,-0.149887,0.98259,-0.316624,-0.047338,0.002925,86.128098,19.575134,-147.787033,,,
729706513.925003,-9.170844,-1.658484,165.781324,0.027039,-0.149887,0.98259,-0.316624,-0.047338,0.002925,86.128098,19.575134,-147.787033,,,
729706513.928357,-9.26255,-1.674187,165.779434,0.027039,-0.149887,0.98259,-0.316624,-0.047338,0.002925,86.128098,19.575134,-147.787033,,,
729706513.931653,-9.355766,-1.692551,165.776812,0.026337,-0.149231,0.98262,-0.327095,-0.065099,-0.001603,86.128098,19.575134,-147.787033,,,
