Time (sec),Pitch (deg),Roll (deg),Yaw(deg),X-Acceleration (g),Y-Acceleration (g),Z-Acceleration (g),Pitch Rate (deg/sec),Roll Rate (deg/sec),Yaw Rate (deg/sec),Magnetic Field in X direction (uT),Magnetic Field in Y direction (uT),Magnetic Field in Z Direction (uT),Latitude (deg),Longitude (deg),Altitude (m)
729716848.877425,-74.429483,31.892998,125.021739,-0.121002,-0.972961,0.25058,0.789001,-0.052123,-0.031793,93.679184,73.102798,-93.597031,,,
729716848.87761,-74.42943,31.892982,128.098572,-0.121002,-0.972961,0.25058,0.789001,-0.052123,-0.031793,93.679184,73.102798,-93.597031,,,
729716848.878281,-74.235236,31.426578,163.161,-0.122101,-0.979218,0.26004,0.817719,-0.024214,-0.021565,93.679184,73.102798,-93.597031,,,
729716848.882197,-74.235246,31.426584,124.547814,-0.122101,-0.979218,0.26004,0.817719,-0.024214,-0.021565,93.679184,73.102798,-93.597031,,,
729716848.883765,-74.235194,31.426568,127.624647,-0.122101,-0.979218,0.26004,0.817719,-0.024214,-0.021565,93.679184,73.102798,-93.597031,,,
729716848.883926,-74.035404,30.978793,162.701886,-0.122101,-0.979218,0.26004,0.817719,-0.024214,-0.021565,93.679184,73.102798,-93.597031,,,
729716848.884469,-74.035415,30.978799,124.088707,-0.122101,-0.979218,0.26004,0.817719,-0.024214,-0.021565,93.679184,73.102798,-93.597031,,,
729716848.885014,-74.035363,30.978784,127.16554,-0.122101,-0.979218,0.26004,0.817719,-0.024214,-0.021565,93.679184,73.102798,-93.597031,,,
729716848.885118,-74.035404,30.978793,162.701886,-0.122101,-0.979218,0.26004,0.817719,-0.024214,-0.021565,93.679184,73.102798,-93.597031,,,
729716848.887358,-74.035415,30.978799,124.088707,-0.122101,-0.979218,0.26004,0.817719,-0.024214,-0.021565,93.679184,73.102798,-93.597031,,,
729716848.887592,-74.035363,30.978784,127.16554,-0.122101,-0.979218,0.26004,0.817719,-0.024214,-0.021565,93.679184,73.102798,-93.597031,,,
729716848.888273,-73.83095,30.551439,162.262432,-0.127762,-0.984741,0.257065,0.831781,-0.016588,0.00546,93.679184,73.102798,-93.597031,,,
729716848.892552,-73.83096,30.551445,123.649238,-0.127762,-0.984741,0.257065,0.831781,-0.016588,0.00546,93.679184,73.102798,-93.597031,,,
729716848.894301,-73.830909,30.55143,126.726072,-0.127762,-0.984741,0.257065,0.831781,-0.016588,0.00546,93.679184,73.102798,-93.597031,,,
729716848.894416,-73.621126,30.144343,161.846824,-0.127762,-0.984741,0.257065,0.831781,-0.016588,0.00546,93.679184,73.102798,-93.597031,,,
729716848.894973,-73.621136,30.144348,123.233633,-0.127762,-0.984741,0.257065,0.831781,-0.016588,0.00546,93.679184,73.102798,-93.597031,,,
729716848.895208,-73.621126,30.144343,161.846824,-0.127762,-0.984741,0.257065,0.831781,-0.016588,0.00546,93.679184,73.102798,-93.597031,,,
729716848.897707,-73.621136,30.144348,123.233633,-0.127762,-0.984741,0.257065,0.831781,-0.016588,0.00546,93.707687,73.25499,-95.356155,,,
729716848.899185,-73.621086,30.144334,126.310467,-0.141022,-0.989807,0.243179,0.838769,-0.050606,0.046465,93.707687,73.25499,-95.356155,,,
729716848.899314,-73.40673,29.758334,161.457846,-0.141022,-0.989807,0.243179,0.838769,-0.050606,0.046465,93.707687,73.25499,-95.356155,,,
729716848.901567,-73.40674,29.758339,122.844654,-0.141022,-0.989807,0.243179,0.838769,-0.050606,0.046465,93.707687,73.25499,-95.356155,,,
729716848.902132,-73.406691,29.758326,125.921489,-0.141022,-0.989807,0.243179,0.838769,-0.050606,0.046465,93.707687,73.25499,-95.356155,,,
729716848.90223,-73.40673,29.758334,161.457846,-0.141022,-0.989807,0.243179,0.838769,-0.050606,0.046465,93.707687,73.25499,-95.356155,,,
729716848.904621,-73.189861,29.395009,122.482808,-0.141022,-0.989807,0.243179,0.838769,-0.050606,0.046465,93.707687,73.25499,-95.356155,,,
729716848.905416,-73.189812,29.394996,125.559643,-0.141022,-0.989807,0.243179,0.838769,-0.050606,0.046465,93.707687,73.25499,-95.356155,,,
729716848.90557,-73.189851,29.395004,161.096001,-0.141022,-0.989807,0.243179,0.838769,-0.050606,0.046465,93.707687,73.25499,-95.356155,,,
729716848.907426,-73.189861,29.395009,122.482808,-0.141022,-0.989807,0.243179,0.838769,-0.050606,0.046465,93.707687,73.25499,-95.356155,,,
729716848.90766,-73.189812,29.394996,125.559643,-0.141022,-0.989807,0.243179,0.838769,-0.050606,0.046465,93.707687,73.25499,-95.356155,,,
729716848.908302,-72.972232,29.058834,160.762663,-0.148727,-0.985275,0.232193,0.820273,-0.054168,0.08118,93.707687,73.25499,-95.356155,,,
729716848.912102,-72.972242,29.058839,122.149472,-0.148727,-0.985275,0.232193,0.820273,-0.054168,0.08118,93.707687,73.25499,-95.356155,,,
729716848.913537,-72.972194,29.058827,125.226306,-0.148727,-0.985275,0.232193,0.820273,-0.054168,0.08118,93.707687,73.25499,-95.356155,,,
729716848.913701,-72.753894,28.746788,160.452185,-0.148727,-0.985275,0.232193,0.820273,-0.054168,0.08118,93.707687,73.25499,-95.356155,,,
729716848.914503,-72.753904,28.746793,121.838998,-0.148727,-0.985275,0.232193,0.820273,-0.054168,0.08118,93.707687,73.25499,-95.356155,,,
729716848.915256,-72.753856,28.74678,124.915832,-0.148727,-0.985275,0.232193,0.820273,-0.054168,0.08118,93.707687,73.25499,-95.356155,,,
729716848.915363,-72.753894,28.746788,160.452185,-0.148727,-0.985275,0.232193,0.820273,-0.054168,0.08118,93.707687,73.25499,-95.356155,,,
729716848.917335,-72.753904,28.746793,121.838998,-0.148727,-0.985275,0.232193,0.820273,-0.054168,0.08118,93.707687,73.25499,-95.356155,,,
729716848.917599,-72.753856,28.74678,124.915832,-0.148727,-0.985275,0.232193,0.820273,-0.054168,0.08118,93.707687,73.25499,-95.356155,,,
729716848.918268,-72.534158,28.45475,160.15896,-0.151138,-0.974915,0.248245,0.816287,-0.031934,0.10165,93.707687,73.25499,-95.356155,,,
729716848.92153,-72.534168,28.454755,121.545768,-0.151138,-0.974915,0.248245,0.816287,-0.031934,0.10165,93.707687,73.25499,-95.356155,,,
729716848.922488,-72.534121,28.454743,124.622603,-0.151138,-0.974915,0.248245,0.816287,-0.031934,0.10165,93.707687,73.25499,-95.356155,,,
729716848.922592,-72.534158,28.45475,160.15896,-0.151138,-0.974915,0.248245,0.816287,-0.031934,0.10165,93.707687,73.25499,-95.356155,,,
729716848.924556,-72.314012,28.181633,121.267153,-0.151138,-0.974915,0.248245,0.816287,-0.031934,0.10165,93.707687,73.25499,-95.356155,,,
729716848.925366,-72.313965,28.181622,124.343988,-0.151138,-0.974915,0.248245,0.816287,-0.031934,0.10165,93.707687,73.25499,-95.356155,,,
729716848.925524,-72.314002,28.181629,159.880345,-0.151138,-0.974915,0.248245,0.816287,-0.031934,0.10165,93.707687,73.25499,-95.356155,,,
729716848.927367,-72.314012,28.181633,121.267153,-0.151138,-0.974915,0.248245,0.816287,-0.031934,0.10165,93.707687,73.25499,-95.356155,,,
729716848.927636,-72.313965,28.181622,124.343988,-0.151138,-0.974915,0.248245,0.816287,-0.031934,0.10165,93.707687,73.25499,-95.356155,,,
729716848.928306,-72.094364,27.92567,159.614144,-0.140564,-0.960388,0.256958,0.805814,0.002938,0.109545,93.707687,73.25499,-95.356155,,,
729716848.932969,-72.094373,27.925674,121.000957,-0.140564,-0.960388,0.256958,0.805814,0.002938,0.109545,93.707687,73.25499,-95.356155,,,
729716848.934579,-71.875672,27.68469,123.821573,-0.140564,-0.960388,0.256958,0.805814,0.002938,0.109545,93.707687,73.25499,-95.356155,,,
729716848.934702,-71.875707,27.684696,159.357925,-0.140564,-0.960388,0.256958,0.805814,0.002938,0.109545,93.707687,73.25499,-95.356155,,,
729716848.935263,-71.875716,27.6847,120.744738,-0.140564,-0.960388,0.256958,0.805814,0.002938,0.109545,93.707687,73.25499,-95.356155,,,
729716848.935371,-71.875707,27.684696,159.357925,-0.140564,-0.960388,0.256958,0.805814,0.002938,0.109545,93.707687,73.25499,-95.356155,,,
729716848.937585,-71.875716,27.6847,120.744738,-0.140564,-0.960388,0.256958,0.805814,0.002938,0.109545,93.907669,73.245819,-97.020477,,,
729716848.937996,-71.875672,27.68469,123.821573,-0.140564,-0.960388,0.256958,0.805814,0.002938,0.109545,93.907669,73.245819,-97.020477,,,
729716848.938258,-71.657302,27.457661,159.110519,-0.134949,-0.950348,0.266632,0.799925,0.039601,0.113471,93.907669,73.245819,-97.020477,,,
729716848.94159,-71.657311,27.457665,120.497326,-0.134949,-0.950348,0.266632,0.799925,0.039601,0.113471,93.907669,73.245819,-97.020477,,,
729716848.942629,-71.657267,27.457654,123.574162,-0.134949,-0.950348,0.266632,0.799925,0.039601,0.113471,93.907669,73.245819,-97.020477,,,
729716848.942733,-71.657302,27.457661,159.110519,-0.134949,-0.950348,0.266632,0.799925,0.039601,0.113471,93.907669,73.245819,-97.020477,,,
729716848.944329,-71.438057,27.243423,120.258014,-0.134949,-0.950348,0.266632,0.799925,0.039601,0.113471,93.907669,73.245819,-97.020477,,,
729716848.944888,-71.438013,27.243413,123.334851,-0.134949,-0.950348,0.266632,0.799925,0.039601,0.113471,93.907669,73.245819,-97.020477,,,
729716848.944994,-71.438048,27.243419,158.87121,-0.134949,-0.950348,0.266632,0.799925,0.039601,0.113471,93.907669,73.245819,-97.020477,,,
729716848.947373,-71.438057,27.243423,120.258014,-0.134949,-0.950348,0.266632,0.799925,0.039601,0.113471,93.907669,73.245819,-97.020477,,,
729716848.947593,-71.438013,27.243413,123.334851,-0.134949,-0.950348,0.266632,0.799925,0.039601,0.113471,93.907669,73.245819,-97.020477,,,
729716848.948269,-71.217231,27.040962,158.640036,-0.144073,-0.949234,0.28038,0.805402,0.065908,0.123356,93.907669,73.245819,-97.020477,,,
729716848.952035,-71.21724,27.040966,120.026843,-0.144073,-0.949234,0.28038,0.805402,0.065908,0.123356,93.907669,73.245819,-97.020477,,,
729716848.953251,-71.217197,27.040956,123.10368,-0.144073,-0.949234,0.28038,0.805402,0.065908,0.123356,93.907669,73.245819,-97.020477,,,
729716848.953357,-70.993582,26.846353,158.415286,-0.144073,-0.949234,0.28038,0.805402,0.065908,0.123356,93.907669,73.245819,-97.020477,,,
729716848.954189,-70.993591,26.846357,119.802097,-0.144073,-0.949234,0.28038,0.805402,0.065908,0.123356,93.907669,73.245819,-97.020477,,,
729716848.954846,-70.993548,26.846347,122.878934,-0.144073,-0.949234,0.28038,0.805402,0.065908,0.123356,93.907669,73.245819,-97.020477,,,
729716848.954983,-70.993582,26.846353,158.415286,-0.144073,-0.949234,0.28038,0.805402,0.065908,0.123356,93.907669,73.245819,-97.020477,,,
729716848.957378,-70.993591,26.846357,119.802097,-0.144073,-0.949234,0.28038,0.805402,0.065908,0.123356,93.907669,73.245819,-97.020477,,,
729716848.957591,-70.993548,26.846347,122.878934,-0.144073,-0.949234,0.28038,0.805402,0.065908,0.123356,93.907669,73.245819,-97.020477,,,
729716848.95829,-70.76827,26.654885,158.19431,-0.146973,-0.950729,0.289185,0.815364,0.06089,0.125531,93.907669,73.245819,-97.020477,,,
729716848.962237,-70.768279,26.654888,119.581122,-0.146973,-0.950729,0.289185,0.815364,0.06089,0.125531,93.907669,73.245819,-97.020477,,,
729716848.963385,-70.768237,26.654879,122.657959,-0.146973,-0.950729,0.289185,0.815364,0.06089,0.125531,93.907669,73.245819,-97.020477,,,
729716848.963493,-70.542369,26.465293,157.977132,-0.146973,-0.950729,0.289185,0.815364,0.06089,0.125531,93.907669,73.245819,-97.020477,,,
729716848.964181,-70.542378,26.465297,119.363944,-0.146973,-0.950729,0.289185,0.815364,0.06089,0.125531,93.907669,73.245819,-97.020477,,,
729716848.964745,-70.542336,26.465288,122.440781,-0.146973,-0.950729,0.289185,0.815364,0.06089,0.125531,93.907669,73.245819,-97.020477,,,
729716848.964922,-70.542369,26.465293,157.977132,-0.146973,-0.950729,0.289185,0.815364,0.06089,0.125531,93.907669,73.245819,-97.020477,,,
729716848.967377,-70.542378,26.465297,119.363944,-0.146973,-0.950729,0.289185,0.815364,0.06089,0.125531,93.907669,73.245819,-97.020477,,,
729716848.967589,-70.542336,26.465288,122.440781,-0.146973,-0.950729,0.289185,0.815364,0.06089,0.125531,93.907669,73.245819,-97.020477,,,
729716848.968276,-70.315383,26.276375,157.765603,-0.147079,-0.950592,0.294922,0.820373,0.026479,0.130287,93.907669,73.245819,-97.020477,,,
729716848.971271,-70.315391,26.276379,119.15242,-0.147079,-0.950592,0.294922,0.820373,0.026479,0.130287,93.907669,73.245819,-97.020477,,,
729716848.971955,-70.31535,26.27637,122.229257,-0.147079,-0.950592,0.294922,0.820373,0.026479,0.130287,93.907669,73.245819,-97.020477,,,
729716848.972065,-70.315383,26.276375,157.765603,-0.147079,-0.950592,0.294922,0.820373,0.026479,0.130287,93.907669,73.245819,-97.020477,,,
729716848.974394,-70.085958,26.08371,118.945428,-0.147079,-0.950592,0.294922,0.820373,0.026479,0.130287,93.907669,73.245819,-97.020477,,,
729716848.974944,-70.085918,26.083702,122.022265,-0.147079,-0.950592,0.294922,0.820373,0.026479,0.130287,93.907669,73.245819,-97.020477,,,
729716848.975107,-70.08595,26.083707,157.558623,-0.147079,-0.950592,0.294922,0.820373,0.026479,0.130287,93.907669,73.245819,-97.020477,,,
729716848.977987,-70.085958,26.08371,118.945428,-0.147079,-0.950592,0.294922,0.820373,0.026479,0.130287,94.091278,73.086304,-98.854767,,,
729716848.980316,-70.085918,26.083702,121.818667,-0.159866,-0.94751,0.296799,0.841496,-0.029311,0.137065,94.091278,73.086304,-98.854767,,,
729716848.98047,-69.853239,25.886506,157.355028,-0.159866,-0.94751,0.296799,0.841496,-0.029311,0.137065,94.091278,73.086304,-98.854767,,,
729716848.98194,-69.853247,25.88651,118.741829,-0.159866,-0.94751,0.296799,0.841496,-0.029311,0.137065,94.091278,73.086304,-98.854767,,,
729716848.982445,-69.853207,25.886502,121.818667,-0.159866,-0.94751,0.296799,0.841496,-0.029311,0.137065,94.091278,73.086304,-98.854767,,,
729716848.982541,-69.853239,25.886506,157.355028,-0.159866,-0.94751,0.296799,0.841496,-0.029311,0.137065,94.091278,73.086304,-98.854767,,,
729716848.984347,-69.616251,25.685473,118.542158,-0.159866,-0.94751,0.296799,0.841496,-0.029311,0.137065,94.091278,73.086304,-98.854767,,,
729716848.984912,-69.616211,25.685465,121.618997,-0.159866,-0.94751,0.296799,0.841496,-0.029311,0.137065,94.091278,73.086304,-98.854767,,,
729716848.985023,-69.616242,25.68547,157.155362,-0.159866,-0.94751,0.296799,0.841496,-0.029311,0.137065,94.091278,73.086304,-98.854767,,,
729716848.9874,-69.616251,25.685473,118.542158,-0.159866,-0.94751,0.296799,0.841496,-0.029311,0.137065,94.091278,73.086304,-98.854767,,,
729716848.987588,-69.616211,25.685465,121.618997,-0.159866,-0.94751,0.296799,0.841496,-0.029311,0.137065,94.091278,73.086304,-98.854767,,,
729716848.988284,-69.375288,25.480435,156.958653,-0.169601,-0.93895,0.309296,0.867162,-0.078572,0.144569,94.091278,73.086304,-98.854767,,,
729716848.991637,-69.375296,25.480438,118.345454,-0.169601,-0.93895,0.309296,0.867162,-0.078572,0.144569,94.091278,73.086304,-98.854767,,,
729716848.992688,-69.375257,25.480431,121.422293,-0.169601,-0.93895,0.309296,0.867162,-0.078572,0.144569,94.091278,73.086304,-98.854767,,,
729716848.992793,-69.375288,25.480435,156.958653,-0.169601,-0.93895,0.309296,0.867162,-0.078572,0.144569,94.091278,73.086304,-98.854767,,,
729716848.994346,-69.131076,25.270942,118.147983,-0.169601,-0.93895,0.309296,0.867162,-0.078572,0.144569,94.091278,73.086304,-98.854767,,,
729716848.994913,-69.131038,25.270934,121.224822,-0.169601,-0.93895,0.309296,0.867162,-0.078572,0.144569,94.091278,73.086304,-98.854767,,,
729716848.99507,-69.131068,25.270939,156.761185,-0.169601,-0.93895,0.309296,0.867162,-0.078572,0.144569,94.091278,73.086304,-98.854767,,,
729716848.997403,-69.131076,25.270942,118.147983,-0.169601,-0.93895,0.309296,0.867162,-0.078572,0.144569,94.091278,73.086304,-98.854767,,,
729716848.997627,-69.131038,25.270934,121.224822,-0.169601,-0.93895,0.309296,0.867162,-0.078572,0.144569,94.091278,73.086304,-98.854767,,,
729716848.998319,-68.883132,25.055664,156.55929,-0.167664,-0.928513,0.334274,0.898882,-0.092166,0.134013,94.091278,73.086304,-98.854767,,,
729716849.002092,-68.88314,25.055667,117.946091,-0.167664,-0.928513,0.334274,0.898882,-0.092166,0.134013,94.091278,73.086304,-98.854767,,,
729716849.003618,-68.883102,25.05566,121.02293,-0.167664,-0.928513,0.334274,0.898882,-0.092166,0.134013,94.091278,73.086304,-98.854767,,,
729716849.003771,-68.6292,24.830916,156.347207,-0.167664,-0.928513,0.334274,0.898882,-0.092166,0.134013,94.091278,73.086304,-98.854767,,,
729716849.004554,-68.629208,24.83092,117.734011,-0.167664,-0.928513,0.334274,0.898882,-0.092166,0.134013,94.091278,73.086304,-98.854767,,,
729716849.005346,-68.629171,24.830912,120.81085,-0.167664,-0.928513,0.334274,0.898882,-0.092166,0.134013,94.091278,73.086304,-98.854767,,,
729716849.005499,-68.6292,24.830916,156.347207,-0.167664,-0.928513,0.334274,0.898882,-0.092166,0.134013,94.091278,73.086304,-98.854767,,,
729716849.007305,-68.629208,24.83092,117.734011,-0.167664,-0.928513,0.334274,0.898882,-0.092166,0.134013,94.091278,73.086304,-98.854767,,,
729716849.007596,-68.629171,24.830912,120.81085,-0.167664,-0.928513,0.334274,0.898882,-0.092166,0.134013,94.091278,73.086304,-98.854767,,,
729716849.008283,-68.370044,24.601016,156.126349,-0.158524,-0.920807,0.350555,0.945015,-0.073645,0.115944,94.091278,73.086304,-98.854767,,,
729716849.011719,-68.370051,24.601019,117.513156,-0.158524,-0.920807,0.350555,0.945015,-0.073645,0.115944,94.091278,73.086304,-98.854767,,,
729716849.012866,-68.370014,24.601012,120.589995,-0.158524,-0.920807,0.350555,0.945015,-0.073645,0.115944,94.091278,73.086304,-98.854767,,,
729716849.012974,-68.370044,24.601016,156.126349,-0.158524,-0.920807,0.350555,0.945015,-0.073645,0.115944,94.091278,73.086304,-98.854767,,,
729716849.014493,-68.109654,24.376014,117.290232,-0.158524,-0.920807,0.350555,0.945015,-0.073645,0.115944,94.091278,73.086304,-98.854767,,,
729716849.015317,-68.109617,24.376007,120.367071,-0.158524,-0.920807,0.350555,0.945015,-0.073645,0.115944,94.091278,73.086304,-98.854767,,,
729716849.015473,-68.109646,24.376011,155.90343,-0.158524,-0.920807,0.350555,0.945015,-0.073645,0.115944,94.091278,73.086304,-98.854767,,,
729716849.017343,-68.109654,24.376014,117.290232,-0.158524,-0.920807,0.350555,0.945015,-0.073645,0.115944,94.091278,73.086304,-98.854767,,,
729716849.017648,-68.109617,24.376007,120.367071,-0.158524,-0.920807,0.350555,0.945015,-0.073645,0.115944,94.091278,73.086304,-98.854767,,,
729716849.018303,-68.109646,24.163722,155.684216,-0.153992,-0.917145,0.349579,0.928043,-0.011711,0.103773,94.091278,73.086304,-98.854767,,,
729716849.022341,-67.851994,24.163724,117.071018,-0.153992,-0.917145,0.349579,0.928043,-0.011711,0.103773,94.481827,72.675095,-100.756958,,,
729716849.024142,-67.851958,24.163718,120.147858,-0.153992,-0.917145,0.349579,0.928043,-0.011711,0.103773,94.481827,72.675095,-100.756958,,,
729716849.024307,-67.600203,23.967968,155.474794,-0.153992,-0.917145,0.349579,0.928043,-0.011711,0.103773,94.481827,72.675095,-100.756958,,,
729716849.025092,-67.600211,23.967971,116.861594,-0.153992,-0.917145,0.349579,0.928043,-0.011711,0.103773,94.481827,72.675095,-100.756958,,,
729716849.025243,-67.600203,23.967968,155.474794,-0.153992,-0.917145,0.349579,0.928043,-0.011711,0.103773,94.481827,72.675095,-100.756958,,,
729716849.027339,-67.600211,23.967971,116.861594,-0.153992,-0.917145,0.349579,0.928043,-0.011711,0.103773,94.481827,72.675095,-100.756958,,,
729716849.028059,-67.600175,23.967965,119.938434,-0.153992,-0.917145,0.349579,0.928043,-0.011711,0.103773,94.481827,72.675095,-100.756958,,,
729716849.028271,-67.600203,23.967968,155.474794,-0.15538,-0.91777,0.34967,0.902068,0.009378,0.104889,94.481827,72.675095,-100.756958,,,
729716849.031994,-67.351628,23.783764,116.661009,-0.15538,-0.91777,0.34967,0.902068,0.009378,0.104889,94.481827,72.675095,-100.756958,,,
729716849.033334,-67.351593,23.783758,119.737849,-0.15538,-0.91777,0.34967,0.902068,0.009378,0.104889,94.481827,72.675095,-100.756958,,,
729716849.033446,-67.103767,23.609177,155.081963,-0.15538,-0.91777,0.34967,0.902068,0.009378,0.104889,94.481827,72.675095,-100.756958,,,
729716849.034197,-67.103774,23.60918,116.46876,-0.15538,-0.91777,0.34967,0.902068,0.009378,0.104889,94.481827,72.675095,-100.756958,,,
729716849.034766,-67.10374,23.609174,119.545601,-0.15538,-0.91777,0.34967,0.902068,0.009378,0.104889,94.481827,72.675095,-100.756958,,,
729716849.034919,-67.103767,23.609177,155.081963,-0.15538,-0.91777,0.34967,0.902068,0.009378,0.104889,94.481827,72.675095,-100.756958,,,
729716849.03738,-67.103774,23.60918,116.46876,-0.15538,-0.91777,0.34967,0.902068,0.009378,0.104889,94.481827,72.675095,-100.756958,,,
729716849.03758,-67.10374,23.609174,119.545601,-0.15538,-0.91777,0.34967,0.902068,0.009378,0.104889,94.481827,72.675095,-100.756958,,,
729716849.038269,-67.103767,23.609177,155.081963,-0.159637,-0.917511,0.33728,0.841363,0.018762,0.118702,94.481827,72.675095,-100.756958,,,
729716849.041671,-66.862971,23.452288,116.293916,-0.159637,-0.917511,0.33728,0.841363,0.018762,0.118702,94.481827,72.675095,-100.756958,,,
729716849.042639,-66.862936,23.452282,119.370757,-0.159637,-0.917511,0.33728,0.841363,0.018762,0.118702,94.481827,72.675095,-100.756958,,,
729716849.042747,-66.862963,23.452285,154.907121,-0.159637,-0.917511,0.33728,0.841363,0.018762,0.118702,94.481827,72.675095,-100.756958,,,
729716849.044326,-66.635323,23.316785,116.143155,-0.159637,-0.917511,0.33728,0.841363,0.018762,0.118702,94.481827,72.675095,-100.756958,,,
729716849.044889,-66.635289,23.316779,119.219996,-0.159637,-0.917511,0.33728,0.841363,0.018762,0.118702,94.481827,72.675095,-100.756958,,,
729716849.045001,-66.635316,23.316783,154.756359,-0.159637,-0.917511,0.33728,0.841363,0.018762,0.118702,94.481827,72.675095,-100.756958,,,
729716849.04738,-66.635323,23.316785,116.143155,-0.159637,-0.917511,0.33728,0.841363,0.018762,0.118702,94.481827,72.675095,-100.756958,,,
729716849.04758,-66.635289,23.316779,119.219996,-0.159637,-0.917511,0.33728,0.841363,0.018762,0.118702,94.481827,72.675095,-100.756958,,,
729716849.048328,-66.422465,23.199367,154.629366,-0.163696,-0.909882,0.31813,0.722722,-0.008823,0.131486,94.481827,72.675095,-100.756958,,,
729716849.052158,-66.422473,23.199369,116.016159,-0.163696,-0.909882,0.31813,0.722722,-0.008823,0.131486,94.481827,72.675095,-100.756958,,,
729716849.053698,-66.422439,23.199364,119.093001,-0.163696,-0.909882,0.31813,0.722722,-0.008823,0.131486,94.481827,72.675095,-100.756958,,,
729716849.053822,-66.224634,23.096289,154.523422,-0.163696,-0.909882,0.31813,0.722722,-0.008823,0.131486,94.481827,72.675095,-100.756958,,,
729716849.054377,-66.224641,23.096292,115.910221,-0.163696,-0.909882,0.31813,0.722722,-0.008823,0.131486,94.481827,72.675095,-100.756958,,,
729716849.054934,-66.224608,23.096286,118.987062,-0.163696,-0.909882,0.31813,0.722722,-0.008823,0.131486,94.481827,72.675095,-100.756958,,,
729716849.055042,-66.224634,23.096289,154.523422,-0.163696,-0.909882,0.31813,0.722722,-0.008823,0.131486,94.481827,72.675095,-100.756958,,,
729716849.057375,-66.224641,23.096292,115.910221,-0.163696,-0.909882,0.31813,0.722722,-0.008823,0.131486,94.481827,72.675095,-100.756958,,,
729716849.057593,-66.224608,23.096286,118.987062,-0.163696,-0.909882,0.31813,0.722722,-0.008823,0.131486,94.481827,72.675095,-100.756958,,,
729716849.05828,-66.224634,23.008016,154.438671,-0.163696,-0.909882,0.31813,0.593733,-0.041746,0.136348,94.481827,72.675095,-100.756958,,,
729716849.062021,-66.043572,23.008018,115.825467,-0.166229,-0.89946,0.303284,0.593733,-0.041746,0.136348,94.771729,72.637131,-102.1418,,,
729716849.063475,-66.043539,23.008013,118.902308,-0.166229,-0.89946,0.303284,0.593733,-0.041746,0.136348,94.771729,72.637131,-102.1418,,,
729716849.063594,-65.879075,22.932894,154.371769,-0.166229,-0.89946,0.303284,0.593733,-0.041746,0.136348,94.771729,72.637131,-102.1418,,,
729716849.064128,-65.879082,22.932897,115.758575,-0.166229,-0.89946,0.303284,0.593733,-0.041746,0.136348,94.771729,72.637131,-102.1418,,,
729716849.064741,-65.879049,22.932892,118.835416,-0.166229,-0.89946,0.303284,0.593733,-0.041746,0.136348,94.771729,72.637131,-102.1418,,,
729716849.064935,-65.879075,22.932894,154.371769,-0.166229,-0.89946,0.303284,0.593733,-0.041746,0.136348,94.771729,72.637131,-102.1418,,,
729716849.067374,-65.879082,22.932897,115.758575,-0.166229,-0.89946,0.303284,0.593733,-0.041746,0.136348,94.771729,72.637131,-102.1418,,,
729716849.067589,-65.879049,22.932892,118.835416,-0.166229,-0.89946,0.303284,0.593733,-0.041746,0.136348,94.771729,72.637131,-102.1418,,,
729716849.068269,-65.879075,22.86928,154.317951,-0.165207,-0.88916,0.308197,0.474912,-0.045348,0.123758,94.771729,72.637131,-102.1418,,,
729716849.071621,-65.731035,22.869283,115.704757,-0.165207,-0.88916,0.308197,0.474912,-0.045348,0.123758,94.771729,72.637131,-102.1418,,,
729716849.072686,-65.731002,22.869277,118.781598,-0.165207,-0.88916,0.308197,0.474912,-0.045348,0.123758,94.771729,72.637131,-102.1418,,,
729716849.07279,-65.731027,22.86928,154.317951,-0.165207,-0.88916,0.308197,0.474912,-0.045348,0.123758,94.771729,72.637131,-102.1418,,,
729716849.074534,-65.599361,22.81731,115.661076,-0.165207,-0.88916,0.308197,0.474912,-0.045348,0.123758,94.771729,72.637131,-102.1418,,,
729716849.075346,-65.599328,22.817305,118.737918,-0.165207,-0.88916,0.308197,0.474912,-0.045348,0.123758,94.771729,72.637131,-102.1418,,,
729716849.075504,-65.599354,22.817308,154.274268,-0.165207,-0.88916,0.308197,0.474912,-0.045348,0.123758,94.771729,72.637131,-102.1418,,,
729716849.077311,-65.599361,22.81731,115.661076,-0.165207,-0.88916,0.308197,0.474912,-0.045348,0.123758,94.771729,72.637131,-102.1418,,,
729716849.077614,-65.599328,22.817305,118.737918,-0.165207,-0.88916,0.308197,0.474912,-0.045348,0.123758,94.771729,72.637131,-102.1418,,,
729716849.078307,-65.478624,22.772761,154.235253,-0.162949,-0.882996,0.337677,0.400144,-0.02359,0.105319,94.771729,72.637131,-102.1418,,,
729716849.081762,-65.478631,22.772764,115.622058,-0.162949,-0.882996,0.337677,0.400144,-0.02359,0.105319,94.771729,72.637131,-102.1418,,,
729716849.082928,-65.478598,22.772759,118.6989,-0.162949,-0.882996,0.337677,0.400144,-0.02359,0.105319,94.771729,72.637131,-102.1418,,,
729716849.083037,-65.478624,22.772761,154.235253,-0.162949,-0.882996,0.337677,0.400144,-0.02359,0.105319,94.771729,72.637131,-102.1418,,,
729716849.084237,-65.361945,22.729047,115.581099,-0.162949,-0.882996,0.337677,0.400144,-0.02359,0.105319,94.771729,72.637131,-102.1418,,,
729716849.084791,-65.361913,22.729042,118.65794,-0.162949,-0.882996,0.337677,0.400144,-0.02359,0.105319,94.771729,72.637131,-102.1418,,,
729716849.084916,-65.361938,22.729045,154.194292,-0.162949,-0.882996,0.337677,0.400144,-0.02359,0.105319,94.771729,72.637131,-102.1418,,,
729716849.08742,-65.361945,22.729047,115.581099,-0.162949,-0.882996,0.337677,0.400144,-0.02359,0.105319,94.771729,72.637131,-102.1418,,,
729716849.087634,-65.361913,22.729042,118.65794,-0.162949,-0.882996,0.337677,0.400144,-0.02359,0.105319,94.771729,72.637131,-102.1418,,,
729716849.088402,-65.247335,22.684381,154.150941,-0.168579,-0.886307,0.378403,0.389873,-0.015355,0.092135,94.771729,72.637131,-102.1418,,,
729716849.092068,-65.247342,22.684383,115.537741,-0.168579,-0.886307,0.378403,0.389873,-0.015355,0.092135,94.771729,72.637131,-102.1418,,,
729716849.093614,-65.24731,22.684378,118.614583,-0.168579,-0.886307,0.378403,0.389873,-0.015355,0.092135,94.771729,72.637131,-102.1418,,,
729716849.09377,-65.132575,22.636607,154.106522,-0.168579,-0.886307,0.378403,0.389873,-0.015355,0.092135,94.771729,72.637131,-102.1418,,,
729716849.094554,-65.132582,22.636609,115.493321,-0.168579,-0.886307,0.378403,0.389873,-0.015355,0.092135,94.771729,72.637131,-102.1418,,,
729716849.095397,-65.13255,22.636604,118.570163,-0.168579,-0.886307,0.378403,0.389873,-0.015355,0.092135,94.771729,72.637131,-102.1418,,,
729716849.095504,-65.132575,22.636607,154.106522,-0.168579,-0.886307,0.378403,0.389873,-0.015355,0.092135,94.771729,72.637131,-102.1418,,,
729716849.097276,-65.132582,22.636609,115.493321,-0.168579,-0.886307,0.378403,0.389873,-0.015355,0.092135,94.771729,72.637131,-102.1418,,,
729716849.097601,-65.13255,22.636604,118.570163,-0.168579,-0.886307,0.378403,0.389873,-0.015355,0.092135,94.771729,72.637131,-102.1418,,,
729716849.098313,-65.132575,22.636607,154.062025,-0.179977,-0.895233,0.395706,0.412611,-0.046982,0.099865,94.771729,72.637131,-102.1418,,,
729716849.102016,-65.014391,22.584268,115.448823,-0.179977,-0.895233,0.395706,0.412611,-0.046982,0.099865,94.827118,72.382294,-102.985657,,,
729716849.103481,-65.014359,22.584263,118.525665,-0.179977,-0.895233,0.395706,0.412611,-0.046982,0.099865,94.827118,72.382294,-102.985657,,,
729716849.103598,-64.889789,22.531068,154.02047,-0.179977,-0.895233,0.395706,0.412611,-0.046982,0.099865,94.827118,72.382294,-102.985657,,,
729716849.104134,-64.889796,22.53107,115.407271,-0.179977,-0.895233,0.395706,0.412611,-0.046982,0.099865,94.827118,72.382294,-102.985657,,,
729716849.104697,-64.889765,22.531065,118.484113,-0.179977,-0.895233,0.395706,0.412611,-0.046982,0.099865,94.827118,72.382294,-102.985657,,,
729716849.104936,-64.889789,22.531068,154.02047,-0.179977,-0.895233,0.395706,0.412611,-0.046982,0.099865,94.827118,72.382294,-102.985657,,,
729716849.107375,-64.889796,22.53107,115.407271,-0.179977,-0.895233,0.395706,0.412611,-0.046982,0.099865,94.827118,72.382294,-102.985657,,,
729716849.107589,-64.889765,22.531065,118.484113,-0.179977,-0.895233,0.395706,0.412611,-0.046982,0.099865,94.827118,72.382294,-102.985657,,,
729716849.108267,-64.889789,22.531068,154.02047,-0.179977,-0.895233,0.395706,0.412611,-0.046982,0.099865,94.827118,72.382294,-102.985657,,,
729716849.111627,-64.755475,22.479615,115.370583,-0.197754,-0.902588,0.409363,0.470527,-0.065882,0.137841,94.827118,72.382294,-102.985657,,,
729716849.112691,-64.755443,22.47961,118.447425,-0.197754,-0.902588,0.409363,0.470527,-0.065882,0.137841,94.827118,72.382294,-102.985657,,,
729716849.112799,-64.755468,22.479613,153.983785,-0.197754,-0.902588,0.409363,0.470527,-0.065882,0.137841,94.827118,72.382294,-102.985657,,,
729716849.11429,-64.608669,22.428839,115.339043,-0.197754,-0.902588,0.409363,0.470527,-0.065882,0.137841,94.827118,72.382294,-102.985657,,,
729716849.11484,-64.608637,22.428835,118.415885,-0.197754,-0.902588,0.409363,0.470527,-0.065882,0.137841,94.827118,72.382294,-102.985657,,,
729716849.114961,-64.608662,22.428837,153.952242,-0.197754,-0.902588,0.409363,0.470527,-0.065882,0.137841,94.827118,72.382294,-102.985657,,,
729716849.117374,-64.608669,22.428839,115.339043,-0.197754,-0.902588,0.409363,0.470527,-0.065882,0.137841,94.827118,72.382294,-102.985657,,,
729716849.117586,-64.608637,22.428835,118.415885,-0.197754,-0.902588,0.409363,0.470527,-0.065882,0.137841,94.827118,72.382294,-102.985657,,,
729716849.118311,-64.608662,22.428837,153.952242,-0.197754,-0.902588,0.409363,0.470527,-0.107973,0.191038,94.827118,72.382294,-102.985657,,,
729716849.121746,-64.447401,22.377322,115.31331,-0.20932,-0.906235,0.434082,0.55806,-0.107973,0.191038,94.827118,72.382294,-102.985657,,,
729716849.123236,-64.44737,22.377317,118.390153,-0.20932,-0.906235,0.434082,0.55806,-0.107973,0.191038,94.827118,72.382294,-102.985657,,,
729716849.123345,-64.271228,22.323939,153.906694,-0.20932,-0.906235,0.434082,0.55806,-0.107973,0.191038,94.827118,72.382294,-102.985657,,,
729716849.124194,-64.271234,22.323941,115.293492,-0.20932,-0.906235,0.434082,0.55806,-0.107973,0.191038,94.827118,72.382294,-102.985657,,,
729716849.124772,-64.271204,22.323936,118.370335,-0.20932,-0.906235,0.434082,0.55806,-0.107973,0.191038,94.827118,72.382294,-102.985657,,,
729716849.124916,-64.271228,22.323939,153.906694,-0.20932,-0.906235,0.434082,0.55806,-0.107973,0.191038,94.827118,72.382294,-102.985657,,,
729716849.127378,-64.271234,22.323941,115.293492,-0.20932,-0.906235,0.434082,0.55806,-0.107973,0.191038,94.827118,72.382294,-102.985657,,,
729716849.12758,-64.271204,22.323936,118.370335,-0.20932,-0.906235,0.434082,0.55806,-0.107973,0.191038,94.827118,72.382294,-102.985657,,,
729716849.12827,-64.271228,22.323939,153.906694,-0.20932,-0.906235,0.434082,0.55806,-0.107973,0.191038,94.827118,72.382294,-102.985657,,,
729716849.131505,-64.080854,22.267986,115.278389,-0.206802,-0.90657,0.438461,0.645187,-0.155726,0.240364,94.827118,72.382294,-102.985657,,,
729716849.132819,-64.080823,22.267981,118.355232,-0.206802,-0.90657,0.438461,0.645187,-0.155726,0.240364,94.827118,72.382294,-102.985657,,,
729716849.132922,-64.080847,22.267983,153.891591,-0.206802,-0.90657,0.438461,0.645187,-0.155726,0.240364,94.827118,72.382294,-102.985657,,,
729716849.134269,-63.877139,22.209957,115.266275,-0.206802,-0.90657,0.438461,0.645187,-0.155726,0.240364,94.827118,72.382294,-102.985657,,,
729716849.134818,-63.877108,22.209953,118.343118,-0.206802,-0.90657,0.438461,0.645187,-0.155726,0.240364,94.827118,72.382294,-102.985657,,,
729716849.13495,-63.877132,22.209955,153.879472,-0.206802,-0.90657,0.438461,0.645187,-0.155726,0.240364,94.827118,72.382294,-102.985657,,,
729716849.137377,-63.877139,22.209957,115.266275,-0.206802,-0.90657,0.438461,0.645187,-0.155726,0.240364,94.827118,72.382294,-102.985657,,,
729716849.137586,-63.877108,22.209953,118.343118,-0.206802,-0.90657,0.438461,0.645187,-0.155726,0.240364,94.827118,72.382294,-102.985657,,,
729716849.138268,-63.877132,22.209955,153.879472,-0.206802,-0.90657,0.438461,0.645187,-0.155726,0.240364,94.827118,72.382294,-102.985657,,,
729716849.142415,-63.662015,22.151515,115.254527,-0.195312,-0.904404,0.440948,0.719018,-0.161037,0.269722,95.249084,72.107895,-104.472885,,,
729716849.143761,-63.661985,22.15151,118.331369,-0.195312,-0.904404,0.440948,0.719018,-0.161037,0.269722,95.249084,72.107895,-104.472885,,,
729716849.143875,-63.437117,22.093908,153.853188,-0.195312,-0.904404,0.440948,0.719018,-0.161037,0.269722,95.249084,72.107895,-104.472885,,,
729716849.144423,-63.437123,22.09391,115.23999,-0.195312,-0.904404,0.440948,0.719018,-0.161037,0.269722,95.249084,72.107895,-104.472885,,,
729716849.145043,-63.437094,22.093906,118.316833,-0.195312,-0.904404,0.440948,0.719018,-0.161037,0.269722,95.249084,72.107895,-104.472885,,,
729716849.145157,-63.437117,22.093908,153.853188,-0.195312,-0.904404,0.440948,0.719018,-0.161037,0.269722,95.249084,72.107895,-104.472885,,,
729716849.147357,-63.437123,22.09391,115.23999,-0.195312,-0.904404,0.440948,0.719018,-0.161037,0.269722,95.249084,72.107895,-104.472885,,,
729716849.147595,-63.437094,22.093906,118.316833,-0.195312,-0.904404,0.440948,0.719018,-0.161037,0.269722,95.249084,72.107895,-104.472885,,,
729716849.148267,-63.437117,22.093908,153.853188,-0.195312,-0.904404,0.440948,0.719018,-0.161037,0.269722,95.249084,72.107895,-104.472885,,,
729716849.151541,-63.203743,22.039261,115.219877,-0.177277,-0.89978,0.45546,0.781594,-0.106035,0.274145,95.249084,72.107895,-104.472885,,,
729716849.152514,-63.203713,22.039256,118.29672,-0.177277,-0.89978,0.45546,0.781594,-0.106035,0.274145,95.249084,72.107895,-104.472885,,,
729716849.152618,-63.203736,22.039259,153.83308,-0.177277,-0.89978,0.45546,0.781594,-0.106035,0.274145,95.249084,72.107895,-104.472885,,,
729716849.154326,-62.962886,21.986926,115.191464,-0.177277,-0.89978,0.45546,0.781594,-0.106035,0.274145,95.249084,72.107895,-104.472885,,,
729716849.154879,-62.962857,21.986922,118.268307,-0.177277,-0.89978,0.45546,0.781594,-0.106035,0.274145,95.249084,72.107895,-104.472885,,,
729716849.154988,-62.962879,21.986924,153.804668,-0.177277,-0.89978,0.45546,0.781594,-0.106035,0.274145,95.249084,72.107895,-104.472885,,,
729716849.15737,-62.962886,21.986926,115.191464,-0.177277,-0.89978,0.45546,0.781594,-0.106035,0.274145,95.249084,72.107895,-104.472885,,,
729716849.15759,-62.962857,21.986922,118.268307,-0.177277,-0.89978,0.45546,0.781594,-0.106035,0.274145,95.249084,72.107895,-104.472885,,,
729716849.1583,-62.962879,21.986924,153.804668,-0.177277,-0.89978,0.45546,0.781594,-0.106035,0.274145,95.249084,72.107895,-104.472885,,,
729716849.161746,-62.717219,21.936253,115.156363,-0.164246,-0.893478,0.473419,0.822073,-0.053444,0.26493,95.249084,72.107895,-104.472885,,,
729716849.162896,-62.71719,21.936249,118.233207,-0.164246,-0.893478,0.473419,0.822073,-0.053444,0.26493,95.249084,72.107895,-104.472885,,,
729716849.163002,-62.717212,21.936251,153.769567,-0.164246,-0.893478,0.473419,0.822073,-0.053444,0.26493,95.249084,72.107895,-104.472885,,,
729716849.164243,-62.469978,21.884565,115.115836,-0.164246,-0.893478,0.473419,0.822073,-0.053444,0.26493,95.249084,72.107895,-104.472885,,,
729716849.164815,-62.469949,21.884561,118.19268,-0.164246,-0.893478,0.473419,0.822073,-0.053444,0.26493,95.249084,72.107895,-104.472885,,,
729716849.164934,-62.469971,21.884563,153.729038,-0.164246,-0.893478,0.473419,0.822073,-0.053444,0.26493,95.249084,72.107895,-104.472885,,,
729716849.167406,-62.469978,21.884565,115.115836,-0.164246,-0.893478,0.473419,0.822073,-0.053444,0.26493,95.249084,72.107895,-104.472885,,,
729716849.167623,-62.469949,21.884561,118.19268,-0.164246,-0.893478,0.473419,0.822073,-0.053444,0.26493,95.249084,72.107895,-104.472885,,,
729716849.168341,-62.469971,21.884563,153.729038,-0.164246,-0.893478,0.473419,0.822073,-0.053444,0.26493,95.249084,72.107895,-104.472885,,,
729716849.171649,-62.224219,21.829181,115.070586,-0.155273,-0.886978,0.454269,0.819441,-0.050709,0.24438,95.249084,72.107895,-104.472885,,,
729716849.172772,-62.224191,21.829177,118.14743,-0.155273,-0.886978,0.454269,0.819441,-0.050709,0.24438,95.249084,72.107895,-104.472885,,,
729716849.172927,-62.224213,21.829179,153.683789,-0.155273,-0.886978,0.454269,0.819441,-0.050709,0.24438,95.249084,72.107895,-104.472885,,,
729716849.174596,-61.982425,21.77207,115.025284,-0.155273,-0.886978,0.454269,0.819441,-0.050709,0.24438,95.249084,72.107895,-104.472885,,,
729716849.175399,-61.982397,21.772066,118.102128,-0.155273,-0.886978,0.454269,0.819441,-0.050709,0.24438,95.249084,72.107895,-104.472885,,,
729716849.175557,-61.982419,21.772068,153.638488,-0.155273,-0.886978,0.454269,0.819441,-0.050709,0.24438,95.249084,72.107895,-104.472885,,,
729716849.177365,-61.982425,21.77207,115.025284,-0.155273,-0.886978,0.454269,0.819441,-0.050709,0.24438,95.249084,72.107895,-104.472885,,,
729716849.177665,-61.982397,21.772066,118.102128,-0.155273,-0.886978,0.454269,0.819441,-0.050709,0.24438,95.249084,72.107895,-104.472885,,,
729716849.178352,-61.982419,21.772068,153.638488,-0.155273,-0.886978,0.454269,0.819441,-0.050709,0.24438,95.249084,72.107895,-104.472885,,,
729716849.182429,-61.744865,21.711191,114.981641,-0.157852,-0.88176,0.429337,0.791212,-0.087768,0.235693,95.633621,71.630005,-106.312958,,,
729716849.184082,-61.744838,21.711187,118.058485,-0.157852,-0.88176,0.429337,0.791212,-0.087768,0.235693,95.633621,71.630005,-106.312958,,,
729716849.184199,-61.512975,21.644774,153.553029,-0.157852,-0.88176,0.429337,0.791212,-0.087768,0.235693,95.633621,71.630005,-106.312958,,,
729716849.184736,-61.512981,21.644776,114.93983,-0.157852,-0.88176,0.429337,0.791212,-0.087768,0.235693,95.633621,71.630005,-106.312958,,,
729716849.18493,-61.512975,21.644774,153.553029,-0.157852,-0.88176,0.429337,0.791212,-0.087768,0.235693,95.633621,71.630005,-106.312958,,,
729716849.187412,-61.512981,21.644776,114.93983,-0.157852,-0.88176,0.429337,0.791212,-0.087768,0.235693,95.633621,71.630005,-106.312958,,,
729716849.188243,-61.512954,21.644772,118.016674,-0.157852,-0.88176,0.429337,0.791212,-0.087768,0.235693,95.633621,71.630005,-106.312958,,,
729716849.188415,-61.512975,21.644774,153.553029,-0.157852,-0.88176,0.429337,0.791212,-0.087768,0.235693,95.633621,71.630005,-106.312958,,,
729716849.191919,-61.290423,21.576342,114.903028,-0.164459,-0.882248,0.40567,0.725763,-0.133034,0.224437,95.633621,71.630005,-106.312958,,,
729716849.19334,-61.290396,21.576338,117.979872,-0.164459,-0.882248,0.40567,0.725763,-0.133034,0.224437,95.633621,71.630005,-106.312958,,,
729716849.193495,-61.290417,21.57634,153.516227,-0.164459,-0.882248,0.40567,0.725763,-0.133034,0.224437,95.633621,71.630005,-106.312958,,,
729716849.194199,-61.077825,21.507129,114.871016,-0.164459,-0.882248,0.40567,0.725763,-0.133034,0.224437,95.633621,71.630005,-106.312958,,,
729716849.194741,-61.077798,21.507125,117.947861,-0.164459,-0.882248,0.40567,0.725763,-0.133034,0.224437,95.633621,71.630005,-106.312958,,,
729716849.194928,-61.077819,21.507127,153.484219,-0.164459,-0.882248,0.40567,0.725763,-0.133034,0.224437,95.633621,71.630005,-106.312958,,,
729716849.197404,-61.077825,21.507129,114.871016,-0.164459,-0.882248,0.40567,0.725763,-0.133034,0.224437,95.633621,71.630005,-106.312958,,,
729716849.197625,-61.077798,21.507125,117.947861,-0.164459,-0.882248,0.40567,0.725763,-0.133034,0.224437,95.633621,71.630005,-106.312958,,,
729716849.198332,-61.077819,21.507127,153.484219,-0.164459,-0.882248,0.40567,0.725763,-0.133034,0.224437,95.633621,71.630005,-106.312958,,,
729716849.201929,-60.874826,21.435662,114.83954,-0.169785,-0.880295,0.410202,0.664349,-0.152536,0.19935,95.633621,71.630005,-106.312958,,,
729716849.203338,-60.8748,21.435659,117.916385,-0.169785,-0.880295,0.410202,0.664349,-0.152536,0.19935,95.633621,71.630005,-106.312958,,,
729716849.203489,-60.87482,21.360867,153.418752,-0.169785,-0.880295,0.410202,0.664349,-0.152536,0.19935,95.633621,71.630005,-106.312958,,,
729716849.204453,-60.67995,21.360869,114.805557,-0.169785,-0.880295,0.410202,0.664349,-0.152536,0.19935,95.633621,71.630005,-106.312958,,,
729716849.205278,-60.679924,21.360865,117.882401,-0.169785,-0.880295,0.410202,0.664349,-0.152536,0.19935,95.633621,71.630005,-106.312958,,,
729716849.205408,-60.679944,21.360867,153.418752,-0.169785,-0.880295,0.410202,0.664349,-0.152536,0.19935,95.633621,71.630005,-106.312958,,,
729716849.207292,-60.67995,21.360869,114.805557,-0.169785,-0.880295,0.410202,0.664349,-0.152536,0.19935,95.633621,71.630005,-106.312958,,,
729716849.207602,-60.679924,21.360865,117.882401,-0.169785,-0.880295,0.410202,0.664349,-0.152536,0.19935,95.633621,71.630005,-106.312958,,,
729716849.20827,-60.679944,21.360867,153.418752,-0.169785,-0.880295,0.410202,0.664349,-0.152536,0.19935,95.633621,71.630005,-106.312958,,,
729716849.211635,-60.491204,21.281519,114.766675,-0.166077,-0.870178,0.429642,0.63196,-0.155136,0.165885,95.633621,71.630005,-106.312958,,,
729716849.212696,-60.491178,21.281516,117.84352,-0.166077,-0.870178,0.429642,0.63196,-0.155136,0.165885,95.633621,71.630005,-106.312958,,,
729716849.212802,-60.491198,21.281518,153.379868,-0.166077,-0.870178,0.429642,0.63196,-0.155136,0.165885,95.633621,71.630005,-106.312958,,,
729716849.214304,-60.3065,21.196516,114.720637,-0.166077,-0.870178,0.429642,0.63196,-0.155136,0.165885,95.633621,71.630005,-106.312958,,,
729716849.214865,-60.306474,21.196512,117.797481,-0.166077,-0.870178,0.429642,0.63196,-0.155136,0.165885,95.633621,71.630005,-106.312958,,,
729716849.214975,-60.306494,21.196514,153.333832,-0.166077,-0.870178,0.429642,0.63196,-0.155136,0.165885,95.633621,71.630005,-106.312958,,,
729716849.217412,-60.3065,21.196516,114.720637,-0.166077,-0.870178,0.429642,0.63196,-0.155136,0.165885,95.633621,71.630005,-106.312958,,,
729716849.217641,-60.306474,21.196512,117.797481,-0.166077,-0.870178,0.429642,0.63196,-0.155136,0.165885,95.633621,71.630005,-106.312958,,,
729716849.218304,-60.306494,21.196514,153.333832,-0.166077,-0.870178,0.429642,0.63196,-0.155136,0.165885,95.633621,71.630005,-106.312958,,,
729716849.221938,-60.124107,21.10605,114.668253,-0.162231,-0.855515,0.454987,0.626183,-0.155401,0.13682,95.633621,71.630005,-106.312958,,,
729716849.223819,-60.124081,21.106046,117.745098,-0.162231,-0.855515,0.454987,0.626183,-0.155401,0.13682,96.10614,71.133881,-107.552963,,,
729716849.223983,-59.940303,21.007885,153.221843,-0.162231,-0.855515,0.454987,0.626183,-0.155401,0.13682,96.10614,71.133881,-107.552963,,,
729716849.225154,-59.940309,21.007887,114.608649,-0.162231,-0.855515,0.454987,0.626183,-0.155401,0.13682,96.10614,71.133881,-107.552963,,,
729716849.225711,-59.940283,21.007884,117.685494,-0.162231,-0.855515,0.454987,0.626183,-0.155401,0.13682,96.10614,71.133881,-107.552963,,,
729716849.225804,-59.940303,21.007885,153.221843,-0.162231,-0.855515,0.454987,0.626183,-0.155401,0.13682,96.10614,71.133881,-107.552963,,,
729716849.227252,-59.940309,21.007887,114.608649,-0.162231,-0.855515,0.454987,0.626183,-0.155401,0.13682,96.10614,71.133881,-107.552963,,,
729716849.227604,-59.940283,21.007884,117.685494,-0.162231,-0.855515,0.454987,0.626183,-0.155401,0.13682,96.10614,71.133881,-107.552963,,,
729716849.228264,-59.940303,21.007885,153.221843,-0.162231,-0.855515,0.454987,0.626183,-0.155401,0.13682,96.10614,71.133881,-107.552963,,,
729716849.231525,-59.752255,20.901949,114.54111,-0.164764,-0.844696,0.474991,0.66481,-0.162469,0.118074,96.10614,71.133881,-107.552963,,,
729716849.232487,-59.752229,20.901946,117.617955,-0.164764,-0.844696,0.474991,0.66481,-0.162469,0.118074,96.10614,71.133881,-107.552963,,,
729716849.232589,-59.752249,20.901947,153.154309,-0.164764,-0.844696,0.474991,0.66481,-0.162469,0.118074,96.10614,71.133881,-107.552963,,,
729716849.234349,-59.560725,20.792499,114.468736,-0.164764,-0.844696,0.474991,0.66481,-0.162469,0.118074,96.10614,71.133881,-107.552963,,,
729716849.234903,-59.5607,20.792495,117.545581,-0.164764,-0.844696,0.474991,0.66481,-0.162469,0.118074,96.10614,71.133881,-107.552963,,,
729716849.23501,-59.560719,20.792497,153.081932,-0.164764,-0.844696,0.474991,0.66481,-0.162469,0.118074,96.10614,71.133881,-107.552963,,,
729716849.237408,-59.560725,20.792499,114.468736,-0.164764,-0.844696,0.474991,0.66481,-0.162469,0.118074,96.10614,71.133881,-107.552963,,,
729716849.237628,-59.5607,20.792495,117.545581,-0.164764,-0.844696,0.474991,0.66481,-0.162469,0.118074,96.10614,71.133881,-107.552963,,,
729716849.238305,-59.560719,20.792497,153.081932,-0.164764,-0.844696,0.474991,0.66481,-0.162469,0.118074,96.10614,71.133881,-107.552963,,,
729716849.242102,-59.367157,20.685156,114.396239,-0.171173,-0.84874,0.479309,0.679801,-0.148047,0.118828,96.10614,71.133881,-107.552963,,,
729716849.243705,-59.367131,20.685153,117.473084,-0.171173,-0.84874,0.479309,0.679801,-0.148047,0.118828,96.10614,71.133881,-107.552963,,,
729716849.243872,-59.170699,20.581375,152.939319,-0.171173,-0.84874,0.479309,0.679801,-0.148047,0.118828,96.10614,71.133881,-107.552963,,,
729716849.244682,-59.170705,20.581376,114.326122,-0.171173,-0.84874,0.479309,0.679801,-0.148047,0.118828,96.10614,71.133881,-107.552963,,,
729716849.245352,-59.17068,20.581373,117.402968,-0.171173,-0.84874,0.479309,0.679801,-0.148047,0.118828,96.10614,71.133881,-107.552963,,,
729716849.245446,-59.170699,20.581375,152.939319,-0.171173,-0.84874,0.479309,0.679801,-0.148047,0.118828,96.10614,71.133881,-107.552963,,,
729716849.247309,-59.170705,20.581376,114.326122,-0.171173,-0.84874,0.479309,0.679801,-0.148047,0.118828,96.10614,71.133881,-107.552963,,,
729716849.247601,-59.17068,20.581373,117.402968,-0.171173,-0.84874,0.479309,0.679801,-0.148047,0.118828,96.10614,71.133881,-107.552963,,,
729716849.248268,-59.170699,20.581375,152.939319,-0.171173,-0.84874,0.479309,0.679801,-0.148047,0.118828,96.10614,71.133881,-107.552963,,,
729716849.251496,-58.971518,20.481557,114.261532,-0.172211,-0.855789,0.486908,0.692327,-0.154464,0.140295,96.10614,71.133881,-107.552963,,,
729716849.252432,-58.971494,20.481554,117.338377,-0.172211,-0.855789,0.486908,0.692327,-0.154464,0.140295,96.10614,71.133881,-107.552963,,,
729716849.252538,-58.971513,20.481556,152.874725,-0.172211,-0.855789,0.486908,0.692327,-0.154464,0.140295,96.10614,71.133881,-107.552963,,,
729716849.254319,-58.770878,20.388208,114.205084,-0.172211,-0.855789,0.486908,0.692327,-0.154464,0.140295,96.10614,71.133881,-107.552963,,,
729716849.254869,-58.770853,20.388205,117.28193,-0.172211,-0.855789,0.486908,0.692327,-0.154464,0.140295,96.10614,71.133881,-107.552963,,,
729716849.254986,-58.770872,20.388206,152.81828,-0.172211,-0.855789,0.486908,0.692327,-0.154464,0.140295,96.10614,71.133881,-107.552963,,,
729716849.257365,-58.770878,20.388208,114.205084,-0.172211,-0.855789,0.486908,0.692327,-0.154464,0.140295,96.10614,71.133881,-107.552963,,,
729716849.257587,-58.770853,20.388205,117.28193,-0.172211,-0.855789,0.486908,0.692327,-0.154464,0.140295,96.10614,71.133881,-107.552963,,,
729716849.258265,-58.770872,20.388206,152.81828,-0.172211,-0.855789,0.486908,0.692327,-0.154464,0.140295,96.10614,71.133881,-107.552963,,,
729716849.261552,-58.570582,20.304624,114.158866,-0.171524,-0.857956,0.490707,0.678505,-0.148074,0.170936,96.10614,71.133881,-107.552963,,,
729716849.262614,-58.570557,20.304621,117.235711,-0.171524,-0.857956,0.490707,0.678505,-0.148074,0.170936,96.10614,71.133881,-107.552963,,,
729716849.262713,-58.570576,20.304622,152.772061,-0.171524,-0.857956,0.490707,0.678505,-0.148074,0.170936,96.10614,71.133881,-107.552963,,,
729716849.264581,-58.370997,20.230613,114.121922,-0.171524,-0.857956,0.490707,0.678505,-0.148074,0.170936,96.218689,70.78833,-108.902481,,,
729716849.265446,-58.370972,20.23061,117.198768,-0.171524,-0.857956,0.490707,0.678505,-0.148074,0.170936,96.218689,70.78833,-108.902481,,,
729716849.265561,-58.370991,20.230612,152.735118,-0.171524,-0.857956,0.490707,0.678505,-0.148074,0.170936,96.218689,70.78833,-108.902481,,,
729716849.267297,-58.370997,20.230613,114.121922,-0.171524,-0.857956,0.490707,0.678505,-0.148074,0.170936,96.218689,70.78833,-108.902481,,,
729716849.267599,-58.370972,20.23061,117.198768,-0.171524,-0.857956,0.490707,0.678505,-0.148074,0.170936,96.218689,70.78833,-108.902481,,,
729716849.268265,-58.370991,20.230612,152.735118,-0.171524,-0.857956,0.490707,0.678505,-0.148074,0.170936,96.218689,70.78833,-108.902481,,,
729716849.271928,-58.172283,20.165399,114.091334,-0.167526,-0.854218,0.492783,0.665651,-0.124949,0.188249,96.218689,70.78833,-108.902481,,,
729716849.273365,-58.172259,20.165396,117.16818,-0.167526,-0.854218,0.492783,0.665651,-0.124949,0.188249,96.218689,70.78833,-108.902481,,,
729716849.273515,-58.172278,20.165397,152.704529,-0.167526,-0.854218,0.492783,0.665651,-0.124949,0.188249,96.218689,70.78833,-108.902481,,,
729716849.274538,-57.976121,20.110245,114.066502,-0.167526,-0.854218,0.492783,0.665651,-0.124949,0.188249,96.218689,70.78833,-108.902481,,,
729716849.275385,-57.976097,20.110243,117.143348,-0.167526,-0.854218,0.492783,0.665651,-0.124949,0.188249,96.218689,70.78833,-108.902481,,,
729716849.275559,-57.976115,20.110244,152.679695,-0.167526,-0.854218,0.492783,0.665651,-0.124949,0.188249,96.218689,70.78833,-108.902481,,,
729716849.277302,-57.976121,20.110245,114.066502,-0.167526,-0.854218,0.492783,0.665651,-0.124949,0.188249,96.218689,70.78833,-108.902481,,,
729716849.277631,-57.976097,20.110243,117.143348,-0.167526,-0.854218,0.492783,0.665651,-0.124949,0.188249,96.218689,70.78833,-108.902481,,,
729716849.278271,-57.976115,20.110244,152.679695,-0.167526,-0.854218,0.492783,0.665651,-0.124949,0.188249,96.218689,70.78833,-108.902481,,,
729716849.281632,-57.784984,20.065307,114.046331,-0.155884,-0.848312,0.497452,0.627284,-0.081731,0.190773,96.218689,70.78833,-108.902481,,,
729716849.28262,-57.784961,20.065304,117.123177,-0.155884,-0.848312,0.497452,0.627284,-0.081731,0.190773,96.218689,70.78833,-108.902481,,,
729716849.282727,-57.784979,20.065305,152.659536,-0.155884,-0.848312,0.497452,0.627284,-0.081731,0.190773,96.218689,70.78833,-108.902481,,,
729716849.284545,-57.599734,20.030322,114.029357,-0.155884,-0.848312,0.497452,0.627284,-0.081731,0.190773,96.218689,70.78833,-108.902481,,,
729716849.285349,-57.599711,20.030319,117.106203,-0.155884,-0.848312,0.497452,0.627284,-0.081731,0.190773,96.218689,70.78833,-108.902481,,,
729716849.285507,-57.599729,20.03032,152.642562,-0.155884,-0.848312,0.497452,0.627284,-0.081731,0.190773,96.218689,70.78833,-108.902481,,,
729716849.287348,-57.599734,20.030322,114.029357,-0.155884,-0.848312,0.497452,0.627284,-0.081731,0.190773,96.218689,70.78833,-108.902481,,,
729716849.287646,-57.599711,20.030319,117.106203,-0.155884,-0.848312,0.497452,0.627284,-0.081731,0.190773,96.218689,70.78833,-108.902481,,,
729716849.288294,-57.599729,20.03032,152.642562,-0.155884,-0.848312,0.497452,0.627284,-0.081731,0.190773,96.218689,70.78833,-108.902481,,,
729716849.292098,-57.422557,20.003752,114.014972,-0.150604,-0.837387,0.504395,0.57209,-0.038603,0.179721,96.218689,70.78833,-108.902481,,,
729716849.29356,-57.422533,20.00375,117.091818,-0.150604,-0.837387,0.504395,0.57209,-0.038603,0.179721,96.218689,70.78833,-108.902481,,,
729716849.293669,-57.422551,20.003751,152.628174,-0.150604,-0.837387,0.504395,0.57209,-0.038603,0.179721,96.218689,70.78833,-108.902481,,,
729716849.2938,-57.422557,20.003752,114.014972,-0.150604,-0.837387,0.504395,0.57209,-0.038603,0.179721,96.218689,70.78833,-108.902481,,,
729716849.294716,-57.253104,19.982096,117.077437,-0.150604,-0.837387,0.504395,0.57209,-0.038603,0.179721,96.218689,70.78833,-108.902481,,,
729716849.294934,-57.253122,19.982097,152.613791,-0.150604,-0.837387,0.504395,0.57209,-0.038603,0.179721,96.218689,70.78833,-108.902481,,,
729716849.297986,-57.253128,19.982098,114.000591,-0.150604,-0.837387,0.504395,0.57209,-0.038603,0.179721,96.218689,70.78833,-108.902481,,,
729716849.298202,-57.253104,19.982096,117.077437,-0.150604,-0.837387,0.504395,0.57209,-0.038603,0.179721,96.218689,70.78833,-108.902481,,,
729716849.298339,-57.253122,19.982097,152.613791,-0.150604,-0.837387,0.504395,0.57209,-0.038603,0.179721,96.218689,70.78833,-108.902481,,,
729716849.302818,-57.090546,19.96563,113.985683,-0.149963,-0.827087,0.497955,0.528731,0.000338,0.161024,96.218689,70.78833,-108.902481,,,
729716849.304754,-57.090523,19.965627,117.06253,-0.149963,-0.827087,0.497955,0.528731,0.000338,0.161024,96.632736,70.260254,-110.12085,,,
729716849.304882,-56.938921,19.956817,152.58668,-0.149963,-0.827087,0.497955,0.528731,0.000338,0.161024,96.632736,70.260254,-110.12085,,,
729716849.305732,-56.938927,19.956818,113.97348,-0.149963,-0.827087,0.497955,0.528731,0.000338,0.161024,96.632736,70.260254,-110.12085,,,
729716849.307242,-56.938927,19.956818,113.97348,-0.149963,-0.827087,0.497955,0.528731,0.000338,0.161024,96.632736,70.260254,-110.12085,,,
729716849.308022,-56.938904,19.956816,117.050327,-0.149963,-0.827087,0.497955,0.528731,0.000338,0.161024,96.632736,70.260254,-110.12085,,,
729716849.308269,-56.938921,19.956817,152.58668,-0.149963,-0.827087,0.497955,0.528731,0.000338,0.161024,96.632736,70.260254,-110.12085,,,
729716849.311634,-56.800438,19.954928,113.966114,-0.156265,-0.819244,0.480179,0.436914,0.020141,0.146833,96.632736,70.260254,-110.12085,,,
729716849.312796,-56.800416,19.954925,117.04296,-0.156265,-0.819244,0.480179,0.436914,0.020141,0.146833,96.632736,70.260254,-110.12085,,,
729716849.312907,-56.800433,19.954926,152.579313,-0.156265,-0.819244,0.480179,0.436914,0.020141,0.146833,96.632736,70.260254,-110.12085,,,
729716849.314287,-56.672553,19.956765,113.963242,-0.156265,-0.819244,0.480179,0.436914,0.020141,0.146833,96.632736,70.260254,-110.12085,,,
729716849.314738,-56.67253,19.956762,117.040088,-0.156265,-0.819244,0.480179,0.436914,0.020141,0.146833,96.632736,70.260254,-110.12085,,,
729716849.31491,-56.672548,19.956763,152.576438,-0.156265,-0.819244,0.480179,0.436914,0.020141,0.146833,96.632736,70.260254,-110.12085,,,
729716849.317381,-56.672553,19.956765,113.963242,-0.156265,-0.819244,0.480179,0.436914,0.020141,0.146833,96.632736,70.260254,-110.12085,,,
729716849.317579,-56.67253,19.956762,117.040088,-0.156265,-0.819244,0.480179,0.436914,0.020141,0.146833,96.632736,70.260254,-110.12085,,,
729716849.31827,-56.672548,19.956763,152.576438,-0.156265,-0.819244,0.480179,0.436914,0.020141,0.146833,96.632736,70.260254,-110.12085,,,
729716849.321285,-56.553156,19.960895,113.964919,-0.168198,-0.820648,0.476486,0.375493,0.00955,0.142958,96.632736,70.260254,-110.12085,,,
729716849.322004,-56.553133,19.960893,117.041765,-0.168198,-0.820648,0.476486,0.375493,0.00955,0.142958,96.632736,70.260254,-110.12085,,,
729716849.322118,-56.55315,19.960894,152.578116,-0.168198,-0.820648,0.476486,0.375493,0.00955,0.142958,96.632736,70.260254,-110.12085,,,
729716849.324395,-56.440337,19.966672,113.969135,-0.168198,-0.820648,0.476486,0.375493,0.00955,0.142958,96.632736,70.260254,-110.12085,,,
729716849.324946,-56.440314,19.96667,117.045982,-0.168198,-0.820648,0.476486,0.375493,0.00955,0.142958,96.632736,70.260254,-110.12085,,,
729716849.325051,-56.440331,19.966671,152.58234,-0.168198,-0.820648,0.476486,0.375493,0.00955,0.142958,96.632736,70.260254,-110.12085,,,
729716849.327421,-56.440337,19.966672,113.969135,-0.168198,-0.820648,0.476486,0.375493,0.00955,0.142958,96.632736,70.260254,-110.12085,,,
729716849.32764,-56.440314,19.96667,117.045982,-0.168198,-0.820648,0.476486,0.375493,0.00955,0.142958,96.632736,70.260254,-110.12085,,,
729716849.328297,-56.440331,19.966671,152.58234,-0.168198,-0.820648,0.476486,0.375493,0.00955,0.142958,96.632736,70.260254,-110.12085,,,
729716849.331581,-56.332852,19.971877,113.972477,-0.177872,-0.820374,0.48732,0.34234,0.010667,0.127202,96.632736,70.260254,-110.12085,,,
729716849.332634,-56.332829,19.971874,117.049323,-0.177872,-0.820374,0.48732,0.34234,0.010667,0.127202,96.632736,70.260254,-110.12085,,,
729716849.332778,-56.332847,19.971875,152.585678,-0.177872,-0.820374,0.48732,0.34234,0.010667,0.127202,96.632736,70.260254,-110.12085,,,
729716849.333913,-56.332852,19.971877,113.972477,-0.177872,-0.820374,0.48732,0.34234,0.010667,0.127202,96.632736,70.260254,-110.12085,,,
729716849.33457,-56.228076,19.971252,117.048322,-0.177872,-0.820374,0.48732,0.34234,0.010667,0.127202,96.632736,70.260254,-110.12085,,,
729716849.334966,-56.228093,19.971253,152.58468,-0.177872,-0.820374,0.48732,0.34234,0.010667,0.127202,96.632736,70.260254,-110.12085,,,
729716849.337651,-56.228098,19.971255,113.971475,-0.177872,-0.820374,0.48732,0.34234,0.010667,0.127202,96.632736,70.260254,-110.12085,,,
729716849.337858,-56.228076,19.971252,117.048322,-0.177872,-0.820374,0.48732,0.34234,0.010667,0.127202,96.632736,70.260254,-110.12085,,,
729716849.338271,-56.228093,19.971253,152.58468,-0.177872,-0.820374,0.48732,0.34234,0.010667,0.127202,96.632736,70.260254,-110.12085,,,
729716849.342757,-56.121379,19.961456,113.963353,-0.181595,-0.814041,0.50589,0.365224,-0.012139,0.105889,96.632736,70.260254,-110.12085,,,
729716849.344913,-56.121357,19.961453,117.0402,-0.181595,-0.814041,0.50589,0.365224,-0.012139,0.105889,96.632736,70.260254,-110.12085,,,
729716849.34504,-56.008416,19.941911,152.560163,-0.181595,-0.814041,0.50589,0.365224,-0.012139,0.105889,96.632736,70.260254,-110.12085,,,
729716849.34592,-56.008421,19.941912,113.946957,-0.181595,-0.814041,0.50589,0.365224,-0.012139,0.105889,96.944504,70.194565,-110.984604,,,
729716849.34725,-56.008421,19.941912,113.946957,-0.181595,-0.814041,0.50589,0.365224,-0.012139,0.105889,96.944504,70.194565,-110.984604,,,
729716849.348339,-56.008399,19.94191,117.023804,-0.181595,-0.814041,0.50589,0.365224,-0.012139,0.105889,96.944504,70.194565,-110.984604,,,
729716849.348461,-56.008416,19.941911,152.560163,-0.181595,-0.814041,0.50589,0.365224,-0.012139,0.105889,96.944504,70.194565,-110.984604,,,
729716849.35168,-55.886366,19.911101,113.921127,-0.202759,-0.817245,0.535736,0.437999,-0.036328,0.092333,96.944504,70.194565,-110.984604,,,
729716849.352815,-55.886344,19.911099,116.997974,-0.202759,-0.817245,0.535736,0.437999,-0.036328,0.092333,96.944504,70.194565,-110.984604,,,
729716849.352923,-55.88636,19.9111,152.534324,-0.202759,-0.817245,0.535736,0.437999,-0.036328,0.092333,96.944504,70.194565,-110.984604,,,
729716849.353877,-55.886366,19.911101,113.921127,-0.202759,-0.817245,0.535736,0.437999,-0.036328,0.092333,96.944504,70.194565,-110.984604,,,
729716849.354722,-55.753594,19.866003,116.960888,-0.202759,-0.817245,0.535736,0.437999,-0.036328,0.092333,96.944504,70.194565,-110.984604,,,
729716849.354936,-55.753611,19.866004,152.497241,-0.202759,-0.817245,0.535736,0.437999,-0.036328,0.092333,96.944504,70.194565,-110.984604,,,
729716849.357792,-55.753616,19.866006,113.884042,-0.202759,-0.817245,0.535736,0.437999,-0.036328,0.092333,96.944504,70.194565,-110.984604,,,
729716849.357941,-55.753594,19.866003,116.960888,-0.202759,-0.817245,0.535736,0.437999,-0.036328,0.092333,96.944504,70.194565,-110.984604,,,
729716849.358225,-55.753611,19.866004,152.497241,-0.202759,-0.817245,0.535736,0.437999,-0.036328,0.092333,96.944504,70.194565,-110.984604,,,
729716849.361626,-55.608803,19.80359,113.835131,-0.212769,-0.815369,0.556,0.533335,-0.089331,0.075722,96.944504,70.194565,-110.984604,,,
729716849.362669,-55.608781,19.803587,116.911977,-0.212769,-0.815369,0.556,0.533335,-0.089331,0.075722,96.944504,70.194565,-110.984604,,,
