Time (sec),Pitch (deg),Roll (deg),Yaw(deg),X-Acceleration (g),Y-Acceleration (g),Z-Acceleration (g),Pitch Rate (deg/sec),Roll Rate (deg/sec),Yaw Rate (deg/sec),Magnetic Field in X direction (uT),Magnetic Field in Y direction (uT),Magnetic Field in Z Direction (uT),Latitude (deg),Longitude (deg),Altitude (m)
729715919.178513,-2.007928,-4.807546,-84.690545,0.092346,-0.023178,0.98909,-0.038424,0.043168,0.008754,61.673004,13.073349,-149.192062,,,
729715919.183921,-2.02165,-4.795621,-87.766785,0.092346,-0.023178,0.98909,-0.0564,0.043243,-0.002135,61.673004,13.073349,-149.192062,,,
729715919.184186,-2.021649,-4.795624,-84.689906,0.092468,-0.021027,0.98439,-0.0564,0.043243,-0.002135,61.673004,13.073349,-149.192062,,,
729715919.185726,-2.038543,-4.785285,-87.768017,0.092468,-0.021027,0.98439,-0.0564,0.043243,-0.002135,61.673004,13.073349,-149.192062,,,
729715919.185961,-2.038542,-4.785287,-84.691139,0.092468,-0.021027,0.98439,-0.0564,0.043243,-0.002135,61.673004,13.073349,-149.192062,,,
729715919.188351,-2.038543,-4.785285,-87.768017,0.092468,-0.021027,0.98439,-0.0564,0.043243,-0.002135,61.673004,13.073349,-149.192062,,,
729715919.188553,-2.038542,-4.785287,-84.691139,0.092468,-0.021027,0.98439,-0.0564,0.043243,-0.002135,61.673004,13.073349,-149.192062,,,
729715919.193008,-2.056698,-4.776645,-87.770849,0.092468,-0.021027,0.98439,-0.069342,0.028847,-0.008605,61.673004,13.073349,-149.192062,,,
729715919.193263,-2.056697,-4.776647,-84.69397,0.092468,-0.021027,0.98439,-0.069342,0.028847,-0.008605,61.673004,13.073349,-149.192062,,,
729715919.195548,-2.077286,-4.769495,-87.774666,0.085083,-0.020218,0.978409,-0.069342,0.028847,-0.008605,61.673004,13.073349,-149.192062,,,
729715919.195757,-2.077285,-4.769498,-84.697787,0.085083,-0.020218,0.978409,-0.069342,0.028847,-0.008605,61.673004,13.073349,-149.192062,,,
729715919.198358,-2.077286,-4.769495,-87.774666,0.085083,-0.020218,0.978409,-0.069342,0.028847,-0.008605,61.673004,13.073349,-149.192062,,,
729715919.19855,-2.077285,-4.769498,-84.697787,0.085083,-0.020218,0.978409,-0.069342,0.028847,-0.008605,61.673004,13.073349,-149.192062,,,
729715919.202499,-2.097172,-4.765237,-87.778858,0.085083,-0.020218,0.978409,-0.069671,0.005651,-0.010591,61.673004,13.073349,-149.192062,,,
729715919.20272,-2.097171,-4.76524,-84.701979,0.085083,-0.020218,0.978409,-0.069671,0.005651,-0.010591,61.673004,13.073349,-149.192062,,,
729715919.206592,-2.117346,-4.764588,-87.783354,0.079376,-0.024811,0.974579,-0.069671,0.005651,-0.010591,61.675552,13.008682,-149.637863,,,
729715919.20683,-2.117345,-4.76459,-84.706475,0.079376,-0.024811,0.974579,-0.069671,0.005651,-0.010591,61.675552,13.008682,-149.637863,,,
729715919.208218,-2.117346,-4.764588,-87.783354,0.079376,-0.024811,0.974579,-0.069671,0.005651,-0.010591,61.675552,13.008682,-149.637863,,,
729715919.20851,-2.117345,-4.76459,-84.706475,0.079376,-0.024811,0.974579,-0.069671,0.005651,-0.010591,61.675552,13.008682,-149.637863,,,
729715919.214092,-2.134382,-4.770318,-87.788493,0.079376,-0.024811,0.974579,-0.051705,-0.034124,-0.01717,61.675552,13.008682,-149.637863,,,
729715919.214366,-2.149448,-4.779874,-84.717354,0.081177,-0.037674,0.977036,-0.051705,-0.034124,-0.01717,61.675552,13.008682,-149.637863,,,
729715919.215921,-2.149449,-4.779872,-87.794233,0.081177,-0.037674,0.977036,-0.051705,-0.034124,-0.01717,61.675552,13.008682,-149.637863,,,
729715919.216144,-2.149448,-4.779874,-84.717354,0.081177,-0.037674,0.977036,-0.051705,-0.034124,-0.01717,61.675552,13.008682,-149.637863,,,
729715919.218324,-2.149449,-4.779872,-87.794233,0.081177,-0.037674,0.977036,-0.051705,-0.034124,-0.01717,61.675552,13.008682,-149.637863,,,
729715919.218537,-2.149448,-4.779874,-84.717354,0.081177,-0.037674,0.977036,-0.051705,-0.034124,-0.01717,61.675552,13.008682,-149.637863,,,
729715919.223238,-2.160133,-4.79227,-87.801217,0.081177,-0.037674,0.977036,-0.023376,-0.037199,-0.030318,61.675552,13.008682,-149.637863,,,
729715919.223496,-2.160132,-4.792273,-84.724338,0.081177,-0.037674,0.977036,-0.023376,-0.037199,-0.030318,61.675552,13.008682,-149.637863,,,
729715919.225924,-2.167936,-4.804226,-87.810114,0.082184,-0.040344,0.988144,-0.023376,-0.037199,-0.030318,61.675552,13.008682,-149.637863,,,
729715919.226153,-2.167935,-4.804229,-84.733235,0.082184,-0.040344,0.988144,-0.023376,-0.037199,-0.030318,61.675552,13.008682,-149.637863,,,
729715919.228315,-2.167936,-4.804226,-87.810114,0.082184,-0.040344,0.988144,-0.023376,-0.037199,-0.030318,61.675552,13.008682,-149.637863,,,
729715919.228535,-2.167935,-4.804229,-84.733235,0.082184,-0.040344,0.988144,-0.023376,-0.037199,-0.030318,61.675552,13.008682,-149.637863,,,
729715919.232716,-2.170629,-4.815904,-87.820385,0.082184,-0.040344,0.988144,-0.004765,-0.03578,-0.040755,61.675552,13.008682,-149.637863,,,
729715919.232966,-2.170628,-4.815907,-84.743507,0.082184,-0.040344,0.988144,-0.004765,-0.03578,-0.040755,61.675552,13.008682,-149.637863,,,
729715919.235684,-2.17087,-4.826975,-87.831004,0.0802,-0.041687,1.000183,-0.004765,-0.03578,-0.040755,61.675552,13.008682,-149.637863,,,
729715919.235933,-2.17087,-4.826977,-84.754125,0.0802,-0.041687,1.000183,-0.004765,-0.03578,-0.040755,61.675552,13.008682,-149.637863,,,
729715919.238342,-2.17087,-4.826975,-87.831004,0.0802,-0.041687,1.000183,-0.004765,-0.03578,-0.040755,61.675552,13.008682,-149.637863,,,
729715919.238565,-2.17087,-4.826977,-84.754125,0.0802,-0.041687,1.000183,-0.004765,-0.03578,-0.040755,61.675552,13.008682,-149.637863,,,
729715919.243614,-2.169515,-4.836422,-87.841651,0.0802,-0.041687,1.000183,0.008351,-0.023063,-0.037457,61.675552,13.008682,-149.637863,,,
729715919.243901,-2.169515,-4.836425,-84.764773,0.0802,-0.041687,1.000183,0.008351,-0.023063,-0.037457,61.675552,13.008682,-149.637863,,,
729715919.245391,-2.165642,-4.844966,-87.85191,0.079056,-0.051987,1.001678,0.008351,-0.023063,-0.037457,61.675552,13.008682,-149.637863,,,
729715919.245612,-2.165641,-4.844969,-84.775032,0.079056,-0.051987,1.001678,0.008351,-0.023063,-0.037457,62.045456,13.138107,-149.524033,,,
729715919.249152,-2.165642,-4.844966,-87.85191,0.079056,-0.051987,1.001678,0.008351,-0.023063,-0.037457,62.045456,13.138107,-149.524033,,,
729715919.249377,-2.163704,-4.851815,-84.783944,0.079056,-0.051987,1.001678,0.004579,-0.015925,-0.026122,62.045456,13.138107,-149.524033,,,
729715919.252912,-2.163705,-4.851812,-87.860823,0.079056,-0.051987,1.001678,0.004579,-0.015925,-0.026122,62.045456,13.138107,-149.524033,,,
729715919.253149,-2.163704,-4.851815,-84.783944,0.079056,-0.051987,1.001678,0.004579,-0.015925,-0.026122,62.045456,13.138107,-149.524033,,,
729715919.255482,-2.160392,-4.859088,-87.867737,0.080292,-0.048782,1.0009,0.004579,-0.015925,-0.026122,62.045456,13.138107,-149.524033,,,
729715919.255694,-2.160391,-4.85909,-84.790859,0.080292,-0.048782,1.0009,0.004579,-0.015925,-0.026122,62.045456,13.138107,-149.524033,,,
729715919.258385,-2.160392,-4.859088,-87.867737,0.080292,-0.048782,1.0009,0.004579,-0.015925,-0.026122,62.045456,13.138107,-149.524033,,,
729715919.258585,-2.160391,-4.85909,-84.790859,0.080292,-0.048782,1.0009,0.004579,-0.015925,-0.026122,62.045456,13.138107,-149.524033,,,
729715919.263461,-2.16045,-4.863963,-87.872299,0.080292,-0.048782,1.0009,-0.008952,-0.006685,-0.009375,62.045456,13.138107,-149.524033,,,
729715919.263722,-2.160449,-4.863965,-84.79542,0.080292,-0.048782,1.0009,-0.008952,-0.006685,-0.009375,62.045456,13.138107,-149.524033,,,
729715919.265462,-2.16111,-4.867283,-87.874618,0.075302,-0.044067,0.995712,-0.008952,-0.006685,-0.009375,62.045456,13.138107,-149.524033,,,
729715919.265693,-2.161109,-4.867286,-84.797739,0.075302,-0.044067,0.995712,-0.008952,-0.006685,-0.009375,62.045456,13.138107,-149.524033,,,
729715919.268387,-2.16111,-4.867283,-87.874618,0.075302,-0.044067,0.995712,-0.008952,-0.006685,-0.009375,62.045456,13.138107,-149.524033,,,
729715919.268575,-2.161109,-4.867286,-84.797739,0.075302,-0.044067,0.995712,-0.008952,-0.006685,-0.009375,62.045456,13.138107,-149.524033,,,
729715919.274335,-2.166974,-4.865379,-87.874395,0.075302,-0.044067,0.995712,-0.026135,0.018337,0.011022,62.045456,13.138107,-149.524033,,,
729715919.274621,-2.172644,-4.861196,-84.794388,0.075302,-0.046127,0.998383,-0.026135,0.018337,0.011022,62.045456,13.138107,-149.524033,,,
729715919.275721,-2.172645,-4.861194,-87.871267,0.075302,-0.046127,0.998383,-0.026135,0.018337,0.011022,62.045456,13.138107,-149.524033,,,
729715919.275941,-2.172644,-4.861196,-84.794388,0.075302,-0.046127,0.998383,-0.026135,0.018337,0.011022,62.045456,13.138107,-149.524033,,,
729715919.278357,-2.172645,-4.861194,-87.871267,0.075302,-0.046127,0.998383,-0.026135,0.018337,0.011022,62.045456,13.138107,-149.524033,,,
729715919.278553,-2.172644,-4.861196,-84.794388,0.075302,-0.046127,0.998383,-0.026135,0.018337,0.011022,62.045456,13.138107,-149.524033,,,
729715919.282561,-2.182604,-4.856029,-87.865876,0.075302,-0.046127,0.998383,-0.035835,0.024824,0.024724,62.045456,13.138107,-149.524033,,,
729715919.282802,-2.182603,-4.856032,-84.788997,0.075302,-0.046127,0.998383,-0.035835,0.024824,0.024724,62.045456,13.138107,-149.524033,,,
729715919.286022,-2.192145,-4.84886,-87.859384,0.075684,-0.048492,0.994202,-0.035835,0.024824,0.024724,62.045456,13.138107,-149.524033,,,
729715919.286291,-2.192144,-4.848862,-84.782505,0.075684,-0.048492,0.994202,-0.035835,0.024824,0.024724,62.045456,13.138107,-149.524033,,,
729715919.288963,-2.192145,-4.84886,-87.859384,0.075684,-0.048492,0.994202,-0.035835,0.024824,0.024724,62.074539,13.095612,-149.619797,,,
729715919.289218,-2.202791,-4.840769,-84.776068,0.075684,-0.048492,0.994202,-0.035835,0.024824,0.024724,62.074539,13.095612,-149.619797,,,
729715919.292909,-2.202791,-4.840767,-87.852947,0.075684,-0.048492,0.994202,-0.028848,0.036779,0.023369,62.074539,13.095612,-149.619797,,,
729715919.293151,-2.202791,-4.840769,-84.776068,0.075684,-0.048492,0.994202,-0.028848,0.036779,0.023369,62.074539,13.095612,-149.619797,,,
729715919.295963,-2.212452,-4.830726,-87.846642,0.081116,-0.04483,0.997284,-0.028848,0.036779,0.023369,62.074539,13.095612,-149.619797,,,
729715919.296186,-2.212451,-4.830728,-84.769764,0.081116,-0.04483,0.997284,-0.028848,0.036779,0.023369,62.074539,13.095612,-149.619797,,,
729715919.298388,-2.212452,-4.830726,-87.846642,0.081116,-0.04483,0.997284,-0.028848,0.036779,0.023369,62.074539,13.095612,-149.619797,,,
729715919.29858,-2.212451,-4.830728,-84.769764,0.081116,-0.04483,0.997284,-0.028848,0.036779,0.023369,62.074539,13.095612,-149.619797,,,
729715919.303088,-2.219021,-4.820603,-87.840875,0.081116,-0.04483,0.997284,-0.011948,0.034492,0.015857,62.074539,13.095612,-149.619797,,,
729715919.303317,-2.21902,-4.820605,-84.763996,0.081116,-0.04483,0.997284,-0.011948,0.034492,0.015857,62.074539,13.095612,-149.619797,,,
729715919.305466,-2.22339,-4.811475,-87.83677,0.079666,-0.04657,1.002594,-0.011948,0.034492,0.015857,62.074539,13.095612,-149.619797,,,
729715919.30568,-2.223389,-4.811477,-84.759892,0.079666,-0.04657,1.002594,-0.011948,0.034492,0.015857,62.074539,13.095612,-149.619797,,,
729715919.308389,-2.22339,-4.811475,-87.83677,0.079666,-0.04657,1.002594,-0.011948,0.034492,0.015857,62.074539,13.095612,-149.619797,,,
729715919.308573,-2.223389,-4.811477,-84.759892,0.079666,-0.04657,1.002594,-0.011948,0.034492,0.015857,62.074539,13.095612,-149.619797,,,
729715919.314199,-2.225581,-4.804891,-87.834588,0.079666,-0.04657,1.002594,5e-06,0.015217,0.003506,62.074539,13.095612,-149.619797,,,
729715919.314473,-2.226911,-4.800624,-84.756707,0.080109,-0.044189,0.997528,5e-06,0.015217,0.003506,62.074539,13.095612,-149.619797,,,
729715919.315069,-2.226912,-4.800622,-87.833585,0.080109,-0.044189,0.997528,5e-06,0.015217,0.003506,62.074539,13.095612,-149.619797,,,
729715919.315281,-2.226911,-4.800624,-84.756707,0.080109,-0.044189,0.997528,5e-06,0.015217,0.003506,62.074539,13.095612,-149.619797,,,
729715919.318444,-2.226912,-4.800622,-87.833585,0.080109,-0.044189,0.997528,5e-06,0.015217,0.003506,62.074539,13.095612,-149.619797,,,
729715919.318637,-2.226911,-4.800624,-84.756707,0.080109,-0.044189,0.997528,5e-06,0.015217,0.003506,62.074539,13.095612,-149.619797,,,
729715919.32307,-2.227448,-4.799274,-87.833301,0.080109,-0.044189,0.997528,0.001974,0.005063,-0.00201,62.074539,13.095612,-149.619797,,,
729715919.323305,-2.227447,-4.799276,-84.756422,0.080109,-0.044189,0.997528,0.001974,0.005063,-0.00201,62.074539,13.095612,-149.619797,,,
729715919.325202,-2.229397,-4.79873,-87.833506,0.078445,-0.03981,0.988434,0.001974,0.005063,-0.00201,62.074539,13.095612,-149.619797,,,
729715919.325414,-2.229397,-4.798732,-84.756628,0.078445,-0.03981,0.988434,0.001974,0.005063,-0.00201,62.074539,13.095612,-149.619797,,,
729715919.32909,-2.229397,-4.79873,-87.833506,0.078445,-0.03981,0.988434,0.001974,0.005063,-0.00201,62.169189,12.97995,-149.548538,,,
729715919.329338,-2.228274,-4.801222,-84.757881,0.078445,-0.03981,0.988434,0.008222,-0.017241,-0.008949,62.169189,12.97995,-149.548538,,,
729715919.333135,-2.228275,-4.801219,-87.834759,0.078445,-0.03981,0.988434,0.008222,-0.017241,-0.008949,62.169189,12.97995,-149.548538,,,
729715919.333378,-2.228274,-4.801222,-84.757881,0.078445,-0.03981,0.988434,0.008222,-0.017241,-0.008949,62.169189,12.97995,-149.548538,,,
729715919.335723,-2.226762,-4.806116,-87.836919,0.085754,-0.037079,0.989197,0.008222,-0.017241,-0.008949,62.169189,12.97995,-149.548538,,,
729715919.335956,-2.226761,-4.806118,-84.76004,0.085754,-0.037079,0.989197,0.008222,-0.017241,-0.008949,62.169189,12.97995,-149.548538,,,
729715919.338405,-2.226762,-4.806116,-87.836919,0.085754,-0.037079,0.989197,0.008222,-0.017241,-0.008949,62.169189,12.97995,-149.548538,,,
729715919.338597,-2.226761,-4.806118,-84.76004,0.085754,-0.037079,0.989197,0.008222,-0.017241,-0.008949,62.169189,12.97995,-149.548538,,,
729715919.342356,-2.222842,-4.813694,-87.839589,0.085754,-0.037079,0.989197,0.017106,-0.019535,-0.014808,62.169189,12.97995,-149.548538,,,
729715919.342576,-2.222841,-4.813696,-84.762711,0.085754,-0.037079,0.989197,0.017106,-0.019535,-0.014808,62.169189,12.97995,-149.548538,,,
729715919.345562,-2.218893,-4.818992,-87.842703,0.0923,-0.033005,0.988113,0.017106,-0.019535,-0.014808,62.169189,12.97995,-149.548538,,,
729715919.345769,-2.218893,-4.818995,-84.765824,0.0923,-0.033005,0.988113,0.017106,-0.019535,-0.014808,62.169189,12.97995,-149.548538,,,
729715919.348368,-2.218893,-4.818992,-87.842703,0.0923,-0.033005,0.988113,0.017106,-0.019535,-0.014808,62.169189,12.97995,-149.548538,,,
729715919.348557,-2.218893,-4.818995,-84.765824,0.0923,-0.033005,0.988113,0.017106,-0.019535,-0.014808,62.169189,12.97995,-149.548538,,,
729715919.352992,-2.214455,-4.823424,-87.846377,0.0923,-0.033005,0.988113,0.012155,-0.003437,-0.016147,62.169189,12.97995,-149.548538,,,
729715919.353222,-2.214454,-4.823426,-84.769498,0.0923,-0.033005,0.988113,0.012155,-0.003437,-0.016147,62.169189,12.97995,-149.548538,,,
729715919.354924,-2.212142,-4.824107,-87.850482,0.091431,-0.028961,0.993515,0.012155,-0.003437,-0.016147,62.169189,12.97995,-149.548538,,,
729715919.355158,-2.212141,-4.824109,-84.773604,0.091431,-0.028961,0.993515,0.012155,-0.003437,-0.016147,62.169189,12.97995,-149.548538,,,
729715919.358448,-2.212142,-4.824107,-87.850482,0.091431,-0.028961,0.993515,0.012155,-0.003437,-0.016147,62.169189,12.97995,-149.548538,,,
729715919.358645,-2.212141,-4.824109,-84.773604,0.091431,-0.028961,0.993515,0.012155,-0.003437,-0.016147,62.169189,12.97995,-149.548538,,,
729715919.363334,-2.210237,-4.823968,-87.854126,0.091431,-0.028961,0.993515,4.7e-05,0.012825,-0.010758,62.169189,12.97995,-149.548538,,,
729715919.363591,-2.210236,-4.82397,-84.777248,0.091431,-0.028961,0.993515,4.7e-05,0.012825,-0.010758,62.169189,12.97995,-149.548538,,,
729715919.365215,-2.211423,-4.820826,-87.856632,0.089478,-0.025009,0.989838,4.7e-05,0.012825,-0.010758,62.169189,12.97995,-149.548538,,,
729715919.365437,-2.211423,-4.820829,-84.779753,0.089478,-0.025009,0.989838,4.7e-05,0.012825,-0.010758,62.169189,12.97995,-149.548538,,,
729715919.369054,-2.211423,-4.820826,-87.856632,0.089478,-0.025009,0.989838,4.7e-05,0.012825,-0.010758,62.137375,13.158295,-149.567444,,,
729715919.369345,-2.21288,-4.81782,-84.78068,0.089478,-0.025009,0.989838,4.7e-05,0.012825,-0.010758,62.137375,13.158295,-149.567444,,,
729715919.372954,-2.212881,-4.817817,-87.857559,0.089478,-0.025009,0.989838,-0.012783,0.01394,-0.000545,62.137375,13.158295,-149.567444,,,
729715919.373192,-2.21288,-4.81782,-84.78068,0.089478,-0.025009,0.989838,-0.012783,0.01394,-0.000545,62.137375,13.158295,-149.567444,,,
729715919.375646,-2.217359,-4.814512,-87.85782,0.087387,-0.028183,0.985703,-0.012783,0.01394,-0.000545,62.137375,13.158295,-149.567444,,,
729715919.375864,-2.217358,-4.814514,-84.780941,0.087387,-0.028183,0.985703,-0.012783,0.01394,-0.000545,62.137375,13.158295,-149.567444,,,
729715919.378424,-2.217359,-4.814512,-87.85782,0.087387,-0.028183,0.985703,-0.012783,0.01394,-0.000545,62.137375,13.158295,-149.567444,,,
729715919.378625,-2.217358,-4.814514,-84.780941,0.087387,-0.028183,0.985703,-0.012783,0.01394,-0.000545,62.137375,13.158295,-149.567444,,,
729715919.383494,-2.223648,-4.811032,-87.857881,0.087387,-0.028183,0.985703,-0.031247,0.021299,0.001491,62.137375,13.158295,-149.567444,,,
729715919.383785,-2.223647,-4.811034,-84.781003,0.087387,-0.028183,0.985703,-0.031247,0.021299,0.001491,62.137375,13.158295,-149.567444,,,
729715919.385584,-2.233763,-4.805296,-87.857102,0.089737,-0.030045,0.981705,-0.031247,0.021299,0.001491,62.137375,13.158295,-149.567444,,,
729715919.385833,-2.233763,-4.805299,-84.780224,0.089737,-0.030045,0.981705,-0.031247,0.021299,0.001491,62.137375,13.158295,-149.567444,,,
729715919.38842,-2.233763,-4.805296,-87.857102,0.089737,-0.030045,0.981705,-0.031247,0.021299,0.001491,62.137375,13.158295,-149.567444,,,
729715919.388645,-2.233763,-4.805299,-84.780224,0.089737,-0.030045,0.981705,-0.031247,0.021299,0.001491,62.137375,13.158295,-149.567444,,,
729715919.392895,-2.245367,-4.7996,-87.855753,0.089737,-0.030045,0.981705,-0.046188,0.022342,0.008102,62.137375,13.158295,-149.567444,,,
729715919.393128,-2.245366,-4.799603,-84.778874,0.089737,-0.030045,0.981705,-0.046188,0.022342,0.008102,62.137375,13.158295,-149.567444,,,
729715919.395967,-2.259191,-4.793973,-87.85419,0.082458,-0.028595,0.982346,-0.046188,0.022342,0.008102,62.137375,13.158295,-149.567444,,,
729715919.396189,-2.25919,-4.793976,-84.777311,0.082458,-0.028595,0.982346,-0.046188,0.022342,0.008102,62.137375,13.158295,-149.567444,,,
729715919.398313,-2.259191,-4.793973,-87.85419,0.082458,-0.028595,0.982346,-0.046188,0.022342,0.008102,62.137375,13.158295,-149.567444,,,
729715919.398526,-2.25919,-4.793976,-84.777311,0.082458,-0.028595,0.982346,-0.046188,0.022342,0.008102,62.137375,13.158295,-149.567444,,,
729715919.402515,-2.2724,-4.789378,-87.852893,0.082458,-0.028595,0.982346,-0.042288,0.015208,0.003486,62.137375,13.158295,-149.567444,,,
729715919.402728,-2.2724,-4.789381,-84.776014,0.082458,-0.028595,0.982346,-0.042288,0.015208,0.003486,62.137375,13.158295,-149.567444,,,
729715919.405323,-2.284247,-4.785072,-87.851515,0.079819,-0.031174,0.983719,-0.042288,0.015208,0.003486,62.137375,13.158295,-149.567444,,,
729715919.405524,-2.284247,-4.785075,-84.774637,0.079819,-0.031174,0.983719,-0.042288,0.015208,0.003486,62.137375,13.158295,-149.567444,,,
729715919.40839,-2.284247,-4.785072,-87.851515,0.079819,-0.031174,0.983719,-0.042288,0.015208,0.003486,62.137375,13.158295,-149.567444,,,
729715919.408573,-2.284247,-4.785075,-84.774637,0.079819,-0.031174,0.983719,-0.042288,0.015208,0.003486,62.137375,13.158295,-149.567444,,,
729715919.413204,-2.293479,-4.782498,-87.850426,0.079819,-0.031174,0.983719,-0.01535,0.012814,0.00083,62.089096,13.191605,-149.571533,,,
729715919.413493,-2.293478,-4.7825,-84.773548,0.079819,-0.031174,0.983719,-0.01535,0.012814,0.00083,62.089096,13.191605,-149.571533,,,
729715919.415637,-2.297619,-4.781218,-87.849582,0.079742,-0.037064,0.993469,-0.01535,0.012814,0.00083,62.089096,13.191605,-149.571533,,,
729715919.415853,-2.297618,-4.78122,-84.772704,0.079742,-0.037064,0.993469,-0.01535,0.012814,0.00083,62.089096,13.191605,-149.571533,,,
729715919.418421,-2.297619,-4.781218,-87.849582,0.079742,-0.037064,0.993469,-0.01535,0.012814,0.00083,62.089096,13.191605,-149.571533,,,
729715919.418607,-2.297618,-4.78122,-84.772704,0.079742,-0.037064,0.993469,-0.01535,0.012814,0.00083,62.089096,13.191605,-149.571533,,,
729715919.424826,-2.297881,-4.779949,-87.849257,0.079742,-0.037064,0.993469,0.011061,-0.001281,-0.002689,62.089096,13.191605,-149.571533,,,
729715919.425116,-2.294474,-4.782098,-84.772523,0.077713,-0.039978,1.000381,0.011061,-0.001281,-0.002689,62.089096,13.191605,-149.571533,,,
729715919.4291,-2.294475,-4.782095,-87.849402,0.077713,-0.039978,1.000381,0.011061,-0.001281,-0.002689,62.089096,13.191605,-149.571533,,,
729715919.429354,-2.294474,-4.782098,-84.772523,0.077713,-0.039978,1.000381,0.011061,-0.001281,-0.002689,62.089096,13.191605,-149.571533,,,
729715919.432359,-2.290236,-4.784522,-87.849423,0.077713,-0.039978,1.000381,0.01839,-0.010626,-0.005526,62.089096,13.191605,-149.571533,,,
729715919.432588,-2.290235,-4.784524,-84.772544,0.077713,-0.039978,1.000381,0.01839,-0.010626,-0.005526,62.089096,13.191605,-149.571533,,,
729715919.435834,-2.283388,-4.789869,-87.849715,0.072662,-0.037354,0.995117,0.01839,-0.010626,-0.005526,62.089096,13.191605,-149.571533,,,
729715919.436062,-2.283387,-4.789872,-84.772836,0.072662,-0.037354,0.995117,0.01839,-0.010626,-0.005526,62.089096,13.191605,-149.571533,,,
729715919.438331,-2.283388,-4.789869,-87.849715,0.072662,-0.037354,0.995117,0.01839,-0.010626,-0.005526,62.089096,13.191605,-149.571533,,,
729715919.438557,-2.283387,-4.789872,-84.772836,0.072662,-0.037354,0.995117,0.01839,-0.010626,-0.005526,62.089096,13.191605,-149.571533,,,
729715919.442582,-2.277999,-4.796241,-87.849576,0.072662,-0.037354,0.995117,0.016084,-0.026324,-0.003349,62.089096,13.191605,-149.571533,,,
729715919.442812,-2.277998,-4.796243,-84.772697,0.072662,-0.037354,0.995117,0.016084,-0.026324,-0.003349,62.089096,13.191605,-149.571533,,,
729715919.445799,-2.271715,-4.805443,-87.849531,0.069656,-0.037003,0.993698,0.016084,-0.026324,-0.003349,62.089096,13.191605,-149.571533,,,
729715919.446021,-2.271715,-4.805446,-84.772652,0.069656,-0.037003,0.993698,0.016084,-0.026324,-0.003349,62.089096,13.191605,-149.571533,,,
729715919.448323,-2.271715,-4.805443,-87.849531,0.069656,-0.037003,0.993698,0.016084,-0.026324,-0.003349,62.089096,13.191605,-149.571533,,,
729715919.448547,-2.271715,-4.805446,-84.772652,0.069656,-0.037003,0.993698,0.016084,-0.026324,-0.003349,62.089096,13.191605,-149.571533,,,
729715919.45312,-2.268779,-4.81567,-87.849553,0.069656,-0.037003,0.993698,0.007759,-0.037351,-0.002817,61.989578,13.292435,-149.397125,,,
729715919.453367,-2.268778,-4.815672,-84.772674,0.069656,-0.037003,0.993698,0.007759,-0.037351,-0.002817,61.989578,13.292435,-149.397125,,,
729715919.455253,-2.265363,-4.827773,-87.849674,0.072601,-0.036636,0.993195,0.007759,-0.037351,-0.002817,61.989578,13.292435,-149.397125,,,
729715919.455462,-2.265363,-4.827775,-84.772795,0.072601,-0.036636,0.993195,0.007759,-0.037351,-0.002817,61.989578,13.292435,-149.397125,,,
729715919.458408,-2.265363,-4.827773,-87.849674,0.072601,-0.036636,0.993195,0.007759,-0.037351,-0.002817,61.989578,13.292435,-149.397125,,,
729715919.458593,-2.265363,-4.827775,-84.772795,0.072601,-0.036636,0.993195,0.007759,-0.037351,-0.002817,61.989578,13.292435,-149.397125,,,
729715919.463738,-2.264556,-4.837672,-87.850196,0.072601,-0.036636,0.993195,-0.001392,-0.017366,-0.001141,61.989578,13.292435,-149.397125,,,
729715919.464015,-2.264556,-4.837675,-84.773318,0.072601,-0.036636,0.993195,-0.001392,-0.017366,-0.001141,61.989578,13.292435,-149.397125,,,
729715919.465466,-2.263652,-4.845064,-87.850026,0.073624,-0.037674,0.997681,-0.001392,-0.017366,-0.001141,61.989578,13.292435,-149.397125,,,
729715919.465688,-2.263651,-4.845067,-84.773147,0.073624,-0.037674,0.997681,-0.001392,-0.017366,-0.001141,61.989578,13.292435,-149.397125,,,
729715919.468464,-2.263652,-4.845064,-87.850026,0.073624,-0.037674,0.997681,-0.001392,-0.017366,-0.001141,61.989578,13.292435,-149.397125,,,
729715919.468668,-2.263651,-4.845067,-84.773147,0.073624,-0.037674,0.997681,-0.001392,-0.017366,-0.001141,61.989578,13.292435,-149.397125,,,
729715919.473861,-2.264531,-4.847088,-87.847981,0.073624,-0.037674,0.997681,-0.003539,0.009197,0.013363,61.989578,13.292435,-149.397125,,,
729715919.474118,-2.26453,-4.847091,-84.771103,0.073624,-0.037674,0.997681,-0.003539,0.009197,0.013363,61.989578,13.292435,-149.397125,,,
729715919.475656,-2.264889,-4.844564,-87.843778,0.074722,-0.040329,1.009384,-0.003539,0.009197,0.013363,61.989578,13.292435,-149.397125,,,
729715919.475888,-2.264888,-4.844567,-84.7669,0.074722,-0.040329,1.009384,-0.003539,0.009197,0.013363,61.989578,13.292435,-149.397125,,,
729715919.478369,-2.264889,-4.844564,-87.843778,0.074722,-0.040329,1.009384,-0.003539,0.009197,0.013363,61.989578,13.292435,-149.397125,,,
729715919.478553,-2.264888,-4.844567,-84.7669,0.074722,-0.040329,1.009384,-0.003539,0.009197,0.013363,61.989578,13.292435,-149.397125,,,
729715919.48261,-2.266949,-4.839398,-87.83788,0.074722,-0.040329,1.009384,-0.00481,0.034375,0.024581,61.989578,13.292435,-149.397125,,,
729715919.482846,-2.266948,-4.8394,-84.761002,0.074722,-0.040329,1.009384,-0.00481,0.034375,0.024581,61.989578,13.292435,-149.397125,,,
729715919.485718,-2.267987,-4.830746,-87.829844,0.078339,-0.038483,1.005463,-0.00481,0.034375,0.024581,61.989578,13.292435,-149.397125,,,
729715919.485943,-2.267987,-4.830749,-84.752966,0.078339,-0.038483,1.005463,-0.00481,0.034375,0.024581,61.989578,13.292435,-149.397125,,,
729715919.488337,-2.267987,-4.830746,-87.829844,0.078339,-0.038483,1.005463,-0.00481,0.034375,0.024581,61.989578,13.292435,-149.397125,,,
729715919.488572,-2.267987,-4.830749,-84.752966,0.078339,-0.038483,1.005463,-0.00481,0.034375,0.024581,61.989578,13.292435,-149.397125,,,
729715919.493308,-2.270301,-4.820278,-87.820388,0.078339,-0.038483,1.005463,-0.000756,0.038857,0.034296,61.881119,13.145874,-149.527954,,,
729715919.493563,-2.2703,-4.82028,-84.743509,0.078339,-0.038483,1.005463,-0.000756,0.038857,0.034296,61.881119,13.145874,-149.527954,,,
729715919.495635,-2.271818,-4.808876,-87.809869,0.081726,-0.037827,1.00473,-0.000756,0.038857,0.034296,61.881119,13.145874,-149.527954,,,
729715919.49585,-2.271817,-4.808879,-84.73299,0.081726,-0.037827,1.00473,-0.000756,0.038857,0.034296,61.881119,13.145874,-149.527954,,,
729715919.498388,-2.271818,-4.808876,-87.809869,0.081726,-0.037827,1.00473,-0.000756,0.038857,0.034296,61.881119,13.145874,-149.527954,,,
729715919.498596,-2.271817,-4.808879,-84.73299,0.081726,-0.037827,1.00473,-0.000756,0.038857,0.034296,61.881119,13.145874,-149.527954,,,
729715919.502828,-2.273243,-4.799643,-87.798512,0.081726,-0.037827,1.00473,-0.000648,0.024692,0.035846,61.881119,13.145874,-149.527954,,,
729715919.503064,-2.273242,-4.799645,-84.721634,0.081726,-0.037827,1.00473,-0.000648,0.024692,0.035846,61.881119,13.145874,-149.527954,,,
729715919.505514,-2.274681,-4.791674,-87.787327,0.079193,-0.037521,0.997238,-0.000648,0.024692,0.035846,61.881119,13.145874,-149.527954,,,
729715919.505736,-2.27468,-4.791676,-84.710448,0.079193,-0.037521,0.997238,-0.000648,0.024692,0.035846,61.881119,13.145874,-149.527954,,,
729715919.50845,-2.274681,-4.791674,-87.787327,0.079193,-0.037521,0.997238,-0.000648,0.024692,0.035846,61.881119,13.145874,-149.527954,,,
729715919.508641,-2.27468,-4.791676,-84.710448,0.079193,-0.037521,0.997238,-0.000648,0.024692,0.035846,61.881119,13.145874,-149.527954,,,
729715919.513901,-2.275093,-4.788304,-87.77756,0.079193,-0.037521,0.997238,0.005748,0.00334,0.025189,61.881119,13.145874,-149.527954,,,
729715919.514171,-2.275092,-4.788307,-84.700682,0.079193,-0.037521,0.997238,0.005748,0.00334,0.025189,61.881119,13.145874,-149.527954,,,
729715919.514852,-2.275093,-4.788304,-87.77756,0.079193,-0.037521,0.997238,0.005748,0.00334,0.025189,61.881119,13.145874,-149.527954,,,
729715919.515262,-2.274288,-4.786369,-84.693015,0.081085,-0.031998,0.995651,0.005748,0.00334,0.025189,61.881119,13.145874,-149.527954,,,
729715919.519272,-2.274289,-4.786367,-87.769893,0.081085,-0.031998,0.995651,0.005748,0.00334,0.025189,61.881119,13.145874,-149.527954,,,
729715919.519518,-2.274288,-4.786369,-84.693015,0.081085,-0.031998,0.995651,0.005748,0.00334,0.025189,61.881119,13.145874,-149.527954,,,
729715919.523453,-2.272419,-4.789422,-87.763952,0.081085,-0.031998,0.995651,0.013715,-0.015781,0.010961,61.881119,13.145874,-149.527954,,,
729715919.523719,-2.272418,-4.789424,-84.687074,0.081085,-0.031998,0.995651,0.013715,-0.015781,0.010961,61.881119,13.145874,-149.527954,,,
729715919.524941,-2.272419,-4.789422,-87.763952,0.084854,-0.032974,0.996185,0.013715,-0.015781,0.010961,61.881119,13.145874,-149.527954,,,
729715919.525193,-2.267998,-4.793653,-84.682629,0.084854,-0.032974,0.996185,0.013715,-0.015781,0.010961,61.881119,13.145874,-149.527954,,,
729715919.528449,-2.267999,-4.79365,-87.759507,0.084854,-0.032974,0.996185,0.013715,-0.015781,0.010961,61.881119,13.145874,-149.527954,,,
729715919.528638,-2.267998,-4.793653,-84.682629,0.084854,-0.032974,0.996185,0.013715,-0.015781,0.010961,61.881119,13.145874,-149.527954,,,
729715919.533675,-2.262022,-4.802337,-87.756746,0.084854,-0.032974,0.996185,0.032643,-0.035834,0.002611,61.862076,13.336655,-149.613129,,,
729715919.533922,-2.262022,-4.802339,-84.679868,0.084854,-0.032974,0.996185,0.032643,-0.035834,0.002611,61.862076,13.336655,-149.613129,,,
729715919.53559,-2.262022,-4.811053,-87.754729,0.084442,-0.038696,0.999863,0.032643,-0.035834,0.002611,61.862076,13.336655,-149.613129,,,
729715919.535808,-2.253475,-4.811055,-84.677851,0.084442,-0.038696,0.999863,0.032643,-0.035834,0.002611,61.862076,13.336655,-149.613129,,,
729715919.538712,-2.253476,-4.811053,-87.754729,0.084442,-0.038696,0.999863,0.032643,-0.035834,0.002611,61.862076,13.336655,-149.613129,,,
729715919.538919,-2.253475,-4.811055,-84.677851,0.084442,-0.038696,0.999863,0.032643,-0.035834,0.002611,61.862076,13.336655,-149.613129,,,
729715919.542794,-2.24382,-4.821433,-87.753076,0.084442,-0.038696,0.999863,0.037952,-0.031013,0.00143,61.862076,13.336655,-149.613129,,,
729715919.543021,-2.24382,-4.821435,-84.676197,0.084442,-0.038696,0.999863,0.037952,-0.031013,0.00143,61.862076,13.336655,-149.613129,,,
729715919.545195,-2.24382,-4.821433,-87.753076,0.090607,-0.035416,0.997894,0.037952,-0.031013,0.00143,61.862076,13.336655,-149.613129,,,
729715919.545398,-2.233905,-4.829701,-84.674343,0.090607,-0.035416,0.997894,0.037952,-0.031013,0.00143,61.862076,13.336655,-149.613129,,,
729715919.549017,-2.233906,-4.829698,-87.751221,0.090607,-0.035416,0.997894,0.037952,-0.031013,0.00143,61.862076,13.336655,-149.613129,,,
729715919.54923,-2.233905,-4.829701,-84.674343,0.090607,-0.035416,0.997894,0.037952,-0.031013,0.00143,61.862076,13.336655,-149.613129,,,
729715919.552891,-2.224982,-4.838347,-87.749004,0.090607,-0.035416,0.997894,0.027094,-0.021008,0.005866,61.862076,13.336655,-149.613129,,,
729715919.55311,-2.224981,-4.83835,-84.672125,0.090607,-0.035416,0.997894,0.027094,-0.021008,0.005866,61.862076,13.336655,-149.613129,,,
729715919.555379,-2.218116,-4.843607,-87.746475,0.092651,-0.02948,0.992477,0.027094,-0.021008,0.005866,61.862076,13.336655,-149.613129,,,
729715919.555587,-2.218116,-4.843609,-84.669596,0.092651,-0.02948,0.992477,0.027094,-0.021008,0.005866,61.862076,13.336655,-149.613129,,,
729715919.558388,-2.218116,-4.843607,-87.746475,0.092651,-0.02948,0.992477,0.027094,-0.021008,0.005866,61.862076,13.336655,-149.613129,,,
729715919.558581,-2.218116,-4.843609,-84.669596,0.092651,-0.02948,0.992477,0.027094,-0.021008,0.005866,61.862076,13.336655,-149.613129,,,
729715919.56412,-2.213951,-4.848127,-87.743261,0.092651,-0.02948,0.992477,0.006768,0.000176,0.010873,61.862076,13.336655,-149.613129,,,
729715919.564411,-2.21395,-4.84813,-84.666382,0.092651,-0.02948,0.992477,0.006768,0.000176,0.010873,61.862076,13.336655,-149.613129,,,
729715919.564889,-2.213951,-4.848127,-87.743261,0.089874,-0.027603,0.987396,0.006768,0.000176,0.010873,61.862076,13.336655,-149.613129,,,
729715919.565216,-2.212272,-4.847875,-84.662563,0.089874,-0.027603,0.987396,0.006768,0.000176,0.010873,61.862076,13.336655,-149.613129,,,
729715919.568509,-2.212273,-4.847873,-87.739442,0.089874,-0.027603,0.987396,0.006768,0.000176,0.010873,61.862076,13.336655,-149.613129,,,
729715919.568703,-2.212272,-4.847875,-84.662563,0.089874,-0.027603,0.987396,0.006768,0.000176,0.010873,61.862076,13.336655,-149.613129,,,
729715919.574564,-2.21265,-4.844112,-87.735161,0.089874,-0.027603,0.987396,-0.003283,0.029204,0.019153,61.876434,13.125381,-149.455902,,,
729715919.574873,-2.21265,-4.844114,-84.652308,0.089569,-0.031113,0.991608,-0.003283,0.029204,0.019153,61.876434,13.125381,-149.455902,,,
729715919.575304,-2.214426,-4.835987,-84.652308,0.089569,-0.031113,0.991608,-0.003283,0.029204,0.019153,61.876434,13.125381,-149.455902,,,
729715919.578633,-2.214427,-4.835985,-87.729186,0.089569,-0.031113,0.991608,-0.003283,0.029204,0.019153,61.876434,13.125381,-149.455902,,,
729715919.578868,-2.214426,-4.835987,-84.652308,0.089569,-0.031113,0.991608,-0.003283,0.029204,0.019153,61.876434,13.125381,-149.455902,,,
729715919.583253,-2.217735,-4.825412,-87.722017,0.089569,-0.031113,0.991608,-0.014789,0.043105,0.028881,61.876434,13.125381,-149.455902,,,
729715919.583511,-2.217734,-4.825414,-84.645138,0.089569,-0.031113,0.991608,-0.014789,0.043105,0.028881,61.876434,13.125381,-149.455902,,,
729715919.58493,-2.217735,-4.825412,-87.722017,0.088562,-0.033813,0.988998,-0.014789,0.043105,0.028881,61.876434,13.125381,-149.455902,,,
729715919.585181,-2.223,-4.812568,-84.636972,0.088562,-0.033813,0.988998,-0.014789,0.043105,0.028881,61.876434,13.125381,-149.455902,,,
729715919.589103,-2.223,-4.812566,-87.713851,0.088562,-0.033813,0.988998,-0.014789,0.043105,0.028881,61.876434,13.125381,-149.455902,,,
729715919.589324,-2.223,-4.812568,-84.636972,0.088562,-0.033813,0.988998,-0.014789,0.043105,0.028881,61.876434,13.125381,-149.455902,,,
729715919.592848,-2.230347,-4.80094,-87.704707,0.088562,-0.033813,0.988998,-0.023373,0.03715,0.033888,61.876434,13.125381,-149.455902,,,
729715919.593087,-2.230346,-4.800942,-84.627829,0.088562,-0.033813,0.988998,-0.023373,0.03715,0.033888,61.876434,13.125381,-149.455902,,,
729715919.5956,-2.230347,-4.80094,-87.704707,0.083557,-0.035889,0.980621,-0.023373,0.03715,0.033888,61.876434,13.125381,-149.455902,,,
729715919.595823,-2.237648,-4.791235,-84.618618,0.083557,-0.035889,0.980621,-0.023373,0.03715,0.033888,61.876434,13.125381,-149.455902,,,
729715919.598982,-2.237649,-4.791233,-87.695496,0.083557,-0.035889,0.980621,-0.023373,0.03715,0.033888,61.876434,13.125381,-149.455902,,,
729715919.599196,-2.237648,-4.791235,-84.618618,0.083557,-0.035889,0.980621,-0.023373,0.03715,0.033888,61.876434,13.125381,-149.455902,,,
729715919.602675,-2.246383,-4.785319,-87.686665,0.083557,-0.035889,0.980621,-0.027309,0.006646,0.026831,61.876434,13.125381,-149.455902,,,
729715919.602901,-2.246382,-4.785322,-84.609786,0.083557,-0.035889,0.980621,-0.027309,0.006646,0.026831,61.876434,13.125381,-149.455902,,,
729715919.604992,-2.246383,-4.785319,-87.686665,0.081619,-0.036453,0.980347,-0.027309,0.006646,0.026831,61.876434,13.125381,-149.455902,,,
729715919.605234,-2.253633,-4.784094,-84.601787,0.081619,-0.036453,0.980347,-0.027309,0.006646,0.026831,61.876434,13.125381,-149.455902,,,
729715919.609052,-2.253634,-4.784091,-87.678666,0.081619,-0.036453,0.980347,-0.027309,0.006646,0.026831,61.876434,13.125381,-149.455902,,,
729715919.609271,-2.253633,-4.784094,-84.601787,0.081619,-0.036453,0.980347,-0.027309,0.006646,0.026831,61.876434,13.125381,-149.455902,,,
729715919.614924,-2.25957,-4.78684,-87.671834,0.081619,-0.036453,0.980347,-0.007297,-0.015062,0.014553,61.782196,13.177704,-149.685562,,,
729715919.615233,-2.26228,-4.792106,-84.590088,0.082825,-0.043915,0.985107,-0.007297,-0.015062,0.014553,61.782196,13.177704,-149.685562,,,
729715919.618684,-2.262281,-4.792104,-87.666967,0.082825,-0.043915,0.985107,-0.007297,-0.015062,0.014553,61.782196,13.177704,-149.685562,,,
729715919.618905,-2.26228,-4.792106,-84.590088,0.082825,-0.043915,0.985107,-0.007297,-0.015062,0.014553,61.782196,13.177704,-149.685562,,,
729715919.624282,-2.261371,-4.798398,-87.663989,0.082825,-0.043915,0.985107,0.018202,-0.021075,-0.000306,61.782196,13.177704,-149.685562,,,
729715919.624552,-2.26137,-4.798401,-84.587111,0.082825,-0.043915,0.985107,0.018202,-0.021075,-0.000306,61.782196,13.177704,-149.685562,,,
729715919.62578,-2.261371,-4.798398,-87.663989,0.085861,-0.051895,1.002197,0.018202,-0.021075,-0.000306,61.782196,13.177704,-149.685562,,,
729715919.626003,-2.255264,-4.806524,-84.58591,0.085861,-0.051895,1.002197,0.018202,-0.021075,-0.000306,61.782196,13.177704,-149.685562,,,
729715919.628758,-2.255265,-4.806522,-87.662789,0.085861,-0.051895,1.002197,0.018202,-0.021075,-0.000306,61.782196,13.177704,-149.685562,,,
729715919.628965,-2.255264,-4.806524,-84.58591,0.085861,-0.051895,1.002197,0.018202,-0.021075,-0.000306,61.782196,13.177704,-149.685562,,,
729715919.632483,-2.244761,-4.813626,-87.662143,0.085861,-0.051895,1.002197,0.054837,-0.017865,-0.005472,61.782196,13.177704,-149.685562,,,
729715919.632704,-2.24476,-4.813628,-84.585265,0.085861,-0.051895,1.002197,0.054837,-0.017865,-0.005472,61.782196,13.177704,-149.685562,,,
729715919.635235,-2.244761,-4.813626,-87.662143,0.088425,-0.051773,1.006012,0.054837,-0.017865,-0.005472,61.782196,13.177704,-149.685562,,,
729715919.635464,-2.228253,-4.82124,-84.584585,0.088425,-0.051773,1.006012,0.054837,-0.017865,-0.005472,61.782196,13.177704,-149.685562,,,
729715919.639029,-2.228254,-4.821237,-87.661463,0.088425,-0.051773,1.006012,0.054837,-0.017865,-0.005472,61.782196,13.177704,-149.685562,,,
729715919.639232,-2.228253,-4.82124,-84.584585,0.088425,-0.051773,1.006012,0.054837,-0.017865,-0.005472,61.782196,13.177704,-149.685562,,,
729715919.643349,-2.209712,-4.824354,-87.661147,0.088425,-0.051773,1.006012,0.075568,0.005012,-0.007703,61.782196,13.177704,-149.685562,,,
729715919.643596,-2.209711,-4.824357,-84.584269,0.088425,-0.051773,1.006012,0.075568,0.005012,-0.007703,61.782196,13.177704,-149.685562,,,
729715919.644879,-2.209712,-4.824354,-87.661147,0.088425,-0.051773,1.006012,0.075568,0.005012,-0.007703,61.782196,13.177704,-149.685562,,,
729715919.645177,-2.187415,-4.824538,-84.583763,0.094025,-0.051636,1.015701,0.075568,0.005012,-0.007703,61.782196,13.177704,-149.685562,,,
729715919.649022,-2.187416,-4.824535,-87.660641,0.094025,-0.051636,1.015701,0.075568,0.005012,-0.007703,61.782196,13.177704,-149.685562,,,
729715919.649238,-2.187415,-4.824538,-84.583763,0.094025,-0.051636,1.015701,0.075568,0.005012,-0.007703,61.782196,13.177704,-149.685562,,,
729715919.653418,-2.166113,-4.820657,-87.659286,0.094025,-0.051636,1.015701,0.069436,0.0204,0.001362,61.782196,13.177704,-149.685562,,,
729715919.653673,-2.166112,-4.820659,-84.582407,0.094025,-0.051636,1.015701,0.069436,0.0204,0.001362,61.782196,13.177704,-149.685562,,,
729715919.655578,-2.166113,-4.820657,-87.659286,0.094025,-0.051636,1.015701,0.069436,0.0204,0.001362,61.850281,13.074631,-149.359161,,,
729715919.655807,-2.145414,-4.815754,-84.580063,0.092178,-0.046051,1.007004,0.069436,0.0204,0.001362,61.850281,13.074631,-149.359161,,,
729715919.658952,-2.145415,-4.815752,-87.656941,0.092178,-0.046051,1.007004,0.069436,0.0204,0.001362,61.850281,13.074631,-149.359161,,,
729715919.659167,-2.145414,-4.815754,-84.580063,0.092178,-0.046051,1.007004,0.069436,0.0204,0.001362,61.850281,13.074631,-149.359161,,,
729715919.662921,-2.128576,-4.810035,-87.653354,0.092178,-0.046051,1.007004,0.048547,0.020367,0.009955,61.850281,13.074631,-149.359161,,,
729715919.663149,-2.128575,-4.810037,-84.576476,0.092178,-0.046051,1.007004,0.048547,0.020367,0.009955,61.850281,13.074631,-149.359161,,,
729715919.66493,-2.128576,-4.810035,-87.653354,0.092178,-0.046051,1.007004,0.048547,0.020367,0.009955,61.850281,13.074631,-149.359161,,,
729715919.665152,-2.115179,-4.806045,-84.572325,0.089615,-0.03595,0.99321,0.048547,0.020367,0.009955,61.850281,13.074631,-149.359161,,,
729715919.669404,-2.115179,-4.806042,-87.649204,0.089615,-0.03595,0.99321,0.048547,0.020367,0.009955,61.850281,13.074631,-149.359161,,,
729715919.669658,-2.115179,-4.806045,-84.572325,0.089615,-0.03595,0.99321,0.048547,0.020367,0.009955,61.850281,13.074631,-149.359161,,,
729715919.672731,-2.105694,-4.802634,-87.645663,0.089615,-0.03595,0.99321,0.019883,0.010554,0.005298,61.850281,13.074631,-149.359161,,,
729715919.672959,-2.105693,-4.802637,-84.568784,0.089615,-0.03595,0.99321,0.019883,0.010554,0.005298,61.850281,13.074631,-149.359161,,,
729715919.675504,-2.105694,-4.802634,-87.64329,0.092468,-0.030197,0.987411,0.019883,0.010554,0.005298,61.850281,13.074631,-149.359161,,,
729715919.675723,-2.100584,-4.800403,-84.566411,0.092468,-0.030197,0.987411,0.019883,0.010554,0.005298,61.850281,13.074631,-149.359161,,,
729715919.678596,-2.100585,-4.8004,-87.64329,0.092468,-0.030197,0.987411,0.019883,0.010554,0.005298,61.850281,13.074631,-149.359161,,,
729715919.678748,-2.100584,-4.800403,-84.566411,0.092468,-0.030197,0.987411,0.019883,0.010554,0.005298,61.850281,13.074631,-149.359161,,,
729715919.682939,-2.099761,-4.798653,-87.642715,0.092468,-0.030197,0.987411,-0.007444,0.010875,-0.007223,61.850281,13.074631,-149.359161,,,
729715919.683077,-2.09976,-4.798655,-84.565837,0.092468,-0.030197,0.987411,-0.007444,0.010875,-0.007223,61.850281,13.074631,-149.359161,,,
729715919.685041,-2.099761,-4.798653,-87.642715,0.092468,-0.030197,0.987411,-0.007444,0.010875,-0.007223,61.850281,13.074631,-149.359161,,,
729715919.685235,-2.102036,-4.796607,-84.567685,0.095016,-0.029404,0.983429,-0.007444,0.010875,-0.007223,61.850281,13.074631,-149.359161,,,
729715919.688556,-2.102037,-4.796604,-87.644563,0.095016,-0.029404,0.983429,-0.007444,0.010875,-0.007223,61.850281,13.074631,-149.359161,,,
729715919.688668,-2.102036,-4.796607,-84.567685,0.095016,-0.029404,0.983429,-0.007444,0.010875,-0.007223,61.850281,13.074631,-149.359161,,,
729715919.693234,-2.10561,-4.793727,-87.648313,0.095016,-0.029404,0.983429,-0.018503,0.01521,-0.017753,61.850281,13.074631,-149.359161,,,
729715919.693482,-2.105609,-4.79373,-84.571434,0.095016,-0.029404,0.983429,-0.018503,0.01521,-0.017753,61.850281,13.074631,-149.359161,,,
729715919.694903,-2.10561,-4.793727,-87.648313,0.095016,-0.029404,0.983429,-0.018503,0.01521,-0.017753,61.850281,13.074631,-149.359161,,,
729715919.695182,-2.111808,-4.790044,-84.576335,0.094193,-0.029663,0.989029,-0.018503,0.01521,-0.017753,61.850281,13.074631,-149.359161,,,
729715919.69945,-2.111809,-4.790042,-87.653213,0.094193,-0.029663,0.989029,-0.018503,0.01521,-0.017753,61.950439,13.011139,-149.703613,,,
729715919.699684,-2.111808,-4.790044,-84.576335,0.094193,-0.029663,0.989029,-0.018503,0.01521,-0.017753,61.950439,13.011139,-149.703613,,,
729715919.702343,-2.116838,-4.785293,-87.658852,0.094193,-0.029663,0.989029,-0.016997,0.026276,-0.023053,61.950439,13.011139,-149.703613,,,
729715919.702572,-2.116838,-4.785296,-84.581974,0.094193,-0.029663,0.989029,-0.016997,0.026276,-0.023053,61.950439,13.011139,-149.703613,,,
729715919.705031,-2.116838,-4.785293,-87.658852,0.094193,-0.029663,0.989029,-0.016997,0.026276,-0.023053,61.950439,13.011139,-149.703613,,,
729715919.705221,-2.123008,-4.779391,-84.588111,0.094254,-0.036469,0.98967,-0.016997,0.026276,-0.023053,61.950439,13.011139,-149.703613,,,
729715919.70896,-2.123009,-4.779389,-87.664989,0.094254,-0.036469,0.98967,-0.016997,0.026276,-0.023053,61.950439,13.011139,-149.703613,,,
729715919.709178,-2.123008,-4.779391,-84.588111,0.094254,-0.036469,0.98967,-0.016997,0.026276,-0.023053,61.950439,13.011139,-149.703613,,,
729715919.7127,-2.126581,-4.771905,-87.671021,0.094254,-0.036469,0.98967,-0.01195,0.033627,-0.017531,61.950439,13.011139,-149.703613,,,
729715919.712935,-2.126581,-4.771907,-84.594142,0.094254,-0.036469,0.98967,-0.01195,0.033627,-0.017531,61.950439,13.011139,-149.703613,,,
729715919.71498,-2.126581,-4.771905,-87.671021,0.094254,-0.036469,0.98967,-0.01195,0.033627,-0.017531,61.950439,13.011139,-149.703613,,,
729715919.715176,-2.131448,-4.764048,-84.599223,0.091507,-0.04097,0.989243,-0.01195,0.033627,-0.017531,61.950439,13.011139,-149.703613,,,
729715919.718993,-2.131449,-4.764045,-87.676102,0.091507,-0.04097,0.989243,-0.01195,0.033627,-0.017531,61.950439,13.011139,-149.703613,,,
729715919.719203,-2.131448,-4.764048,-84.599223,0.091507,-0.04097,0.989243,-0.01195,0.033627,-0.017531,61.950439,13.011139,-149.703613,,,
729715919.722613,-2.134813,-4.753488,-87.679949,0.091507,-0.04097,0.989243,-0.01937,0.050065,-0.011203,61.950439,13.011139,-149.703613,,,
729715919.722836,-2.134812,-4.75349,-84.60307,0.091507,-0.04097,0.989243,-0.01937,0.050065,-0.011203,61.950439,13.011139,-149.703613,,,
729715919.724989,-2.134813,-4.753488,-87.679949,0.091507,-0.04097,0.989243,-0.01937,0.050065,-0.011203,61.950439,13.011139,-149.703613,,,
729715919.725193,-2.140706,-4.742375,-84.605766,0.086288,-0.040146,0.986145,-0.01937,0.050065,-0.011203,61.950439,13.011139,-149.703613,,,
729715919.72908,-2.140707,-4.742373,-87.682645,0.086288,-0.040146,0.986145,-0.01937,0.050065,-0.011203,61.950439,13.011139,-149.703613,,,
729715919.729304,-2.140706,-4.742375,-84.605766,0.086288,-0.040146,0.986145,-0.01937,0.050065,-0.011203,61.950439,13.011139,-149.703613,,,
729715919.73291,-2.145459,-4.729222,-87.683969,0.086288,-0.040146,0.986145,-0.013174,0.044059,-0.001362,61.950439,13.011139,-149.703613,,,
729715919.733164,-2.145458,-4.729225,-84.60709,0.086288,-0.040146,0.986145,-0.013174,0.044059,-0.001362,61.950439,13.011139,-149.703613,,,
729715919.734939,-2.145459,-4.729222,-87.683969,0.086288,-0.040146,0.986145,-0.013174,0.044059,-0.001362,61.950439,13.011139,-149.703613,,,
729715919.73521,-2.149877,-4.718482,-84.607709,0.085495,-0.041122,0.984024,-0.013174,0.044059,-0.001362,61.950439,13.011139,-149.703613,,,
729715919.739769,-2.149878,-4.718479,-87.684587,0.085495,-0.041122,0.984024,-0.013174,0.044059,-0.001362,62.055435,12.886597,-149.690582,,,
729715919.740072,-2.149877,-4.709092,-84.608385,0.085495,-0.041122,0.984024,-0.013174,0.044059,-0.001362,62.055435,12.886597,-149.690582,,,
729715919.743792,-2.151186,-4.709089,-87.685264,0.085495,-0.041122,0.984024,0.007961,0.025283,-0.005766,62.055435,12.886597,-149.690582,,,
729715919.74406,-2.151186,-4.709092,-84.608385,0.085495,-0.041122,0.984024,0.007961,0.025283,-0.005766,62.055435,12.886597,-149.690582,,,
729715919.744945,-2.151186,-4.709089,-87.685264,0.085495,-0.041122,0.984024,0.007961,0.025283,-0.005766,62.055435,12.886597,-149.690582,,,
729715919.745181,-2.151186,-4.709092,-84.608385,0.085495,-0.041122,0.984024,0.007961,0.025283,-0.005766,62.055435,12.886597,-149.690582,,,
729715919.749314,-2.148815,-4.70394,-87.686867,0.084839,-0.044281,0.988403,0.007961,0.025283,-0.005766,62.055435,12.886597,-149.690582,,,
729715919.749547,-2.148814,-4.703942,-84.609989,0.084839,-0.044281,0.988403,0.007961,0.025283,-0.005766,62.055435,12.886597,-149.690582,,,
729715919.752595,-2.143331,-4.700019,-87.69036,0.084839,-0.044281,0.988403,0.025155,0.010353,-0.026163,62.055435,12.886597,-149.690582,,,
729715919.752825,-2.14333,-4.700022,-84.613482,0.084839,-0.044281,0.988403,0.025155,0.010353,-0.026163,62.055435,12.886597,-149.690582,,,
729715919.755023,-2.143331,-4.700019,-87.69036,0.084839,-0.044281,0.988403,0.025155,0.010353,-0.026163,62.055435,12.886597,-149.690582,,,
729715919.75522,-2.135188,-4.70015,-84.619921,0.091232,-0.041855,0.995041,0.025155,0.010353,-0.026163,62.055435,12.886597,-149.690582,,,
729715919.759168,-2.135189,-4.700148,-87.696799,0.091232,-0.041855,0.995041,0.025155,0.010353,-0.026163,62.055435,12.886597,-149.690582,,,
729715919.759387,-2.135188,-4.70015,-84.619921,0.091232,-0.041855,0.995041,0.025155,0.010353,-0.026163,62.055435,12.886597,-149.690582,,,
729715919.762606,-2.128698,-4.699406,-87.70521,0.091232,-0.041855,0.995041,0.013752,0.008516,-0.037712,62.055435,12.886597,-149.690582,,,
729715919.762831,-2.128698,-4.699409,-84.628332,0.091232,-0.041855,0.995041,0.013752,0.008516,-0.037712,62.055435,12.886597,-149.690582,,,
729715919.765016,-2.128698,-4.699406,-87.70521,0.091232,-0.041855,0.995041,0.013752,0.008516,-0.037712,62.055435,12.886597,-149.690582,,,
729715919.765212,-2.128698,-4.699409,-84.628332,0.091232,-0.041855,0.995041,0.013752,0.008516,-0.037712,62.055435,12.886597,-149.690582,,,
729715919.768976,-2.123755,-4.700206,-87.714695,0.088531,-0.035141,0.992279,0.013752,0.008516,-0.037712,62.055435,12.886597,-149.690582,,,
729715919.769192,-2.123754,-4.700208,-84.637817,0.088531,-0.035141,0.992279,0.013752,0.008516,-0.037712,62.055435,12.886597,-149.690582,,,
729715919.773443,-2.123615,-4.696708,-87.724466,0.088531,-0.035141,0.992279,-0.019896,0.029453,-0.030844,62.055435,12.886597,-149.690582,,,
729715919.773696,-2.123614,-4.69671,-84.647587,0.088531,-0.035141,0.992279,-0.019896,0.029453,-0.030844,62.055435,12.886597,-149.690582,,,
729715919.774861,-2.123615,-4.696708,-87.724466,0.088531,-0.035141,0.992279,-0.019896,0.029453,-0.030844,62.055435,12.886597,-149.690582,,,
729715919.775251,-2.123614,-4.69671,-84.656318,0.082886,-0.029877,0.987396,-0.019896,0.029453,-0.030844,62.055435,12.886597,-149.690582,,,
729715919.780306,-2.127225,-4.692169,-87.733196,0.082886,-0.029877,0.987396,-0.019896,0.029453,-0.030844,61.847214,13.282288,-149.522125,,,
729715919.780559,-2.135889,-4.683584,-84.663251,0.082886,-0.029877,0.987396,-0.037327,0.039061,-0.014054,61.847214,13.282288,-149.522125,,,
729715919.782906,-2.135889,-4.683582,-87.74013,0.082886,-0.029877,0.987396,-0.037327,0.039061,-0.014054,61.847214,13.282288,-149.522125,,,
729715919.783139,-2.135889,-4.683584,-84.663251,0.082886,-0.029877,0.987396,-0.037327,0.039061,-0.014054,61.847214,13.282288,-149.522125,,,
729715919.785025,-2.135889,-4.683582,-87.74013,0.082886,-0.029877,0.987396,-0.037327,0.039061,-0.014054,61.847214,13.282288,-149.522125,,,
729715919.785222,-2.135889,-4.683584,-84.663251,0.084427,-0.034058,0.983673,-0.037327,0.039061,-0.014054,61.847214,13.282288,-149.522125,,,
729715919.789013,-2.14732,-4.675488,-87.744971,0.084427,-0.034058,0.983673,-0.037327,0.039061,-0.014054,61.847214,13.282288,-149.522125,,,
729715919.789225,-2.147319,-4.675491,-84.668093,0.084427,-0.034058,0.983673,-0.037327,0.039061,-0.014054,61.847214,13.282288,-149.522125,,,
729715919.793086,-2.160001,-4.66303,-87.747842,0.084427,-0.034058,0.983673,-0.051052,0.060143,-0.001226,61.847214,13.282288,-149.522125,,,
729715919.793327,-2.16,-4.663032,-84.670963,0.084427,-0.034058,0.983673,-0.051052,0.060143,-0.001226,61.847214,13.282288,-149.522125,,,
729715919.794907,-2.160001,-4.66303,-87.747842,0.084427,-0.034058,0.983673,-0.051052,0.060143,-0.001226,61.847214,13.282288,-149.522125,,,
729715919.795215,-2.16,-4.663032,-84.670963,0.084427,-0.034058,0.983673,-0.051052,0.060143,-0.001226,61.847214,13.282288,-149.522125,,,
729715919.799716,-2.174282,-4.648881,-87.749658,0.08754,-0.037216,0.986923,-0.051052,0.060143,-0.001226,61.847214,13.282288,-149.522125,,,
729715919.799957,-2.174282,-4.648883,-84.67278,0.08754,-0.037216,0.986923,-0.051052,0.060143,-0.001226,61.847214,13.282288,-149.522125,,,
729715919.802203,-2.188382,-4.631456,-87.750852,0.08754,-0.037216,0.986923,-0.045694,0.062205,-0.003629,61.847214,13.282288,-149.522125,,,
729715919.802416,-2.188382,-4.631458,-84.673973,0.08754,-0.037216,0.986923,-0.045694,0.062205,-0.003629,61.847214,13.282288,-149.522125,,,
729715919.805056,-2.188382,-4.631456,-87.750852,0.08754,-0.037216,0.986923,-0.045694,0.062205,-0.003629,61.847214,13.282288,-149.522125,,,
729715919.80525,-2.188382,-4.631458,-84.673973,0.08754,-0.037216,0.986923,-0.045694,0.062205,-0.003629,61.847214,13.282288,-149.522125,,,
729715919.809262,-2.201734,-4.615465,-87.752513,0.081482,-0.038391,0.99144,-0.045694,0.062205,-0.003629,61.847214,13.282288,-149.522125,,,
729715919.809477,-2.201733,-4.615468,-84.675635,0.081482,-0.038391,0.99144,-0.045694,0.062205,-0.003629,61.847214,13.282288,-149.522125,,,
729715919.813049,-2.213243,-4.600224,-87.755215,0.081482,-0.038391,0.99144,-0.028615,0.04515,-0.012422,61.847214,13.282288,-149.522125,,,
729715919.81328,-2.213242,-4.600227,-84.678337,0.081482,-0.038391,0.99144,-0.028615,0.04515,-0.012422,61.847214,13.282288,-149.522125,,,
729715919.814947,-2.213243,-4.600224,-87.755215,0.081482,-0.038391,0.99144,-0.028615,0.04515,-0.012422,61.847214,13.282288,-149.522125,,,
729715919.815242,-2.213242,-4.600227,-84.678337,0.081482,-0.038391,0.99144,-0.028615,0.04515,-0.012422,61.847214,13.282288,-149.522125,,,
729715919.819969,-2.222632,-4.58885,-87.759129,0.073715,-0.041382,0.990021,-0.028615,0.04515,-0.012422,62.074448,13.042435,-149.640869,,,
729715919.820292,-2.228287,-4.580682,-84.687091,0.073715,-0.041382,0.990021,-0.028615,0.04515,-0.012422,62.074448,13.042435,-149.640869,,,
729715919.822763,-2.228288,-4.580679,-87.763969,0.073715,-0.041382,0.990021,-0.011826,0.012157,-0.020863,62.074448,13.042435,-149.640869,,,
729715919.823002,-2.228287,-4.580682,-84.687091,0.073715,-0.041382,0.990021,-0.011826,0.012157,-0.020863,62.074448,13.042435,-149.640869,,,
729715919.824941,-2.228288,-4.580679,-87.763969,0.073715,-0.041382,0.990021,-0.011826,0.012157,-0.020863,62.074448,13.042435,-149.640869,,,
729715919.825159,-2.228287,-4.580682,-84.687091,0.073715,-0.041382,0.990021,-0.011826,0.012157,-0.020863,62.074448,13.042435,-149.640869,,,
729715919.82869,-2.232355,-4.579174,-87.770071,0.071213,-0.043213,0.994278,-0.011826,0.012157,-0.020863,62.074448,13.042435,-149.640869,,,
729715919.828898,-2.232354,-4.579176,-84.693193,0.071213,-0.043213,0.994278,-0.011826,0.012157,-0.020863,62.074448,13.042435,-149.640869,,,
729715919.833316,-2.234492,-4.582806,-87.777293,0.071213,-0.043213,0.994278,-0.010238,-0.028311,-0.027052,62.074448,13.042435,-149.640869,,,
729715919.83356,-2.234492,-4.582809,-84.700415,0.071213,-0.043213,0.994278,-0.010238,-0.028311,-0.027052,62.074448,13.042435,-149.640869,,,
729715919.834912,-2.234492,-4.582806,-87.777293,0.071213,-0.043213,0.994278,-0.010238,-0.028311,-0.027052,62.074448,13.042435,-149.640869,,,
729715919.835156,-2.234492,-4.582809,-84.700415,0.071213,-0.043213,0.994278,-0.010238,-0.028311,-0.027052,62.074448,13.042435,-149.640869,,,
729715919.839332,-2.237023,-4.593315,-87.785056,0.067947,-0.043045,0.987671,-0.010238,-0.028311,-0.027052,62.074448,13.042435,-149.640869,,,
729715919.839551,-2.237022,-4.593318,-84.708177,0.067947,-0.043045,0.987671,-0.010238,-0.028311,-0.027052,62.074448,13.042435,-149.640869,,,
729715919.842001,-2.23996,-4.604394,-87.792938,0.067947,-0.043045,0.987671,-0.009522,-0.031591,-0.027619,62.074448,13.042435,-149.640869,,,
729715919.84223,-2.239959,-4.604396,-84.71606,0.067947,-0.043045,0.987671,-0.009522,-0.031591,-0.027619,62.074448,13.042435,-149.640869,,,
729715919.845031,-2.23996,-4.604394,-87.792938,0.067947,-0.043045,0.987671,-0.009522,-0.031591,-0.027619,62.074448,13.042435,-149.640869,,,
729715919.845236,-2.239959,-4.604396,-84.71606,0.067947,-0.043045,0.987671,-0.009522,-0.031591,-0.027619,62.074448,13.042435,-149.640869,,,
729715919.849028,-2.241477,-4.615502,-87.800641,0.06868,-0.041428,0.994263,-0.009522,-0.031591,-0.027619,62.074448,13.042435,-149.640869,,,
729715919.849241,-2.241476,-4.615505,-84.723763,0.06868,-0.041428,0.994263,-0.009522,-0.031591,-0.027619,62.074448,13.042435,-149.640869,,,
729715919.852544,-2.242397,-4.622401,-87.807655,0.06868,-0.041428,0.994263,-0.000156,-0.005418,-0.023234,62.074448,13.042435,-149.640869,,,
729715919.852767,-2.242396,-4.622403,-84.730776,0.06868,-0.041428,0.994263,-0.000156,-0.005418,-0.023234,62.074448,13.042435,-149.640869,,,
729715919.854994,-2.242397,-4.622401,-87.807655,0.06868,-0.041428,0.994263,-0.000156,-0.005418,-0.023234,62.074448,13.042435,-149.640869,,,
729715919.855217,-2.242396,-4.622403,-84.730776,0.06868,-0.041428,0.994263,-0.000156,-0.005418,-0.023234,62.074448,13.042435,-149.640869,,,
729715919.859839,-2.241102,-4.626169,-87.813862,0.079086,-0.042542,1.009201,-0.000156,-0.005418,-0.023234,62.003357,13.150467,-149.940369,,,
729715919.860089,-2.241101,-4.626171,-84.736984,0.079086,-0.042542,1.009201,-0.000156,-0.005418,-0.023234,62.003357,13.150467,-149.940369,,,
729715919.863935,-2.239453,-4.626538,-87.818903,0.079086,-0.042542,1.009201,0.009293,0.01115,-0.01839,62.003357,13.150467,-149.940369,,,
729715919.864198,-2.239453,-4.62654,-84.742025,0.079086,-0.042542,1.009201,0.009293,0.01115,-0.01839,62.003357,13.150467,-149.940369,,,
729715919.86483,-2.239453,-4.626538,-87.818903,0.079086,-0.042542,1.009201,0.009293,0.01115,-0.01839,62.003357,13.150467,-149.940369,,,
729715919.865211,-2.239453,-4.62654,-84.742025,0.079086,-0.042542,1.009201,0.009293,0.01115,-0.01839,62.003357,13.150467,-149.940369,,,
729715919.869239,-2.235907,-4.624996,-87.823217,0.086411,-0.045944,1.009415,0.009293,0.01115,-0.01839,62.003357,13.150467,-149.940369,,,
729715919.869456,-2.235906,-4.624999,-84.746338,0.086411,-0.045944,1.009415,0.009293,0.01115,-0.01839,62.003357,13.150467,-149.940369,,,
729715919.8724,-2.232389,-4.619303,-87.827263,0.086411,-0.045944,1.009415,0.009322,0.032363,-0.017655,62.003357,13.150467,-149.940369,,,
729715919.872622,-2.232389,-4.619305,-84.750385,0.086411,-0.045944,1.009415,0.009322,0.032363,-0.017655,62.003357,13.150467,-149.940369,,,
729715919.874987,-2.232389,-4.619303,-87.827263,0.086411,-0.045944,1.009415,0.009322,0.032363,-0.017655,62.003357,13.150467,-149.940369,,,
729715919.875271,-2.232389,-4.619305,-84.750385,0.086411,-0.045944,1.009415,0.009322,0.032363,-0.017655,62.003357,13.150467,-149.940369,,,
729715919.879252,-2.230167,-4.611761,-87.831302,0.090988,-0.042038,1.004288,0.009322,0.032363,-0.017655,62.003357,13.150467,-149.940369,,,
729715919.879487,-2.230166,-4.611763,-84.754423,0.090988,-0.042038,1.004288,0.009322,0.032363,-0.017655,62.003357,13.150467,-149.940369,,,
729715919.883553,-2.23071,-4.601244,-87.836232,0.090988,-0.042038,1.004288,-0.013976,0.04904,-0.021787,62.003357,13.150467,-149.940369,,,
729715919.883809,-2.230709,-4.601246,-84.759354,0.090988,-0.042038,1.004288,-0.013976,0.04904,-0.021787,62.003357,13.150467,-149.940369,,,
729715919.884911,-2.23071,-4.601244,-87.836232,0.090988,-0.042038,1.004288,-0.013976,0.04904,-0.021787,62.003357,13.150467,-149.940369,,,
729715919.885173,-2.230709,-4.601246,-84.759354,0.090988,-0.042038,1.004288,-0.013976,0.04904,-0.021787,62.003357,13.150467,-149.940369,,,
729715919.88902,-2.233893,-4.589012,-87.841658,0.08934,-0.030807,0.996353,-0.013976,0.04904,-0.021787,62.003357,13.150467,-149.940369,,,
729715919.88923,-2.233892,-4.589015,-84.76478,0.08934,-0.030807,0.996353,-0.013976,0.04904,-0.021787,62.003357,13.150467,-149.940369,,,
729715919.892914,-2.241229,-4.576644,-87.847199,0.08934,-0.030807,0.996353,-0.041099,0.042962,-0.016773,62.003357,13.150467,-149.940369,,,
729715919.893164,-2.241228,-4.576646,-84.77032,0.08934,-0.030807,0.996353,-0.041099,0.042962,-0.016773,62.003357,13.150467,-149.940369,,,
729715919.894938,-2.241229,-4.576644,-87.847199,0.08934,-0.030807,0.996353,-0.041099,0.042962,-0.016773,62.003357,13.150467,-149.940369,,,
729715919.895159,-2.241228,-4.576646,-84.77032,0.08934,-0.030807,0.996353,-0.041099,0.042962,-0.016773,62.003357,13.150467,-149.940369,,,
729715919.899646,-2.253082,-4.564705,-87.852605,0.082397,-0.026505,0.984711,-0.041099,0.042962,-0.016773,62.003357,13.150467,-149.940369,,,
729715919.899874,-2.253081,-4.564707,-84.775727,0.082397,-0.026505,0.984711,-0.041099,0.042962,-0.016773,62.322418,13.263611,-149.431625,,,
729715919.90334,-2.268261,-4.555818,-87.857394,0.082397,-0.026505,0.984711,-0.063914,0.021947,-0.009338,62.322418,13.263611,-149.431625,,,
729715919.903587,-2.268261,-4.55582,-84.780516,0.082397,-0.026505,0.984711,-0.063914,0.021947,-0.009338,62.322418,13.263611,-149.431625,,,
729715919.90489,-2.268261,-4.555818,-87.857394,0.082397,-0.026505,0.984711,-0.063914,0.021947,-0.009338,62.322418,13.263611,-149.431625,,,
