Time (sec),Pitch (deg),Roll (deg),Yaw(deg),X-Acceleration (g),Y-Acceleration (g),Z-Acceleration (g),Pitch Rate (deg/sec),Roll Rate (deg/sec),Yaw Rate (deg/sec),Magnetic Field in X direction (uT),Magnetic Field in Y direction (uT),Magnetic Field in Z Direction (uT),Latitude (deg),Longitude (deg),Altitude (m)
729706237.242098,-5.661908,1.834329,166.662591,-0.0298,-0.091492,0.983154,0.01228,0.002473,0.002671,87.899536,16.614014,-146.691284,,,
729706237.245423,-5.659634,1.834547,166.663793,-0.0298,-0.091492,0.983154,0.01228,0.002473,0.002671,88.044678,16.80304,-146.916077,,,
729706237.24877,-5.659634,1.834547,166.663793,-0.0298,-0.091492,0.983154,0.01228,0.002473,0.002671,88.044678,16.80304,-146.916077,,,
729706237.252114,-5.657635,1.835687,166.665561,-0.031128,-0.091919,0.98175,0.003987,0.006828,0.00613,88.044678,16.80304,-146.916077,,,
729706237.255427,-5.658138,1.838158,166.667959,-0.031128,-0.091919,0.98175,0.003987,0.006828,0.00613,88.044678,16.80304,-146.916077,,,
729706237.258863,-5.658138,1.838158,166.667959,-0.031128,-0.091919,0.98175,0.003987,0.006828,0.00613,88.044678,16.80304,-146.916077,,,
729706237.26209,-5.659387,1.841538,166.670989,-0.032669,-0.091934,0.980148,-0.006998,0.015262,0.010458,88.044678,16.80304,-146.916077,,,
729706237.265429,-5.662618,1.845714,166.674944,-0.032669,-0.091934,0.980148,-0.006998,0.015262,0.010458,88.044678,16.80304,-146.916077,,,
729706237.268772,-5.662618,1.845714,166.674944,-0.032669,-0.091934,0.980148,-0.006998,0.015262,0.010458,88.044678,16.80304,-146.916077,,,
729706237.272167,-5.666227,1.849427,166.680015,-0.033096,-0.092453,0.978363,-0.013699,0.014058,0.018274,88.044678,16.80304,-146.916077,,,
729706237.275426,-5.671036,1.854459,166.686266,-0.033096,-0.092453,0.978363,-0.013699,0.014058,0.018274,88.044678,16.80304,-146.916077,,,
729706237.278799,-5.671036,1.854459,166.686266,-0.033096,-0.092453,0.978363,-0.013699,0.014058,0.018274,88.044678,16.80304,-146.916077,,,
729706237.282099,-5.675856,1.858733,166.692418,-0.037094,-0.0914,0.982788,-0.016425,0.014054,0.017999,88.044678,16.80304,-146.916077,,,
729706237.285427,-5.681279,1.86277,166.698285,-0.037094,-0.0914,0.982788,-0.016425,0.014054,0.017999,88.153122,16.406815,-146.839294,,,
729706237.288768,-5.681279,1.86277,166.698285,-0.037094,-0.0914,0.982788,-0.016425,0.014054,0.017999,88.153122,16.406815,-146.839294,,,
729706237.292111,-5.68726,1.865864,166.703693,-0.034363,-0.08992,0.984253,-0.022011,0.012914,0.01513,88.153122,16.406815,-146.839294,,,
729706237.295434,-5.693281,1.869608,166.708776,-0.034363,-0.08992,0.984253,-0.022011,0.012914,0.01513,88.153122,16.406815,-146.839294,,,
729706237.29885,-5.693281,1.869608,166.708776,-0.034363,-0.08992,0.984253,-0.022011,0.012914,0.01513,88.153122,16.406815,-146.839294,,,
729706237.3021,-5.699484,1.872567,166.714254,-0.035416,-0.092682,0.987686,-0.021493,0.008754,0.018039,88.153122,16.406815,-146.839294,,,
729706237.305421,-5.705818,1.87471,166.719979,-0.035416,-0.092682,0.987686,-0.021493,0.008754,0.018039,88.153122,16.406815,-146.839294,,,
729706237.308787,-5.705818,1.87471,166.719979,-0.035416,-0.092682,0.987686,-0.021493,0.008754,0.018039,88.153122,16.406815,-146.839294,,,
729706237.312102,-5.713719,1.876897,166.726037,-0.038925,-0.097244,0.99028,-0.026779,0.007109,0.020009,88.153122,16.406815,-146.839294,,,
729706237.315414,-5.720167,1.87872,166.732682,-0.038925,-0.097244,0.99028,-0.026779,0.007109,0.020009,88.153122,16.406815,-146.839294,,,
729706237.318776,-5.720167,1.87872,166.732682,-0.038925,-0.097244,0.99028,-0.026779,0.007109,0.020009,88.153122,16.406815,-146.839294,,,
729706237.322104,-5.72693,1.880821,166.739486,-0.03685,-0.097519,0.996338,-0.021697,0.006587,0.021036,88.153122,16.406815,-146.839294,,,
729706237.325456,-5.731186,1.882044,166.746826,-0.03685,-0.097519,0.996338,-0.021697,0.006587,0.021036,88.165558,16.530014,-146.604858,,,
729706237.328775,-5.731186,1.882044,166.746826,-0.03685,-0.097519,0.996338,-0.021697,0.006587,0.021036,88.165558,16.530014,-146.604858,,,
729706237.332101,-5.735505,1.883182,166.754645,-0.035843,-0.093002,0.997421,-0.014586,0.002879,0.024309,88.165558,16.530014,-146.604858,,,
729706237.335429,-5.738025,1.883976,166.761912,-0.035843,-0.093002,0.997421,-0.014586,0.002879,0.024309,88.165558,16.530014,-146.604858,,,
729706237.33883,-5.738025,1.883976,166.761912,-0.035843,-0.093002,0.997421,-0.014586,0.002879,0.024309,88.165558,16.530014,-146.604858,,,
729706237.342092,-5.741475,1.88426,166.768619,-0.030624,-0.094589,0.998718,-0.01375,0.001064,0.020587,88.165558,16.530014,-146.604858,,,
729706237.345427,-5.743619,1.884591,166.774839,-0.030624,-0.094589,0.998718,-0.01375,0.001064,0.020587,88.165558,16.530014,-146.604858,,,
729706237.348777,-5.743619,1.884591,166.774839,-0.030624,-0.094589,0.998718,-0.01375,0.001064,0.020587,88.165558,16.530014,-146.604858,,,
729706237.352251,-5.745912,1.885382,166.780747,-0.028381,-0.095352,0.998215,-0.007253,0.004261,0.018588,88.165558,16.530014,-146.604858,,,
729706237.355411,-5.746986,1.886859,166.786541,-0.028381,-0.095352,0.998215,-0.007253,0.004261,0.018588,88.165558,16.530014,-146.604858,,,
729706237.358765,-5.746986,1.886859,166.786541,-0.028381,-0.095352,0.998215,-0.007253,0.004261,0.018588,88.165558,16.530014,-146.604858,,,
729706237.36209,-5.748575,1.887387,166.792662,-0.026886,-0.096878,0.996307,-0.004068,0.001697,0.021339,88.165558,16.530014,-146.604858,,,
729706237.365419,-5.748624,1.887451,166.798601,-0.026886,-0.096878,0.996307,-0.004068,0.001697,0.021339,88.165558,16.530014,-146.604858,,,
729706237.368769,-5.748624,1.887451,166.798601,-0.026886,-0.096878,0.996307,-0.004068,0.001697,0.021339,88.110947,16.755539,-146.845459,,,
729706237.372099,-5.749919,1.886197,166.803195,-0.021545,-0.09343,0.992523,-0.003051,-0.003346,0.012353,88.110947,16.755539,-146.845459,,,
729706237.37542,-5.75025,1.885225,166.806958,-0.021545,-0.09343,0.992523,-0.003051,-0.003346,0.012353,88.110947,16.755539,-146.845459,,,
729706237.378801,-5.75025,1.885225,166.806958,-0.021545,-0.09343,0.992523,-0.003051,-0.003346,0.012353,88.110947,16.755539,-146.845459,,,
729706237.382086,-5.752728,1.884372,166.810313,-0.018768,-0.093689,0.99028,-0.007768,-0.000492,0.00957,88.110947,16.755539,-146.845459,,,
729706237.385424,-5.754549,1.883928,166.813572,-0.018768,-0.093689,0.99028,-0.007768,-0.000492,0.00957,88.110947,16.755539,-146.845459,,,
729706237.388768,-5.754549,1.883928,166.813572,-0.018768,-0.093689,0.99028,-0.007768,-0.000492,0.00957,88.110947,16.755539,-146.845459,,,
729706237.392173,-5.757637,1.882652,166.816276,-0.023056,-0.093491,0.989716,-0.011256,-0.001292,0.006085,88.110947,16.755539,-146.845459,,,
729706237.395421,-5.760197,1.882853,166.818686,-0.023056,-0.093491,0.989716,-0.011256,-0.001292,0.006085,88.110947,16.755539,-146.845459,,,
729706237.398778,-5.760197,1.882853,166.818686,-0.023056,-0.093491,0.989716,-0.011256,-0.001292,0.006085,88.110947,16.755539,-146.845459,,,
729706237.402114,-5.762307,1.88249,166.820873,-0.02211,-0.094711,0.988693,-0.006445,0.00175,0.005402,88.110947,16.755539,-146.845459,,,
729706237.405428,-5.762476,1.883217,166.823452,-0.02211,-0.094711,0.988693,-0.006445,0.00175,0.005402,88.110947,16.755539,-146.845459,,,
729706237.408758,-5.762476,1.883217,166.823452,-0.02211,-0.094711,0.988693,-0.006445,0.00175,0.005402,88.007446,16.637177,-146.655518,,,
729706237.412115,-5.761732,1.883917,166.826267,-0.022308,-0.099686,0.994064,0.006352,0.00464,0.007795,88.007446,16.637177,-146.655518,,,
729706237.415427,-5.758437,1.885713,166.828594,-0.022308,-0.099686,0.994064,0.006352,0.00464,0.007795,88.007446,16.637177,-146.655518,,,
729706237.41882,-5.758437,1.885713,166.828594,-0.022308,-0.099686,0.994064,0.006352,0.00464,0.007795,88.007446,16.637177,-146.655518,,,
729706237.422098,-5.755919,1.889116,166.83018,-0.018875,-0.098953,0.994415,0.009625,0.017233,0.002849,88.007446,16.637177,-146.655518,,,
729706237.425431,-5.752869,1.893491,166.830232,-0.018875,-0.098953,0.994415,0.009625,0.017233,0.002849,88.007446,16.637177,-146.655518,,,
729706237.428771,-5.752869,1.893491,166.830232,-0.018875,-0.098953,0.994415,0.009625,0.017233,0.002849,88.007446,16.637177,-146.655518,,,
729706237.432148,-5.751595,1.899474,166.829389,-0.015976,-0.095001,0.992126,0.003782,0.024738,-0.004002,88.007446,16.637177,-146.655518,,,
729706237.435423,-5.750779,1.904678,166.827858,-0.015976,-0.095001,0.992126,0.003782,0.024738,-0.004002,88.007446,16.637177,-146.655518,,,
729706237.438769,-5.750779,1.904678,166.827858,-0.015976,-0.095001,0.992126,0.003782,0.024738,-0.004002,88.007446,16.637177,-146.655518,,,
729706237.442115,-5.75257,1.910953,166.825174,-0.020035,-0.090302,0.988678,-0.008885,0.026411,-0.013105,88.007446,16.637177,-146.655518,,,
729706237.445425,-5.755361,1.915553,166.82138,-0.020035,-0.090302,0.988678,-0.008885,0.026411,-0.013105,88.007446,16.637177,-146.655518,,,
729706237.448758,-5.755361,1.915553,166.82138,-0.020035,-0.090302,0.988678,-0.008885,0.026411,-0.013105,88.14444,16.494904,-146.954803,,,
729706237.452121,-5.759959,1.920865,166.816798,-0.025238,-0.095169,0.986435,-0.016378,0.022692,-0.019762,88.14444,16.494904,-146.954803,,,
729706237.455427,-5.763735,1.922753,166.811282,-0.025238,-0.095169,0.986435,-0.016378,0.022692,-0.019762,88.14444,16.494904,-146.954803,,,
729706237.458811,-5.763735,1.922753,166.811282,-0.025238,-0.095169,0.986435,-0.016378,0.022692,-0.019762,88.14444,16.494904,-146.954803,,,
729706237.46219,-5.767934,1.925606,166.806265,-0.029984,-0.10025,0.987839,-0.012249,0.012602,-0.017822,88.14444,16.494904,-146.954803,,,
729706237.46544,-5.770089,1.924557,166.80181,-0.029984,-0.10025,0.987839,-0.012249,0.012602,-0.017822,88.14444,16.494904,-146.954803,,,
729706237.468865,-5.770089,1.924557,166.80181,-0.029984,-0.10025,0.987839,-0.012249,0.012602,-0.017822,88.14444,16.494904,-146.954803,,,
729706237.472105,-5.771599,1.92351,166.798434,-0.035019,-0.103394,0.993896,-0.00038,-0.002166,-0.011383,88.14444,16.494904,-146.954803,,,
729706237.475426,-5.77088,1.919428,166.795302,-0.035019,-0.103394,0.993896,-0.00038,-0.002166,-0.011383,88.14444,16.494904,-146.954803,,,
729706237.478773,-5.77088,1.919428,166.795302,-0.035019,-0.103394,0.993896,-0.00038,-0.002166,-0.011383,88.14444,16.494904,-146.954803,,,
729706237.482165,-5.770603,1.917142,166.792468,-0.032928,-0.104752,0.99614,0.004078,-0.00239,-0.010443,88.14444,16.494904,-146.954803,,,
729706237.485423,-5.76893,1.914073,166.789456,-0.032928,-0.104752,0.99614,0.004078,-0.00239,-0.010443,88.14444,16.494904,-146.954803,,,
729706237.488796,-5.76893,1.914073,166.789456,-0.032928,-0.104752,0.99614,0.004078,-0.00239,-0.010443,88.14444,16.494904,-146.954803,,,
729706237.492099,-5.767413,1.913285,166.786484,-0.032532,-0.102585,0.998032,0.006063,0.000867,-0.011403,88.006409,16.646622,-146.726059,,,
729706237.495426,-5.765332,1.910372,166.783044,-0.032532,-0.102585,0.998032,0.006063,0.000867,-0.011403,88.006409,16.646622,-146.726059,,,
729706237.498777,-5.765332,1.910372,166.783044,-0.032532,-0.102585,0.998032,0.006063,0.000867,-0.011403,88.006409,16.646622,-146.726059,,,
729706237.502109,-5.763493,1.909757,166.779343,-0.033432,-0.099808,0.993851,0.005992,0.00274,-0.014691,88.006409,16.646622,-146.726059,,,
729706237.505425,-5.761637,1.906737,166.775039,-0.033432,-0.099808,0.993851,0.005992,0.00274,-0.014691,88.006409,16.646622,-146.726059,,,
729706237.508759,-5.761637,1.906737,166.775039,-0.033432,-0.099808,0.993851,0.005992,0.00274,-0.014691,88.006409,16.646622,-146.726059,,,
729706237.512108,-5.760009,1.905909,166.770581,-0.035721,-0.100998,0.991989,0.007344,0.001088,-0.017457,88.006409,16.646622,-146.726059,,,
729706237.515429,-5.756571,1.902086,166.765883,-0.035721,-0.100998,0.991989,0.007344,0.001088,-0.017457,88.006409,16.646622,-146.726059,,,
729706237.518765,-5.756571,1.902086,166.765883,-0.035721,-0.100998,0.991989,0.007344,0.001088,-0.017457,88.006409,16.646622,-146.726059,,,
729706237.522169,-5.754477,1.900693,166.761754,-0.037964,-0.102203,0.990433,0.00667,-0.000722,-0.015404,88.006409,16.646622,-146.726059,,,
729706237.525463,-5.752059,1.897181,166.75747,-0.037964,-0.102203,0.990433,0.00667,-0.000722,-0.015404,88.006409,16.646622,-146.726059,,,
729706237.528825,-5.752059,1.897181,166.75747,-0.037964,-0.102203,0.990433,0.00667,-0.000722,-0.015404,88.006409,16.646622,-146.726059,,,
729706237.532173,-5.752044,1.894957,166.753399,-0.036301,-0.098938,0.984909,-0.001586,-0.002031,-0.015221,88.049026,16.729996,-146.447327,,,
729706237.53543,-5.753221,1.8923,166.749709,-0.036301,-0.098938,0.984909,-0.001586,-0.002031,-0.015221,88.049026,16.729996,-146.447327,,,
729706237.538795,-5.753221,1.8923,166.749709,-0.036301,-0.098938,0.984909,-0.001586,-0.002031,-0.015221,88.049026,16.729996,-146.447327,,,
729706237.542102,-5.755758,1.890921,166.746793,-0.037338,-0.098648,0.984558,-0.010092,-0.000523,-0.010811,88.049026,16.729996,-146.447327,,,
729706237.545428,-5.759587,1.890526,166.744721,-0.037338,-0.098648,0.984558,-0.010092,-0.000523,-0.010811,88.049026,16.729996,-146.447327,,,
729706237.548766,-5.759587,1.890526,166.744721,-0.037338,-0.098648,0.984558,-0.010092,-0.000523,-0.010811,88.049026,16.729996,-146.447327,,,
729706237.552115,-5.763586,1.890819,166.743319,-0.038208,-0.101227,0.984741,-0.013402,0.004798,-0.006188,88.049026,16.729996,-146.447327,,,
729706237.555424,-5.768763,1.891199,166.742144,-0.038208,-0.101227,0.984741,-0.013402,0.004798,-0.006188,88.049026,16.729996,-146.447327,,,
729706237.558822,-5.768763,1.891199,166.742144,-0.038208,-0.101227,0.984741,-0.013402,0.004798,-0.006188,88.049026,16.729996,-146.447327,,,
729706237.562092,-5.773906,1.89197,166.741342,-0.037994,-0.102768,0.984619,-0.018298,0.008788,-0.003573,88.049026,16.729996,-146.447327,,,
729706237.565423,-5.780372,1.894095,166.741222,-0.037994,-0.102768,0.984619,-0.018298,0.008788,-0.003573,88.049026,16.729996,-146.447327,,,
729706237.56877,-5.780372,1.894095,166.741222,-0.037994,-0.102768,0.984619,-0.018298,0.008788,-0.003573,88.049026,16.729996,-146.447327,,,
729706237.572089,-5.787074,1.896991,166.741014,-0.038971,-0.101578,0.986252,-0.022822,0.014724,-0.00428,88.109421,16.820709,-146.524307,,,
729706237.575419,-5.794839,1.900389,166.740765,-0.038971,-0.101578,0.986252,-0.022822,0.014724,-0.00428,88.109421,16.820709,-146.524307,,,
729706237.57877,-5.794839,1.900389,166.740765,-0.038971,-0.101578,0.986252,-0.022822,0.014724,-0.00428,88.109421,16.820709,-146.524307,,,
729706237.582196,-5.803487,1.904211,166.741101,-0.040283,-0.102707,0.988708,-0.028449,0.016461,-0.000493,88.109421,16.820709,-146.524307,,,
729706237.585195,-5.811545,1.908386,166.74194,-0.040283,-0.102707,0.988708,-0.028449,0.016461,-0.000493,88.109421,16.820709,-146.524307,,,
729706237.588797,-5.811545,1.908386,166.74194,-0.040283,-0.102707,0.988708,-0.028449,0.016461,-0.000493,88.109421,16.820709,-146.524307,,,
729706237.59211,-5.82001,1.91162,166.742792,-0.039032,-0.104279,0.987717,-0.02979,0.01125,-0.000311,88.109421,16.820709,-146.524307,,,
729706237.595428,-5.82838,1.914219,166.743525,-0.039032,-0.104279,0.987717,-0.02979,0.01125,-0.000311,88.109421,16.820709,-146.524307,,,
729706237.598759,-5.82838,1.914219,166.743525,-0.039032,-0.104279,0.987717,-0.02979,0.01125,-0.000311,88.109421,16.820709,-146.524307,,,
729706237.60212,-5.835759,1.915215,166.744705,-0.038864,-0.106567,0.989395,-0.025046,0.00451,0.003459,88.109421,16.820709,-146.524307,,,
729706237.60539,-5.84228,1.916178,166.74588,-0.038864,-0.106567,0.989395,-0.025046,0.00451,0.003459,88.109421,16.820709,-146.524307,,,
729706237.608826,-5.84228,1.916178,166.74588,-0.038864,-0.106567,0.989395,-0.025046,0.00451,0.003459,88.109421,16.820709,-146.524307,,,
729706237.612079,-5.848146,1.915563,166.746269,-0.038422,-0.104996,0.993256,-0.01941,-0.001443,-0.001346,87.999664,16.81633,-146.545776,,,
729706237.615421,-5.85336,1.91546,166.747004,-0.038422,-0.104996,0.993256,-0.01941,-0.001443,-0.001346,87.999664,16.81633,-146.545776,,,
729706237.618766,-5.85336,1.91546,166.747004,-0.038422,-0.104996,0.993256,-0.01941,-0.001443,-0.001346,87.999664,16.81633,-146.545776,,,
729706237.622171,-5.858585,1.915656,166.748844,-0.037903,-0.105392,0.995377,-0.017013,0.003901,0.006816,87.999664,16.81633,-146.545776,,,
729706237.62542,-5.863363,1.917213,166.751179,-0.037903,-0.105392,0.995377,-0.017013,0.003901,0.006816,87.999664,16.81633,-146.545776,,,
729706237.628781,-5.863363,1.917213,166.751179,-0.037903,-0.105392,0.995377,-0.017013,0.003901,0.006816,87.999664,16.81633,-146.545776,,,
729706237.632103,-5.868472,1.917998,166.753336,-0.038208,-0.104553,0.995605,-0.017692,0.004863,0.006203,87.999664,16.81633,-146.545776,,,
729706237.635428,-5.873569,1.919347,166.75594,-0.038208,-0.104553,0.995605,-0.017692,0.004863,0.006203,87.999664,16.81633,-146.545776,,,
729706237.638768,-5.873569,1.919347,166.75594,-0.038208,-0.104553,0.995605,-0.017692,0.004863,0.006203,87.999664,16.81633,-146.545776,,,
729706237.642113,-5.878142,1.919296,166.758617,-0.035416,-0.105804,0.993073,-0.014822,-8.7e-05,0.007305,87.999664,16.81633,-146.545776,,,
729706237.645424,-5.882904,1.919398,166.761533,-0.035416,-0.105804,0.993073,-0.014822,-8.7e-05,0.007305,87.999664,16.81633,-146.545776,,,
729706237.648849,-5.882904,1.919398,166.761533,-0.035416,-0.105804,0.993073,-0.014822,-8.7e-05,0.007305,87.999664,16.81633,-146.545776,,,
729706237.652091,-5.887283,1.917606,166.764577,-0.037659,-0.106339,0.989182,-0.012859,-0.007563,0.008827,87.999664,16.81633,-146.545776,,,
729706237.655485,-5.891309,1.915971,166.768105,-0.037659,-0.106339,0.989182,-0.012859,-0.007563,0.008827,87.990021,16.963593,-146.859024,,,
729706237.65875,-5.891309,1.915971,166.768105,-0.037659,-0.106339,0.989182,-0.012859,-0.007563,0.008827,87.990021,16.963593,-146.859024,,,
729706237.662149,-5.895886,1.91328,166.771869,-0.038055,-0.107239,0.989532,-0.016355,-0.006711,0.01118,87.990021,16.963593,-146.859024,,,
729706237.665415,-5.901346,1.911986,166.775884,-0.038055,-0.107239,0.989532,-0.016355,-0.006711,0.01118,87.990021,16.963593,-146.859024,,,
729706237.668768,-5.901346,1.911986,166.775884,-0.038055,-0.107239,0.989532,-0.016355,-0.006711,0.01118,87.990021,16.963593,-146.859024,,,
729706237.672088,-5.907148,1.909089,166.779733,-0.034622,-0.104721,0.988098,-0.020578,-0.010433,0.01067,87.990021,16.963593,-146.859024,,,
729706237.67542,-5.914449,1.906486,166.783271,-0.034622,-0.104721,0.988098,-0.020578,-0.010433,0.01067,87.990021,16.963593,-146.859024,,,
729706237.678778,-5.914449,1.906486,166.783271,-0.034622,-0.104721,0.988098,-0.020578,-0.010433,0.01067,87.990021,16.963593,-146.859024,,,
729706237.682085,-5.922615,1.90258,166.786469,-0.032455,-0.105194,0.983673,-0.029685,-0.012522,0.008689,87.990021,16.963593,-146.859024,,,
729706237.685423,-5.931831,1.899555,166.789905,-0.032455,-0.105194,0.983673,-0.029685,-0.012522,0.008689,87.990021,16.963593,-146.859024,,,
729706237.688841,-5.931831,1.899555,166.789905,-0.032455,-0.105194,0.983673,-0.029685,-0.012522,0.008689,87.990021,16.963593,-146.859024,,,
729706237.692087,-5.941498,1.896391,166.793485,-0.032425,-0.106506,0.984756,-0.035645,-0.006768,0.010194,87.990021,16.963593,-146.859024,,,
729706237.695433,-5.952122,1.895238,166.79725,-0.032425,-0.106506,0.984756,-0.035645,-0.006768,0.010194,88.106964,16.907776,-147.076813,,,
729706237.698766,-5.952122,1.895238,166.79725,-0.032425,-0.106506,0.984756,-0.035645,-0.006768,0.010194,88.106964,16.907776,-147.076813,,,
729706237.702153,-5.962805,1.894385,166.801147,-0.033783,-0.106354,0.987335,-0.037222,0.00127,0.011684,88.106964,16.907776,-147.076813,,,
729706237.705421,-5.974064,1.895614,166.805481,-0.033783,-0.106354,0.987335,-0.037222,0.00127,0.011684,88.106964,16.907776,-147.076813,,,
729706237.70878,-5.974064,1.895614,166.805481,-0.033783,-0.106354,0.987335,-0.037222,0.00127,0.011684,88.106964,16.907776,-147.076813,,,
729706237.71209,-5.985685,1.89709,166.810285,-0.032867,-0.106033,0.986038,-0.040415,0.008402,0.015423,88.106964,16.907776,-147.076813,,,
729706237.715428,-5.998185,1.900022,166.815862,-0.032867,-0.106033,0.986038,-0.040415,0.008402,0.015423,88.106964,16.907776,-147.076813,,,
729706237.718774,-5.998185,1.900022,166.815862,-0.032867,-0.106033,0.986038,-0.040415,0.008402,0.015423,88.106964,16.907776,-147.076813,,,
729706237.722117,-6.012142,1.902678,166.821817,-0.035828,-0.108521,0.981476,-0.052327,0.010487,0.01808,88.106964,16.907776,-147.076813,,,
729706237.725293,-6.027739,1.905666,166.828475,-0.035828,-0.108521,0.981476,-0.052327,0.010487,0.01808,88.106964,16.907776,-147.076813,,,
729706237.728773,-6.027739,1.905666,166.828475,-0.035828,-0.108521,0.981476,-0.052327,0.010487,0.01808,88.106964,16.907776,-147.076813,,,
729706237.732086,-6.043679,1.9074,166.835467,-0.035736,-0.105377,0.980911,-0.056792,0.006078,0.02072,88.106964,16.907776,-147.076813,,,
729706237.735424,-6.060873,1.909289,166.842237,-0.035736,-0.105377,0.980911,-0.056792,0.006078,0.02072,88.074615,16.997574,-146.925217,,,
729706237.738816,-6.060873,1.909289,166.842237,-0.035736,-0.105377,0.980911,-0.056792,0.006078,0.02072,88.074615,16.997574,-146.925217,,,
729706237.7421,-6.078599,1.908955,166.849075,-0.036011,-0.105988,0.978043,-0.063077,-0.00287,0.021678,88.074615,16.997574,-146.925217,,,
729706237.745422,-6.097146,1.908268,166.856019,-0.036011,-0.105988,0.978043,-0.063077,-0.00287,0.021678,88.074615,16.997574,-146.925217,,,
729706237.748765,-6.097146,1.908268,166.856019,-0.036011,-0.105988,0.978043,-0.063077,-0.00287,0.021678,88.074615,16.997574,-146.925217,,,
729706237.752171,-6.11696,1.906239,166.862497,-0.036346,-0.106613,0.980026,-0.071922,-0.007472,0.018597,88.074615,16.997574,-146.925217,,,
729706237.755431,-6.137925,1.903814,166.869037,-0.036346,-0.106613,0.980026,-0.071922,-0.007472,0.018597,88.074615,16.997574,-146.925217,,,
729706237.758772,-6.137925,1.903814,166.869037,-0.036346,-0.106613,0.980026,-0.071922,-0.007472,0.018597,88.074615,16.997574,-146.925217,,,
729706237.762117,-6.160457,1.90102,166.875478,-0.033096,-0.106186,0.979095,-0.081257,-0.009922,0.017597,88.074615,16.997574,-146.925217,,,
729706237.765435,-6.184714,1.898073,166.882147,-0.033096,-0.106186,0.979095,-0.081257,-0.009922,0.017597,88.074615,16.997574,-146.925217,,,
729706237.768772,-6.184714,1.898073,166.882147,-0.033096,-0.106186,0.979095,-0.081257,-0.009922,0.017597,88.074615,16.997574,-146.925217,,,
729706237.772106,-6.211397,1.894908,166.889504,-0.034744,-0.105759,0.976425,-0.098052,-0.011816,0.021812,88.074615,16.997574,-146.925217,,,
729706237.775413,-6.241034,1.892114,166.897275,-0.034744,-0.105759,0.976425,-0.098052,-0.011816,0.021812,87.960449,16.988434,-146.872711,,,
729706237.778824,-6.241034,1.892114,166.897275,-0.034744,-0.105759,0.976425,-0.098052,-0.011816,0.021812,87.960449,16.988434,-146.872711,,,
729706237.782106,-6.273985,1.890126,166.905163,-0.035919,-0.105865,0.978302,-0.121062,-0.005622,0.021951,87.960449,16.988434,-146.872711,,,
729706237.785503,-6.309801,1.889595,166.913693,-0.035919,-0.105865,0.978302,-0.121062,-0.005622,0.021951,87.960449,16.988434,-146.872711,,,
729706237.788767,-6.309801,1.889595,166.913693,-0.035919,-0.105865,0.978302,-0.121062,-0.005622,0.021951,87.960449,16.988434,-146.872711,,,
729706237.79216,-6.348668,1.889787,166.923007,-0.033783,-0.106964,0.979568,-0.140309,0.000435,0.026941,87.960449,16.988434,-146.872711,,,
729706237.795418,-6.389717,1.890592,166.932707,-0.033783,-0.106964,0.979568,-0.140309,0.000435,0.026941,87.960449,16.988434,-146.872711,,,
729706237.798774,-6.389717,1.890592,166.932707,-0.033783,-0.106964,0.979568,-0.140309,0.000435,0.026941,87.960449,16.988434,-146.872711,,,
729706237.802123,-6.433425,1.892059,166.942773,-0.033798,-0.109436,0.97966,-0.156549,0.006254,0.029097,87.960449,16.988434,-146.872711,,,
729706237.805446,-6.479275,1.895004,166.95364,-0.033798,-0.109436,0.97966,-0.156549,0.006254,0.029097,87.960449,16.988434,-146.872711,,,
729706237.808758,-6.479275,1.895004,166.95364,-0.033798,-0.109436,0.97966,-0.156549,0.006254,0.029097,87.960449,16.988434,-146.872711,,,
729706237.812105,-6.52892,1.897183,166.964409,-0.03241,-0.112411,0.97963,-0.178901,0.005083,0.02818,87.960449,16.988434,-146.872711,,,
729706237.815421,-6.580297,1.898905,166.974628,-0.03241,-0.112411,0.97963,-0.178901,0.005083,0.02818,87.960449,16.988434,-146.872711,,,
729706237.818828,-6.580297,1.898905,166.974628,-0.03241,-0.112411,0.97963,-0.178901,0.005083,0.02818,87.962631,17.46286,-146.581833,,,
729706237.822099,-6.633932,1.899341,166.984435,-0.032822,-0.11322,0.981415,-0.188489,-0.001686,0.025207,87.962631,17.46286,-146.581833,,,
729706237.825461,-6.687913,1.899465,166.993684,-0.032822,-0.11322,0.981415,-0.188489,-0.001686,0.025207,87.962631,17.46286,-146.581833,,,
729706237.828772,-6.687913,1.899465,166.993684,-0.032822,-0.11322,0.981415,-0.188489,-0.001686,0.025207,87.962631,17.46286,-146.581833,,,
729706237.832148,-6.744979,1.897875,167.002296,-0.031525,-0.115646,0.983414,-0.203863,-0.008844,0.020807,87.962631,17.46286,-146.581833,,,
729706237.835413,-6.80441,1.895901,167.010295,-0.031525,-0.115646,0.983414,-0.203863,-0.008844,0.020807,87.962631,17.46286,-146.581833,,,
729706237.838771,-6.80441,1.895901,167.010295,-0.031525,-0.115646,0.983414,-0.203863,-0.008844,0.020807,87.962631,17.46286,-146.581833,,,
729706237.842092,-6.86944,1.893878,167.017997,-0.030472,-0.109848,0.977753,-0.234484,-0.00771,0.017917,87.962631,17.46286,-146.581833,,,
729706237.8455,-6.937826,1.891965,167.026011,-0.030472,-0.109848,0.977753,-0.234484,-0.00771,0.017917,87.962631,17.46286,-146.581833,,,
729706237.848753,-6.937826,1.891965,167.026011,-0.030472,-0.109848,0.977753,-0.234484,-0.00771,0.017917,87.962631,17.46286,-146.581833,,,
729706237.85211,-7.013537,1.890634,167.034424,-0.032883,-0.110687,0.973648,-0.275551,-0.002746,0.019518,87.962631,17.46286,-146.581833,,,
729706237.855418,-7.094195,1.890963,167.043588,-0.032883,-0.110687,0.973648,-0.275551,-0.002746,0.019518,87.962631,17.46286,-146.581833,,,
729706237.858804,-7.094195,1.890963,167.043588,-0.032883,-0.110687,0.973648,-0.275551,-0.002746,0.019518,88.117386,17.846069,-146.694687,,,
729706237.86216,-7.183404,1.892015,167.054029,-0.040558,-0.110519,0.967728,-0.324244,0.003957,0.027129,88.117386,17.846069,-146.694687,,,
729706237.865551,-7.27812,1.895056,167.066578,-0.040558,-0.110519,0.967728,-0.324244,0.003957,0.027129,88.117386,17.846069,-146.694687,,,
729706237.868781,-7.27812,1.895056,167.066578,-0.040558,-0.110519,0.967728,-0.324244,0.003957,0.027129,88.117386,17.846069,-146.694687,,,
729706237.872106,-7.382955,1.900597,167.082014,-0.043869,-0.112762,0.963089,-0.383005,0.020395,0.045317,88.117386,17.846069,-146.694687,,,
729706237.875454,-7.494711,1.909603,167.101202,-0.043869,-0.112762,0.963089,-0.383005,0.020395,0.045317,88.117386,17.846069,-146.694687,,,
729706237.87878,-7.494711,1.909603,167.101202,-0.043869,-0.112762,0.963089,-0.383005,0.020395,0.045317,88.117386,17.846069,-146.694687,,,
729706237.882108,-7.615989,1.921972,167.12414,-0.048141,-0.118423,0.960571,-0.43907,0.041084,0.069377,88.117386,17.846069,-146.694687,,,
729706237.885508,-7.745038,1.93735,167.150881,-0.048141,-0.118423,0.960571,-0.43907,0.041084,0.069377,88.117386,17.846069,-146.694687,,,
729706237.888759,-7.745038,1.93735,167.150881,-0.048141,-0.118423,0.960571,-0.43907,0.041084,0.069377,88.117386,17.846069,-146.694687,,,
729706237.892121,-7.885078,1.953114,167.182156,-0.048813,-0.122787,0.947861,-0.505266,0.039336,0.098221,88.117386,17.846069,-146.694687,,,
729706237.895456,-8.031009,1.967799,167.218352,-0.048813,-0.122787,0.947861,-0.505266,0.039336,0.098221,88.117386,17.846069,-146.694687,,,
729706237.898761,-8.031009,1.967799,167.218352,-0.048813,-0.122787,0.947861,-0.505266,0.039336,0.098221,87.914688,18.96312,-147.141098,,,
729706237.902096,-8.184484,1.981753,167.25878,-0.05365,-0.128784,0.947098,-0.547629,0.028506,0.12548,87.914688,18.96312,-147.141098,,,
729706237.905459,-8.343185,1.99515,167.302658,-0.05365,-0.128784,0.947098,-0.547629,0.028506,0.12548,87.914688,18.96312,-147.141098,,,
729706237.908827,-8.343185,1.99515,167.302658,-0.05365,-0.128784,0.947098,-0.547629,0.028506,0.12548,87.914688,18.96312,-147.141098,,,
729706237.912106,-8.513166,2.007269,167.349428,-0.05365,-0.130112,0.939072,-0.615481,0.015328,0.142679,87.914688,18.96312,-147.141098,,,
729706237.915468,-8.694002,2.015324,167.39849,-0.05365,-0.130112,0.939072,-0.615481,0.015328,0.142679,87.914688,18.96312,-147.141098,,,
729706237.918763,-8.694002,2.015324,167.39849,-0.05365,-0.130112,0.939072,-0.615481,0.015328,0.142679,87.914688,18.96312,-147.141098,,,
729706237.922196,-8.885273,2.018249,167.449108,-0.051682,-0.129333,0.914673,-0.688735,-0.023177,0.150629,87.914688,18.96312,-147.141098,,,
729706237.925476,-8.885273,2.016611,167.500483,-0.051682,-0.129333,0.914673,-0.688735,-0.023177,0.150629,87.914688,18.96312,-147.141098,,,
729706237.928756,-9.085619,2.016611,167.500483,-0.051682,-0.129333,0.914673,-0.688735,-0.023177,0.150629,87.914688,18.96312,-147.141098,,,
729706237.932106,-9.293736,2.011886,167.551234,-0.047913,-0.137543,0.921082,-0.742892,-0.04526,0.144368,87.914688,18.96312,-147.141098,,,
729706237.93553,-9.509337,2.00625,167.600293,-0.047913,-0.137543,0.921082,-0.742892,-0.04526,0.144368,87.914688,18.96312,-147.141098,,,
729706237.938754,-9.509337,2.00625,167.600293,-0.047913,-0.137543,0.921082,-0.742892,-0.04526,0.144368,87.978485,20.100464,-146.919434,,,
729706237.942111,-9.731286,2.001262,167.646998,-0.03447,-0.145126,0.934082,-0.786737,-0.039309,0.126644,87.978485,20.100464,-146.919434,,,
729706237.945435,-9.731286,2.001262,167.646998,-0.03447,-0.145126,0.934082,-0.786737,-0.039309,0.126644,87.978485,20.100464,-146.919434,,,
729706237.948842,-9.957628,1.997086,167.691056,-0.03447,-0.145126,0.934082,-0.786737,-0.039309,0.126644,87.978485,20.100464,-146.919434,,,
729706237.952088,-10.18682,1.993253,167.731625,-0.024017,-0.157455,0.943665,-0.805993,-0.033899,0.101991,87.978485,20.100464,-146.919434,,,
729706237.955491,-10.18682,1.993253,167.76888,-0.024017,-0.157455,0.943665,-0.805993,-0.033899,0.101991,87.978485,20.100464,-146.919434,,,
729706237.958785,-10.417325,1.990032,167.76888,-0.024017,-0.157455,0.943665,-0.805993,-0.033899,0.101991,87.978485,20.100464,-146.919434,,,
729706237.962171,-10.646608,1.987524,167.80386,-0.021072,-0.175552,0.95195,-0.797192,-0.027082,0.086636,87.978485,20.100464,-146.919434,,,
729706237.965438,-10.646608,1.987524,167.80386,-0.021072,-0.175552,0.95195,-0.797192,-0.027082,0.086636,87.978485,20.100464,-146.919434,,,
729706237.968767,-10.870867,1.983977,167.836574,-0.021072,-0.175552,0.95195,-0.797192,-0.027082,0.086636,87.978485,20.100464,-146.919434,,,
729706237.972094,-11.083784,1.977794,167.867723,-0.028259,-0.199646,0.971542,-0.71779,-0.044241,0.07861,87.978485,20.100464,-146.919434,,,
729706237.975498,-11.083784,1.977794,167.867723,-0.028259,-0.199646,0.971542,-0.71779,-0.044241,0.07861,87.978485,20.100464,-146.919434,,,
729706237.978761,-11.278738,1.968838,167.89738,-0.028259,-0.199646,0.971542,-0.71779,-0.044241,0.07861,87.978485,20.100464,-146.919434,,,
729706237.982103,-11.452188,1.959682,167.925506,-0.024948,-0.217178,1.019699,-0.567364,-0.044173,0.073351,87.738983,21.247131,-146.956726,,,
729706237.98542,-11.452188,1.959682,167.925506,-0.024948,-0.217178,1.019699,-0.567364,-0.044173,0.073351,87.738983,21.247131,-146.956726,,,
729706237.988843,-11.605718,1.953403,167.95257,-0.024948,-0.217178,1.019699,-0.567364,-0.044173,0.073351,87.738983,21.247131,-146.956726,,,
729706237.992085,-11.742413,1.950223,167.979134,-0.01886,-0.222412,1.038925,-0.449759,-0.022352,0.073933,87.738983,21.247131,-146.956726,,,
729706237.995437,-11.742413,1.950223,167.979134,-0.01886,-0.222412,1.038925,-0.449759,-0.022352,0.073933,87.738983,21.247131,-146.956726,,,
729706237.998762,-11.863877,1.94888,168.005778,-0.01886,-0.222412,1.038925,-0.449759,-0.022352,0.073933,87.738983,21.247131,-146.956726,,,
729706238.002094,-11.972252,1.947183,168.033142,-0.022522,-0.224991,1.025024,-0.358561,-0.026217,0.081862,87.738983,21.247131,-146.956726,,,
729706238.005447,-11.972252,1.947183,168.033142,-0.022522,-0.224991,1.025024,-0.358561,-0.026217,0.081862,87.738983,21.247131,-146.956726,,,
729706238.00877,-12.070663,1.944799,168.062185,-0.022522,-0.224991,1.025024,-0.358561,-0.026217,0.081862,87.738983,21.247131,-146.956726,,,
729706238.012091,-12.162692,1.94241,168.093151,-0.035934,-0.222458,1.017578,-0.314356,-0.029388,0.096396,87.738983,21.247131,-146.956726,,,
729706238.015516,-12.162692,1.94241,168.093151,-0.035934,-0.222458,1.017578,-0.314356,-0.029388,0.096396,87.738983,21.247131,-146.956726,,,
729706238.01877,-12.252202,1.939349,168.125821,-0.035934,-0.222458,1.017578,-0.314356,-0.029388,0.096396,87.738983,21.247131,-146.956726,,,
729706238.022097,-12.343425,1.935866,168.159677,-0.040756,-0.220703,0.992142,-0.326365,-0.034438,0.103977,87.769867,22.232254,-147.201508,,,
729706238.025438,-12.343425,1.935866,168.159677,-0.040756,-0.220703,0.992142,-0.326365,-0.034438,0.103977,87.769867,22.232254,-147.201508,,,
729706238.028804,-12.438598,1.932718,168.194358,-0.040756,-0.220703,0.992142,-0.326365,-0.034438,0.103977,87.769867,22.232254,-147.201508,,,
729706238.032083,-12.539383,1.929995,168.229531,-0.034653,-0.216675,0.98027,-0.365332,-0.032628,0.105913,87.769867,22.232254,-147.201508,,,
729706238.035443,-12.539383,1.929995,168.229531,-0.034653,-0.216675,0.98027,-0.365332,-0.032628,0.105913,87.769867,22.232254,-147.201508,,,
729706238.038769,-12.646528,1.926895,168.265162,-0.034653,-0.216675,0.98027,-0.365332,-0.032628,0.105913,87.769867,22.232254,-147.201508,,,
729706238.042142,-12.760415,1.921895,168.301901,-0.036789,-0.219574,0.969711,-0.412285,-0.048016,0.111753,87.769867,22.232254,-147.201508,,,
729706238.045429,-12.760415,1.921895,168.301901,-0.036789,-0.219574,0.969711,-0.412285,-0.048016,0.111753,87.769867,22.232254,-147.201508,,,
729706238.048764,-12.880612,1.913401,168.339241,-0.036789,-0.219574,0.969711,-0.412285,-0.048016,0.111753,87.769867,22.232254,-147.201508,,,
729706238.052088,-13.006947,1.900208,168.375822,-0.033569,-0.217514,0.959305,-0.454558,-0.080083,0.105122,87.769867,22.232254,-147.201508,,,
729706238.055482,-13.006947,1.900208,168.375822,-0.033569,-0.217514,0.959305,-0.454558,-0.080083,0.105122,87.769867,22.232254,-147.201508,,,
729706238.058754,-13.138737,1.881904,168.411174,-0.033569,-0.217514,0.959305,-0.454558,-0.080083,0.105122,87.769867,22.232254,-147.201508,,,
729706238.062088,-13.275062,1.859243,168.444226,-0.030151,-0.217865,0.959412,-0.48531,-0.107299,0.088668,87.370911,23.079742,-147.170883,,,
729706238.065426,-13.275062,1.859243,168.444226,-0.030151,-0.217865,0.959412,-0.48531,-0.107299,0.088668,87.370911,23.079742,-147.170883,,,
729706238.068847,-13.415625,1.832543,168.473906,-0.030151,-0.217865,0.959412,-0.48531,-0.107299,0.088668,87.370911,23.079742,-147.170883,,,
729706238.072085,-13.558864,1.800784,168.500261,-0.02562,-0.222702,0.960083,-0.502885,-0.137607,0.065935,87.370911,23.079742,-147.170883,,,
729706238.07546,-13.558864,1.800784,168.500261,-0.02562,-0.222702,0.960083,-0.502885,-0.137607,0.065935,87.370911,23.079742,-147.170883,,,
729706238.078774,-13.703158,1.763122,168.522568,-0.02562,-0.222702,0.960083,-0.502885,-0.137607,0.065935,87.370911,23.079742,-147.170883,,,
729706238.082094,-13.847018,1.71899,168.540806,-0.022888,-0.232758,0.961517,-0.498667,-0.176265,0.039107,87.370911,23.079742,-147.170883,,,
729706238.085432,-13.847018,1.71899,168.540806,-0.022888,-0.232758,0.961517,-0.498667,-0.176265,0.039107,87.370911,23.079742,-147.170883,,,
729706238.088767,-13.986438,1.669298,168.554732,-0.022888,-0.232758,0.961517,-0.498667,-0.176265,0.039107,87.370911,23.079742,-147.170883,,,
729706238.092093,-14.11902,1.616126,168.564044,-0.017212,-0.246613,0.978546,-0.449856,-0.192858,0.010085,87.370911,23.079742,-147.170883,,,
729706238.09549,-14.11902,1.616126,168.564044,-0.017212,-0.246613,0.978546,-0.449856,-0.192858,0.010085,87.370911,23.079742,-147.170883,,,
729706238.09875,-14.243303,1.560419,168.569628,-0.017212,-0.246613,0.978546,-0.449856,-0.192858,0.010085,87.370911,23.079742,-147.170883,,,
729706238.102102,-14.357712,1.503741,168.57262,-0.013184,-0.258987,0.99736,-0.380378,-0.195177,-0.004749,87.370911,23.079742,-147.170883,,,
729706238.105433,-14.357712,1.503741,168.57262,-0.013184,-0.258987,0.99736,-0.380378,-0.195177,-0.004749,87.116302,23.895996,-147.062042,,,
729706238.108823,-14.462686,1.447925,168.573657,-0.013184,-0.258987,0.99736,-0.380378,-0.195177,-0.004749,87.116302,23.895996,-147.062042,,,
729706238.112082,-14.558505,1.392462,168.573288,-0.013016,-0.262543,1.00267,-0.316207,-0.190221,-0.011907,87.116302,23.895996,-147.062042,,,
729706238.115435,-14.558505,1.392462,168.573288,-0.013016,-0.262543,1.00267,-0.316207,-0.190221,-0.011907,87.116302,23.895996,-147.062042,,,
729706238.118769,-14.645482,1.337262,168.572346,-0.013016,-0.262543,1.00267,-0.316207,-0.190221,-0.011907,87.116302,23.895996,-147.062042,,,
729706238.122088,-14.725676,1.283459,168.571465,-0.008255,-0.263092,0.99939,-0.268814,-0.180529,-0.009845,87.116302,23.895996,-147.062042,,,
729706238.125436,-14.725676,1.283459,168.571465,-0.008255,-0.263092,0.99939,-0.268814,-0.180529,-0.009845,87.116302,23.895996,-147.062042,,,
729706238.128773,-14.800526,1.231613,168.57137,-0.008255,-0.263092,0.99939,-0.268814,-0.180529,-0.009845,87.116302,23.895996,-147.062042,,,
729706238.13209,-14.872212,1.18228,168.57164,-0.009796,-0.259903,0.986282,-0.246886,-0.163764,-0.00647,87.116302,23.895996,-147.062042,,,
729706238.135431,-14.872212,1.18228,168.57164,-0.009796,-0.259903,0.986282,-0.246886,-0.163764,-0.00647,87.116302,23.895996,-147.062042,,,
729706238.138774,-14.942506,1.136371,168.571541,-0.009796,-0.259903,0.986282,-0.246886,-0.163764,-0.00647,87.116302,23.895996,-147.062042,,,
729706238.142089,-15.013142,1.095011,168.571095,-0.008102,-0.253494,0.976135,-0.249274,-0.131518,-0.008491,87.116302,23.895996,-147.062042,,,
729706238.145437,-15.013142,1.095011,168.571095,-0.008102,-0.253494,0.976135,-0.249274,-0.131518,-0.008491,86.832428,24.318253,-147.094269,,,
729706238.148837,-15.086405,1.058432,168.570245,-0.008102,-0.253494,0.976135,-0.249274,-0.131518,-0.008491,86.832428,24.318253,-147.094269,,,
729706238.15208,-15.162345,1.026302,168.568794,-0.008804,-0.255692,0.970383,-0.2679,-0.099475,-0.012561,86.832428,24.318253,-147.094269,,,
729706238.155447,-15.162345,1.026302,168.568794,-0.008804,-0.255692,0.970383,-0.2679,-0.099475,-0.012561,86.832428,24.318253,-147.094269,,,
729706238.158844,-15.239084,0.998841,168.565681,-0.008804,-0.255692,0.970383,-0.2679,-0.099475,-0.012561,86.832428,24.318253,-147.094269,,,
729706238.162083,-15.315717,0.97732,168.561111,-0.00267,-0.262054,0.97998,-0.267048,-0.05544,-0.02213,86.832428,24.318253,-147.094269,,,
729706238.165498,-15.315717,0.97732,168.561111,-0.00267,-0.262054,0.97998,-0.267048,-0.05544,-0.02213,86.832428,24.318253,-147.094269,,,
729706238.168827,-15.393249,0.962477,168.555916,-0.00267,-0.262054,0.97998,-0.267048,-0.05544,-0.02213,86.832428,24.318253,-147.094269,,,
729706238.172095,-15.472123,0.953486,168.550605,-0.003647,-0.267319,0.983047,-0.276453,-0.014453,-0.022936,86.832428,24.318253,-147.094269,,,
729706238.175475,-15.472123,0.953486,168.550605,-0.003647,-0.267319,0.983047,-0.276453,-0.014453,-0.022936,86.832428,24.318253,-147.094269,,,
729706238.178796,-15.552653,0.948772,168.545731,-0.003647,-0.267319,0.983047,-0.276453,-0.014453,-0.022936,86.832428,24.318253,-147.094269,,,
729706238.182197,-15.634917,0.947132,168.541293,-0.006317,-0.271194,0.977585,-0.288671,0.006165,-0.020188,86.832428,24.318253,-147.094269,,,
729706238.185385,-15.634917,0.947132,168.541293,-0.006317,-0.271194,0.977585,-0.288671,0.006165,-0.020188,86.562134,25.109146,-147.355377,,,
729706238.188763,-15.719011,0.947247,168.537473,-0.006317,-0.271194,0.977585,-0.288671,0.006165,-0.020188,86.562134,25.109146,-147.355377,,,
729706238.192078,-15.805192,0.948725,168.533687,-0.006912,-0.269684,0.974899,-0.30323,0.015617,-0.020219,86.562134,25.109146,-147.355377,,,
729706238.195479,-15.805192,0.948725,168.533687,-0.006912,-0.269684,0.974899,-0.30323,0.015617,-0.020219,86.562134,25.109146,-147.355377,,,
729706238.198728,-15.894569,0.951681,168.52923,-0.006912,-0.269684,0.974899,-0.30323,0.015617,-0.020219,86.562134,25.109146,-147.355377,,,
729706238.202142,-15.989008,0.95472,168.523944,-0.007156,-0.265152,0.965424,-0.338437,0.017819,-0.026397,86.562134,25.109146,-147.355377,,,
729706238.205404,-15.989008,0.95472,168.523944,-0.007156,-0.265152,0.965424,-0.338437,0.017819,-0.026397,86.562134,25.109146,-147.355377,,,
729706238.208741,-16.089051,0.956627,168.517264,-0.007156,-0.265152,0.965424,-0.338437,0.017819,-0.026397,86.562134,25.109146,-147.355377,,,
729706238.212063,-16.194858,0.955781,168.50904,-0.007217,-0.263733,0.948822,-0.378482,0.001695,-0.03737,86.562134,25.109146,-147.355377,,,
729706238.215405,-16.194858,0.955781,168.50904,-0.007217,-0.263733,0.948822,-0.378482,0.001695,-0.03737,86.562134,25.109146,-147.355377,,,
729706238.218788,-16.306887,0.951071,168.498633,-0.007217,-0.263733,0.948822,-0.378482,0.001695,-0.03737,86.562134,25.109146,-147.355377,,,
729706238.222016,-16.426131,0.941437,168.485477,-0.01207,-0.264816,0.935638,-0.428531,-0.027117,-0.056451,86.562134,25.109146,-147.355377,,,
729706238.225359,-16.426131,0.941437,168.485477,-0.01207,-0.264816,0.935638,-0.428531,-0.027117,-0.056451,86.708847,25.626297,-147.093933,,,
729706238.228684,-16.55374,0.925855,168.468663,-0.01207,-0.264816,0.935638,-0.428531,-0.027117,-0.056451,86.708847,25.626297,-147.093933,,,
729706238.23205,-16.68998,0.903968,168.447501,-0.008774,-0.265244,0.921402,-0.488328,-0.06217,-0.086088,86.708847,25.626297,-147.093933,,,
729706238.235465,-16.68998,0.903968,168.447501,-0.008774,-0.265244,0.921402,-0.488328,-0.06217,-0.086088,86.708847,25.626297,-147.093933,,,
729706238.23875,-16.835063,0.874785,168.421804,-0.008774,-0.265244,0.921402,-0.488328,-0.06217,-0.086088,86.708847,25.626297,-147.093933,,,
729706238.242015,-16.989289,0.838277,168.39098,-0.004913,-0.272415,0.920837,-0.551764,-0.102422,-0.120542,86.708847,25.626297,-147.093933,,,
729706238.245357,-16.989289,0.838277,168.39098,-0.004913,-0.272415,0.920837,-0.551764,-0.102422,-0.120542,86.708847,25.626297,-147.093933,,,
729706238.248704,-17.153032,0.795209,168.355424,-0.004913,-0.272415,0.920837,-0.551764,-0.102422,-0.120542,86.708847,25.626297,-147.093933,,,
729706238.251724,-17.326121,0.744943,168.315907,-0.005646,-0.278625,0.919434,-0.616861,-0.143771,-0.146685,86.708847,25.626297,-147.093933,,,
729706238.255392,-17.326121,0.744943,168.315907,-0.005646,-0.278625,0.919434,-0.616861,-0.143771,-0.146685,86.708847,25.626297,-147.093933,,,
729706238.258684,-17.509458,0.687568,168.272152,-0.005646,-0.278625,0.919434,-0.616861,-0.143771,-0.146685,86.708847,25.626297,-147.093933,,,
729706238.262032,-17.703561,0.623876,168.224191,-0.005325,-0.281982,0.909531,-0.692058,-0.178039,-0.173893,86.708847,25.626297,-147.093933,,,
729706238.265389,-17.703561,0.623876,168.224191,-0.005325,-0.281982,0.909531,-0.692058,-0.178039,-0.173893,86.708847,25.626297,-147.093933,,,
729706238.268708,-17.907868,0.553951,168.172516,-0.005325,-0.281982,0.909531,-0.692058,-0.178039,-0.173893,86.392349,27.064758,-146.850418,,,
729706238.272021,-18.122565,0.47903,168.117682,-0.002014,-0.291824,0.90831,-0.764629,-0.20481,-0.193246,86.392349,27.064758,-146.850418,,,
729706238.27535,-18.122565,0.47903,168.117682,-0.002014,-0.291824,0.90831,-0.764629,-0.20481,-0.193246,86.392349,27.064758,-146.850418,,,
729706238.278689,-18.34673,0.400538,168.060237,-0.002014,-0.291824,0.90831,-0.764629,-0.20481,-0.193246,86.392349,27.064758,-146.850418,,,
729706238.282036,-18.579309,0.31937,168.001066,-0.002533,-0.303085,0.91301,-0.823664,-0.218169,-0.20234,86.392349,27.064758,-146.850418,,,
729706238.285354,-18.579309,0.31937,168.001066,-0.002533,-0.303085,0.91301,-0.823664,-0.218169,-0.20234,86.392349,27.064758,-146.850418,,,
729706238.288686,-18.819015,0.236374,167.94245,-0.002533,-0.303085,0.91301,-0.823664,-0.218169,-0.20234,86.392349,27.064758,-146.850418,,,
729706238.292029,-19.063903,0.152392,167.885067,-0.005875,-0.323257,0.922577,-0.860276,-0.226208,-0.19138,86.392349,27.064758,-146.850418,,,
729706238.295364,-19.063903,0.152392,167.885067,-0.005875,-0.323257,0.922577,-0.860276,-0.226208,-0.19138,86.392349,27.064758,-146.850418,,,
729706238.298704,-19.312361,0.067926,167.829361,-0.005875,-0.323257,0.922577,-0.860276,-0.226208,-0.19138,86.392349,27.064758,-146.850418,,,
729706238.302018,-19.562704,-0.016517,167.776877,-0.007111,-0.340714,0.932175,-0.873598,-0.231856,-0.16704,86.392349,27.064758,-146.850418,,,
729706238.305349,-19.562704,-0.016517,167.776877,-0.007111,-0.340714,0.932175,-0.873598,-0.231856,-0.16704,86.392349,27.064758,-146.850418,,,
729706238.308686,-19.81311,-0.100832,167.72792,-0.007111,-0.340714,0.932175,-0.873598,-0.231856,-0.16704,85.832962,28.935593,-147.009842,,,
729706238.312089,-20.063981,-0.185733,167.681483,0.000381,-0.353729,0.934433,-0.876835,-0.240435,-0.147389,85.832962,28.935593,-147.009842,,,
729706238.315356,-20.063981,-0.185733,167.681483,0.000381,-0.353729,0.934433,-0.876835,-0.240435,-0.147389,85.832962,28.935593,-147.009842,,,
729706238.318684,-20.315182,-0.27218,167.636148,0.000381,-0.353729,0.934433,-0.876835,-0.240435,-0.147389,85.832962,28.935593,-147.009842,,,
729706238.322021,-20.565782,-0.360616,167.591228,0.010101,-0.359528,0.929642,-0.872635,-0.25393,-0.141488,85.832962,28.935593,-147.009842,,,
729706238.325353,-20.565782,-0.360616,167.591228,0.010101,-0.359528,0.929642,-0.872635,-0.25393,-0.141488,85.832962,28.935593,-147.009842,,,
729706238.328705,-20.816224,-0.450414,167.547148,0.010101,-0.359528,0.929642,-0.872635,-0.25393,-0.141488,85.832962,28.935593,-147.009842,,,
729706238.332024,-21.066595,-0.541564,167.502841,0.013382,-0.362,0.930038,-0.872165,-0.261462,-0.13966,85.832962,28.935593,-147.009842,,,
729706238.335353,-21.066595,-0.541564,167.502841,0.013382,-0.362,0.930038,-0.872165,-0.261462,-0.13966,85.832962,28.935593,-147.009842,,,
729706238.338402,-21.316068,-0.634869,167.456246,0.013382,-0.362,0.930038,-0.872165,-0.261462,-0.13966,85.832962,28.935593,-147.009842,,,
729706238.342051,-21.564354,-0.730693,167.406437,0.016312,-0.369156,0.930344,-0.864227,-0.269425,-0.157177,85.832962,28.935593,-147.009842,,,
729706238.345363,-21.564354,-0.730693,167.406437,0.016312,-0.369156,0.930344,-0.864227,-0.269425,-0.157177,85.832962,28.935593,-147.009842,,,
729706238.348689,-21.80964,-0.828972,167.352418,0.016312,-0.369156,0.930344,-0.864227,-0.269425,-0.157177,85.252975,30.406387,-146.698135,,,
729706238.352042,-22.051572,-0.928375,167.293303,0.025742,-0.373001,0.937973,-0.841529,-0.262429,-0.186835,85.252975,30.406387,-146.698135,,,
729706238.355351,-22.051572,-0.928375,167.293303,0.025742,-0.373001,0.937973,-0.841529,-0.262429,-0.186835,85.252975,30.406387,-146.698135,,,
729706238.358692,-22.290458,-1.028539,167.228888,0.025742,-0.373001,0.937973,-0.841529,-0.262429,-0.186835,85.252975,30.406387,-146.698135,,,
729706238.36204,-22.525984,-1.129699,167.158994,0.029221,-0.379623,0.937454,-0.819061,-0.253017,-0.218822,85.252975,30.406387,-146.698135,,,
729706238.365359,-22.525984,-1.129699,167.158994,0.029221,-0.379623,0.937454,-0.819061,-0.253017,-0.218822,85.252975,30.406387,-146.698135,,,
729706238.368687,-22.756802,-1.230209,167.084609,0.029221,-0.379623,0.937454,-0.819061,-0.253017,-0.218822,85.252975,30.406387,-146.698135,,,
729706238.37203,-22.981146,-1.329486,167.006449,0.032303,-0.385056,0.935898,-0.774874,-0.23223,-0.240356,85.252975,30.406387,-146.698135,,,
729706238.375365,-22.981146,-1.329486,167.006449,0.032303,-0.385056,0.935898,-0.774874,-0.23223,-0.240356,85.252975,30.406387,-146.698135,,,
729706238.378708,-23.198405,-1.426965,166.92571,0.032303,-0.385056,0.935898,-0.774874,-0.23223,-0.240356,85.252975,30.406387,-146.698135,,,
729706238.382026,-23.408863,-1.522496,166.843862,0.029846,-0.397018,0.940414,-0.728088,-0.213593,-0.245198,85.252975,30.406387,-146.698135,,,
729706238.385349,-23.408863,-1.522496,166.843862,0.029846,-0.397018,0.940414,-0.728088,-0.213593,-0.245198,85.252975,30.406387,-146.698135,,,
729706238.388689,-23.613629,-1.616373,166.762067,0.029846,-0.397018,0.940414,-0.728088,-0.213593,-0.245198,84.797516,32.235306,-146.387222,,,
729706238.392028,-23.814297,-1.709103,166.681471,0.029556,-0.405075,0.928833,-0.699724,-0.207054,-0.235148,84.797516,32.235306,-146.387222,,,
729706238.395365,-23.814297,-1.709103,166.681471,0.029556,-0.405075,0.928833,-0.699724,-0.207054,-0.235148,84.797516,32.235306,-146.387222,,,
729706238.398693,-24.011769,-1.801243,166.60268,0.029556,-0.405075,0.928833,-0.699724,-0.207054,-0.235148,84.797516,32.235306,-146.387222,,,
729706238.402024,-24.207694,-1.89334,166.526244,0.026688,-0.405533,0.911331,-0.688811,-0.211659,-0.217471,84.797516,32.235306,-146.387222,,,
729706238.405352,-24.207694,-1.89334,166.526244,0.026688,-0.405533,0.911331,-0.688811,-0.211659,-0.217471,84.797516,32.235306,-146.387222,,,
729706238.408703,-24.404248,-1.986157,166.45295,0.026688,-0.405533,0.911331,-0.688811,-0.211659,-0.217471,84.797516,32.235306,-146.387222,,,
729706238.412023,-24.604297,-2.080092,166.382957,0.018829,-0.407257,0.896423,-0.712716,-0.227318,-0.192661,84.797516,32.235306,-146.387222,,,
729706238.41535,-24.604297,-2.080092,166.382957,0.018829,-0.407257,0.896423,-0.712716,-0.227318,-0.192661,84.797516,32.235306,-146.387222,,,
729706238.418685,-24.81046,-2.175899,166.316406,0.018829,-0.407257,0.896423,-0.712716,-0.227318,-0.192661,84.797516,32.235306,-146.387222,,,
729706238.422016,-25.023502,-2.274545,166.253301,0.015747,-0.414673,0.870071,-0.759936,-0.255569,-0.16583,84.797516,32.235306,-146.387222,,,
729706238.425385,-25.023502,-2.274545,166.253301,0.015747,-0.414673,0.870071,-0.759936,-0.255569,-0.16583,84.797516,32.235306,-146.387222,,,
729706238.428686,-25.242248,-2.376736,166.193181,0.015747,-0.414673,0.870071,-0.759936,-0.255569,-0.16583,84.797516,32.235306,-146.387222,,,
729706238.432019,-25.465262,-2.482423,166.13573,0.017303,-0.428452,0.862686,-0.789083,-0.286323,-0.144297,84.146164,33.745453,-146.227707,,,
729706238.43535,-25.465262,-2.482423,166.13573,0.017303,-0.428452,0.862686,-0.789083,-0.286323,-0.144297,84.146164,33.745453,-146.227707,,,
729706238.438699,-25.68922,-2.590846,166.080794,0.017303,-0.428452,0.862686,-0.789083,-0.286323,-0.144297,84.146164,33.745453,-146.227707,,,
729706238.442029,-25.911783,-2.70049,166.028093,0.019348,-0.43779,0.879776,-0.779406,-0.300388,-0.127189,84.146164,33.745453,-146.227707,,,
729706238.445353,-25.911783,-2.70049,166.028093,0.019348,-0.43779,0.879776,-0.779406,-0.300388,-0.127189,84.146164,33.745453,-146.227707,,,
729706238.448689,-26.132451,-2.809415,165.977199,0.019348,-0.43779,0.879776,-0.779406,-0.300388,-0.127189,84.146164,33.745453,-146.227707,,,
729706238.452029,-26.35136,-2.916248,165.928977,0.025528,-0.443558,0.893402,-0.766999,-0.292954,-0.107679,84.146164,33.745453,-146.227707,,,
729706238.455356,-26.35136,-2.916248,165.928977,0.025528,-0.443558,0.893402,-0.766999,-0.292954,-0.107679,84.146164,33.745453,-146.227707,,,
729706238.458684,-26.568727,-3.020961,165.883936,0.025528,-0.443558,0.893402,-0.766999,-0.292954,-0.107679,84.146164,33.745453,-146.227707,,,
729706238.462023,-26.784247,-3.123826,165.841921,0.030304,-0.448318,0.890182,-0.753713,-0.288622,-0.086327,84.146164,33.745453,-146.227707,,,
729706238.465355,-26.784247,-3.123826,165.841921,0.030304,-0.448318,0.890182,-0.753713,-0.288622,-0.086327,84.146164,33.745453,-146.227707,,,
729706238.468496,-26.998324,-3.224454,165.80382,0.030304,-0.448318,0.890182,-0.753713,-0.288622,-0.086327,84.146164,33.745453,-146.227707,,,
729706238.472058,-27.210706,-3.322585,165.769318,0.033661,-0.45459,0.887207,-0.741086,-0.281895,-0.06173,83.46019,35.335037,-146.004959,,,
729706238.475351,-27.210706,-3.322585,165.769318,0.033661,-0.45459,0.887207,-0.741086,-0.281895,-0.06173,83.46019,35.335037,-146.004959,,,
729706238.478403,-27.421525,-3.419137,165.737224,0.033661,-0.45459,0.887207,-0.741086,-0.281895,-0.06173,83.46019,35.335037,-146.004959,,,
729706238.482054,-27.631073,-3.514181,165.706457,0.047714,-0.457901,0.883591,-0.732174,-0.275061,-0.051272,83.46019,35.335037,-146.004959,,,
729706238.485382,-27.631073,-3.514181,165.706457,0.047714,-0.457901,0.883591,-0.732174,-0.275061,-0.051272,83.46019,35.335037,-146.004959,,,
729706238.488792,-27.839178,-3.606451,165.675235,0.047714,-0.457901,0.883591,-0.732174,-0.275061,-0.051272,83.46019,35.335037,-146.004959,,,
729706238.492034,-28.045384,-3.694867,165.642119,0.065598,-0.458847,0.889236,-0.720051,-0.24142,-0.061149,83.46019,35.335037,-146.004959,,,
729706238.495353,-28.045384,-3.694867,165.642119,0.065598,-0.458847,0.889236,-0.720051,-0.24142,-0.061149,83.46019,35.335037,-146.004959,,,
729706238.498692,-28.249732,-3.778256,165.606098,0.065598,-0.458847,0.889236,-0.720051,-0.24142,-0.061149,83.46019,35.335037,-146.004959,,,
729706238.502031,-28.452612,-3.856339,165.566717,0.075577,-0.464813,0.892914,-0.711534,-0.192607,-0.080029,83.46019,35.335037,-146.004959,,,
729706238.505349,-28.452612,-3.856339,165.566717,0.075577,-0.464813,0.892914,-0.711534,-0.192607,-0.080029,83.46019,35.335037,-146.004959,,,
729706238.508705,-28.655249,-3.930066,165.523615,0.075577,-0.464813,0.892914,-0.711534,-0.192607,-0.080029,83.46019,35.335037,-146.004959,,,
729706238.51203,-28.860093,-3.999376,165.477495,0.079697,-0.470093,0.884628,-0.728516,-0.150835,-0.095142,82.717072,36.818436,-145.519424,,,
729706238.515348,-28.860093,-3.999376,165.477495,0.079697,-0.470093,0.884628,-0.728516,-0.150835,-0.095142,82.717072,36.818436,-145.519424,,,
729706238.518689,-29.069568,-4.065274,165.429413,0.079697,-0.470093,0.884628,-0.728516,-0.150835,-0.095142,82.717072,36.818436,-145.519424,,,
729706238.522021,-29.284996,-4.12933,165.379909,0.071365,-0.489807,0.857895,-0.771022,-0.13222,-0.09854,82.717072,36.818436,-145.519424,,,
729706238.525444,-29.284996,-4.12933,165.379909,0.071365,-0.489807,0.857895,-0.771022,-0.13222,-0.09854,82.717072,36.818436,-145.519424,,,
729706238.528692,-29.508321,-4.192257,165.330292,0.071365,-0.489807,0.857895,-0.771022,-0.13222,-0.09854,82.717072,36.818436,-145.519424,,,
729706238.532113,-29.740168,-4.25492,165.281954,0.066315,-0.493958,0.833237,-0.830047,-0.133662,-0.084074,82.717072,36.818436,-145.519424,,,
729706238.535357,-29.740168,-4.25492,165.281954,0.066315,-0.493958,0.833237,-0.830047,-0.133662,-0.084074,82.717072,36.818436,-145.519424,,,
729706238.53869,-29.980563,-4.317908,165.235978,0.066315,-0.493958,0.833237,-0.830047,-0.133662,-0.084074,82.717072,36.818436,-145.519424,,,
729706238.542029,-30.229803,-4.38138,165.193481,0.056564,-0.500336,0.82132,-0.890305,-0.148091,-0.055984,82.717072,36.818436,-145.519424,,,
729706238.545368,-30.229803,-4.38138,165.193481,0.056564,-0.500336,0.82132,-0.890305,-0.148091,-0.055984,82.717072,36.818436,-145.519424,,,
729706238.548688,-30.487332,-4.445782,165.155274,0.056564,-0.500336,0.82132,-0.890305,-0.148091,-0.055984,82.717072,36.818436,-145.519424,,,
729706238.552028,-30.751473,-4.511871,165.122407,0.052841,-0.513962,0.816544,-0.934099,-0.177848,-0.017819,82.526459,38.301575,-145.07988,,,
729706238.555096,-30.751473,-4.511871,165.122407,0.052841,-0.513962,0.816544,-0.934099,-0.177848,-0.017819,82.526459,38.301575,-145.07988,,,
729706238.558751,-31.021525,-4.581449,165.094796,0.052841,-0.513962,0.816544,-0.934099,-0.177848,-0.017819,82.526459,38.301575,-145.07988,,,
729706238.562011,-31.29615,-4.655845,165.072864,0.052292,-0.528305,0.813431,-0.963459,-0.231223,0.02135,82.526459,38.301575,-145.07988,,,
729706238.565405,-31.29615,-4.655845,165.072864,0.052292,-0.528305,0.813431,-0.963459,-0.231223,0.02135,82.526459,38.301575,-145.07988,,,
729706238.56869,-31.572695,-4.735719,165.05708,0.052292,-0.528305,0.813431,-0.963459,-0.231223,0.02135,82.526459,38.301575,-145.07988,,,
729706238.572043,-31.848882,-4.820508,165.047584,0.044434,-0.544373,0.823349,-0.957991,-0.288116,0.061281,82.526459,38.301575,-145.07988,,,
729706238.575351,-31.848882,-4.820508,165.047584,0.044434,-0.544373,0.823349,-0.957991,-0.288116,0.061281,82.526459,38.301575,-145.07988,,,
729706238.57871,-32.123637,-4.908368,165.044861,0.044434,-0.544373,0.823349,-0.957991,-0.288116,0.061281,82.526459,38.301575,-145.07988,,,
729706238.582022,-32.395937,-4.997009,165.048204,0.04924,-0.550751,0.84259,-0.937938,-0.31616,0.098412,82.526459,38.301575,-145.07988,,,
729706238.585387,-32.395937,-4.997009,165.048204,0.04924,-0.550751,0.84259,-0.937938,-0.31616,0.098412,82.526459,38.301575,-145.07988,,,
729706238.588787,-32.666448,-5.08461,165.055012,0.04924,-0.550751,0.84259,-0.937938,-0.31616,0.098412,82.526459,38.301575,-145.07988,,,
729706238.59201,-32.93562,-5.169603,165.063464,0.062103,-0.550186,0.853363,-0.927822,-0.30454,0.10992,82.526459,38.301575,-145.07988,,,
729706238.595367,-32.93562,-5.169603,165.063464,0.062103,-0.550186,0.853363,-0.927822,-0.30454,0.10992,81.890015,39.972473,-144.47905,,,
729706238.598437,-33.203032,-5.250381,165.072765,0.062103,-0.550186,0.853363,-0.927822,-0.30454,0.10992,81.890015,39.972473,-144.47905,,,
729706238.602051,-33.468998,-5.324965,165.082852,0.07341,-0.553177,0.856628,-0.917037,-0.264683,0.115894,81.890015,39.972473,-144.47905,,,
729706238.605391,-33.468998,-5.324965,165.082852,0.07341,-0.553177,0.856628,-0.917037,-0.264683,0.115894,81.890015,39.972473,-144.47905,,,
729706238.608695,-33.734035,-5.391279,165.094551,0.07341,-0.553177,0.856628,-0.917037,-0.264683,0.115894,81.890015,39.972473,-144.47905,,,
729706238.612028,-33.997697,-5.448029,165.107244,0.075943,-0.561722,0.856628,-0.906274,-0.202126,0.122382,81.890015,39.972473,-144.47905,,,
729706238.615357,-33.997697,-5.448029,165.107244,0.075943,-0.561722,0.856628,-0.906274,-0.202126,0.122382,81.890015,39.972473,-144.47905,,,
729706238.618595,-34.259177,-5.494826,165.119553,0.075943,-0.561722,0.856628,-0.906274,-0.202126,0.122382,81.890015,39.972473,-144.47905,,,
729706238.622073,-34.518267,-5.532137,165.130247,0.0858,-0.566818,0.86264,-0.889982,-0.129964,0.112597,81.890015,39.972473,-144.47905,,,
729706238.625371,-34.518267,-5.532137,165.130247,0.0858,-0.566818,0.86264,-0.889982,-0.129964,0.112597,81.890015,39.972473,-144.47905,,,
729706238.628776,-34.774273,-5.559268,165.139076,0.0858,-0.566818,0.86264,-0.889982,-0.129964,0.112597,81.890015,39.972473,-144.47905,,,
729706238.632018,-35.026739,-5.576143,165.147103,0.097855,-0.57045,0.859741,-0.865354,-0.055499,0.106096,81.890015,39.972473,-144.47905,,,
729706238.635379,-35.026739,-5.576143,165.147103,0.097855,-0.57045,0.859741,-0.865354,-0.055499,0.106096,81.574783,41.723999,-143.933929,,,
729706238.638686,-35.274685,-5.584315,165.155553,0.097855,-0.57045,0.859741,-0.865354,-0.055499,0.106096,81.574783,41.723999,-143.933929,,,
729706238.642035,-35.518842,-5.585204,165.167038,0.084717,-0.583603,0.848969,-0.83696,-0.017188,0.120597,81.574783,41.723999,-143.933929,,,
729706238.64538,-35.518842,-5.585204,165.167038,0.084717,-0.583603,0.848969,-0.83696,-0.017188,0.120597,81.574783,41.723999,-143.933929,,,
729706238.648696,-35.760919,-5.580314,165.183707,0.084717,-0.583603,0.848969,-0.83696,-0.017188,0.120597,81.574783,41.723999,-143.933929,,,
729706238.652029,-36.002267,-5.571487,165.205395,0.068283,-0.593201,0.8284,-0.828794,-0.010651,0.147713,81.574783,41.723999,-143.933929,,,
729706238.655351,-36.002267,-5.571487,165.205395,0.068283,-0.593201,0.8284,-0.828794,-0.010651,0.147713,81.574783,41.723999,-143.933929,,,
729706238.658688,-36.244466,-5.560531,165.232138,0.068283,-0.593201,0.8284,-0.828794,-0.010651,0.147713,81.574783,41.723999,-143.933929,,,
729706238.662033,-36.489307,-5.549093,165.264045,0.062195,-0.593826,0.802551,-0.844029,-0.029278,0.17747,81.574783,41.723999,-143.933929,,,
729706238.66535,-36.489307,-5.549093,165.264045,0.062195,-0.593826,0.802551,-0.844029,-0.029278,0.17747,81.574783,41.723999,-143.933929,,,
729706238.668688,-36.737971,-5.538962,165.300072,0.062195,-0.593826,0.802551,-0.844029,-0.029278,0.17747,81.574783,41.723999,-143.933929,,,
