Time (sec),Pitch (deg),Roll (deg),Yaw(deg),X-Acceleration (g),Y-Acceleration (g),Z-Acceleration (g),Pitch Rate (deg/sec),Roll Rate (deg/sec),Yaw Rate (deg/sec),Magnetic Field in X direction (uT),Magnetic Field in Y direction (uT),Magnetic Field in Z Direction (uT),Latitude (deg),Longitude (deg),Altitude (m)
729716116.301505,0.967951,-3.855371,-82.142682,0.065231,0.024368,0.997009,-0.001163,0.028655,0.022847,61.844131,11.352585,-149.29361,,,
729716116.301726,0.96795,-3.855374,-79.065804,0.065231,0.024368,0.997009,-0.001163,0.028655,0.022847,61.844131,11.352585,-149.29361,,,
729716116.304202,0.965873,-3.843236,-82.135651,0.057556,0.015274,0.995911,-0.001163,0.028655,0.022847,61.844131,11.352585,-149.29361,,,
729716116.304435,0.965873,-3.843239,-79.058773,0.057556,0.015274,0.995911,-0.001163,0.028655,0.022847,61.844131,11.352585,-149.29361,,,
729716116.307077,0.965873,-3.843236,-82.135651,0.057556,0.015274,0.995911,-0.001163,0.028655,0.022847,61.844131,11.352585,-149.29361,,,
729716116.307261,0.965873,-3.843239,-79.058773,0.057556,0.015274,0.995911,-0.001163,0.028655,0.022847,61.844131,11.352585,-149.29361,,,
729716116.313677,0.967315,-3.840829,-82.129578,0.057556,0.015274,0.995911,0.011409,-0.001515,0.012419,61.857407,11.469482,-149.228134,,,
729716116.313966,0.97235,-3.838928,-79.048611,0.056885,0.015488,1.000549,0.011409,-0.001515,0.012419,61.857407,11.469482,-149.228134,,,
729716116.317174,0.97235,-3.838925,-82.12549,0.056885,0.015488,1.000549,0.011409,-0.001515,0.012419,61.857407,11.469482,-149.228134,,,
729716116.317379,0.97235,-3.838928,-79.048611,0.056885,0.015488,1.000549,0.011409,-0.001515,0.012419,61.857407,11.469482,-149.228134,,,
729716116.322593,0.975451,-3.845094,-82.124116,0.056885,0.015488,1.000549,0.010398,-0.03749,-0.007543,61.857407,11.469482,-149.228134,,,
729716116.322881,0.97545,-3.845097,-79.047237,0.056885,0.015488,1.000549,0.010398,-0.03749,-0.007543,61.857407,11.469482,-149.228134,,,
729716116.323774,0.983987,-3.85354,-82.125608,0.06369,0.017654,1.001251,0.010398,-0.03749,-0.007543,61.857407,11.469482,-149.228134,,,
729716116.323988,0.983987,-3.853542,-79.048729,0.06369,0.017654,1.001251,0.010398,-0.03749,-0.007543,61.857407,11.469482,-149.228134,,,
729716116.327206,0.983987,-3.85354,-82.125608,0.06369,0.017654,1.001251,0.010398,-0.03749,-0.007543,61.857407,11.469482,-149.228134,,,
729716116.327407,0.983987,-3.853542,-79.048729,0.06369,0.017654,1.001251,0.010398,-0.03749,-0.007543,61.857407,11.469482,-149.228134,,,
729716116.331619,0.986138,-3.8676,-82.129897,0.06369,0.017654,1.001251,0.006735,-0.051516,-0.025575,61.857407,11.469482,-149.228134,,,
729716116.331853,0.986138,-3.867603,-79.053019,0.06369,0.017654,1.001251,0.006735,-0.051516,-0.025575,61.857407,11.469482,-149.228134,,,
729716116.334403,0.991341,-3.882355,-82.136571,0.074677,0.018723,0.998138,0.006735,-0.051516,-0.025575,61.857407,11.469482,-149.228134,,,
729716116.334631,0.991341,-3.882358,-79.059693,0.074677,0.018723,0.998138,0.006735,-0.051516,-0.025575,61.857407,11.469482,-149.228134,,,
729716116.337055,0.991341,-3.882355,-82.136571,0.074677,0.018723,0.998138,0.006735,-0.051516,-0.025575,61.857407,11.469482,-149.228134,,,
729716116.337251,0.991341,-3.882358,-79.059693,0.074677,0.018723,0.998138,0.006735,-0.051516,-0.025575,61.857407,11.469482,-149.228134,,,
729716116.341303,0.992207,-3.897471,-82.14447,0.074677,0.018723,0.998138,0.000215,-0.04297,-0.032368,61.857407,11.469482,-149.228134,,,
729716116.341534,0.992207,-3.897474,-79.067591,0.074677,0.018723,0.998138,0.000215,-0.04297,-0.032368,61.857407,11.469482,-149.228134,,,
729716116.344614,0.994317,-3.909743,-82.153304,0.080643,0.016708,1.006409,0.000215,-0.04297,-0.032368,61.857407,11.469482,-149.228134,,,
729716116.344845,0.994316,-3.909745,-79.076425,0.080643,0.016708,1.006409,0.000215,-0.04297,-0.032368,61.857407,11.469482,-149.228134,,,
729716116.347024,0.994317,-3.909743,-82.153304,0.080643,0.016708,1.006409,0.000215,-0.04297,-0.032368,61.857407,11.469482,-149.228134,,,
729716116.347248,0.994316,-3.909745,-79.076425,0.080643,0.016708,1.006409,0.000215,-0.04297,-0.032368,61.857407,11.469482,-149.228134,,,
729716116.352943,0.994261,-3.918317,-82.16244,0.080643,0.016708,1.006409,-0.00081,-0.010975,-0.031181,61.743484,11.282349,-149.262741,,,
729716116.353279,0.99426,-3.918319,-79.085561,0.080643,0.016708,1.006409,-0.00081,-0.010975,-0.031181,61.743484,11.282349,-149.262741,,,
729716116.354716,0.998529,-3.924986,-82.170867,0.085815,0.011826,1.016907,-0.00081,-0.010975,-0.031181,61.743484,11.282349,-149.262741,,,
729716116.35495,0.998529,-3.924989,-79.093988,0.085815,0.011826,1.016907,-0.00081,-0.010975,-0.031181,61.743484,11.282349,-149.262741,,,
729716116.357,0.998529,-3.924986,-82.170867,0.085815,0.011826,1.016907,-0.00081,-0.010975,-0.031181,61.743484,11.282349,-149.262741,,,
729716116.357211,0.998529,-3.924989,-79.093988,0.085815,0.011826,1.016907,-0.00081,-0.010975,-0.031181,61.743484,11.282349,-149.262741,,,
729716116.363194,0.999217,-3.925634,-82.178174,0.085815,0.011826,1.016907,0.007461,0.010912,-0.021094,61.743484,11.282349,-149.262741,,,
729716116.363465,1.004572,-3.922986,-79.106561,0.089539,0.003906,1.018341,0.007461,0.010912,-0.021094,61.743484,11.282349,-149.262741,,,
729716116.363877,1.004572,-3.922986,-79.106561,0.089539,0.003906,1.018341,0.007461,0.010912,-0.021094,61.743484,11.282349,-149.262741,,,
729716116.367779,1.004573,-3.922983,-82.18344,0.089539,0.003906,1.018341,0.007461,0.010912,-0.021094,61.743484,11.282349,-149.262741,,,
729716116.367996,1.004572,-3.922986,-79.106561,0.089539,0.003906,1.018341,0.007461,0.010912,-0.021094,61.743484,11.282349,-149.262741,,,
729716116.371334,1.006483,-3.916004,-82.186742,0.089539,0.003906,1.018341,0.006905,0.039757,-0.006278,61.743484,11.282349,-149.262741,,,
729716116.371567,1.006483,-3.916007,-79.109863,0.089539,0.003906,1.018341,0.006905,0.039757,-0.006278,61.743484,11.282349,-149.262741,,,
729716116.374072,1.008429,-3.90353,-82.188711,0.088348,1.5e-05,1.01503,0.006905,0.039757,-0.006278,61.743484,11.282349,-149.262741,,,
729716116.374286,1.008429,-3.903532,-79.111833,0.088348,1.5e-05,1.01503,0.006905,0.039757,-0.006278,61.743484,11.282349,-149.262741,,,
729716116.377108,1.008429,-3.90353,-82.188711,0.088348,1.5e-05,1.01503,0.006905,0.039757,-0.006278,61.743484,11.282349,-149.262741,,,
729716116.37729,1.008429,-3.903532,-79.111833,0.088348,1.5e-05,1.01503,0.006905,0.039757,-0.006278,61.743484,11.282349,-149.262741,,,
729716116.382568,1.008397,-3.888553,-82.189768,0.088348,1.5e-05,1.01503,-4.4e-05,0.060077,-0.003304,61.743484,11.282349,-149.262741,,,
729716116.382846,1.008396,-3.888556,-79.112889,0.088348,1.5e-05,1.01503,-4.4e-05,0.060077,-0.003304,61.743484,11.282349,-149.262741,,,
729716116.384127,1.007334,-3.869578,-82.190864,0.08696,0.004364,1.01004,-4.4e-05,0.060077,-0.003304,61.743484,11.282349,-149.262741,,,
729716116.384339,1.007333,-3.869581,-79.113985,0.08696,0.004364,1.01004,-4.4e-05,0.060077,-0.003304,61.743484,11.282349,-149.262741,,,
729716116.387097,1.007334,-3.869578,-82.190864,0.08696,0.004364,1.01004,-4.4e-05,0.060077,-0.003304,61.743484,11.282349,-149.262741,,,
729716116.387281,1.007333,-3.869581,-79.113985,0.08696,0.004364,1.01004,-4.4e-05,0.060077,-0.003304,61.743484,11.282349,-149.262741,,,
729716116.392915,1.007951,-3.855377,-82.192748,0.08696,0.004364,1.01004,0.00727,0.037304,-0.010681,62.060867,11.364532,-149.305084,,,
729716116.393251,1.00795,-3.85538,-79.115869,0.08696,0.004364,1.01004,0.00727,0.037304,-0.010681,62.060867,11.364532,-149.305084,,,
729716116.394467,1.009678,-3.843554,-82.195909,0.083755,0.001663,1.002716,0.00727,0.037304,-0.010681,62.060867,11.364532,-149.305084,,,
729716116.394703,1.009678,-3.843557,-79.119031,0.083755,0.001663,1.002716,0.00727,0.037304,-0.010681,62.060867,11.364532,-149.305084,,,
729716116.397077,1.009678,-3.843554,-82.195909,0.083755,0.001663,1.002716,0.00727,0.037304,-0.010681,62.060867,11.364532,-149.305084,,,
729716116.397269,1.009678,-3.843557,-79.119031,0.083755,0.001663,1.002716,0.00727,0.037304,-0.010681,62.060867,11.364532,-149.305084,,,
729716116.400941,1.012664,-3.83883,-82.200863,0.083755,0.001663,1.002716,0.007869,0.0045,-0.030034,62.060867,11.364532,-149.305084,,,
729716116.401168,1.012664,-3.838832,-79.123984,0.083755,0.001663,1.002716,0.007869,0.0045,-0.030034,62.060867,11.364532,-149.305084,,,
729716116.404273,1.015765,-3.838323,-82.208572,0.079422,0.001694,0.995605,0.007869,0.0045,-0.030034,62.060867,11.364532,-149.305084,,,
729716116.404487,1.015764,-3.838326,-79.131693,0.079422,0.001694,0.995605,0.007869,0.0045,-0.030034,62.060867,11.364532,-149.305084,,,
729716116.40713,1.015765,-3.838323,-82.208572,0.079422,0.001694,0.995605,0.007869,0.0045,-0.030034,62.060867,11.364532,-149.305084,,,
729716116.407314,1.015764,-3.838326,-79.131693,0.079422,0.001694,0.995605,0.007869,0.0045,-0.030034,62.060867,11.364532,-149.305084,,,
729716116.412037,1.018164,-3.842031,-82.219567,0.079422,0.001694,0.995605,0.007373,-0.02504,-0.050218,62.060867,11.364532,-149.305084,,,
729716116.412282,1.018164,-3.842034,-79.142688,0.079422,0.001694,0.995605,0.007373,-0.02504,-0.050218,62.060867,11.364532,-149.305084,,,
729716116.414638,1.02052,-3.851648,-82.233118,0.080582,0.004425,0.991013,0.007373,-0.02504,-0.050218,62.060867,11.364532,-149.305084,,,
729716116.414883,1.02052,-3.85165,-79.15624,0.080582,0.004425,0.991013,0.007373,-0.02504,-0.050218,62.060867,11.364532,-149.305084,,,
729716116.417061,1.02052,-3.851648,-82.233118,0.080582,0.004425,0.991013,0.007373,-0.02504,-0.050218,62.060867,11.364532,-149.305084,,,
729716116.417264,1.02052,-3.85165,-79.15624,0.080582,0.004425,0.991013,0.007373,-0.02504,-0.050218,62.060867,11.364532,-149.305084,,,
729716116.421615,1.023596,-3.863724,-82.24893,0.080582,0.004425,0.991013,0.011902,-0.053902,-0.062087,62.060867,11.364532,-149.305084,,,
729716116.421846,1.023595,-3.863727,-79.172051,0.080582,0.004425,0.991013,0.011902,-0.053902,-0.062087,62.060867,11.364532,-149.305084,,,
729716116.42431,1.023596,-3.863724,-82.266282,0.087296,0.00502,0.9935,0.011902,-0.053902,-0.062087,62.060867,11.364532,-149.305084,,,
729716116.424537,1.027476,-3.883078,-79.189404,0.087296,0.00502,0.9935,0.011902,-0.053902,-0.062087,62.060867,11.364532,-149.305084,,,
729716116.427711,1.027476,-3.883076,-82.266282,0.087296,0.00502,0.9935,0.011902,-0.053902,-0.062087,62.060867,11.364532,-149.305084,,,
729716116.427922,1.027476,-3.883078,-79.189404,0.087296,0.00502,0.9935,0.011902,-0.053902,-0.062087,62.060867,11.364532,-149.305084,,,
729716116.431942,1.033179,-3.900737,-82.284787,0.087296,0.00502,0.9935,0.014358,-0.056764,-0.070858,61.856735,11.337051,-149.087463,,,
729716116.432215,1.033179,-3.90074,-79.207908,0.087296,0.00502,0.9935,0.014358,-0.056764,-0.070858,61.856735,11.337051,-149.087463,,,
729716116.434837,1.037051,-3.921615,-82.304321,0.088226,0.004791,0.999344,0.014358,-0.056764,-0.070858,61.856735,11.337051,-149.087463,,,
729716116.435064,1.037051,-3.921617,-79.227442,0.088226,0.004791,0.999344,0.014358,-0.056764,-0.070858,61.856735,11.337051,-149.087463,,,
729716116.436981,1.037051,-3.921615,-82.304321,0.088226,0.004791,0.999344,0.014358,-0.056764,-0.070858,61.856735,11.337051,-149.087463,,,
729716116.437203,1.037051,-3.921617,-79.227442,0.088226,0.004791,0.999344,0.014358,-0.056764,-0.070858,61.856735,11.337051,-149.087463,,,
729716116.441239,1.041682,-3.937552,-82.323609,0.088226,0.004791,0.999344,0.006638,-0.044852,-0.066209,61.856735,11.337051,-149.087463,,,
729716116.441456,1.041681,-3.937555,-79.246731,0.088226,0.004791,0.999344,0.006638,-0.044852,-0.066209,61.856735,11.337051,-149.087463,,,
729716116.443687,1.041682,-3.937552,-82.323609,0.08873,0.003754,0.997894,0.006638,-0.044852,-0.066209,61.856735,11.337051,-149.087463,,,
729716116.443904,1.041837,-3.954728,-79.264674,0.08873,0.003754,0.997894,0.006638,-0.044852,-0.066209,61.856735,11.337051,-149.087463,,,
729716116.447673,1.041837,-3.954725,-82.341552,0.08873,0.003754,0.997894,0.006638,-0.044852,-0.066209,61.856735,11.337051,-149.087463,,,
729716116.447891,1.041837,-3.954728,-79.264674,0.08873,0.003754,0.997894,0.006638,-0.044852,-0.066209,61.856735,11.337051,-149.087463,,,
729716116.452548,1.043465,-3.960923,-82.358175,0.08873,0.003754,0.997894,0.003546,0.000825,-0.051917,61.856735,11.337051,-149.087463,,,
729716116.452822,1.043465,-3.960925,-79.281297,0.08873,0.003754,0.997894,0.003546,0.000825,-0.051917,61.856735,11.337051,-149.087463,,,
729716116.453571,1.043465,-3.960923,-82.358175,0.08873,0.003754,0.997894,0.003546,0.000825,-0.051917,61.856735,11.337051,-149.087463,,,
729716116.453899,1.040835,-3.966016,-79.295869,0.084625,0.00412,1.00322,0.003546,0.000825,-0.051917,61.856735,11.337051,-149.087463,,,
729716116.457982,1.040836,-3.966014,-82.372747,0.084625,0.00412,1.00322,0.003546,0.000825,-0.051917,61.856735,11.337051,-149.087463,,,
729716116.458204,1.040835,-3.966016,-79.295869,0.084625,0.00412,1.00322,0.003546,0.000825,-0.051917,61.856735,11.337051,-149.087463,,,
729716116.461646,1.043066,-3.963692,-82.385011,0.084625,0.00412,1.00322,0.008233,0.02062,-0.040339,61.856735,11.337051,-149.087463,,,
729716116.461889,1.043066,-3.963694,-79.308132,0.084625,0.00412,1.00322,0.008233,0.02062,-0.040339,61.856735,11.337051,-149.087463,,,
729716116.464094,1.043066,-3.963692,-82.385011,0.091064,0.000824,1.006058,0.008233,0.02062,-0.040339,61.856735,11.337051,-149.087463,,,
729716116.46431,1.043469,-3.961945,-79.31907,0.091064,0.000824,1.006058,0.008233,0.02062,-0.040339,61.856735,11.337051,-149.087463,,,
729716116.467358,1.043469,-3.961942,-82.395949,0.091064,0.000824,1.006058,0.008233,0.02062,-0.040339,61.856735,11.337051,-149.087463,,,
729716116.467577,1.043469,-3.961945,-79.31907,0.091064,0.000824,1.006058,0.008233,0.02062,-0.040339,61.856735,11.337051,-149.087463,,,
729716116.4715,1.047401,-3.95284,-82.407143,0.091064,0.000824,1.006058,0.011433,0.04903,-0.043882,61.856735,11.337051,-149.087463,,,
729716116.471768,1.0474,-3.952843,-79.330264,0.091064,0.000824,1.006058,0.011433,0.04903,-0.043882,61.856735,11.337051,-149.087463,,,
729716116.474521,1.047401,-3.95284,-82.419228,0.087326,0.005554,1.006378,0.011433,0.04903,-0.043882,62.002548,11.337814,-148.937439,,,
729716116.474746,1.047451,-3.943104,-79.34235,0.087326,0.005554,1.006378,0.011433,0.04903,-0.043882,62.002548,11.337814,-148.937439,,,
729716116.47737,1.047451,-3.943101,-82.419228,0.087326,0.005554,1.006378,0.011433,0.04903,-0.043882,62.002548,11.337814,-148.937439,,,
729716116.477574,1.047451,-3.943104,-79.34235,0.087326,0.005554,1.006378,0.011433,0.04903,-0.043882,62.002548,11.337814,-148.937439,,,
729716116.481582,1.050727,-3.927844,-82.433033,0.087326,0.005554,1.006378,0.004862,0.055462,-0.056581,62.002548,11.337814,-148.937439,,,
729716116.48181,1.050726,-3.927846,-79.356155,0.087326,0.005554,1.006378,0.004862,0.055462,-0.056581,62.002548,11.337814,-148.937439,,,
729716116.484121,1.050727,-3.927844,-82.433033,0.085709,0.018097,0.999786,0.004862,0.055462,-0.056581,62.002548,11.337814,-148.937439,,,
729716116.484336,1.049915,-3.915574,-79.371322,0.085709,0.018097,0.999786,0.004862,0.055462,-0.056581,62.002548,11.337814,-148.937439,,,
729716116.487738,1.049916,-3.915572,-82.448201,0.085709,0.018097,0.999786,0.004862,0.055462,-0.056581,62.002548,11.337814,-148.937439,,,
729716116.487953,1.049915,-3.915574,-79.371322,0.085709,0.018097,0.999786,0.004862,0.055462,-0.056581,62.002548,11.337814,-148.937439,,,
729716116.491159,1.051575,-3.903547,-82.464464,0.085709,0.018097,0.999786,0.002871,0.032362,-0.061061,62.002548,11.337814,-148.937439,,,
729716116.491396,1.051574,-3.903549,-79.387585,0.085709,0.018097,0.999786,0.002871,0.032362,-0.061061,62.002548,11.337814,-148.937439,,,
729716116.494463,1.051575,-3.903547,-82.481556,0.074921,0.017548,0.98735,0.002871,0.032362,-0.061061,62.002548,11.337814,-148.937439,,,
729716116.494724,1.050368,-3.898433,-79.404677,0.074921,0.017548,0.98735,0.002871,0.032362,-0.061061,62.002548,11.337814,-148.937439,,,
729716116.497055,1.050369,-3.89843,-82.481556,0.074921,0.017548,0.98735,0.002871,0.032362,-0.061061,62.002548,11.337814,-148.937439,,,
729716116.497254,1.050368,-3.898433,-79.404677,0.074921,0.017548,0.98735,0.002871,0.032362,-0.061061,62.002548,11.337814,-148.937439,,,
729716116.502664,1.051861,-3.893522,-82.499304,0.074921,0.017548,0.98735,-0.003345,0.006926,-0.065783,62.002548,11.337814,-148.937439,,,
729716116.502932,1.051861,-3.893525,-79.422425,0.074921,0.017548,0.98735,-0.003345,0.006926,-0.065783,62.002548,11.337814,-148.937439,,,
729716116.503543,1.051861,-3.893522,-82.499304,0.074921,0.017548,0.98735,-0.003345,0.006926,-0.065783,62.002548,11.337814,-148.937439,,,
729716116.503897,1.049515,-3.896574,-79.441032,0.065979,0.010056,0.983978,-0.003345,0.006926,-0.065783,62.002548,11.337814,-148.937439,,,
729716116.508104,1.049515,-3.896571,-82.517911,0.065979,0.010056,0.983978,-0.003345,0.006926,-0.065783,62.002548,11.337814,-148.937439,,,
729716116.508372,1.049515,-3.896574,-79.441032,0.065979,0.010056,0.983978,-0.003345,0.006926,-0.065783,62.002548,11.337814,-148.937439,,,
729716116.510791,1.048448,-3.896023,-82.537446,0.065979,0.010056,0.983978,-0.013479,0.005667,-0.070572,62.002548,11.337814,-148.937439,,,
729716116.511015,1.048447,-3.896025,-79.460567,0.065979,0.010056,0.983978,-0.013479,0.005667,-0.070572,62.002548,11.337814,-148.937439,,,
729716116.51487,1.048448,-3.896023,-82.557072,0.067719,0.014664,0.988998,-0.013479,0.005667,-0.070572,62.111694,11.346878,-148.84613,,,
729716116.515104,1.04331,-3.900115,-79.480193,0.067719,0.014664,0.988998,-0.013479,0.005667,-0.070572,62.111694,11.346878,-148.84613,,,
729716116.517338,1.043311,-3.900112,-82.557072,0.067719,0.014664,0.988998,-0.013479,0.005667,-0.070572,62.111694,11.346878,-148.84613,,,
729716116.517556,1.04331,-3.900115,-79.480193,0.067719,0.014664,0.988998,-0.013479,0.005667,-0.070572,62.111694,11.346878,-148.84613,,,
729716116.522019,1.040247,-3.901185,-82.57677,0.067719,0.014664,0.988998,-0.020813,-0.013201,-0.068617,62.111694,11.346878,-148.84613,,,
729716116.522284,1.040247,-3.901188,-79.499892,0.067719,0.014664,0.988998,-0.020813,-0.013201,-0.068617,62.111694,11.346878,-148.84613,,,
729716116.523593,1.040247,-3.901185,-82.57677,0.067719,0.014664,0.988998,-0.020813,-0.013201,-0.068617,62.111694,11.346878,-148.84613,,,
729716116.523877,1.033104,-3.908438,-79.519051,0.066833,0.009995,0.990662,-0.020813,-0.013201,-0.068617,62.111694,11.346878,-148.84613,,,
729716116.528059,1.033105,-3.908435,-82.59593,0.066833,0.009995,0.990662,-0.020813,-0.013201,-0.068617,62.111694,11.346878,-148.84613,,,
729716116.528276,1.033104,-3.908438,-79.519051,0.066833,0.009995,0.990662,-0.020813,-0.013201,-0.068617,62.111694,11.346878,-148.84613,,,
729716116.531013,1.028111,-3.910377,-82.614487,0.066833,0.009995,0.990662,-0.024304,-0.00099,-0.057927,62.111694,11.346878,-148.84613,,,
729716116.531223,1.02811,-3.910379,-79.537609,0.066833,0.009995,0.990662,-0.024304,-0.00099,-0.057927,62.111694,11.346878,-148.84613,,,
729716116.533742,1.028111,-3.910377,-82.614487,0.066833,0.009995,0.990662,-0.024304,-0.00099,-0.057927,62.111694,11.346878,-148.84613,,,
729716116.533933,1.018676,-3.915471,-79.555058,0.070435,0.002472,0.991501,-0.024304,-0.00099,-0.057927,62.111694,11.346878,-148.84613,,,
729716116.538263,1.018676,-3.915468,-82.631937,0.070435,0.002472,0.991501,-0.024304,-0.00099,-0.057927,62.111694,11.346878,-148.84613,,,
729716116.53853,1.018676,-3.915471,-79.555058,0.070435,0.002472,0.991501,-0.024304,-0.00099,-0.057927,62.111694,11.346878,-148.84613,,,
729716116.541089,1.011475,-3.917368,-82.648577,0.070435,0.002472,0.991501,-0.030973,-0.002851,-0.057033,62.111694,11.346878,-148.84613,,,
729716116.5413,1.011474,-3.91737,-79.571699,0.070435,0.002472,0.991501,-0.030973,-0.002851,-0.057033,62.111694,11.346878,-148.84613,,,
729716116.543726,1.011475,-3.917368,-82.648577,0.070435,0.002472,0.991501,-0.030973,-0.002851,-0.057033,62.111694,11.346878,-148.84613,,,
729716116.543923,0.999933,-3.923598,-79.588157,0.073273,0.006561,0.990829,-0.030973,-0.002851,-0.057033,62.111694,11.346878,-148.84613,,,
729716116.547965,0.999934,-3.923596,-82.665036,0.073273,0.006561,0.990829,-0.030973,-0.002851,-0.057033,62.111694,11.346878,-148.84613,,,
729716116.548192,0.999933,-3.923598,-79.588157,0.073273,0.006561,0.990829,-0.030973,-0.002851,-0.057033,62.111694,11.346878,-148.84613,,,
729716116.552071,0.991913,-3.923137,-82.682431,0.073273,0.006561,0.990829,-0.026696,0.009175,-0.064032,62.111694,11.346878,-148.84613,,,
729716116.552329,0.991912,-3.92314,-79.605553,0.073273,0.006561,0.990829,-0.026696,0.009175,-0.064032,62.111694,11.346878,-148.84613,,,
729716116.554316,0.991913,-3.923137,-82.682431,0.073273,0.006561,0.990829,-0.026696,0.009175,-0.064032,61.929916,11.416626,-148.992523,,,
729716116.55454,0.98344,-3.925095,-79.624254,0.075485,0.011398,0.994766,-0.026696,0.009175,-0.064032,61.929916,11.416626,-148.992523,,,
729716116.558127,0.98344,-3.925093,-82.701133,0.075485,0.011398,0.994766,-0.026696,0.009175,-0.064032,61.929916,11.416626,-148.992523,,,
729716116.558355,0.98344,-3.925095,-79.624254,0.075485,0.011398,0.994766,-0.026696,0.009175,-0.064032,61.929916,11.416626,-148.992523,,,
729716116.561281,0.978826,-3.921804,-82.721008,0.075485,0.011398,0.994766,-0.012289,0.013289,-0.071638,61.929916,11.416626,-148.992523,,,
729716116.561508,0.978825,-3.921807,-79.64413,0.075485,0.011398,0.994766,-0.012289,0.013289,-0.071638,61.929916,11.416626,-148.992523,,,
729716116.564189,0.978826,-3.921804,-82.721008,0.070618,0.009354,0.999649,-0.012289,0.013289,-0.071638,61.929916,11.416626,-148.992523,,,
729716116.564401,0.976009,-3.92187,-79.664292,0.070618,0.009354,0.999649,-0.012289,0.013289,-0.071638,61.929916,11.416626,-148.992523,,,
729716116.56733,0.976009,-3.921868,-82.741171,0.070618,0.009354,0.999649,-0.012289,0.013289,-0.071638,61.929916,11.416626,-148.992523,,,
729716116.567546,0.976009,-3.92187,-79.664292,0.070618,0.009354,0.999649,-0.012289,0.013289,-0.071638,61.929916,11.416626,-148.992523,,,
729716116.571773,0.975345,-3.91942,-82.760705,0.070618,0.009354,0.999649,0.004488,0.009274,-0.066309,61.929916,11.416626,-148.992523,,,
729716116.572026,0.975344,-3.919422,-79.683827,0.070618,0.009354,0.999649,0.004488,0.009274,-0.066309,61.929916,11.416626,-148.992523,,,
729716116.573659,0.975345,-3.91942,-82.760705,0.070618,0.009354,0.999649,0.004488,0.009274,-0.066309,61.929916,11.416626,-148.992523,,,
729716116.573876,0.977453,-3.917721,-79.701937,0.061157,0.005661,0.99321,0.004488,0.009274,-0.066309,61.929916,11.416626,-148.992523,,,
729716116.577863,0.977453,-3.917719,-82.778815,0.061157,0.005661,0.99321,0.004488,0.009274,-0.066309,61.929916,11.416626,-148.992523,,,
729716116.578077,0.977453,-3.917721,-79.701937,0.061157,0.005661,0.99321,0.004488,0.009274,-0.066309,61.929916,11.416626,-148.992523,,,
729716116.581512,0.981967,-3.913062,-82.795118,0.061157,0.005661,0.99321,0.017151,0.026458,-0.052845,61.929916,11.416626,-148.992523,,,
729716116.581737,0.981967,-3.913065,-79.718239,0.061157,0.005661,0.99321,0.017151,0.026458,-0.052845,61.929916,11.416626,-148.992523,,,
729716116.583686,0.981967,-3.913062,-82.795118,0.061157,0.005661,0.99321,0.017151,0.026458,-0.052845,61.929916,11.416626,-148.992523,,,
729716116.583904,0.98624,-3.906336,-79.732002,0.057678,0.003967,1.000458,0.017151,0.026458,-0.052845,61.929916,11.416626,-148.992523,,,
729716116.588065,0.986241,-3.906333,-82.80888,0.057678,0.003967,1.000458,0.017151,0.026458,-0.052845,61.929916,11.416626,-148.992523,,,
729716116.588294,0.98624,-3.906336,-79.732002,0.057678,0.003967,1.000458,0.017151,0.026458,-0.052845,61.929916,11.416626,-148.992523,,,
729716116.59142,0.992301,-3.900127,-82.819902,0.057678,0.003967,1.000458,0.019095,0.021891,-0.033671,61.929916,11.416626,-148.992523,,,
729716116.591665,0.992301,-3.90013,-79.743023,0.057678,0.003967,1.000458,0.019095,0.021891,-0.033671,61.929916,11.416626,-148.992523,,,
729716116.593689,0.992301,-3.900127,-82.819902,0.057678,0.003967,1.000458,0.019095,0.021891,-0.033671,61.929916,11.416626,-148.992523,,,
729716116.593961,0.9976,-3.894344,-79.751646,0.05809,0.005264,0.991974,0.019095,0.021891,-0.033671,61.929916,11.416626,-148.992523,,,
729716116.599119,0.9976,-3.894341,-82.828524,0.05809,0.005264,0.991974,0.019095,0.021891,-0.033671,62.073395,11.169968,-149.245193,,,
729716116.599372,1.001981,-3.889005,-79.758377,0.05809,0.005264,0.991974,0.009059,0.0196,-0.020487,62.073395,11.169968,-149.245193,,,
729716116.600868,1.001981,-3.889002,-82.835255,0.05809,0.005264,0.991974,0.009059,0.0196,-0.020487,62.073395,11.169968,-149.245193,,,
729716116.601089,1.001981,-3.889005,-79.758377,0.05809,0.005264,0.991974,0.009059,0.0196,-0.020487,62.073395,11.169968,-149.245193,,,
729716116.60374,1.001981,-3.889002,-82.835255,0.05809,0.005264,0.991974,0.009059,0.0196,-0.020487,62.073395,11.169968,-149.245193,,,
729716116.60398,1.002542,-3.883963,-79.764573,0.054855,0.016388,0.9823,0.009059,0.0196,-0.020487,62.073395,11.169968,-149.245193,,,
729716116.608154,1.002542,-3.88396,-82.841452,0.054855,0.016388,0.9823,0.009059,0.0196,-0.020487,62.073395,11.169968,-149.245193,,,
729716116.608376,1.002542,-3.883963,-79.764573,0.054855,0.016388,0.9823,0.009059,0.0196,-0.020487,62.073395,11.169968,-149.245193,,,
729716116.612036,1.002674,-3.879252,-82.847836,0.054855,0.016388,0.9823,-0.008974,0.010196,-0.024653,62.073395,11.169968,-149.245193,,,
729716116.612297,1.002673,-3.879255,-79.770957,0.054855,0.016388,0.9823,-0.008974,0.010196,-0.024653,62.073395,11.169968,-149.245193,,,
729716116.613619,1.002674,-3.879252,-82.847836,0.054855,0.016388,0.9823,-0.008974,0.010196,-0.024653,62.073395,11.169968,-149.245193,,,
729716116.613869,1.002673,-3.879255,-79.777998,0.054855,0.024826,0.978851,-0.008974,0.010196,-0.024653,62.073395,11.169968,-149.245193,,,
729716116.617463,0.997171,-3.877841,-82.854877,0.058258,0.024826,0.978851,-0.008974,0.010196,-0.024653,62.073395,11.169968,-149.245193,,,
729716116.617674,0.99717,-3.877844,-79.777998,0.058258,0.024826,0.978851,-0.008974,0.010196,-0.024653,62.073395,11.169968,-149.245193,,,
729716116.622582,0.992164,-3.878611,-82.863042,0.058258,0.024826,0.978851,-0.030416,-0.006683,-0.032741,62.073395,11.169968,-149.245193,,,
729716116.622844,0.992164,-3.878613,-79.786164,0.058258,0.024826,0.978851,-0.030416,-0.006683,-0.032741,62.073395,11.169968,-149.245193,,,
729716116.623564,0.992164,-3.878611,-82.863042,0.058258,0.024826,0.978851,-0.030416,-0.006683,-0.032741,62.073395,11.169968,-149.245193,,,
729716116.623884,0.992164,-3.878613,-79.786164,0.058258,0.024826,0.978851,-0.030416,-0.006683,-0.032741,62.073395,11.169968,-149.245193,,,
729716116.628211,0.982888,-3.882853,-82.872862,0.064987,0.028381,0.966858,-0.030416,-0.006683,-0.032741,62.073395,11.169968,-149.245193,,,
729716116.628442,0.982888,-3.882855,-79.795984,0.064987,0.028381,0.966858,-0.030416,-0.006683,-0.032741,62.073395,11.169968,-149.245193,,,
729716116.631545,0.972953,-3.886486,-82.884412,0.064987,0.028381,0.966858,-0.047136,-0.012931,-0.045507,62.073395,11.169968,-149.245193,,,
729716116.631785,0.972952,-3.886488,-79.807533,0.064987,0.028381,0.966858,-0.047136,-0.012931,-0.045507,62.073395,11.169968,-149.245193,,,
729716116.633665,0.972953,-3.886486,-82.884412,0.064987,0.028381,0.966858,-0.047136,-0.012931,-0.045507,62.073395,11.169968,-149.245193,,,
729716116.633877,0.972952,-3.886488,-79.807533,0.064987,0.028381,0.967453,-0.047136,-0.012931,-0.045507,62.073395,11.169968,-149.245193,,,
729716116.638503,0.958314,-3.892239,-82.897519,0.07048,0.029449,0.967453,-0.047136,-0.012931,-0.045507,62.133743,11.237747,-148.921021,,,
729716116.638768,0.958314,-3.892242,-79.820641,0.07048,0.029449,0.967453,-0.047136,-0.012931,-0.045507,62.133743,11.237747,-148.921021,,,
729716116.641298,0.942107,-3.896089,-82.912272,0.07048,0.029449,0.967453,-0.06716,-0.010666,-0.053819,62.133743,11.237747,-148.921021,,,
729716116.641516,0.942106,-3.896092,-79.835393,0.07048,0.029449,0.967453,-0.06716,-0.010666,-0.053819,62.133743,11.237747,-148.921021,,,
729716116.643688,0.942107,-3.896089,-82.912272,0.07048,0.029449,0.967453,-0.06716,-0.010666,-0.053819,62.133743,11.237747,-148.921021,,,
729716116.64388,0.942106,-3.896092,-79.835393,0.07048,0.029449,0.967453,-0.06716,-0.010666,-0.053819,62.133743,11.237747,-148.921021,,,
729716116.647889,0.922333,-3.899969,-82.928115,0.075226,0.029663,0.970337,-0.06716,-0.010666,-0.053819,62.133743,11.237747,-148.921021,,,
729716116.648112,0.922333,-3.899972,-79.851237,0.075226,0.029663,0.970337,-0.06716,-0.010666,-0.053819,62.133743,11.237747,-148.921021,,,
729716116.651329,0.90141,-3.90449,-82.945385,0.075226,0.029663,0.970337,-0.08133,-0.014174,-0.062182,62.133743,11.237747,-148.921021,,,
729716116.651557,0.90141,-3.904492,-79.868506,0.075226,0.029663,0.970337,-0.08133,-0.014174,-0.062182,62.133743,11.237747,-148.921021,,,
729716116.653719,0.90141,-3.90449,-82.945385,0.075226,0.029663,0.970337,-0.08133,-0.014174,-0.062182,62.133743,11.237747,-148.921021,,,
729716116.65394,0.90141,-3.904492,-79.868506,0.075104,0.028946,0.96904,-0.08133,-0.014174,-0.062182,62.133743,11.237747,-148.921021,,,
729716116.658205,0.877581,-3.907456,-82.963974,0.075104,0.028946,0.96904,-0.08133,-0.014174,-0.062182,62.133743,11.237747,-148.921021,,,
729716116.658448,0.87758,-3.907459,-79.887095,0.075104,0.028946,0.96904,-0.08133,-0.014174,-0.062182,62.133743,11.237747,-148.921021,,,
729716116.661258,0.855462,-3.910947,-82.983047,0.075104,0.028946,0.96904,-0.078548,-0.01023,-0.06585,62.133743,11.237747,-148.921021,,,
729716116.661508,0.855462,-3.91095,-79.906169,0.075104,0.028946,0.96904,-0.078548,-0.01023,-0.06585,62.133743,11.237747,-148.921021,,,
729716116.6638,0.855462,-3.910947,-82.983047,0.075104,0.028946,0.96904,-0.078548,-0.01023,-0.06585,62.133743,11.237747,-148.921021,,,
729716116.663997,0.855462,-3.91095,-79.906169,0.071426,0.023499,0.981369,-0.078548,-0.01023,-0.06585,62.133743,11.237747,-148.921021,,,
729716116.6683,0.83253,-3.913018,-83.002544,0.071426,0.023499,0.981369,-0.078548,-0.01023,-0.06585,62.133743,11.237747,-148.921021,,,
729716116.668532,0.83253,-3.913021,-79.925665,0.071426,0.023499,0.981369,-0.078548,-0.01023,-0.06585,62.133743,11.237747,-148.921021,,,
729716116.671519,0.813845,-3.917545,-83.022225,0.071426,0.023499,0.981369,-0.05581,-0.010488,-0.062685,62.133743,11.237747,-148.921021,,,
729716116.671749,0.813845,-3.917548,-79.945346,0.071426,0.023499,0.981369,-0.05581,-0.010488,-0.062685,62.133743,11.237747,-148.921021,,,
729716116.673644,0.813845,-3.917545,-83.022225,0.071426,0.023499,0.981369,-0.05581,-0.010488,-0.062685,62.133743,11.237747,-148.921021,,,
729716116.673866,0.813845,-3.917548,-79.945346,0.071426,0.023499,0.981369,-0.05581,-0.010488,-0.062685,62.133743,11.237747,-148.921021,,,
729716116.678842,0.797726,-3.919397,-83.040686,0.064316,0.013489,0.989944,-0.05581,-0.010488,-0.062685,62.18483,11.411209,-149.14357,,,
729716116.679088,0.786773,-3.920224,-79.978831,0.064316,0.013489,0.989944,-0.027974,0.012829,-0.036447,62.18483,11.411209,-149.14357,,,
729716116.682379,0.786773,-3.920222,-83.055709,0.064316,0.013489,0.989944,-0.027974,0.012829,-0.036447,62.18483,11.411209,-149.14357,,,
729716116.682637,0.786773,-3.920224,-79.978831,0.064316,0.013489,0.989944,-0.027974,0.012829,-0.036447,62.18483,11.411209,-149.14357,,,
729716116.683546,0.786773,-3.920222,-83.055709,0.064316,0.013489,0.989944,-0.027974,0.012829,-0.036447,62.18483,11.411209,-149.14357,,,
729716116.683917,0.786773,-3.920224,-79.978831,0.064316,0.013489,0.989944,-0.027974,0.012829,-0.036447,62.18483,11.411209,-149.14357,,,
729716116.688185,0.779522,-3.915218,-83.066424,0.058563,0.003952,1.008606,-0.027974,0.012829,-0.036447,62.18483,11.411209,-149.14357,,,
729716116.688424,0.779522,-3.91522,-79.989545,0.058563,0.003952,1.008606,-0.027974,0.012829,-0.036447,62.18483,11.411209,-149.14357,,,
729716116.691566,0.77269,-3.91046,-83.072711,0.058563,0.003952,1.008606,-0.024341,0.025311,-0.007813,62.18483,11.411209,-149.14357,,,
729716116.691808,0.772689,-3.910463,-79.995832,0.058563,0.003952,1.008606,-0.024341,0.025311,-0.007813,62.18483,11.411209,-149.14357,,,
729716116.693633,0.77269,-3.91046,-83.072711,0.058563,0.003952,1.008606,-0.024341,0.025311,-0.007813,62.18483,11.411209,-149.14357,,,
729716116.693946,0.772689,-3.910463,-79.995832,0.058563,0.003952,1.008606,-0.024341,0.025311,-0.007813,62.18483,11.411209,-149.14357,,,
729716116.697791,0.768554,-3.902875,-83.075239,0.059891,0.003311,1.008118,-0.024341,0.025311,-0.007813,62.18483,11.411209,-149.14357,,,
729716116.69802,0.768554,-3.902877,-79.998361,0.059891,0.003311,1.008118,-0.024341,0.025311,-0.007813,62.18483,11.411209,-149.14357,,,
729716116.70241,0.761555,-3.894808,-83.075189,0.059891,0.003311,1.008118,-0.02393,0.038406,0.002713,62.18483,11.411209,-149.14357,,,
729716116.702675,0.761555,-3.894811,-79.99831,0.059891,0.003311,1.008118,-0.02393,0.038406,0.002713,62.18483,11.411209,-149.14357,,,
729716116.703615,0.761555,-3.894808,-83.075189,0.059891,0.003311,1.008118,-0.02393,0.038406,0.002713,62.18483,11.411209,-149.14357,,,
729716116.703905,0.761555,-3.894811,-79.99831,0.059891,0.003311,1.008118,-0.02393,0.038406,0.002713,62.18483,11.411209,-149.14357,,,
729716116.70801,0.757951,-3.885462,-83.074514,0.065338,0.013428,1.004517,-0.02393,0.038406,0.002713,62.18483,11.411209,-149.14357,,,
729716116.708258,0.757951,-3.885465,-79.997635,0.065338,0.013428,1.004517,-0.02393,0.038406,0.002713,62.18483,11.411209,-149.14357,,,
729716116.712449,0.750134,-3.87614,-83.074966,0.065338,0.013428,1.004517,-0.030453,0.032533,-0.00699,62.18483,11.411209,-149.14357,,,
729716116.712712,0.750134,-3.876143,-79.998087,0.065338,0.013428,1.004517,-0.030453,0.032533,-0.00699,62.18483,11.411209,-149.14357,,,
729716116.713577,0.750134,-3.87614,-83.074966,0.065338,0.013428,1.004517,-0.030453,0.032533,-0.00699,62.18483,11.411209,-149.14357,,,
729716116.713893,0.750134,-3.876143,-79.998087,0.065338,0.013428,1.004517,-0.030453,0.032533,-0.00699,62.18483,11.411209,-149.14357,,,
729716116.718937,0.745037,-3.869744,-83.076884,0.063934,0.022293,0.997681,-0.030453,0.032533,-0.00699,62.288101,11.477066,-149.304321,,,
729716116.719211,0.735687,-3.863669,-80.003694,0.063934,0.022293,0.997681,-0.034427,0.018177,-0.019017,62.288101,11.477066,-149.304321,,,
729716116.721274,0.735688,-3.863666,-83.080573,0.063934,0.022293,0.997681,-0.034427,0.018177,-0.019017,62.288101,11.477066,-149.304321,,,
729716116.721499,0.735687,-3.863669,-80.003694,0.063934,0.022293,0.997681,-0.034427,0.018177,-0.019017,62.288101,11.477066,-149.304321,,,
729716116.723677,0.735688,-3.863666,-83.080573,0.063934,0.022293,0.997681,-0.034427,0.018177,-0.019017,62.288101,11.477066,-149.304321,,,
729716116.723893,0.735687,-3.863669,-80.003694,0.063934,0.022293,0.997681,-0.034427,0.018177,-0.019017,62.288101,11.477066,-149.304321,,,
729716116.72812,0.729171,-3.861715,-83.086473,0.060333,0.026077,0.992661,-0.034427,0.018177,-0.019017,62.288101,11.477066,-149.304321,,,
729716116.728354,0.72917,-3.861718,-80.009595,0.060333,0.026077,0.992661,-0.034427,0.018177,-0.019017,62.288101,11.477066,-149.304321,,,
729716116.732342,0.719193,-3.86012,-83.094494,0.060333,0.026077,0.992661,-0.034337,-0.001772,-0.033198,62.288101,11.477066,-149.304321,,,
729716116.732617,0.719193,-3.860122,-80.017616,0.060333,0.026077,0.992661,-0.034337,-0.001772,-0.033198,62.288101,11.477066,-149.304321,,,
729716116.733569,0.719193,-3.86012,-83.094494,0.060333,0.026077,0.992661,-0.034337,-0.001772,-0.033198,62.288101,11.477066,-149.304321,,,
729716116.733948,0.719193,-3.860122,-80.017616,0.060333,0.026077,0.992661,-0.034337,-0.001772,-0.033198,62.288101,11.477066,-149.304321,,,
729716116.738346,0.713393,-3.863742,-83.104033,0.060608,0.020935,0.995438,-0.034337,-0.001772,-0.033198,62.288101,11.477066,-149.304321,,,
729716116.738595,0.713393,-3.863745,-80.027154,0.060608,0.020935,0.995438,-0.034337,-0.001772,-0.033198,62.288101,11.477066,-149.304321,,,
729716116.741579,0.70401,-3.867753,-83.115068,0.060608,0.020935,0.995438,-0.032761,-0.015126,-0.043732,62.288101,11.477066,-149.304321,,,
729716116.741815,0.70401,-3.867755,-80.038189,0.060608,0.020935,0.995438,-0.032761,-0.015126,-0.043732,62.288101,11.477066,-149.304321,,,
729716116.74364,0.70401,-3.867753,-83.115068,0.060608,0.020935,0.995438,-0.032761,-0.015126,-0.043732,62.288101,11.477066,-149.304321,,,
729716116.743899,0.70401,-3.867755,-80.038189,0.060608,0.020935,0.995438,-0.032761,-0.015126,-0.043732,62.288101,11.477066,-149.304321,,,
729716116.747379,0.697121,-3.87333,-83.127065,0.064713,0.01915,0.996429,-0.032761,-0.015126,-0.043732,62.288101,11.477066,-149.304321,,,
729716116.747583,0.697121,-3.873332,-80.050186,0.064713,0.01915,0.996429,-0.032761,-0.015126,-0.043732,62.288101,11.477066,-149.304321,,,
729716116.75164,0.689752,-3.877173,-83.139308,0.064713,0.01915,0.996429,-0.021384,-0.002996,-0.041059,62.288101,11.477066,-149.304321,,,
729716116.751891,0.689752,-3.877176,-80.062429,0.064713,0.01915,0.996429,-0.021384,-0.002996,-0.041059,62.288101,11.477066,-149.304321,,,
729716116.753709,0.689752,-3.877173,-83.139308,0.064713,0.01915,0.996429,-0.021384,-0.002996,-0.041059,62.288101,11.477066,-149.304321,,,
729716116.753984,0.689752,-3.877176,-80.062429,0.064713,0.01915,0.996429,-0.021384,-0.002996,-0.041059,62.288101,11.477066,-149.304321,,,
729716116.758022,0.683677,-3.87734,-83.15125,0.064529,0.013351,1.004303,-0.021384,-0.002996,-0.041059,62.288101,11.477066,-149.304321,,,
729716116.758246,0.683676,-3.877342,-80.074372,0.064529,0.013351,1.004303,-0.021384,-0.002996,-0.041059,62.352066,11.441788,-149.089615,,,
729716116.762832,0.679137,-3.876667,-83.161945,0.064529,0.013351,1.004303,-0.011425,0.010703,-0.033218,62.352066,11.441788,-149.089615,,,
729716116.763151,0.679137,-3.876669,-80.085066,0.064529,0.013351,1.004303,-0.011425,0.010703,-0.033218,62.352066,11.441788,-149.089615,,,
729716116.763548,0.679137,-3.876667,-83.161945,0.064529,0.013351,1.004303,-0.011425,0.010703,-0.033218,62.352066,11.441788,-149.089615,,,
729716116.763933,0.679137,-3.876669,-80.085066,0.064529,0.013351,1.004303,-0.011425,0.010703,-0.033218,62.352066,11.441788,-149.089615,,,
729716116.768206,0.673517,-3.872478,-83.171235,0.062469,0.012466,1.009842,-0.011425,0.010703,-0.033218,62.352066,11.441788,-149.089615,,,
729716116.768432,0.673517,-3.87248,-80.094357,0.062469,0.012466,1.009842,-0.011425,0.010703,-0.033218,62.352066,11.441788,-149.089615,,,
729716116.770555,0.670502,-3.869836,-83.17963,0.062469,0.012466,1.009842,-0.013208,0.011191,-0.027558,62.352066,11.441788,-149.089615,,,
729716116.770759,0.670502,-3.869839,-80.102751,0.062469,0.012466,1.009842,-0.013208,0.011191,-0.027558,62.352066,11.441788,-149.089615,,,
729716116.773773,0.670502,-3.869836,-83.17963,0.062469,0.012466,1.009842,-0.013208,0.011191,-0.027558,62.352066,11.441788,-149.089615,,,
729716116.774001,0.670502,-3.869839,-80.102751,0.062469,0.012466,1.009842,-0.013208,0.011191,-0.027558,62.352066,11.441788,-149.089615,,,
729716116.777588,0.666347,-3.865734,-83.187677,0.061172,0.015259,1.007172,-0.013208,0.011191,-0.027558,62.352066,11.441788,-149.089615,,,
729716116.777798,0.666347,-3.865736,-80.110799,0.061172,0.015259,1.007172,-0.013208,0.011191,-0.027558,62.352066,11.441788,-149.089615,,,
729716116.781433,0.663766,-3.86281,-83.195364,0.061172,0.015259,1.007172,-0.007108,0.019482,-0.028848,62.352066,11.441788,-149.089615,,,
729716116.781665,0.663766,-3.862813,-80.118485,0.061172,0.015259,1.007172,-0.007108,0.019482,-0.028848,62.352066,11.441788,-149.089615,,,
729716116.783655,0.663766,-3.86281,-83.195364,0.061172,0.015259,1.007172,-0.007108,0.019482,-0.028848,62.352066,11.441788,-149.089615,,,
729716116.783888,0.663766,-3.862813,-80.118485,0.061172,0.015259,1.007172,-0.007108,0.019482,-0.028848,62.352066,11.441788,-149.089615,,,
729716116.7874,0.662817,-3.858292,-83.202911,0.056549,0.020935,1.001846,-0.007108,0.019482,-0.028848,62.352066,11.441788,-149.089615,,,
729716116.787606,0.662816,-3.858295,-80.126033,0.056549,0.020935,1.001846,-0.007108,0.019482,-0.028848,62.352066,11.441788,-149.089615,,,
729716116.792285,0.662442,-3.852911,-83.210135,0.056549,0.020935,1.001846,0.006052,0.020797,-0.022917,62.352066,11.441788,-149.089615,,,
729716116.792555,0.662442,-3.852913,-80.133256,0.056549,0.020935,1.001846,0.006052,0.020797,-0.022917,62.352066,11.441788,-149.089615,,,
729716116.79355,0.662442,-3.852911,-83.210135,0.056549,0.020935,1.001846,0.006052,0.020797,-0.022917,62.352066,11.441788,-149.089615,,,
729716116.793888,0.662442,-3.852913,-80.133256,0.056549,0.020935,1.001846,0.006052,0.020797,-0.022917,62.352066,11.441788,-149.089615,,,
729716116.798175,0.666597,-3.846749,-83.216418,0.05159,0.021744,1.010162,0.006052,0.020797,-0.022917,62.352066,11.441788,-149.089615,,,
729716116.798407,0.666596,-3.846752,-80.13954,0.05159,0.021744,1.010162,0.006052,0.020797,-0.022917,62.352066,11.441788,-149.089615,,,
729716116.801859,0.670433,-3.841241,-83.221159,0.05159,0.021744,1.010162,0.021764,0.025148,-0.013372,62.428986,11.445114,-149.357193,,,
729716116.802118,0.670432,-3.841244,-80.144281,0.05159,0.021744,1.010162,0.021764,0.025148,-0.013372,62.428986,11.445114,-149.357193,,,
729716116.803692,0.670433,-3.841241,-83.221159,0.05159,0.021744,1.010162,0.021764,0.025148,-0.013372,62.428986,11.445114,-149.357193,,,
729716116.803912,0.670432,-3.841244,-80.144281,0.05159,0.021744,1.010162,0.021764,0.025148,-0.013372,62.428986,11.445114,-149.357193,,,
729716116.808043,0.67883,-3.83324,-83.223966,0.052078,0.0121,1.009827,0.021764,0.025148,-0.013372,62.428986,11.445114,-149.357193,,,
729716116.808288,0.67883,-3.833243,-80.147087,0.052078,0.0121,1.009827,0.021764,0.025148,-0.013372,62.428986,11.445114,-149.357193,,,
729716116.811975,0.685493,-3.826166,-83.224711,0.052078,0.0121,1.009827,0.02667,0.026529,0.003068,62.428986,11.445114,-149.357193,,,
729716116.812227,0.685492,-3.826168,-80.147832,0.052078,0.0121,1.009827,0.02667,0.026529,0.003068,62.428986,11.445114,-149.357193,,,
729716116.813612,0.685493,-3.826166,-83.224711,0.052078,0.0121,1.009827,0.02667,0.026529,0.003068,62.428986,11.445114,-149.357193,,,
729716116.813861,0.685492,-3.826168,-80.147832,0.052078,0.0121,1.009827,0.02667,0.026529,0.003068,62.428986,11.445114,-149.357193,,,
729716116.817533,0.693616,-3.818405,-83.223718,0.054764,0.012222,1.009232,0.02667,0.026529,0.003068,62.428986,11.445114,-149.357193,,,
729716116.817743,0.693616,-3.818408,-80.146839,0.054764,0.012222,1.009232,0.02667,0.026529,0.003068,62.428986,11.445114,-149.357193,,,
729716116.821684,0.699296,-3.812107,-83.221332,0.054764,0.012222,1.009232,0.015589,0.024325,0.00706,62.428986,11.445114,-149.357193,,,
729716116.821921,0.699295,-3.81211,-80.144454,0.054764,0.012222,1.009232,0.015589,0.024325,0.00706,62.428986,11.445114,-149.357193,,,
729716116.823616,0.699296,-3.812107,-83.221332,0.054764,0.012222,1.009232,0.015589,0.024325,0.00706,62.428986,11.445114,-149.357193,,,
729716116.823869,0.699295,-3.81211,-80.144454,0.054764,0.012222,1.009232,0.015589,0.024325,0.00706,62.428986,11.445114,-149.357193,,,
729716116.827813,0.704952,-3.80535,-83.218274,0.056488,0.019241,0.998642,0.015589,0.024325,0.00706,62.428986,11.445114,-149.357193,,,
729716116.828033,0.704952,-3.805353,-80.141395,0.056488,0.019241,0.998642,0.015589,0.024325,0.00706,62.428986,11.445114,-149.357193,,,
729716116.831622,0.708279,-3.798816,-83.215382,0.056488,0.019241,0.998642,0.011638,0.025573,0.004247,62.428986,11.445114,-149.357193,,,
729716116.831859,0.708279,-3.798819,-80.138503,0.056488,0.019241,0.998642,0.011638,0.025573,0.004247,62.428986,11.445114,-149.357193,,,
729716116.833629,0.708279,-3.798816,-83.215382,0.056488,0.019241,0.998642,0.011638,0.025573,0.004247,62.428986,11.445114,-149.357193,,,
729716116.833867,0.708279,-3.798819,-80.138503,0.056488,0.019241,0.998642,0.011638,0.025573,0.004247,62.428986,11.445114,-149.357193,,,
729716116.837713,0.711706,-3.791808,-83.213335,0.059387,0.023605,1.000397,0.011638,0.025573,0.004247,62.428986,11.445114,-149.357193,,,
729716116.837926,0.711705,-3.791811,-80.136456,0.059387,0.023605,1.000397,0.011638,0.025573,0.004247,62.428986,11.445114,-149.357193,,,
729716116.842767,0.715377,-3.786489,-83.212922,0.059387,0.023605,1.000397,0.012188,0.015046,-0.006111,62.183624,11.375519,-149.411514,,,
729716116.843058,0.715376,-3.786491,-80.136043,0.059387,0.023605,1.000397,0.012188,0.015046,-0.006111,62.183624,11.375519,-149.411514,,,
729716116.843489,0.715377,-3.786489,-83.212922,0.059387,0.023605,1.000397,0.012188,0.015046,-0.006111,62.183624,11.375519,-149.411514,,,
729716116.843897,0.715376,-3.786491,-80.136043,0.059387,0.023605,1.000397,0.012188,0.015046,-0.006111,62.183624,11.375519,-149.411514,,,
729716116.847516,0.718733,-3.781353,-83.214195,0.061615,0.022614,1.000565,0.012188,0.015046,-0.006111,62.183624,11.375519,-149.411514,,,
729716116.847724,0.718733,-3.781356,-80.137317,0.061615,0.022614,1.000565,0.012188,0.015046,-0.006111,62.183624,11.375519,-149.411514,,,
729716116.851082,0.722425,-3.778119,-83.215785,0.061615,0.022614,1.000565,0.015281,0.016052,-0.004185,62.183624,11.375519,-149.411514,,,
729716116.851313,0.722425,-3.778121,-80.138907,0.061615,0.022614,1.000565,0.015281,0.016052,-0.004185,62.183624,11.375519,-149.411514,,,
729716116.853786,0.722425,-3.778119,-83.215785,0.061615,0.022614,1.000565,0.015281,0.016052,-0.004185,62.183624,11.375519,-149.411514,,,
729716116.853978,0.722425,-3.778121,-80.138907,0.061615,0.022614,1.000565,0.015281,0.016052,-0.004185,62.183624,11.375519,-149.411514,,,
729716116.857776,0.726992,-3.773508,-83.216766,0.056274,0.024399,1.004715,0.015281,0.016052,-0.004185,62.183624,11.375519,-149.411514,,,
729716116.857993,0.726991,-3.773511,-80.139887,0.056274,0.024399,1.004715,0.015281,0.016052,-0.004185,62.183624,11.375519,-149.411514,,,
729716116.861713,0.730231,-3.77087,-83.216498,0.056274,0.024399,1.004715,0.016633,0.004833,0.00543,62.183624,11.375519,-149.411514,,,
729716116.861945,0.730231,-3.770873,-80.13962,0.056274,0.024399,1.004715,0.016633,0.004833,0.00543,62.183624,11.375519,-149.411514,,,
729716116.863659,0.730231,-3.77087,-83.216498,0.056274,0.024399,1.004715,0.016633,0.004833,0.00543,62.183624,11.375519,-149.411514,,,
729716116.863911,0.730231,-3.770873,-80.13962,0.056274,0.024399,1.004715,0.016633,0.004833,0.00543,62.183624,11.375519,-149.411514,,,
729716116.86792,0.73598,-3.767839,-83.214607,0.059326,0.022491,1.007553,0.016633,0.004833,0.00543,62.183624,11.375519,-149.411514,,,
729716116.86814,0.73598,-3.767842,-80.137729,0.059326,0.022491,1.007553,0.016633,0.004833,0.00543,62.183624,11.375519,-149.411514,,,
729716116.870604,0.741512,-3.768453,-83.211533,0.059326,0.022491,1.007553,0.025031,0.002249,0.007273,62.183624,11.375519,-149.411514,,,
729716116.870806,0.741512,-3.768456,-80.134654,0.059326,0.022491,1.007553,0.025031,0.002249,0.007273,62.183624,11.375519,-149.411514,,,
729716116.873766,0.741512,-3.768453,-83.211533,0.059326,0.022491,1.007553,0.025031,0.002249,0.007273,62.183624,11.375519,-149.411514,,,
729716116.87395,0.741512,-3.768456,-80.134654,0.059326,0.022491,1.007553,0.025031,0.002249,0.007273,62.183624,11.375519,-149.411514,,,
729716116.877686,0.75019,-3.766323,-83.207847,0.066055,0.017807,1.006531,0.025031,0.002249,0.007273,62.183624,11.375519,-149.411514,,,
729716116.877896,0.75019,-3.766326,-80.130969,0.066055,0.017807,1.006531,0.025031,0.002249,0.007273,62.183624,11.375519,-149.411514,,,
729716116.882118,0.758811,-3.766215,-83.204532,0.066055,0.017807,1.006531,0.036015,0.012698,0.002015,62.003143,11.423203,-149.357895,,,
729716116.882366,0.758811,-3.766218,-80.127653,0.066055,0.017807,1.006531,0.036015,0.012698,0.002015,62.003143,11.423203,-149.357895,,,
729716116.883567,0.758811,-3.766215,-83.204532,0.066055,0.017807,1.006531,0.036015,0.012698,0.002015,62.003143,11.423203,-149.357895,,,
729716116.883878,0.758811,-3.766218,-80.127653,0.066055,0.017807,1.006531,0.036015,0.012698,0.002015,62.003143,11.423203,-149.357895,,,
729716116.887979,0.767946,-3.761012,-83.202383,0.07103,0.020218,1.015152,0.036015,0.012698,0.002015,62.003143,11.423203,-149.357895,,,
729716116.888192,0.767946,-3.761015,-80.125504,0.07103,0.020218,1.015152,0.036015,0.012698,0.002015,62.003143,11.423203,-149.357895,,,
729716116.890913,0.777614,-3.75846,-83.200883,0.07103,0.020218,1.015152,0.030645,0.013688,0.002736,62.003143,11.423203,-149.357895,,,
729716116.891125,0.777614,-3.758463,-80.124005,0.07103,0.020218,1.015152,0.030645,0.013688,0.002736,62.003143,11.423203,-149.357895,,,
729716116.893719,0.777614,-3.75846,-83.200883,0.07103,0.020218,1.015152,0.030645,0.013688,0.002736,62.003143,11.423203,-149.357895,,,
729716116.893931,0.777614,-3.758463,-80.124005,0.07103,0.020218,1.015152,0.030645,0.013688,0.002736,62.003143,11.423203,-149.357895,,,
729716116.898024,0.786037,-3.753116,-83.199313,0.072205,0.02153,1.006073,0.030645,0.013688,0.002736,62.003143,11.423203,-149.357895,,,
729716116.898261,0.786036,-3.753119,-80.122434,0.072205,0.02153,1.006073,0.030645,0.013688,0.002736,62.003143,11.423203,-149.357895,,,
729716116.900814,0.793596,-3.749198,-83.19715,0.072205,0.02153,1.006073,0.026314,0.019083,0.00579,62.003143,11.423203,-149.357895,,,
729716116.901027,0.793596,-3.749201,-80.120271,0.072205,0.02153,1.006073,0.026314,0.019083,0.00579,62.003143,11.423203,-149.357895,,,
729716116.903774,0.793596,-3.749198,-83.19715,0.072205,0.02153,1.006073,0.026314,0.019083,0.00579,62.003143,11.423203,-149.357895,,,
729716116.903961,0.793596,-3.749201,-80.120271,0.072205,0.02153,1.006073,0.026314,0.019083,0.00579,62.003143,11.423203,-149.357895,,,
729716116.908416,0.802254,-3.743197,-83.194236,0.072388,0.019028,0.997711,0.026314,0.019083,0.00579,62.003143,11.423203,-149.357895,,,
729716116.908667,0.802254,-3.743199,-80.117357,0.072388,0.019028,0.997711,0.026314,0.019083,0.00579,62.003143,11.423203,-149.357895,,,
729716116.911145,0.80862,-3.740096,-83.190712,0.072388,0.019028,0.997711,0.019796,0.007321,0.011569,62.003143,11.423203,-149.357895,,,
729716116.911368,0.80862,-3.740099,-80.113833,0.072388,0.019028,0.997711,0.019796,0.007321,0.011569,62.003143,11.423203,-149.357895,,,
729716116.913792,0.80862,-3.740096,-83.190712,0.072388,0.019028,0.997711,0.019796,0.007321,0.011569,62.003143,11.423203,-149.357895,,,
729716116.913983,0.80862,-3.740099,-80.113833,0.072388,0.019028,0.997711,0.019796,0.007321,0.011569,62.003143,11.423203,-149.357895,,,
729716116.917508,0.816079,-3.737549,-83.186536,0.069397,0.018005,0.996552,0.019796,0.007321,0.011569,62.003143,11.423203,-149.357895,,,
729716116.917725,0.816079,-3.737552,-80.109657,0.069397,0.018005,0.996552,0.019796,0.007321,0.011569,62.003143,11.423203,-149.357895,,,
729716116.92287,0.821935,-3.737704,-83.181757,0.069397,0.018005,0.996552,0.022913,-0.002105,0.015113,62.06723,11.381317,-149.349075,,,
729716116.923159,0.821935,-3.737707,-80.104879,0.069397,0.018005,0.996552,0.022913,-0.002105,0.015113,62.06723,11.381317,-149.349075,,,
729716116.923467,0.821935,-3.737704,-83.181757,0.069397,0.018005,0.996552,0.022913,-0.002105,0.015113,62.06723,11.381317,-149.349075,,,
729716116.9239,0.821935,-3.737707,-80.104879,0.069397,0.018005,0.996552,0.022913,-0.002105,0.015113,62.06723,11.381317,-149.349075,,,
729716116.927896,0.830443,-3.738346,-83.176994,0.063736,0.015106,0.994461,0.022913,-0.002105,0.015113,62.06723,11.381317,-149.349075,,,
729716116.928116,0.830443,-3.738349,-80.100115,0.063736,0.015106,0.994461,0.022913,-0.002105,0.015113,62.06723,11.381317,-149.349075,,,
729716116.931499,0.838373,-3.740778,-83.172256,0.063736,0.015106,0.994461,0.036572,-0.008035,0.011195,62.06723,11.381317,-149.349075,,,
729716116.931723,0.838372,-3.74078,-80.095378,0.063736,0.015106,0.994461,0.036572,-0.008035,0.011195,62.06723,11.381317,-149.349075,,,
729716116.933647,0.838373,-3.740778,-83.172256,0.063736,0.015106,0.994461,0.036572,-0.008035,0.011195,62.06723,11.381317,-149.349075,,,
729716116.93388,0.838372,-3.74078,-80.095378,0.063736,0.015106,0.994461,0.036572,-0.008035,0.011195,62.06723,11.381317,-149.349075,,,
729716116.937895,0.8502,-3.742117,-83.168328,0.063019,0.010315,0.998932,0.036572,-0.008035,0.011195,62.06723,11.381317,-149.349075,,,
729716116.938126,0.8502,-3.742119,-80.09145,0.063019,0.010315,0.998932,0.036572,-0.008035,0.011195,62.06723,11.381317,-149.349075,,,
729716116.941393,0.862456,-3.746682,-83.165636,0.063019,0.010315,0.998932,0.04508,-0.014989,0.00145,62.06723,11.381317,-149.349075,,,
729716116.94163,0.862456,-3.746684,-80.088758,0.063019,0.010315,0.998932,0.04508,-0.014989,0.00145,62.06723,11.381317,-149.349075,,,
729716116.943658,0.862456,-3.746682,-83.165636,0.063019,0.010315,0.998932,0.04508,-0.014989,0.00145,62.06723,11.381317,-149.349075,,,
729716116.943874,0.862456,-3.746684,-80.088758,0.063019,0.010315,0.998932,0.04508,-0.014989,0.00145,62.06723,11.381317,-149.349075,,,
729716116.947672,0.877105,-3.751406,-83.164623,0.062805,0.009094,1.003525,0.04508,-0.014989,0.00145,62.06723,11.381317,-149.349075,,,
729716116.947893,0.877104,-3.751409,-80.087744,0.062805,0.009094,1.003525,0.04508,-0.014989,0.00145,62.06723,11.381317,-149.349075,,,
729716116.952536,0.890452,-3.758827,-83.165509,0.062805,0.009094,1.003525,0.048947,-0.025515,-0.016578,62.06723,11.381317,-149.349075,,,
729716116.952799,0.890451,-3.75883,-80.08863,0.062805,0.009094,1.003525,0.048947,-0.025515,-0.016578,62.06723,11.381317,-149.349075,,,
729716116.953636,0.890452,-3.758827,-83.165509,0.062805,0.009094,1.003525,0.048947,-0.025515,-0.016578,62.06723,11.381317,-149.349075,,,
729716116.953897,0.890451,-3.75883,-80.08863,0.062805,0.009094,1.003525,0.048947,-0.025515,-0.016578,62.06723,11.381317,-149.349075,,,
729716116.958442,0.904313,-3.767427,-83.168067,0.068817,0.017151,0.995285,0.048947,-0.025515,-0.016578,62.06723,11.381317,-149.349075,,,
729716116.958692,0.904313,-3.76743,-80.091188,0.068817,0.017151,0.995285,0.048947,-0.025515,-0.016578,62.06723,11.381317,-149.349075,,,
729716116.961382,0.917277,-3.775473,-83.171733,0.068817,0.017151,0.995285,0.044138,-0.023315,-0.020488,62.06723,11.381317,-149.349075,,,
729716116.961573,0.917277,-3.775476,-80.094855,0.068817,0.017151,0.995285,0.044138,-0.023315,-0.020488,62.06723,11.381317,-149.349075,,,
729716116.964153,0.917277,-3.775473,-83.171733,0.068817,0.017151,0.995285,0.044138,-0.023315,-0.020488,62.070389,11.258713,-149.441605,,,
729716116.964438,0.917277,-3.775476,-80.094855,0.068817,0.017151,0.995285,0.044138,-0.023315,-0.020488,62.070389,11.258713,-149.441605,,,
729716116.967892,0.930016,-3.783839,-83.175677,0.071075,0.020248,0.992981,0.044138,-0.023315,-0.020488,62.070389,11.258713,-149.441605,,,
729716116.968116,0.930015,-3.783841,-80.098799,0.071075,0.020248,0.992981,0.044138,-0.023315,-0.020488,62.070389,11.258713,-149.441605,,,
729716116.971187,0.941738,-3.79083,-83.179278,0.071075,0.020248,0.992981,0.036885,-0.016453,-0.011325,62.070389,11.258713,-149.441605,,,
729716116.971405,0.941738,-3.790832,-80.102399,0.071075,0.020248,0.992981,0.036885,-0.016453,-0.011325,62.070389,11.258713,-149.441605,,,
729716116.973684,0.941738,-3.79083,-83.179278,0.071075,0.020248,0.992981,0.036885,-0.016453,-0.011325,62.070389,11.258713,-149.441605,,,
729716116.973912,0.941738,-3.790832,-80.102399,0.071075,0.020248,0.992981,0.036885,-0.016453,-0.011325,62.070389,11.258713,-149.441605,,,
729716116.978006,0.954174,-3.797835,-83.181427,0.07196,0.013474,0.994629,0.036885,-0.016453,-0.011325,62.070389,11.258713,-149.441605,,,
729716116.978229,0.954173,-3.797837,-80.104549,0.07196,0.013474,0.994629,0.036885,-0.016453,-0.011325,62.070389,11.258713,-149.441605,,,
729716116.982235,0.964939,-3.802258,-83.182148,0.07196,0.013474,0.994629,0.036137,-0.003504,0.002283,62.070389,11.258713,-149.441605,,,
729716116.982497,0.964939,-3.802261,-80.10527,0.07196,0.013474,0.994629,0.036137,-0.003504,0.002283,62.070389,11.258713,-149.441605,,,
729716116.983561,0.964939,-3.802258,-83.182148,0.07196,0.013474,0.994629,0.036137,-0.003504,0.002283,62.070389,11.258713,-149.441605,,,
729716116.983888,0.964939,-3.802261,-80.10527,0.07196,0.013474,0.994629,0.036137,-0.003504,0.002283,62.070389,11.258713,-149.441605,,,
729716116.987802,0.975521,-3.805582,-83.180476,0.071945,0.012329,0.994202,0.036137,-0.003504,0.002283,62.070389,11.258713,-149.441605,,,
729716116.988022,0.975521,-3.805585,-80.103598,0.071945,0.012329,0.994202,0.036137,-0.003504,0.002283,62.070389,11.258713,-149.441605,,,
729716116.991918,0.984199,-3.805184,-83.175944,0.071945,0.012329,0.994202,0.02445,0.010686,0.020444,62.070389,11.258713,-149.441605,,,
729716116.992165,0.984199,-3.805186,-80.099065,0.071945,0.012329,0.994202,0.02445,0.010686,0.020444,62.070389,11.258713,-149.441605,,,
729716116.99359,0.984199,-3.805184,-83.175944,0.071945,0.012329,0.994202,0.02445,0.010686,0.020444,62.070389,11.258713,-149.441605,,,
729716116.993997,0.984199,-3.805186,-80.099065,0.071945,0.012329,0.994202,0.02445,0.010686,0.020444,62.070389,11.258713,-149.441605,,,
729716116.998392,0.990639,-3.803238,-83.169127,0.065811,0.012878,0.996216,0.02445,0.010686,0.020444,62.070389,11.258713,-149.441605,,,
729716116.99865,0.990639,-3.803241,-80.092248,0.065811,0.012878,0.996216,0.02445,0.010686,0.020444,62.070389,11.258713,-149.441605,,,
729716117.001264,0.993849,-3.798987,-83.160395,0.065811,0.012878,0.996216,0.002222,0.022938,0.032557,62.070389,11.258713,-149.441605,,,
729716117.001524,0.993849,-3.79899,-80.083516,0.065811,0.012878,0.996216,0.002222,0.022938,0.032557,62.070389,11.258713,-149.441605,,,
729716117.004338,0.993849,-3.798987,-83.160395,0.065811,0.012878,0.996216,0.002222,0.022938,0.032557,62.113266,11.201675,-149.285431,,,
729716117.004612,0.993849,-3.79899,-80.083516,0.065811,0.012878,0.996216,0.002222,0.022938,0.032557,62.113266,11.201675,-149.285431,,,
729716117.00801,0.993125,-3.792951,-83.150719,0.06514,0.017883,0.990219,0.002222,0.022938,0.032557,62.113266,11.201675,-149.285431,,,
729716117.008229,0.993124,-3.792953,-80.07384,0.06514,0.017883,0.990219,0.002222,0.022938,0.032557,62.113266,11.201675,-149.285431,,,
729716117.012022,0.990755,-3.788241,-83.14098,0.06514,0.017883,0.990219,-0.010395,0.01151,0.031542,62.113266,11.201675,-149.285431,,,
729716117.012281,0.990755,-3.788244,-80.064102,0.06514,0.017883,0.990219,-0.010395,0.01151,0.031542,62.113266,11.201675,-149.285431,,,
729716117.013606,0.990755,-3.788241,-83.14098,0.06514,0.017883,0.990219,-0.010395,0.01151,0.031542,62.113266,11.201675,-149.285431,,,
729716117.013868,0.990755,-3.788244,-80.064102,0.06514,0.017883,0.990219,-0.010395,0.01151,0.031542,62.113266,11.201675,-149.285431,,,
729716117.017547,0.985486,-3.785711,-83.131487,0.066254,0.023911,0.988159,-0.010395,0.01151,0.031542,62.113266,11.201675,-149.285431,,,
729716117.017819,0.985485,-3.785714,-80.054608,0.066254,0.023911,0.988159,-0.010395,0.01151,0.031542,62.113266,11.201675,-149.285431,,,
729716117.022417,0.981415,-3.787021,-83.122725,0.066254,0.023911,0.988159,-0.012397,-0.010578,0.021642,62.113266,11.201675,-149.285431,,,
729716117.022705,0.981415,-3.787023,-80.045847,0.066254,0.023911,0.988159,-0.012397,-0.010578,0.021642,62.113266,11.201675,-149.285431,,,
729716117.023535,0.981415,-3.787021,-83.122725,0.066254,0.023911,0.988159,-0.012397,-0.010578,0.021642,62.113266,11.201675,-149.285431,,,
729716117.023893,0.981415,-3.787023,-80.045847,0.066254,0.023911,0.988159,-0.012397,-0.010578,0.021642,62.113266,11.201675,-149.285431,,,
729716117.027174,0.975805,-3.790667,-83.116067,0.065689,0.018585,0.986191,-0.012397,-0.010578,0.021642,62.113266,11.201675,-149.285431,,,
729716117.027369,0.975804,-3.790669,-80.039188,0.065689,0.018585,0.986191,-0.012397,-0.010578,0.021642,62.113266,11.201675,-149.285431,,,
729716117.031741,0.970832,-3.797749,-83.112156,0.065689,0.018585,0.986191,-0.013648,-0.029272,0.003655,62.113266,11.201675,-149.285431,,,
729716117.031975,0.970831,-3.797751,-80.035278,0.065689,0.018585,0.986191,-0.013648,-0.029272,0.003655,62.113266,11.201675,-149.285431,,,
729716117.033622,0.970832,-3.797749,-83.112156,0.065689,0.018585,0.986191,-0.013648,-0.029272,0.003655,62.113266,11.201675,-149.285431,,,
