Time (sec),Pitch (deg),Roll (deg),Yaw(deg),X-Acceleration (g),Y-Acceleration (g),Z-Acceleration (g),Pitch Rate (deg/sec),Roll Rate (deg/sec),Yaw Rate (deg/sec),Magnetic Field in X direction (uT),Magnetic Field in Y direction (uT),Magnetic Field in Z Direction (uT),Latitude (deg),Longitude (deg),Altitude (m)
729716150.773481,-40.320938,-3.033931,-80.714654,0.042618,-0.627914,0.77449,-0.85726,0.061385,-0.079452,63.249222,48.497681,-144.254364,,,
729716150.773675,-40.320926,-3.033934,-77.637774,0.03804,-0.632446,0.767166,-0.85726,0.061385,-0.079452,63.249222,48.497681,-144.254364,,,
729716150.778628,-40.56644,-3.047706,-80.762067,0.03804,-0.632446,0.767166,-0.85726,0.061385,-0.079452,63.07077,50.107895,-143.194443,,,
729716150.778893,-40.81041,-3.062521,-77.730806,0.03804,-0.632446,0.767166,-0.846309,0.054759,-0.071303,63.07077,50.107895,-143.194443,,,
729716150.781468,-40.810422,-3.062517,-80.807686,0.03804,-0.632446,0.767166,-0.846309,0.054759,-0.071303,63.07077,50.107895,-143.194443,,,
729716150.781704,-40.81041,-3.062521,-77.730806,0.03804,-0.632446,0.767166,-0.846309,0.054759,-0.071303,63.07077,50.107895,-143.194443,,,
729716150.783535,-40.810422,-3.062517,-80.807686,0.03804,-0.632446,0.767166,-0.846309,0.054759,-0.071303,63.07077,50.107895,-143.194443,,,
729716150.783732,-41.051626,-3.076567,-77.773574,0.029846,-0.644852,0.757431,-0.846309,0.054759,-0.071303,63.07077,50.107895,-143.194443,,,
729716150.788563,-41.051638,-3.076563,-80.850454,0.029846,-0.644852,0.757431,-0.846309,0.054759,-0.071303,63.07077,50.107895,-143.194443,,,
729716150.788852,-41.288694,-3.08942,-77.813616,0.029846,-0.644852,0.757431,-0.813418,0.047963,-0.055372,63.07077,50.107895,-143.194443,,,
729716150.791268,-41.288706,-3.089416,-80.890496,0.029846,-0.644852,0.757431,-0.813418,0.047963,-0.055372,63.07077,50.107895,-143.194443,,,
729716150.791493,-41.288694,-3.08942,-77.813616,0.029846,-0.644852,0.757431,-0.813418,0.047963,-0.055372,63.07077,50.107895,-143.194443,,,
729716150.793554,-41.288706,-3.089416,-80.890496,0.029846,-0.644852,0.757431,-0.813418,0.047963,-0.055372,63.07077,50.107895,-143.194443,,,
729716150.793768,-41.288694,-3.102049,-77.851186,0.02597,-0.651993,0.770157,-0.813418,0.047963,-0.055372,63.07077,50.107895,-143.194443,,,
729716150.798304,-41.521529,-3.102045,-80.928067,0.02597,-0.651993,0.770157,-0.813418,0.047963,-0.055372,63.07077,50.107895,-143.194443,,,
729716150.798594,-41.521517,-3.102049,-77.851186,0.02597,-0.651993,0.770157,-0.813418,0.047963,-0.055372,63.07077,50.107895,-143.194443,,,
729716150.801515,-41.750573,-3.115503,-80.963404,0.02597,-0.651993,0.770157,-0.786341,0.029141,-0.042309,63.07077,50.107895,-143.194443,,,
729716150.801792,-41.75056,-3.115507,-77.886523,0.02597,-0.651993,0.770157,-0.786341,0.029141,-0.042309,63.07077,50.107895,-143.194443,,,
729716150.803414,-41.750573,-3.115503,-80.963404,0.02597,-0.651993,0.770157,-0.786341,0.029141,-0.042309,63.07077,50.107895,-143.194443,,,
729716150.803671,-41.75056,-3.115507,-77.886523,0.02597,-0.651993,0.770157,-0.786341,0.029141,-0.042309,63.07077,50.107895,-143.194443,,,
729716150.807991,-41.97558,-3.129301,-80.996237,0.029907,-0.654724,0.762436,-0.786341,0.029141,-0.042309,63.07077,50.107895,-143.194443,,,
729716150.808218,-41.975567,-3.129305,-77.919357,0.029907,-0.654724,0.762436,-0.786341,0.029141,-0.042309,63.07077,50.107895,-143.194443,,,
729716150.81114,-42.196248,-3.142451,-81.026832,0.029907,-0.654724,0.762436,-0.757278,0.029208,-0.03768,63.07077,50.107895,-143.194443,,,
729716150.811382,-42.196236,-3.142455,-77.949952,0.029907,-0.654724,0.762436,-0.757278,0.029208,-0.03768,63.07077,50.107895,-143.194443,,,
729716150.813512,-42.196248,-3.142451,-81.026832,0.029907,-0.654724,0.762436,-0.757278,0.029208,-0.03768,63.07077,50.107895,-143.194443,,,
729716150.813704,-42.196236,-3.142455,-77.949952,0.029907,-0.654724,0.762436,-0.757278,0.029208,-0.03768,63.07077,50.107895,-143.194443,,,
729716150.818925,-42.412492,-3.155555,-81.057373,0.032089,-0.660843,0.759018,-0.757278,0.029208,-0.03768,63.237289,51.626816,-142.729462,,,
729716150.81924,-42.624903,-3.168293,-78.013089,0.032089,-0.660843,0.759018,-0.732566,0.046667,-0.053376,63.237289,51.626816,-142.729462,,,
729716150.821813,-42.624916,-3.168289,-81.089969,0.032089,-0.660843,0.759018,-0.732566,0.046667,-0.053376,63.237289,51.626816,-142.729462,,,
729716150.82206,-42.624903,-3.168293,-78.013089,0.032089,-0.660843,0.759018,-0.732566,0.046667,-0.053376,63.237289,51.626816,-142.729462,,,
729716150.823375,-42.624916,-3.168289,-81.089969,0.032089,-0.660843,0.759018,-0.732566,0.046667,-0.053376,63.237289,51.626816,-142.729462,,,
729716150.823677,-42.624903,-3.168293,-78.013089,0.032089,-0.660843,0.759018,-0.732566,0.046667,-0.053376,63.237289,51.626816,-142.729462,,,
729716150.828035,-42.835055,-3.180519,-81.125503,0.040054,-0.662216,0.758194,-0.732566,0.046667,-0.053376,63.237289,51.626816,-142.729462,,,
729716150.828264,-42.835042,-3.180523,-78.048623,0.040054,-0.662216,0.758194,-0.732566,0.046667,-0.053376,63.237289,51.626816,-142.729462,,,
729716150.83115,-43.04397,-3.19336,-81.163547,0.040054,-0.662216,0.758194,-0.731111,0.047175,-0.058083,63.237289,51.626816,-142.729462,,,
729716150.831372,-43.043957,-3.193364,-78.086666,0.040054,-0.662216,0.758194,-0.731111,0.047175,-0.058083,63.237289,51.626816,-142.729462,,,
729716150.833579,-43.04397,-3.19336,-81.163547,0.040054,-0.662216,0.758194,-0.731111,0.047175,-0.058083,63.237289,51.626816,-142.729462,,,
729716150.833765,-43.043957,-3.193364,-78.086666,0.040054,-0.662216,0.758194,-0.731111,0.047175,-0.058083,63.237289,51.626816,-142.729462,,,
729716150.838168,-43.252665,-3.207235,-81.201975,0.041382,-0.670334,0.739014,-0.731111,0.047175,-0.058083,63.237289,51.626816,-142.729462,,,
729716150.838394,-43.252652,-3.207239,-78.125095,0.041382,-0.670334,0.739014,-0.731111,0.047175,-0.058083,63.237289,51.626816,-142.729462,,,
729716150.841496,-43.462413,-3.222337,-81.238454,0.041382,-0.670334,0.739014,-0.736469,0.023675,-0.043972,63.237289,51.626816,-142.729462,,,
729716150.841731,-43.462399,-3.222341,-78.161574,0.041382,-0.670334,0.739014,-0.736469,0.023675,-0.043972,63.237289,51.626816,-142.729462,,,
729716150.843438,-43.462413,-3.222337,-81.238454,0.041382,-0.670334,0.739014,-0.736469,0.023675,-0.043972,63.237289,51.626816,-142.729462,,,
729716150.843779,-43.462399,-3.222341,-78.161574,0.041382,-0.670334,0.739014,-0.736469,0.023675,-0.043972,63.237289,51.626816,-142.729462,,,
729716150.848391,-43.672594,-3.239461,-81.272668,0.025269,-0.685272,0.719925,-0.736469,0.023675,-0.043972,63.237289,51.626816,-142.729462,,,
729716150.848678,-43.67258,-3.239465,-78.195788,0.025269,-0.685272,0.719925,-0.736469,0.023675,-0.043972,63.237289,51.626816,-142.729462,,,
729716150.851254,-43.882023,-3.258303,-81.305702,0.025269,-0.685272,0.719925,-0.731312,0.014222,-0.040648,63.237289,51.626816,-142.729462,,,
729716150.851497,-43.88201,-3.258307,-78.228822,0.025269,-0.685272,0.719925,-0.731312,0.014222,-0.040648,63.237289,51.626816,-142.729462,,,
729716150.853456,-43.882023,-3.258303,-81.305702,0.025269,-0.685272,0.719925,-0.731312,0.014222,-0.040648,63.237289,51.626816,-142.729462,,,
729716150.853718,-43.88201,-3.258307,-78.228822,0.025269,-0.685272,0.719925,-0.731312,0.014222,-0.040648,63.237289,51.626816,-142.729462,,,
729716150.857847,-44.090605,-3.277794,-81.338715,0.034042,-0.687164,0.718903,-0.731312,0.014222,-0.040648,63.237289,51.626816,-142.729462,,,
729716150.858069,-44.090591,-3.277798,-78.261835,0.034042,-0.687164,0.718903,-0.731312,0.014222,-0.040648,63.237289,51.626816,-142.729462,,,
729716150.862005,-44.298282,-3.296584,-81.371637,0.034042,-0.687164,0.718903,-0.721422,0.023062,-0.037044,63.184067,53.008224,-141.60199,,,
729716150.86225,-44.298268,-3.296588,-78.294756,0.034042,-0.687164,0.718903,-0.721422,0.023062,-0.037044,63.184067,53.008224,-141.60199,,,
729716150.863368,-44.298282,-3.296584,-81.371637,0.034042,-0.687164,0.718903,-0.721422,0.023062,-0.037044,63.184067,53.008224,-141.60199,,,
729716150.863718,-44.298268,-3.296588,-78.294756,0.034042,-0.687164,0.718903,-0.721422,0.023062,-0.037044,63.184067,53.008224,-141.60199,,,
729716150.867985,-44.505366,-3.31322,-81.403657,0.039536,-0.691391,0.722427,-0.721422,0.023062,-0.037044,63.184067,53.008224,-141.60199,,,
729716150.868204,-44.505352,-3.313224,-78.326776,0.039536,-0.691391,0.722427,-0.721422,0.023062,-0.037044,63.184067,53.008224,-141.60199,,,
729716150.871345,-44.711267,-3.326489,-81.434703,0.039536,-0.691391,0.722427,-0.705311,0.047062,-0.037564,63.184067,53.008224,-141.60199,,,
729716150.871577,-44.711253,-3.326492,-78.357823,0.039536,-0.691391,0.722427,-0.705311,0.047062,-0.037564,63.184067,53.008224,-141.60199,,,
729716150.873428,-44.711267,-3.326489,-81.434703,0.039536,-0.691391,0.722427,-0.705311,0.047062,-0.037564,63.184067,53.008224,-141.60199,,,
729716150.873697,-44.711253,-3.326492,-78.357823,0.039536,-0.691391,0.722427,-0.705311,0.047062,-0.037564,63.184067,53.008224,-141.60199,,,
729716150.877985,-44.913731,-3.335306,-81.465477,0.037018,-0.702362,0.721252,-0.705311,0.047062,-0.037564,63.184067,53.008224,-141.60199,,,
729716150.878216,-44.913717,-3.33531,-78.388596,0.037018,-0.702362,0.721252,-0.705311,0.047062,-0.037564,63.184067,53.008224,-141.60199,,,
729716150.88105,-45.110608,-3.339869,-81.495899,0.037018,-0.702362,0.721252,-0.664554,0.072846,-0.035993,63.184067,53.008224,-141.60199,,,
729716150.881282,-45.110594,-3.339873,-78.419018,0.037018,-0.702362,0.721252,-0.664554,0.072846,-0.035993,63.184067,53.008224,-141.60199,,,
729716150.883547,-45.110608,-3.339869,-81.495899,0.037018,-0.702362,0.721252,-0.664554,0.072846,-0.035993,63.184067,53.008224,-141.60199,,,
729716150.883776,-45.110594,-3.339873,-78.419018,0.037018,-0.702362,0.721252,-0.664554,0.072846,-0.035993,63.184067,53.008224,-141.60199,,,
729716150.88791,-45.301324,-3.341219,-81.526106,0.04303,-0.7099,0.730896,-0.664554,0.072846,-0.035993,63.184067,53.008224,-141.60199,,,
729716150.888143,-45.301309,-3.341222,-78.449225,0.04303,-0.7099,0.730896,-0.664554,0.072846,-0.035993,63.184067,53.008224,-141.60199,,,
729716150.891246,-45.484486,-3.339262,-81.554379,0.04303,-0.7099,0.730896,-0.610757,0.077054,-0.029332,63.184067,53.008224,-141.60199,,,
729716150.891483,-45.484472,-3.339266,-78.477498,0.04303,-0.7099,0.730896,-0.610757,0.077054,-0.029332,63.184067,53.008224,-141.60199,,,
729716150.893476,-45.484486,-3.339262,-81.554379,0.04303,-0.7099,0.730896,-0.610757,0.077054,-0.029332,63.184067,53.008224,-141.60199,,,
729716150.893731,-45.484472,-3.339266,-78.477498,0.04303,-0.7099,0.730896,-0.610757,0.077054,-0.029332,63.184067,53.008224,-141.60199,,,
729716150.897788,-45.659197,-3.336228,-81.579951,0.040848,-0.717667,0.731186,-0.610757,0.077054,-0.029332,63.184067,53.008224,-141.60199,,,
729716150.89803,-45.659182,-3.336232,-78.50307,0.040848,-0.717667,0.731186,-0.610757,0.077054,-0.029332,63.184067,53.008224,-141.60199,,,
729716150.902164,-45.825666,-3.334584,-81.602874,0.040848,-0.717667,0.731186,-0.545685,0.053032,-0.016687,63.39856,54.378616,-141.096222,,,
729716150.902427,-45.825652,-3.334588,-78.525994,0.040848,-0.717667,0.731186,-0.545685,0.053032,-0.016687,63.39856,54.378616,-141.096222,,,
729716150.903343,-45.825666,-3.334584,-81.602874,0.040848,-0.717667,0.731186,-0.545685,0.053032,-0.016687,63.39856,54.378616,-141.096222,,,
729716150.903725,-45.825652,-3.334588,-78.525994,0.040848,-0.717667,0.731186,-0.545685,0.053032,-0.016687,63.39856,54.378616,-141.096222,,,
729716150.907724,-45.981719,-3.334218,-81.622209,0.030197,-0.721802,0.726624,-0.545685,0.053032,-0.016687,63.39856,54.378616,-141.096222,,,
729716150.907942,-45.981704,-3.334222,-78.545329,0.030197,-0.721802,0.726624,-0.545685,0.053032,-0.016687,63.39856,54.378616,-141.096222,,,
729716150.911088,-46.124737,-3.333504,-81.638649,0.030197,-0.721802,0.726624,-0.450541,0.05198,-0.011265,63.39856,54.378616,-141.096222,,,
729716150.911318,-46.124722,-3.333508,-78.561768,0.030197,-0.721802,0.726624,-0.450541,0.05198,-0.011265,63.39856,54.378616,-141.096222,,,
729716150.913483,-46.124737,-3.333504,-81.638649,0.030197,-0.721802,0.726624,-0.450541,0.05198,-0.011265,63.39856,54.378616,-141.096222,,,
729716150.913744,-46.124722,-3.333508,-78.561768,0.030197,-0.721802,0.726624,-0.450541,0.05198,-0.011265,63.39856,54.378616,-141.096222,,,
729716150.917682,-46.253563,-3.329807,-81.652516,0.033447,-0.724792,0.742493,-0.450541,0.05198,-0.011265,63.39856,54.378616,-141.096222,,,
729716150.917894,-46.253548,-3.329811,-78.575635,0.033447,-0.724792,0.742493,-0.450541,0.05198,-0.011265,63.39856,54.378616,-141.096222,,,
729716150.921484,-46.36754,-3.323351,-81.665171,0.033447,-0.724792,0.742493,-0.35025,0.064326,-0.010496,63.39856,54.378616,-141.096222,,,
729716150.921737,-46.367525,-3.323355,-78.58829,0.033447,-0.724792,0.742493,-0.35025,0.064326,-0.010496,63.39856,54.378616,-141.096222,,,
729716150.923418,-46.36754,-3.323351,-81.665171,0.033447,-0.724792,0.742493,-0.35025,0.064326,-0.010496,63.39856,54.378616,-141.096222,,,
729716150.923661,-46.367525,-3.323355,-78.58829,0.033447,-0.724792,0.742493,-0.35025,0.064326,-0.010496,63.39856,54.378616,-141.096222,,,
729716150.927903,-46.467808,-3.315961,-81.677306,0.039612,-0.723145,0.757782,-0.35025,0.064326,-0.010496,63.39856,54.378616,-141.096222,,,
729716150.928123,-46.467793,-3.315965,-78.600425,0.039612,-0.723145,0.757782,-0.35025,0.064326,-0.010496,63.39856,54.378616,-141.096222,,,
729716150.931352,-46.556391,-3.309533,-81.689585,0.039612,-0.723145,0.757782,-0.269925,0.055832,-0.017742,63.39856,54.378616,-141.096222,,,
729716150.931582,-46.556376,-3.309537,-78.612704,0.039612,-0.723145,0.757782,-0.269925,0.055832,-0.017742,63.39856,54.378616,-141.096222,,,
729716150.933509,-46.556391,-3.309533,-81.689585,0.039612,-0.723145,0.757782,-0.269925,0.055832,-0.017742,63.39856,54.378616,-141.096222,,,
729716150.933799,-46.556376,-3.309537,-78.612704,0.039612,-0.723145,0.757782,-0.269925,0.055832,-0.017742,63.39856,54.378616,-141.096222,,,
729716150.938144,-46.633672,-3.303876,-81.702885,0.045166,-0.723846,0.739853,-0.269925,0.055832,-0.017742,63.39856,54.378616,-141.096222,,,
729716150.938371,-46.633657,-3.30388,-78.626004,0.045166,-0.723846,0.739853,-0.269925,0.055832,-0.017742,63.39856,54.378616,-141.096222,,,
729716150.941396,-46.700517,-3.298416,-81.716951,0.045166,-0.723846,0.739853,-0.200541,0.055016,-0.017511,63.430801,55.086105,-140.290741,,,
729716150.941633,-46.700502,-3.298421,-78.64007,0.045166,-0.723846,0.739853,-0.200541,0.055016,-0.017511,63.430801,55.086105,-140.290741,,,
729716150.943462,-46.700517,-3.298416,-81.716951,0.045166,-0.723846,0.739853,-0.200541,0.055016,-0.017511,63.430801,55.086105,-140.290741,,,
729716150.94367,-46.700502,-3.298421,-78.64007,0.045166,-0.723846,0.739853,-0.200541,0.055016,-0.017511,63.430801,55.086105,-140.290741,,,
729716150.948242,-46.758446,-3.293408,-81.729133,0.045441,-0.725876,0.734329,-0.200541,0.055016,-0.017511,63.430801,55.086105,-140.290741,,,
729716150.948472,-46.758431,-3.293412,-78.652252,0.045441,-0.725876,0.734329,-0.200541,0.055016,-0.017511,63.430801,55.086105,-140.290741,,,
729716150.951223,-46.809445,-3.290352,-81.737464,0.045441,-0.725876,0.734329,-0.16401,0.010348,-0.006967,63.430801,55.086105,-140.290741,,,
729716150.951448,-46.80943,-3.290356,-78.660583,0.045441,-0.725876,0.734329,-0.16401,0.010348,-0.006967,63.430801,55.086105,-140.290741,,,
729716150.953462,-46.809445,-3.290352,-81.737464,0.045441,-0.725876,0.734329,-0.16401,0.010348,-0.006967,63.430801,55.086105,-140.290741,,,
729716150.95368,-46.80943,-3.290356,-78.660583,0.045441,-0.725876,0.734329,-0.16401,0.010348,-0.006967,63.430801,55.086105,-140.290741,,,
729716150.957748,-46.856566,-3.292517,-81.743101,0.035019,-0.729279,0.710861,-0.16401,0.010348,-0.006967,63.430801,55.086105,-140.290741,,,
729716150.95797,-46.856551,-3.292521,-78.66622,0.035019,-0.729279,0.710861,-0.16401,0.010348,-0.006967,63.430801,55.086105,-140.290741,,,
729716150.963615,-46.902303,-3.300414,-81.746051,0.035019,-0.729279,0.710861,-0.158901,-0.036097,0.005633,63.430801,55.086105,-140.290741,,,
729716150.963946,-46.902287,-3.300418,-78.66917,0.035019,-0.729279,0.710861,-0.158901,-0.036097,0.005633,63.430801,55.086105,-140.290741,,,
729716150.967995,-46.948437,-3.311852,-81.747001,0.030502,-0.727798,0.681763,-0.158901,-0.036097,0.005633,63.430801,55.086105,-140.290741,,,
729716150.968223,-46.948422,-3.311856,-78.670119,0.030502,-0.727798,0.681763,-0.158901,-0.036097,0.005633,63.430801,55.086105,-140.290741,,,
729716150.97236,-46.996113,-3.324471,-81.748436,0.030502,-0.727798,0.681763,-0.173422,-0.028711,-0.002918,63.430801,55.086105,-140.290741,,,
729716150.972616,-46.996098,-3.324475,-78.671555,0.030502,-0.727798,0.681763,-0.173422,-0.028711,-0.002918,63.430801,55.086105,-140.290741,,,
729716150.973348,-46.996113,-3.324471,-81.748436,0.030502,-0.727798,0.681763,-0.173422,-0.028711,-0.002918,63.430801,55.086105,-140.290741,,,
729716150.973682,-46.996098,-3.324475,-78.671555,0.030502,-0.727798,0.681763,-0.173422,-0.028711,-0.002918,63.430801,55.086105,-140.290741,,,
729716150.977798,-47.046543,-3.336561,-81.75311,0.041992,-0.726257,0.680191,-0.173422,-0.028711,-0.002918,63.430801,55.086105,-140.290741,,,
729716150.978025,-47.046528,-3.336565,-78.676229,0.041992,-0.726257,0.680191,-0.173422,-0.028711,-0.002918,63.430801,55.086105,-140.290741,,,
729716150.983132,-47.100672,-3.346527,-81.763021,0.041992,-0.726257,0.680191,-0.205575,0.017278,-0.025904,63.407883,55.300171,-140.140472,,,
729716150.983426,-47.100657,-3.346531,-78.68614,0.041992,-0.726257,0.680191,-0.205575,0.017278,-0.025904,63.407883,55.300171,-140.140472,,,
729716150.983647,-47.100657,-3.346531,-78.68614,0.041992,-0.726257,0.680191,-0.205575,0.017278,-0.025904,63.407883,55.300171,-140.140472,,,
729716150.987773,-47.159694,-3.353839,-81.778473,0.055557,-0.725143,0.683273,-0.205575,0.017278,-0.025904,63.407883,55.300171,-140.140472,,,
729716150.988,-47.159678,-3.353843,-78.701592,0.055557,-0.725143,0.683273,-0.205575,0.017278,-0.025904,63.407883,55.300171,-140.140472,,,
729716150.991635,-47.224205,-3.358753,-81.797809,0.055557,-0.725143,0.683273,-0.2462,0.048661,-0.038759,63.407883,55.300171,-140.140472,,,
729716150.991891,-47.22419,-3.358757,-78.720928,0.055557,-0.725143,0.683273,-0.2462,0.048661,-0.038759,63.407883,55.300171,-140.140472,,,
729716150.99341,-47.224205,-3.358753,-81.797809,0.055557,-0.725143,0.683273,-0.2462,0.048661,-0.038759,63.407883,55.300171,-140.140472,,,
729716150.993657,-47.22419,-3.358757,-78.720928,0.055557,-0.725143,0.683273,-0.2462,0.048661,-0.038759,63.407883,55.300171,-140.140472,,,
729716150.997753,-47.29398,-3.36205,-81.81945,0.055923,-0.727188,0.668442,-0.2462,0.048661,-0.038759,63.407883,55.300171,-140.140472,,,
729716150.997977,-47.293965,-3.362054,-78.742569,0.055923,-0.727188,0.668442,-0.2462,0.048661,-0.038759,63.407883,55.300171,-140.140472,,,
729716151.000901,-47.369854,-3.364814,-81.841998,0.055923,-0.727188,0.668442,-0.283806,0.051426,-0.03665,63.407883,55.300171,-140.140472,,,
729716151.001144,-47.369838,-3.364818,-78.765117,0.055923,-0.727188,0.668442,-0.283806,0.051426,-0.03665,63.407883,55.300171,-140.140472,,,
729716151.003484,-47.369854,-3.364814,-81.841998,0.055923,-0.727188,0.668442,-0.283806,0.051426,-0.03665,63.407883,55.300171,-140.140472,,,
729716151.003701,-47.369838,-3.364818,-78.765117,0.055923,-0.727188,0.668442,-0.283806,0.051426,-0.03665,63.407883,55.300171,-140.140472,,,
729716151.008195,-47.451008,-3.367837,-81.865267,0.045609,-0.734634,0.659378,-0.283806,0.051426,-0.03665,63.407883,55.300171,-140.140472,,,
729716151.008422,-47.450992,-3.367841,-78.788386,0.045609,-0.734634,0.659378,-0.283806,0.051426,-0.03665,63.407883,55.300171,-140.140472,,,
729716151.010849,-47.535816,-3.371628,-81.888833,0.045609,-0.734634,0.659378,-0.309631,0.045127,-0.039939,63.407883,55.300171,-140.140472,,,
729716151.011071,-47.5358,-3.371632,-78.811952,0.045609,-0.734634,0.659378,-0.309631,0.045127,-0.039939,63.407883,55.300171,-140.140472,,,
729716151.013508,-47.535816,-3.371628,-81.888833,0.045609,-0.734634,0.659378,-0.309631,0.045127,-0.039939,63.407883,55.300171,-140.140472,,,
729716151.013703,-47.5358,-3.371632,-78.811952,0.045609,-0.734634,0.659378,-0.309631,0.045127,-0.039939,63.407883,55.300171,-140.140472,,,
729716151.017937,-47.623942,-3.376661,-81.911958,0.046921,-0.735245,0.658279,-0.309631,0.045127,-0.039939,63.407883,55.300171,-140.140472,,,
729716151.018151,-47.623926,-3.376665,-78.835076,0.046921,-0.735245,0.658279,-0.309631,0.045127,-0.039939,63.407883,55.300171,-140.140472,,,
729716151.021085,-47.714472,-3.383322,-81.935182,0.046921,-0.735245,0.658279,-0.319627,0.036059,-0.036771,63.407883,55.300171,-140.140472,,,
729716151.021359,-47.714457,-3.383326,-78.858301,0.046921,-0.735245,0.658279,-0.319627,0.036059,-0.036771,63.407883,55.300171,-140.140472,,,
729716151.024157,-47.714472,-3.383322,-81.935182,0.046921,-0.735245,0.658279,-0.319627,0.036059,-0.036771,63.512283,55.843674,-139.919434,,,
729716151.024373,-47.80566,-3.391491,-78.881476,0.043015,-0.734055,0.663528,-0.319627,0.036059,-0.036771,63.512283,55.843674,-139.919434,,,
729716151.028088,-47.805675,-3.391487,-81.958357,0.043015,-0.734055,0.663528,-0.319627,0.036059,-0.036771,63.512283,55.843674,-139.919434,,,
729716151.028321,-47.80566,-3.391491,-78.881476,0.043015,-0.734055,0.663528,-0.319627,0.036059,-0.036771,63.512283,55.843674,-139.919434,,,
729716151.031324,-47.895848,-3.401064,-81.981147,0.043015,-0.734055,0.663528,-0.306799,0.022824,-0.038001,63.512283,55.843674,-139.919434,,,
729716151.031552,-47.895833,-3.401069,-78.904266,0.043015,-0.734055,0.663528,-0.306799,0.022824,-0.038001,63.512283,55.843674,-139.919434,,,
729716151.033537,-47.895848,-3.401064,-81.981147,0.043015,-0.734055,0.663528,-0.306799,0.022824,-0.038001,63.512283,55.843674,-139.919434,,,
729716151.033734,-47.895833,-3.401069,-78.904266,0.043015,-0.734055,0.663528,-0.306799,0.022824,-0.038001,63.512283,55.843674,-139.919434,,,
729716151.038301,-47.983046,-3.412746,-82.004325,0.03537,-0.737564,0.666077,-0.306799,0.022824,-0.038001,63.512283,55.843674,-139.919434,,,
729716151.038538,-47.983031,-3.412751,-78.927444,0.03537,-0.737564,0.666077,-0.306799,0.022824,-0.038001,63.512283,55.843674,-139.919434,,,
729716151.04133,-48.065642,-3.426377,-82.027839,0.03537,-0.737564,0.666077,-0.272175,0.011854,-0.041057,63.512283,55.843674,-139.919434,,,
729716151.041582,-48.065627,-3.426381,-78.950958,0.03537,-0.737564,0.666077,-0.272175,0.011854,-0.041057,63.512283,55.843674,-139.919434,,,
729716151.043496,-48.065642,-3.426377,-82.027839,0.03537,-0.737564,0.666077,-0.272175,0.011854,-0.041057,63.512283,55.843674,-139.919434,,,
729716151.043717,-48.065627,-3.426381,-78.950958,0.03537,-0.737564,0.666077,-0.272175,0.011854,-0.041057,63.512283,55.843674,-139.919434,,,
729716151.048108,-48.142867,-3.44135,-82.051414,0.036652,-0.736618,0.675522,-0.272175,0.011854,-0.041057,63.512283,55.843674,-139.919434,,,
729716151.048361,-48.142852,-3.441354,-78.974533,0.036652,-0.736618,0.675522,-0.272175,0.011854,-0.041057,63.512283,55.843674,-139.919434,,,
729716151.051131,-48.21387,-3.456898,-82.074511,0.036652,-0.736618,0.675522,-0.224405,0.007189,-0.039578,63.512283,55.843674,-139.919434,,,
729716151.05137,-48.213855,-3.456903,-78.997629,0.036652,-0.736618,0.675522,-0.224405,0.007189,-0.039578,63.512283,55.843674,-139.919434,,,
729716151.05347,-48.21387,-3.456898,-82.074511,0.036652,-0.736618,0.675522,-0.224405,0.007189,-0.039578,63.512283,55.843674,-139.919434,,,
729716151.053688,-48.213855,-3.456903,-78.997629,0.036652,-0.736618,0.675522,-0.224405,0.007189,-0.039578,63.512283,55.843674,-139.919434,,,
729716151.058047,-48.278025,-3.471962,-82.095847,0.03743,-0.738876,0.687256,-0.224405,0.007189,-0.039578,63.512283,55.843674,-139.919434,,,
729716151.058274,-48.278009,-3.471966,-79.018965,0.03743,-0.738876,0.687256,-0.224405,0.007189,-0.039578,63.512283,55.843674,-139.919434,,,
729716151.06155,-48.335907,-3.486841,-82.116232,0.03743,-0.738876,0.687256,-0.187513,0.001459,-0.033769,63.512283,55.843674,-139.919434,,,
729716151.061783,-48.335891,-3.486845,-79.039351,0.03743,-0.738876,0.687256,-0.187513,0.001459,-0.033769,63.512283,55.843674,-139.919434,,,
729716151.064096,-48.335907,-3.486841,-82.116232,0.03743,-0.738876,0.687256,-0.187513,0.001459,-0.033769,63.447464,56.246307,-139.585022,,,
729716151.064315,-48.389147,-3.501028,-79.058029,0.035263,-0.745377,0.683105,-0.187513,0.001459,-0.033769,63.447464,56.246307,-139.585022,,,
729716151.068085,-48.389163,-3.501024,-82.134911,0.035263,-0.745377,0.683105,-0.187513,0.001459,-0.033769,63.447464,56.246307,-139.585022,,,
729716151.068308,-48.389147,-3.501028,-79.058029,0.035263,-0.745377,0.683105,-0.187513,0.001459,-0.033769,63.447464,56.246307,-139.585022,,,
729716151.072668,-48.439385,-3.513409,-82.150582,0.035263,-0.745377,0.683105,-0.168069,-0.001675,-0.023241,63.447464,56.246307,-139.585022,,,
729716151.072955,-48.439369,-3.513413,-79.073701,0.035263,-0.745377,0.683105,-0.168069,-0.001675,-0.023241,63.447464,56.246307,-139.585022,,,
729716151.073266,-48.439385,-3.513409,-82.150582,0.035263,-0.745377,0.683105,-0.168069,-0.001675,-0.023241,63.447464,56.246307,-139.585022,,,
729716151.073695,-48.439369,-3.513413,-79.073701,0.035263,-0.745377,0.683105,-0.168069,-0.001675,-0.023241,63.447464,56.246307,-139.585022,,,
729716151.078493,-48.485798,-3.527158,-82.166098,0.032089,-0.744705,0.671677,-0.168069,-0.001675,-0.023241,63.447464,56.246307,-139.585022,,,
729716151.078743,-48.485782,-3.527162,-79.089216,0.032089,-0.744705,0.671677,-0.168069,-0.001675,-0.023241,63.447464,56.246307,-139.585022,,,
729716151.080916,-48.533496,-3.537827,-82.178527,0.032089,-0.744705,0.671677,-0.172069,-0.000741,-0.016088,63.447464,56.246307,-139.585022,,,
729716151.081138,-48.53348,-3.537831,-79.101645,0.032089,-0.744705,0.671677,-0.172069,-0.000741,-0.016088,63.447464,56.246307,-139.585022,,,
729716151.08358,-48.533496,-3.537827,-82.178527,0.032089,-0.744705,0.671677,-0.172069,-0.000741,-0.016088,63.447464,56.246307,-139.585022,,,
729716151.08377,-48.53348,-3.537831,-79.101645,0.032089,-0.744705,0.671677,-0.172069,-0.000741,-0.016088,63.447464,56.246307,-139.585022,,,
729716151.088275,-48.580283,-3.549225,-82.191419,0.037109,-0.742249,0.660355,-0.172069,-0.000741,-0.016088,63.447464,56.246307,-139.585022,,,
729716151.088517,-48.580267,-3.549229,-79.114538,0.037109,-0.742249,0.660355,-0.172069,-0.000741,-0.016088,63.447464,56.246307,-139.585022,,,
729716151.092546,-48.631627,-3.557501,-82.202761,0.037109,-0.742249,0.660355,-0.191064,0.006598,-0.014116,63.447464,56.246307,-139.585022,,,
729716151.092818,-48.631611,-3.557505,-79.12588,0.037109,-0.742249,0.660355,-0.191064,0.006598,-0.014116,63.447464,56.246307,-139.585022,,,
729716151.093301,-48.631627,-3.557501,-82.202761,0.037109,-0.742249,0.660355,-0.191064,0.006598,-0.014116,63.447464,56.246307,-139.585022,,,
729716151.093687,-48.631611,-3.557505,-79.12588,0.037109,-0.742249,0.660355,-0.191064,0.006598,-0.014116,63.447464,56.246307,-139.585022,,,
729716151.098033,-48.683539,-3.56738,-82.216055,0.040421,-0.738754,0.647659,-0.191064,0.006598,-0.014116,63.447464,56.246307,-139.585022,,,
729716151.098266,-48.683523,-3.567384,-79.139173,0.040421,-0.738754,0.647659,-0.191064,0.006598,-0.014116,63.447464,56.246307,-139.585022,,,
729716151.100849,-48.741374,-3.573388,-82.226336,0.040421,-0.738754,0.647659,-0.213762,0.007307,-0.011169,63.447464,56.246307,-139.585022,,,
729716151.101065,-48.741358,-3.573392,-79.149454,0.040421,-0.738754,0.647659,-0.213762,0.007307,-0.011169,63.447464,56.246307,-139.585022,,,
729716151.10428,-48.741374,-3.573388,-82.226336,0.040421,-0.738754,0.647659,-0.213762,0.007307,-0.011169,63.227051,56.634689,-139.136902,,,
729716151.104514,-48.798273,-3.580021,-79.158873,0.040482,-0.739243,0.641937,-0.213762,0.007307,-0.011169,63.227051,56.634689,-139.136902,,,
729716151.107914,-48.798289,-3.580016,-82.235755,0.040482,-0.739243,0.641937,-0.213762,0.007307,-0.011169,63.227051,56.634689,-139.136902,,,
729716151.108138,-48.798273,-3.580021,-79.158873,0.040482,-0.739243,0.641937,-0.213762,0.007307,-0.011169,63.227051,56.634689,-139.136902,,,
729716151.112317,-48.863518,-3.590135,-82.245742,0.040482,-0.739243,0.641937,-0.241954,-0.018749,-0.01272,63.227051,56.634689,-139.136902,,,
729716151.112578,-48.863502,-3.590139,-79.168861,0.040482,-0.739243,0.641937,-0.241954,-0.018749,-0.01272,63.227051,56.634689,-139.136902,,,
729716151.113348,-48.863518,-3.590135,-82.245742,0.040482,-0.739243,0.641937,-0.241954,-0.018749,-0.01272,63.227051,56.634689,-139.136902,,,
729716151.113685,-48.863502,-3.590139,-79.168861,0.040482,-0.739243,0.641937,-0.241954,-0.018749,-0.01272,63.227051,56.634689,-139.136902,,,
729716151.117857,-48.927626,-3.601717,-82.254562,0.037506,-0.738922,0.631165,-0.241954,-0.018749,-0.01272,63.227051,56.634689,-139.136902,,,
729716151.118077,-48.92761,-3.601721,-79.177681,0.037506,-0.738922,0.631165,-0.241954,-0.018749,-0.01272,63.227051,56.634689,-139.136902,,,
729716151.121649,-48.999998,-3.621015,-82.266874,0.037506,-0.738922,0.631165,-0.265331,-0.039387,-0.016919,63.227051,56.634689,-139.136902,,,
729716151.121912,-48.999982,-3.621019,-79.189992,0.037506,-0.738922,0.631165,-0.265331,-0.039387,-0.016919,63.227051,56.634689,-139.136902,,,
729716151.12339,-48.999998,-3.621015,-82.266874,0.037506,-0.738922,0.631165,-0.265331,-0.039387,-0.016919,63.227051,56.634689,-139.136902,,,
729716151.123656,-48.999982,-3.621019,-79.189992,0.037506,-0.738922,0.631165,-0.265331,-0.039387,-0.016919,63.227051,56.634689,-139.136902,,,
729716151.127778,-49.067771,-3.641715,-82.279577,0.038818,-0.736984,0.625793,-0.265331,-0.039387,-0.016919,63.227051,56.634689,-139.136902,,,
729716151.127998,-49.067754,-3.641719,-79.202695,0.038818,-0.736984,0.625793,-0.265331,-0.039387,-0.016919,63.227051,56.634689,-139.136902,,,
729716151.131573,-49.147303,-3.669364,-82.298091,0.038818,-0.736984,0.625793,-0.294704,-0.050898,-0.035846,63.227051,56.634689,-139.136902,,,
729716151.13186,-49.147286,-3.669368,-79.22121,0.038818,-0.736984,0.625793,-0.294704,-0.050898,-0.035846,63.227051,56.634689,-139.136902,,,
729716151.133517,-49.147303,-3.669364,-82.298091,0.038818,-0.736984,0.625793,-0.294704,-0.050898,-0.035846,63.227051,56.634689,-139.136902,,,
729716151.133772,-49.147286,-3.669368,-79.22121,0.038818,-0.736984,0.625793,-0.294704,-0.050898,-0.035846,63.227051,56.634689,-139.136902,,,
729716151.13789,-49.22239,-3.69981,-82.319925,0.040253,-0.736389,0.628113,-0.294704,-0.050898,-0.035846,63.227051,56.634689,-139.136902,,,
729716151.138137,-49.222374,-3.699815,-79.243044,0.040253,-0.736389,0.628113,-0.294704,-0.050898,-0.035846,63.227051,56.634689,-139.136902,,,
729716151.141672,-49.311832,-3.738342,-82.348824,0.040253,-0.736389,0.628113,-0.332451,-0.05992,-0.053218,63.227051,56.634689,-139.136902,,,
729716151.141929,-49.311816,-3.738347,-79.271942,0.040253,-0.736389,0.628113,-0.332451,-0.05992,-0.053218,63.227051,56.634689,-139.136902,,,
729716151.143455,-49.311832,-3.738342,-82.348824,0.040253,-0.736389,0.628113,-0.332451,-0.05992,-0.053218,63.227051,56.634689,-139.136902,,,
729716151.143684,-49.311816,-3.738347,-79.271942,0.040253,-0.736389,0.628113,-0.332451,-0.05992,-0.053218,63.227051,56.634689,-139.136902,,,
729716151.148569,-49.400124,-3.777245,-82.378381,0.044312,-0.740829,0.618866,-0.332451,-0.05992,-0.053218,63.294754,57.53537,-138.937943,,,
729716151.148811,-49.400107,-3.77725,-79.3015,0.044312,-0.740829,0.618866,-0.332451,-0.05992,-0.053218,63.294754,57.53537,-138.937943,,,
729716151.151263,-49.500002,-3.82335,-82.414259,0.044312,-0.740829,0.618866,-0.375464,-0.064635,-0.06614,63.294754,57.53537,-138.937943,,,
729716151.151526,-49.499986,-3.823354,-79.337377,0.044312,-0.740829,0.618866,-0.375464,-0.064635,-0.06614,63.294754,57.53537,-138.937943,,,
729716151.153454,-49.500002,-3.82335,-82.414259,0.044312,-0.740829,0.618866,-0.375464,-0.064635,-0.06614,63.294754,57.53537,-138.937943,,,
729716151.153675,-49.499986,-3.823354,-79.337377,0.044312,-0.740829,0.618866,-0.375464,-0.064635,-0.06614,63.294754,57.53537,-138.937943,,,
729716151.158217,-49.600385,-3.867586,-82.45003,0.040482,-0.748962,0.614075,-0.375464,-0.064635,-0.06614,63.294754,57.53537,-138.937943,,,
729716151.158451,-49.600368,-3.86759,-79.373148,0.040482,-0.748962,0.614075,-0.375464,-0.064635,-0.06614,63.294754,57.53537,-138.937943,,,
729716151.161345,-49.711575,-3.914949,-82.490622,0.040482,-0.748962,0.614075,-0.408598,-0.046098,-0.068714,63.294754,57.53537,-138.937943,,,
729716151.161582,-49.711558,-3.914953,-79.41374,0.040482,-0.748962,0.614075,-0.408598,-0.046098,-0.068714,63.294754,57.53537,-138.937943,,,
729716151.163452,-49.711575,-3.914949,-82.490622,0.040482,-0.748962,0.614075,-0.408598,-0.046098,-0.068714,63.294754,57.53537,-138.937943,,,
729716151.163678,-49.711558,-3.914953,-79.41374,0.040482,-0.748962,0.614075,-0.408598,-0.046098,-0.068714,63.294754,57.53537,-138.937943,,,
729716151.167969,-49.82785,-3.960954,-82.532281,0.041199,-0.753479,0.62149,-0.408598,-0.046098,-0.068714,63.294754,57.53537,-138.937943,,,
729716151.168187,-49.827833,-3.960958,-79.455399,0.041199,-0.753479,0.62149,-0.408598,-0.046098,-0.068714,63.294754,57.53537,-138.937943,,,
729716151.171543,-49.948679,-4.006591,-82.574411,0.041199,-0.753479,0.62149,-0.446002,-0.041898,-0.06168,63.294754,57.53537,-138.937943,,,
729716151.171801,-49.948662,-4.006595,-79.497529,0.041199,-0.753479,0.62149,-0.446002,-0.041898,-0.06168,63.294754,57.53537,-138.937943,,,
729716151.173396,-49.948679,-4.006591,-82.574411,0.041199,-0.753479,0.62149,-0.446002,-0.041898,-0.06168,63.294754,57.53537,-138.937943,,,
729716151.173657,-49.948662,-4.006595,-79.497529,0.041199,-0.753479,0.62149,-0.446002,-0.041898,-0.06168,63.294754,57.53537,-138.937943,,,
729716151.177962,-50.074657,-4.051331,-82.616092,0.042297,-0.758377,0.619446,-0.446002,-0.041898,-0.06168,63.294754,57.53537,-138.937943,,,
729716151.178181,-50.07464,-4.051335,-79.53921,0.042297,-0.758377,0.619446,-0.446002,-0.041898,-0.06168,63.294754,57.53537,-138.937943,,,
729716151.181332,-50.206264,-4.093781,-82.656226,0.042297,-0.758377,0.619446,-0.482293,-0.037526,-0.053998,63.294754,57.53537,-138.937943,,,
729716151.181561,-50.206247,-4.093785,-79.579344,0.042297,-0.758377,0.619446,-0.482293,-0.037526,-0.053998,63.294754,57.53537,-138.937943,,,
729716151.183469,-50.206264,-4.093781,-82.656226,0.042297,-0.758377,0.619446,-0.482293,-0.037526,-0.053998,63.294754,57.53537,-138.937943,,,
729716151.183702,-50.206247,-4.093785,-79.579344,0.042297,-0.758377,0.619446,-0.482293,-0.037526,-0.053998,63.294754,57.53537,-138.937943,,,
729716151.188755,-50.342974,-4.135179,-82.69528,0.04483,-0.759735,0.608948,-0.482293,-0.037526,-0.053998,62.84996,58.364532,-138.101791,,,
729716151.189017,-50.342957,-4.135183,-79.618398,0.04483,-0.759735,0.608948,-0.482293,-0.037526,-0.053998,62.84996,58.364532,-138.101791,,,
729716151.191037,-50.483725,-4.176792,-82.734158,0.04483,-0.759735,0.608948,-0.507989,-0.040037,-0.049132,62.84996,58.364532,-138.101791,,,
729716151.191281,-50.483708,-4.176796,-79.657276,0.04483,-0.759735,0.608948,-0.507989,-0.040037,-0.049132,62.84996,58.364532,-138.101791,,,
729716151.193495,-50.483725,-4.176792,-82.734158,0.04483,-0.759735,0.608948,-0.507989,-0.040037,-0.049132,62.84996,58.364532,-138.101791,,,
729716151.193717,-50.483708,-4.176796,-79.657276,0.04483,-0.759735,0.608948,-0.507989,-0.040037,-0.049132,62.84996,58.364532,-138.101791,,,
729716151.198121,-50.628203,-4.218193,-82.773213,0.048767,-0.759064,0.611816,-0.507989,-0.040037,-0.049132,62.84996,58.364532,-138.101791,,,
729716151.198359,-50.628186,-4.218197,-79.696331,0.048767,-0.759064,0.611816,-0.507989,-0.040037,-0.049132,62.84996,58.364532,-138.101791,,,
729716151.201355,-50.776099,-4.257575,-82.811924,0.048767,-0.759064,0.611816,-0.532772,-0.020858,-0.046853,62.84996,58.364532,-138.101791,,,
729716151.201599,-50.776081,-4.257579,-79.735041,0.048767,-0.759064,0.611816,-0.532772,-0.020858,-0.046853,62.84996,58.364532,-138.101791,,,
729716151.20344,-50.776099,-4.257575,-82.811924,0.048767,-0.759064,0.611816,-0.532772,-0.020858,-0.046853,62.84996,58.364532,-138.101791,,,
729716151.203662,-50.776081,-4.257579,-79.735041,0.048767,-0.759064,0.611816,-0.532772,-0.020858,-0.046853,62.84996,58.364532,-138.101791,,,
729716151.208016,-50.927688,-4.293545,-82.850016,0.047714,-0.76152,0.615646,-0.532772,-0.020858,-0.046853,62.84996,58.364532,-138.101791,,,
729716151.208243,-50.927671,-4.293549,-79.773133,0.047714,-0.76152,0.615646,-0.532772,-0.020858,-0.046853,62.84996,58.364532,-138.101791,,,
729716151.211344,-51.083426,-4.327679,-82.888034,0.047714,-0.76152,0.615646,-0.559549,-0.010926,-0.046715,62.84996,58.364532,-138.101791,,,
729716151.211609,-51.083408,-4.327683,-79.811152,0.047714,-0.76152,0.615646,-0.559549,-0.010926,-0.046715,62.84996,58.364532,-138.101791,,,
729716151.213449,-51.083426,-4.327679,-82.888034,0.047714,-0.76152,0.615646,-0.559549,-0.010926,-0.046715,62.84996,58.364532,-138.101791,,,
729716151.213662,-51.083408,-4.327683,-79.811152,0.047714,-0.76152,0.615646,-0.559549,-0.010926,-0.046715,62.84996,58.364532,-138.101791,,,
729716151.217985,-51.242437,-4.362387,-82.927253,0.046967,-0.763321,0.611679,-0.559549,-0.010926,-0.046715,62.84996,58.364532,-138.101791,,,
729716151.218213,-51.242419,-4.362391,-79.850371,0.046967,-0.763321,0.611679,-0.559549,-0.010926,-0.046715,62.84996,58.364532,-138.101791,,,
729716151.22254,-51.404202,-4.397045,-82.967538,0.046967,-0.763321,0.611679,-0.578538,3.5e-05,-0.045907,62.84996,58.364532,-138.101791,,,
729716151.222814,-51.404185,-4.397049,-79.890655,0.046967,-0.763321,0.611679,-0.578538,3.5e-05,-0.045907,62.84996,58.364532,-138.101791,,,
729716151.22332,-51.404202,-4.397045,-82.967538,0.046967,-0.763321,0.611679,-0.578538,3.5e-05,-0.045907,62.84996,58.364532,-138.101791,,,
729716151.223687,-51.404185,-4.397049,-79.890655,0.046967,-0.763321,0.611679,-0.578538,3.5e-05,-0.045907,62.84996,58.364532,-138.101791,,,
729716151.228622,-51.568606,-4.429834,-83.00882,0.051498,-0.767746,0.606476,-0.578538,3.5e-05,-0.045907,62.829025,59.215088,-137.088394,,,
729716151.228868,-51.568589,-4.429838,-79.931937,0.051498,-0.767746,0.606476,-0.578538,3.5e-05,-0.045907,62.829025,59.215088,-137.088394,,,
729716151.231266,-51.733601,-4.460025,-83.051141,0.051498,-0.767746,0.606476,-0.574143,0.012994,-0.046761,62.829025,59.215088,-137.088394,,,
729716151.231496,-51.733583,-4.460029,-79.974259,0.051498,-0.767746,0.606476,-0.574143,0.012994,-0.046761,62.829025,59.215088,-137.088394,,,
729716151.233521,-51.733601,-4.460025,-83.051141,0.051498,-0.767746,0.606476,-0.574143,0.012994,-0.046761,62.829025,59.215088,-137.088394,,,
729716151.233719,-51.733583,-4.460029,-79.974259,0.051498,-0.767746,0.606476,-0.574143,0.012994,-0.046761,62.829025,59.215088,-137.088394,,,
729716151.238043,-51.897945,-4.491379,-83.094314,0.054474,-0.774796,0.618393,-0.574143,0.012994,-0.046761,62.829025,59.215088,-137.088394,,,
729716151.238282,-51.897927,-4.491383,-80.017432,0.054474,-0.774796,0.618393,-0.574143,0.012994,-0.046761,62.829025,59.215088,-137.088394,,,
729716151.242374,-52.062204,-4.527848,-83.138118,0.054474,-0.774796,0.618393,-0.578057,-0.020929,-0.048834,62.829025,59.215088,-137.088394,,,
729716151.242643,-52.062186,-4.527852,-80.061235,0.054474,-0.774796,0.618393,-0.578057,-0.020929,-0.048834,62.829025,59.215088,-137.088394,,,
729716151.243357,-52.062204,-4.527848,-83.138118,0.054474,-0.774796,0.618393,-0.578057,-0.020929,-0.048834,62.829025,59.215088,-137.088394,,,
729716151.243684,-52.062186,-4.527852,-80.061235,0.054474,-0.774796,0.618393,-0.578057,-0.020929,-0.048834,62.829025,59.215088,-137.088394,,,
729716151.248465,-52.226489,-4.56851,-83.181478,0.050674,-0.779495,0.606125,-0.578057,-0.020929,-0.048834,62.829025,59.215088,-137.088394,,,
729716151.248743,-52.226471,-4.568514,-80.104595,0.050674,-0.779495,0.606125,-0.578057,-0.020929,-0.048834,62.829025,59.215088,-137.088394,,,
729716151.251526,-52.389828,-4.610647,-83.223914,0.050674,-0.779495,0.606125,-0.568345,-0.02469,-0.044933,62.829025,59.215088,-137.088394,,,
729716151.251775,-52.38981,-4.610651,-80.147031,0.050674,-0.779495,0.606125,-0.568345,-0.02469,-0.044933,62.829025,59.215088,-137.088394,,,
729716151.253442,-52.389828,-4.610647,-83.223914,0.050674,-0.779495,0.606125,-0.568345,-0.02469,-0.044933,62.829025,59.215088,-137.088394,,,
729716151.253687,-52.38981,-4.610651,-80.147031,0.050674,-0.779495,0.606125,-0.568345,-0.02469,-0.044933,62.829025,59.215088,-137.088394,,,
729716151.258285,-52.551467,-4.651119,-83.265974,0.03981,-0.786774,0.607666,-0.568345,-0.02469,-0.044933,62.829025,59.215088,-137.088394,,,
729716151.258529,-52.551449,-4.651123,-80.189091,0.03981,-0.786774,0.607666,-0.568345,-0.02469,-0.044933,62.829025,59.215088,-137.088394,,,
729716151.261306,-52.710897,-4.68864,-83.308095,0.03981,-0.786774,0.607666,-0.555357,-0.005956,-0.043331,62.829025,59.215088,-137.088394,,,
729716151.261535,-52.710878,-4.688644,-80.231212,0.03981,-0.786774,0.607666,-0.555357,-0.005956,-0.043331,62.829025,59.215088,-137.088394,,,
729716151.263457,-52.710897,-4.68864,-83.308095,0.03981,-0.786774,0.607666,-0.555357,-0.005956,-0.043331,62.829025,59.215088,-137.088394,,,
729716151.263667,-52.710878,-4.688644,-80.231212,0.03981,-0.786774,0.607666,-0.555357,-0.005956,-0.043331,62.829025,59.215088,-137.088394,,,
729716151.269166,-52.869877,-4.725242,-83.350348,0.047638,-0.79657,0.621613,-0.555357,-0.005956,-0.043331,62.874741,59.786041,-136.27475,,,
729716151.269472,-52.869859,-4.725246,-80.273465,0.047638,-0.79657,0.621613,-0.555357,-0.005956,-0.043331,62.874741,59.786041,-136.27475,,,
729716151.271207,-53.031081,-4.763399,-83.393276,0.047638,-0.79657,0.621613,-0.575848,-0.015566,-0.042392,62.874741,59.786041,-136.27475,,,
729716151.271438,-53.031062,-4.763404,-80.316393,0.047638,-0.79657,0.621613,-0.575848,-0.015566,-0.042392,62.874741,59.786041,-136.27475,,,
729716151.273449,-53.031081,-4.763399,-83.393276,0.047638,-0.79657,0.621613,-0.575848,-0.015566,-0.042392,62.874741,59.786041,-136.27475,,,
729716151.273662,-53.031062,-4.763404,-80.316393,0.047638,-0.79657,0.621613,-0.575848,-0.015566,-0.042392,62.874741,59.786041,-136.27475,,,
729716151.277962,-53.195054,-4.802484,-83.436146,0.051849,-0.799622,0.599976,-0.575848,-0.015566,-0.042392,62.874741,59.786041,-136.27475,,,
729716151.278186,-53.195035,-4.802488,-80.359263,0.051849,-0.799622,0.599976,-0.575848,-0.015566,-0.042392,62.874741,59.786041,-136.27475,,,
729716151.282426,-53.361693,-4.839334,-83.47832,0.051849,-0.799622,0.599976,-0.594915,0.003969,-0.039758,62.874741,59.786041,-136.27475,,,
729716151.282718,-53.361674,-4.839338,-80.401437,0.051849,-0.799622,0.599976,-0.594915,0.003969,-0.039758,62.874741,59.786041,-136.27475,,,
729716151.283296,-53.361693,-4.839334,-83.47832,0.051849,-0.799622,0.599976,-0.594915,0.003969,-0.039758,62.874741,59.786041,-136.27475,,,
729716151.283685,-53.361674,-4.839338,-80.401437,0.051849,-0.799622,0.599976,-0.594915,0.003969,-0.039758,62.874741,59.786041,-136.27475,,,
729716151.28788,-53.531726,-4.873183,-83.521307,0.048462,-0.802261,0.596329,-0.594915,0.003969,-0.039758,62.874741,59.786041,-136.27475,,,
729716151.288105,-53.531707,-4.873187,-80.444423,0.048462,-0.802261,0.596329,-0.594915,0.003969,-0.039758,62.874741,59.786041,-136.27475,,,
729716151.291387,-53.705223,-4.906183,-83.566469,0.048462,-0.802261,0.596329,-0.620237,0.018578,-0.042308,62.874741,59.786041,-136.27475,,,
729716151.291614,-53.705204,-4.906187,-80.489586,0.048462,-0.802261,0.596329,-0.620237,0.018578,-0.042308,62.874741,59.786041,-136.27475,,,
729716151.293455,-53.705223,-4.906183,-83.566469,0.048462,-0.802261,0.596329,-0.620237,0.018578,-0.042308,62.874741,59.786041,-136.27475,,,
729716151.293677,-53.705204,-4.906187,-80.489586,0.048462,-0.802261,0.596329,-0.620237,0.018578,-0.042308,62.874741,59.786041,-136.27475,,,
729716151.297857,-53.882352,-4.940402,-83.613321,0.047958,-0.803894,0.596725,-0.620237,0.018578,-0.042308,62.874741,59.786041,-136.27475,,,
729716151.298084,-53.882332,-4.940406,-80.536438,0.047958,-0.803894,0.596725,-0.620237,0.018578,-0.042308,62.874741,59.786041,-136.27475,,,
729716151.302603,-54.063655,-4.97821,-83.66151,0.047958,-0.803894,0.596725,-0.648699,-0.007254,-0.047767,62.874741,59.786041,-136.27475,,,
729716151.302894,-54.063636,-4.978214,-80.584627,0.047958,-0.803894,0.596725,-0.648699,-0.007254,-0.047767,62.874741,59.786041,-136.27475,,,
729716151.303366,-54.063655,-4.97821,-83.66151,0.047958,-0.803894,0.596725,-0.648699,-0.007254,-0.047767,62.874741,59.786041,-136.27475,,,
729716151.30371,-54.063636,-4.978214,-80.584627,0.047958,-0.803894,0.596725,-0.648699,-0.007254,-0.047767,62.874741,59.786041,-136.27475,,,
729716151.309044,-54.248332,-5.021068,-83.711325,0.046448,-0.807632,0.580399,-0.648699,-0.007254,-0.047767,62.685333,61.048752,-135.354446,,,
729716151.30932,-54.248312,-5.021072,-80.634441,0.046448,-0.807632,0.580399,-0.648699,-0.007254,-0.047767,62.685333,61.048752,-135.354446,,,
729716151.311338,-54.436481,-5.068187,-83.762906,0.046448,-0.807632,0.580399,-0.677833,-0.019533,-0.04921,62.685333,61.048752,-135.354446,,,
729716151.3116,-54.436462,-5.068191,-80.686022,0.046448,-0.807632,0.580399,-0.677833,-0.019533,-0.04921,62.685333,61.048752,-135.354446,,,
729716151.313459,-54.436481,-5.068187,-83.762906,0.046448,-0.807632,0.580399,-0.677833,-0.019533,-0.04921,62.685333,61.048752,-135.354446,,,
729716151.313675,-54.436462,-5.068191,-80.686022,0.046448,-0.807632,0.580399,-0.677833,-0.019533,-0.04921,62.685333,61.048752,-135.354446,,,
729716151.318182,-54.629344,-5.117783,-83.816344,0.042511,-0.809708,0.573685,-0.677833,-0.019533,-0.04921,62.685333,61.048752,-135.354446,,,
729716151.318407,-54.629324,-5.117787,-80.73946,0.042511,-0.809708,0.573685,-0.677833,-0.019533,-0.04921,62.685333,61.048752,-135.354446,,,
729716151.321387,-54.8263,-5.167443,-83.871061,0.042511,-0.809708,0.573685,-0.704776,-0.0042,-0.051392,62.685333,61.048752,-135.354446,,,
729716151.321642,-54.82628,-5.167447,-80.794178,0.042511,-0.809708,0.573685,-0.704776,-0.0042,-0.051392,62.685333,61.048752,-135.354446,,,
729716151.323426,-54.8263,-5.167443,-83.871061,0.042511,-0.809708,0.573685,-0.704776,-0.0042,-0.051392,62.685333,61.048752,-135.354446,,,
729716151.323655,-54.82628,-5.167447,-80.794178,0.042511,-0.809708,0.573685,-0.704776,-0.0042,-0.051392,62.685333,61.048752,-135.354446,,,
729716151.32797,-55.02663,-5.215121,-83.927248,0.044556,-0.810242,0.576172,-0.704776,-0.0042,-0.051392,62.685333,61.048752,-135.354446,,,
729716151.328189,-55.02661,-5.215125,-80.850365,0.044556,-0.810242,0.576172,-0.704776,-0.0042,-0.051392,62.685333,61.048752,-135.354446,,,
729716151.332363,-55.229254,-5.260063,-83.985119,0.044556,-0.810242,0.576172,-0.718055,0.024855,-0.05036,62.685333,61.048752,-135.354446,,,
729716151.332643,-55.229233,-5.260067,-80.908235,0.044556,-0.810242,0.576172,-0.718055,0.024855,-0.05036,62.685333,61.048752,-135.354446,,,
729716151.333392,-55.229254,-5.260063,-83.985119,0.044556,-0.810242,0.576172,-0.718055,0.024855,-0.05036,62.685333,61.048752,-135.354446,,,
729716151.333668,-55.229233,-5.260067,-80.908235,0.044556,-0.810242,0.576172,-0.718055,0.024855,-0.05036,62.685333,61.048752,-135.354446,,,
729716151.338205,-55.433109,-5.302561,-84.044431,0.053665,-0.815765,0.583282,-0.718055,0.024855,-0.05036,62.685333,61.048752,-135.354446,,,
729716151.338467,-55.433089,-5.302565,-80.967547,0.053665,-0.815765,0.583282,-0.718055,0.024855,-0.05036,62.685333,61.048752,-135.354446,,,
729716151.341278,-55.638057,-5.34236,-84.104396,0.053665,-0.815765,0.583282,-0.723921,0.046373,-0.050722,62.685333,61.048752,-135.354446,,,
729716151.341541,-55.638037,-5.342364,-81.027512,0.053665,-0.815765,0.583282,-0.723921,0.046373,-0.050722,62.685333,61.048752,-135.354446,,,
729716151.343474,-55.638057,-5.34236,-84.104396,0.053665,-0.815765,0.583282,-0.723921,0.046373,-0.050722,62.685333,61.048752,-135.354446,,,
729716151.343706,-55.638037,-5.342364,-81.027512,0.053665,-0.815765,0.583282,-0.723921,0.046373,-0.050722,62.685333,61.048752,-135.354446,,,
729716151.34804,-55.843396,-5.378595,-84.163748,0.060532,-0.821213,0.584351,-0.723921,0.046373,-0.050722,62.685333,61.048752,-135.354446,,,
729716151.348283,-55.843375,-5.378599,-81.086864,0.060532,-0.821213,0.584351,-0.723921,0.046373,-0.050722,62.685333,61.048752,-135.354446,,,
729716151.35202,-56.048073,-5.409596,-84.221132,0.060532,-0.821213,0.584351,-0.715568,0.076554,-0.040949,62.748169,62.139481,-134.179642,,,
729716151.352311,-56.048052,-5.4096,-81.144247,0.060532,-0.821213,0.584351,-0.715568,0.076554,-0.040949,62.748169,62.139481,-134.179642,,,
729716151.353354,-56.048073,-5.409596,-84.221132,0.060532,-0.821213,0.584351,-0.715568,0.076554,-0.040949,62.748169,62.139481,-134.179642,,,
729716151.353683,-56.048052,-5.4096,-81.144247,0.060532,-0.821213,0.584351,-0.715568,0.076554,-0.040949,62.748169,62.139481,-134.179642,,,
729716151.357977,-56.251019,-5.434287,-84.275806,0.056137,-0.828461,0.581146,-0.715568,0.076554,-0.040949,62.748169,62.139481,-134.179642,,,
729716151.358205,-56.250998,-5.434291,-81.198922,0.056137,-0.828461,0.581146,-0.715568,0.076554,-0.040949,62.748169,62.139481,-134.179642,,,
729716151.361515,-56.451226,-5.453174,-84.32807,0.056137,-0.828461,0.581146,-0.6884,0.103834,-0.034848,62.748169,62.139481,-134.179642,,,
729716151.361762,-56.451205,-5.453178,-81.251186,0.056137,-0.828461,0.581146,-0.6884,0.103834,-0.034848,62.748169,62.139481,-134.179642,,,
729716151.363438,-56.451226,-5.453174,-84.32807,0.056137,-0.828461,0.581146,-0.6884,0.103834,-0.034848,62.748169,62.139481,-134.179642,,,
729716151.363659,-56.451205,-5.453178,-81.251186,0.056137,-0.828461,0.581146,-0.6884,0.103834,-0.034848,62.748169,62.139481,-134.179642,,,
729716151.367965,-56.647795,-5.466759,-84.379078,0.057022,-0.832153,0.588928,-0.6884,0.103834,-0.034848,62.748169,62.139481,-134.179642,,,
729716151.368208,-56.647773,-5.466763,-81.302193,0.057022,-0.832153,0.588928,-0.6884,0.103834,-0.034848,62.748169,62.139481,-134.179642,,,
729716151.371541,-56.840679,-5.476641,-84.429946,0.057022,-0.832153,0.588928,-0.66675,0.128733,-0.0362,62.748169,62.139481,-134.179642,,,
729716151.371788,-56.840658,-5.476645,-81.353061,0.057022,-0.832153,0.588928,-0.66675,0.128733,-0.0362,62.748169,62.139481,-134.179642,,,
729716151.373398,-56.840679,-5.476641,-84.429946,0.057022,-0.832153,0.588928,-0.66675,0.128733,-0.0362,62.748169,62.139481,-134.179642,,,
729716151.373658,-56.840658,-5.476645,-81.353061,0.057022,-0.832153,0.588928,-0.66675,0.128733,-0.0362,62.748169,62.139481,-134.179642,,,
729716151.377602,-57.02973,-5.48402,-84.48066,0.056931,-0.833603,0.588455,-0.66675,0.128733,-0.0362,62.748169,62.139481,-134.179642,,,
729716151.377868,-57.029708,-5.484024,-81.403775,0.056931,-0.833603,0.588455,-0.66675,0.128733,-0.0362,62.748169,62.139481,-134.179642,,,
729716151.38169,-57.215414,-5.487677,-84.529411,0.056931,-0.833603,0.588455,-0.640115,0.136193,-0.025768,62.748169,62.139481,-134.179642,,,
729716151.381932,-57.215392,-5.487681,-81.452526,0.056931,-0.833603,0.588455,-0.640115,0.136193,-0.025768,62.748169,62.139481,-134.179642,,,
729716151.383452,-57.215414,-5.487677,-84.529411,0.056931,-0.833603,0.588455,-0.640115,0.136193,-0.025768,62.748169,62.139481,-134.179642,,,
729716151.383665,-57.215392,-5.487681,-81.452526,0.056931,-0.833603,0.588455,-0.640115,0.136193,-0.025768,62.748169,62.139481,-134.179642,,,
729716151.388157,-57.398111,-5.487449,-84.574379,0.05101,-0.837494,0.576401,-0.640115,0.136193,-0.025768,62.748169,62.139481,-134.179642,,,
729716151.388413,-57.398089,-5.487454,-81.497494,0.05101,-0.837494,0.576401,-0.640115,0.136193,-0.025768,62.748169,62.139481,-134.179642,,,
729716151.391894,-57.576722,-5.485396,-84.616072,0.05101,-0.837494,0.576401,-0.606419,0.131561,-0.016101,62.813293,63.133072,-133.079254,,,
729716151.392176,-57.5767,-5.4854,-81.539187,0.05101,-0.837494,0.576401,-0.606419,0.131561,-0.016101,62.813293,63.133072,-133.079254,,,
729716151.39341,-57.576722,-5.485396,-84.616072,0.05101,-0.837494,0.576401,-0.606419,0.131561,-0.016101,62.813293,63.133072,-133.079254,,,
729716151.393659,-57.5767,-5.4854,-81.539187,0.05101,-0.837494,0.576401,-0.606419,0.131561,-0.016101,62.813293,63.133072,-133.079254,,,
729716151.397988,-57.750182,-5.481482,-84.655078,0.045044,-0.839767,0.568298,-0.606419,0.131561,-0.016101,62.813293,63.133072,-133.079254,,,
729716151.398237,-57.750159,-5.481486,-81.578193,0.045044,-0.839767,0.568298,-0.606419,0.131561,-0.016101,62.813293,63.133072,-133.079254,,,
729716151.401755,-57.917922,-5.473111,-84.691095,0.045044,-0.839767,0.568298,-0.567473,0.149264,-0.010778,62.813293,63.133072,-133.079254,,,
729716151.402056,-57.917899,-5.473115,-81.614209,0.045044,-0.839767,0.568298,-0.567473,0.149264,-0.010778,62.813293,63.133072,-133.079254,,,
729716151.403389,-57.917922,-5.473111,-84.691095,0.045044,-0.839767,0.568298,-0.567473,0.149264,-0.010778,62.813293,63.133072,-133.079254,,,
729716151.403663,-57.917899,-5.473115,-81.614209,0.045044,-0.839767,0.568298,-0.567473,0.149264,-0.010778,62.813293,63.133072,-133.079254,,,
729716151.407796,-58.079934,-5.460159,-84.725159,0.048599,-0.840805,0.571808,-0.567473,0.149264,-0.010778,62.813293,63.133072,-133.079254,,,
729716151.40802,-58.079912,-5.460164,-81.648273,0.048599,-0.840805,0.571808,-0.567473,0.149264,-0.010778,62.813293,63.133072,-133.079254,,,
729716151.411595,-58.236463,-5.445873,-84.759814,0.048599,-0.840805,0.571808,-0.534338,0.160533,-0.018131,62.813293,63.133072,-133.079254,,,
729716151.411821,-58.23644,-5.445877,-81.682929,0.048599,-0.840805,0.571808,-0.534338,0.160533,-0.018131,62.813293,63.133072,-133.079254,,,
729716151.413407,-58.236463,-5.445873,-84.759814,0.048599,-0.840805,0.571808,-0.534338,0.160533,-0.018131,62.813293,63.133072,-133.079254,,,
729716151.413656,-58.23644,-5.445877,-81.682929,0.048599,-0.840805,0.571808,-0.534338,0.160533,-0.018131,62.813293,63.133072,-133.079254,,,
729716151.417958,-58.388408,-5.432561,-84.797029,0.057114,-0.838577,0.566757,-0.534338,0.160533,-0.018131,62.813293,63.133072,-133.079254,,,
729716151.418194,-58.388385,-5.432566,-81.720144,0.057114,-0.838577,0.566757,-0.534338,0.160533,-0.018131,62.813293,63.133072,-133.079254,,,
729716151.421537,-58.536201,-5.418358,-84.835444,0.057114,-0.838577,0.566757,-0.510069,0.181299,-0.024676,62.813293,63.133072,-133.079254,,,
729716151.421803,-58.536177,-5.418362,-81.758559,0.057114,-0.838577,0.566757,-0.510069,0.181299,-0.024676,62.813293,63.133072,-133.079254,,,
729716151.423413,-58.536201,-5.418358,-84.835444,0.057114,-0.838577,0.566757,-0.510069,0.181299,-0.024676,62.813293,63.133072,-133.079254,,,
729716151.42366,-58.536177,-5.418362,-81.758559,0.057114,-0.838577,0.566757,-0.510069,0.181299,-0.024676,62.813293,63.133072,-133.079254,,,
729716151.428001,-58.682146,-5.39966,-84.873503,0.057358,-0.838058,0.55127,-0.510069,0.181299,-0.024676,62.813293,63.133072,-133.079254,,,
729716151.428224,-58.682123,-5.399665,-81.796617,0.057358,-0.838058,0.55127,-0.510069,0.181299,-0.024676,62.813293,63.133072,-133.079254,,,
729716151.43204,-58.827282,-5.376797,-84.911372,0.057358,-0.838058,0.55127,-0.501538,0.194999,-0.022719,63.159302,64.028351,-132.209824,,,
729716151.432293,-58.827259,-5.376801,-81.834486,0.057358,-0.838058,0.55127,-0.501538,0.194999,-0.022719,63.159302,64.028351,-132.209824,,,
729716151.433425,-58.827282,-5.376797,-84.911372,0.057358,-0.838058,0.55127,-0.501538,0.194999,-0.022719,63.159302,64.028351,-132.209824,,,
729716151.433658,-58.827259,-5.376801,-81.834486,0.057358,-0.838058,0.55127,-0.501538,0.194999,-0.022719,63.159302,64.028351,-132.209824,,,
729716151.438219,-58.970411,-5.35416,-84.949082,0.050247,-0.840698,0.539719,-0.501538,0.194999,-0.022719,63.159302,64.028351,-132.209824,,,
729716151.438463,-58.970387,-5.354164,-81.872196,0.050247,-0.840698,0.539719,-0.501538,0.194999,-0.022719,63.159302,64.028351,-132.209824,,,
729716151.440898,-58.970411,-5.334427,-84.987385,0.050247,-0.840698,0.539719,-0.492584,0.188339,-0.022743,63.159302,64.028351,-132.209824,,,
729716151.441115,-59.111934,-5.334431,-81.910499,0.050247,-0.840698,0.539719,-0.492584,0.188339,-0.022743,63.159302,64.028351,-132.209824,,,
729716151.44384,-59.111958,-5.334427,-84.987385,0.050247,-0.840698,0.539719,-0.492584,0.188339,-0.022743,63.159302,64.028351,-132.209824,,,
729716151.444059,-59.111934,-5.334431,-81.910499,0.050247,-0.840698,0.539719,-0.492584,0.188339,-0.022743,63.159302,64.028351,-132.209824,,,
729716151.448045,-59.252221,-5.313311,-85.025563,0.052307,-0.844299,0.524826,-0.492584,0.188339,-0.022743,63.159302,64.028351,-132.209824,,,
729716151.448284,-59.252197,-5.313316,-81.948677,0.052307,-0.844299,0.524826,-0.492584,0.188339,-0.022743,63.159302,64.028351,-132.209824,,,
729716151.451426,-59.390293,-5.285684,-85.061599,0.052307,-0.844299,0.524826,-0.473419,0.226044,-0.019714,63.159302,64.028351,-132.209824,,,
729716151.451654,-59.390269,-5.285689,-81.984713,0.052307,-0.844299,0.524826,-0.473419,0.226044,-0.019714,63.159302,64.028351,-132.209824,,,
729716151.453435,-59.390293,-5.285684,-85.061599,0.052307,-0.844299,0.524826,-0.473419,0.226044,-0.019714,63.159302,64.028351,-132.209824,,,
729716151.453657,-59.390269,-5.285689,-81.984713,0.052307,-0.844299,0.524826,-0.473419,0.226044,-0.019714,63.159302,64.028351,-132.209824,,,
729716151.458196,-59.525298,-5.252775,-85.096247,0.048294,-0.849808,0.539612,-0.473419,0.226044,-0.019714,63.159302,64.028351,-132.209824,,,
729716151.458429,-59.525274,-5.252779,-82.019361,0.048294,-0.849808,0.539612,-0.473419,0.226044,-0.019714,63.159302,64.028351,-132.209824,,,
729716151.461397,-59.658284,-5.218833,-85.130814,0.048294,-0.849808,0.539612,-0.460642,0.217801,-0.021371,63.159302,64.028351,-132.209824,,,
729716151.46163,-59.65826,-5.218838,-82.053928,0.048294,-0.849808,0.539612,-0.460642,0.217801,-0.021371,63.159302,64.028351,-132.209824,,,
729716151.463442,-59.658284,-5.218833,-85.130814,0.048294,-0.849808,0.539612,-0.460642,0.217801,-0.021371,63.159302,64.028351,-132.209824,,,
729716151.463659,-59.65826,-5.218838,-82.053928,0.048294,-0.849808,0.539612,-0.460642,0.217801,-0.021371,63.159302,64.028351,-132.209824,,,
729716151.467951,-59.789798,-5.186959,-85.164986,0.048721,-0.848892,0.528366,-0.460642,0.217801,-0.021371,63.159302,64.028351,-132.209824,,,
729716151.468173,-59.789774,-5.186964,-82.0881,0.048721,-0.848892,0.528366,-0.460642,0.217801,-0.021371,63.159302,64.028351,-132.209824,,,
729716151.470981,-59.789798,-5.186959,-85.19762,0.048721,-0.848892,0.528366,-0.444687,0.190685,-0.014753,63.159302,64.028351,-132.209824,,,
729716151.471229,-59.919108,-5.157199,-82.120734,0.048721,-0.848892,0.528366,-0.444687,0.190685,-0.014753,63.159302,64.028351,-132.209824,,,
729716151.474678,-59.919133,-5.157194,-85.19762,0.048721,-0.848892,0.528366,-0.444687,0.190685,-0.014753,63.132111,64.803253,-131.4646,,,
729716151.474955,-59.919108,-5.157199,-82.120734,0.048721,-0.848892,0.528366,-0.444687,0.190685,-0.014753,63.132111,64.803253,-131.4646,,,
729716151.478005,-60.046118,-5.129986,-85.228227,0.044998,-0.85054,0.512405,-0.444687,0.190685,-0.014753,63.132111,64.803253,-131.4646,,,
729716151.478244,-60.046093,-5.129991,-82.15134,0.044998,-0.85054,0.512405,-0.444687,0.190685,-0.014753,63.132111,64.803253,-131.4646,,,
729716151.480169,-60.046118,-5.129986,-85.228227,0.044998,-0.85054,0.512405,-0.444687,0.190685,-0.014753,63.132111,64.803253,-131.4646,,,
729716151.48036,-60.170324,-5.106173,-82.180234,0.044998,-0.85054,0.512405,-0.425703,0.159592,-0.016457,63.132111,64.803253,-131.4646,,,
729716151.48513,-60.170349,-5.106169,-85.25712,0.044998,-0.85054,0.512405,-0.425703,0.159592,-0.016457,63.132111,64.803253,-131.4646,,,
729716151.485373,-60.291328,-5.086172,-82.209368,0.040649,-0.854935,0.510788,-0.425703,0.159592,-0.016457,63.132111,64.803253,-131.4646,,,
729716151.487586,-60.291353,-5.086167,-85.286255,0.040649,-0.854935,0.510788,-0.425703,0.159592,-0.016457,63.132111,64.803253,-131.4646,,,
