Time (sec),Pitch (deg),Roll (deg),Yaw(deg),X-Acceleration (g),Y-Acceleration (g),Z-Acceleration (g),Pitch Rate (deg/sec),Roll Rate (deg/sec),Yaw Rate (deg/sec),Magnetic Field in X direction (uT),Magnetic Field in Y direction (uT),Magnetic Field in Z Direction (uT),Latitude (deg),Longitude (deg),Altitude (m)
729717052.212973,-0.936473,4.807087,99.869024,-0.082718,-0.009399,0.990509,-0.02501,0.009667,-0.01513,92.265411,37.437225,-147.649139,,,
729717052.213653,-0.936472,4.80709,102.945874,-0.082718,-0.009399,0.990509,-0.02501,0.009667,-0.01513,92.265411,37.437225,-147.649139,,,
729717052.213815,-0.936471,4.807087,138.482229,-0.082718,-0.009399,0.990509,-0.02501,0.009667,-0.01513,92.265411,37.437225,-147.649139,,,
729717052.216056,-0.936473,4.807087,99.869024,-0.082718,-0.009399,0.990509,-0.02501,0.009667,-0.01513,92.265411,37.437225,-147.649139,,,
729717052.216284,-0.936472,4.80709,102.945874,-0.082718,-0.009399,0.990509,-0.02501,0.009667,-0.01513,92.265411,37.437225,-147.649139,,,
729717052.216983,-0.936471,4.807087,138.482229,-0.082718,-0.009399,0.990509,-0.02501,0.009667,-0.01513,92.265411,37.437225,-147.649139,,,
729717052.219824,-0.945418,4.809712,99.86609,-0.083832,-0.012955,0.985474,-0.032304,0.014611,-0.012739,92.265411,37.437225,-147.649139,,,
729717052.220581,-0.945417,4.809714,102.94294,-0.083832,-0.012955,0.985474,-0.032304,0.014611,-0.012739,92.265411,37.437225,-147.649139,,,
729717052.220738,-0.945416,4.809712,138.479294,-0.083832,-0.012955,0.985474,-0.032304,0.014611,-0.012739,92.265411,37.437225,-147.649139,,,
729717052.222855,-0.953525,4.813756,99.864434,-0.083832,-0.012955,0.985474,-0.032304,0.014611,-0.012739,92.265411,37.437225,-147.649139,,,
729717052.223058,-0.953524,4.813758,102.941284,-0.083832,-0.012955,0.985474,-0.032304,0.014611,-0.012739,92.265411,37.437225,-147.649139,,,
729717052.223612,-0.953523,4.813756,138.477639,-0.083832,-0.012955,0.985474,-0.032304,0.014611,-0.012739,92.265411,37.437225,-147.649139,,,
729717052.226114,-0.953525,4.813756,99.864434,-0.083832,-0.012955,0.985474,-0.032304,0.014611,-0.012739,92.265411,37.437225,-147.649139,,,
729717052.22641,-0.953524,4.813758,102.941284,-0.083832,-0.012955,0.985474,-0.032304,0.014611,-0.012739,92.265411,37.437225,-147.649139,,,
729717052.226985,-0.953523,4.813756,138.477639,-0.083832,-0.012955,0.985474,-0.032304,0.014611,-0.012739,92.265411,37.437225,-147.649139,,,
729717052.231141,-0.964428,4.816141,99.863986,-0.087311,-0.016205,0.984909,-0.037344,0.009626,-0.004669,92.265411,37.437225,-147.649139,,,
729717052.232715,-0.964428,4.816144,102.940836,-0.087311,-0.016205,0.984909,-0.037344,0.009626,-0.004669,92.265411,37.437225,-147.649139,,,
729717052.232885,-0.975224,4.818931,138.478219,-0.087311,-0.016205,0.984909,-0.037344,0.009626,-0.004669,92.265411,37.437225,-147.649139,,,
729717052.23346,-0.975225,4.818931,99.865015,-0.087311,-0.016205,0.984909,-0.037344,0.009626,-0.004669,92.265411,37.437225,-147.649139,,,
729717052.233652,-0.975224,4.818931,138.478219,-0.087311,-0.016205,0.984909,-0.037344,0.009626,-0.004669,92.265411,37.437225,-147.649139,,,
729717052.236065,-0.975225,4.818931,99.865015,-0.087311,-0.016205,0.984909,-0.037344,0.009626,-0.004669,92.265411,37.437225,-147.649139,,,
729717052.236537,-0.975224,4.818933,102.941866,-0.087311,-0.016205,0.984909,-0.037344,0.009626,-0.004669,92.265411,37.437225,-147.649139,,,
729717052.236962,-0.975224,4.818931,138.478219,-0.087311,-0.016205,0.984909,-0.037344,0.009626,-0.004669,92.265411,37.437225,-147.649139,,,
729717052.240954,-0.985488,4.819475,99.867071,-0.08606,-0.02002,0.985046,-0.03252,0.002588,0.003106,92.265411,37.437225,-147.649139,,,
729717052.242685,-0.985488,4.819477,102.943922,-0.08606,-0.02002,0.985046,-0.03252,0.002588,0.003106,92.265411,37.437225,-147.649139,,,
729717052.242863,-0.993859,4.822245,138.482292,-0.08606,-0.02002,0.985046,-0.03252,0.002588,0.003106,92.265411,37.437225,-147.649139,,,
729717052.243228,-0.993861,4.822245,99.869087,-0.08606,-0.02002,0.985046,-0.03252,0.002588,0.003106,92.265411,37.437225,-147.649139,,,
729717052.243593,-0.99386,4.822247,102.945938,-0.08606,-0.02002,0.985046,-0.03252,0.002588,0.003106,92.265411,37.437225,-147.649139,,,
729717052.243746,-0.993859,4.822245,138.482292,-0.08606,-0.02002,0.985046,-0.03252,0.002588,0.003106,92.265411,37.437225,-147.649139,,,
729717052.246059,-0.993861,4.822245,99.869087,-0.08606,-0.02002,0.985046,-0.03252,0.002588,0.003106,92.265411,37.437225,-147.649139,,,
729717052.246286,-0.99386,4.822247,102.945938,-0.08606,-0.02002,0.985046,-0.03252,0.002588,0.003106,92.265411,37.437225,-147.649139,,,
729717052.246961,-0.993859,4.822245,138.482292,-0.08606,-0.02002,0.985046,-0.03252,0.002588,0.003106,92.265411,37.437225,-147.649139,,,
729717052.251589,-0.998212,4.824291,99.870295,-0.084686,-0.020172,0.996307,-0.008482,0.013227,-0.000263,92.291733,37.381989,-147.714081,,,
729717052.253647,-0.998211,4.824293,102.947146,-0.084686,-0.020172,0.996307,-0.008482,0.013227,-0.000263,92.291733,37.381989,-147.714081,,,
729717052.253771,-0.999794,4.828618,138.483887,-0.084686,-0.020172,0.996307,-0.008482,0.013227,-0.000263,92.291733,37.381989,-147.714081,,,
729717052.254076,-0.999795,4.828617,99.87068,-0.084686,-0.020172,0.996307,-0.008482,0.013227,-0.000263,92.291733,37.381989,-147.714081,,,
729717052.256008,-0.999795,4.828617,99.87068,-0.084686,-0.020172,0.996307,-0.008482,0.013227,-0.000263,92.291733,37.381989,-147.714081,,,
729717052.256567,-0.999795,4.82862,102.947531,-0.084686,-0.020172,0.996307,-0.008482,0.013227,-0.000263,92.291733,37.381989,-147.714081,,,
729717052.256964,-0.999794,4.828618,138.483887,-0.084686,-0.020172,0.996307,-0.008482,0.013227,-0.000263,92.291733,37.381989,-147.714081,,,
729717052.260423,-0.999054,4.831195,99.869744,-0.082321,-0.019104,1.003143,0.006674,0.008241,-0.008125,92.291733,37.381989,-147.714081,,,
729717052.261597,-0.999053,4.831198,102.946595,-0.082321,-0.019104,1.003143,0.006674,0.008241,-0.008125,92.291733,37.381989,-147.714081,,,
729717052.261748,-0.999052,4.831196,138.48295,-0.082321,-0.019104,1.003143,0.006674,0.008241,-0.008125,92.291733,37.381989,-147.714081,,,
729717052.262525,-0.999054,4.831195,99.869744,-0.082321,-0.019104,1.003143,0.006674,0.008241,-0.008125,92.291733,37.381989,-147.714081,,,
729717052.263187,-0.996726,4.831056,102.944018,-0.082321,-0.019104,1.003143,0.006674,0.008241,-0.008125,92.291733,37.381989,-147.714081,,,
729717052.263624,-0.996725,4.831054,138.480372,-0.082321,-0.019104,1.003143,0.006674,0.008241,-0.008125,92.291733,37.381989,-147.714081,,,
729717052.266069,-0.996727,4.831054,99.867167,-0.082321,-0.019104,1.003143,0.006674,0.008241,-0.008125,92.291733,37.381989,-147.714081,,,
729717052.266283,-0.996726,4.831056,102.944018,-0.082321,-0.019104,1.003143,0.006674,0.008241,-0.008125,92.291733,37.381989,-147.714081,,,
729717052.266956,-0.996725,4.831054,138.480372,-0.082321,-0.019104,1.003143,0.006674,0.008241,-0.008125,92.291733,37.381989,-147.714081,,,
729717052.270903,-0.994732,4.829612,99.863694,-0.081375,-0.012863,0.988922,0.007722,-0.002137,-0.014306,92.291733,37.381989,-147.714081,,,
729717052.27244,-0.994732,4.829615,102.940545,-0.081375,-0.012863,0.988922,0.007722,-0.002137,-0.014306,92.291733,37.381989,-147.714081,,,
729717052.272609,-0.991613,4.828563,138.472641,-0.081375,-0.012863,0.988922,0.007722,-0.002137,-0.014306,92.291733,37.381989,-147.714081,,,
729717052.272824,-0.991615,4.828563,99.859435,-0.081375,-0.012863,0.988922,0.007722,-0.002137,-0.014306,92.291733,37.381989,-147.714081,,,
729717052.273022,-0.991614,4.828566,102.936286,-0.081375,-0.012863,0.988922,0.007722,-0.002137,-0.014306,92.291733,37.381989,-147.714081,,,
729717052.273621,-0.991613,4.828563,138.472641,-0.081375,-0.012863,0.988922,0.007722,-0.002137,-0.014306,92.291733,37.381989,-147.714081,,,
729717052.276071,-0.991615,4.828563,99.859435,-0.081375,-0.012863,0.988922,0.007722,-0.002137,-0.014306,92.291733,37.381989,-147.714081,,,
729717052.27629,-0.991614,4.828566,102.936286,-0.081375,-0.012863,0.988922,0.007722,-0.002137,-0.014306,92.291733,37.381989,-147.714081,,,
729717052.276961,-0.991613,4.828563,138.472641,-0.081375,-0.012863,0.988922,0.007722,-0.002137,-0.014306,92.291733,37.381989,-147.714081,,,
729717052.281124,-0.992057,4.829795,99.855625,-0.085526,-0.013565,0.991455,-0.00364,0.010631,-0.012169,92.291733,37.381989,-147.714081,,,
729717052.283144,-0.992057,4.829797,102.932476,-0.085526,-0.013565,0.991455,-0.00364,0.010631,-0.012169,92.291733,37.381989,-147.714081,,,
729717052.283316,-0.992733,4.831904,138.466742,-0.085526,-0.013565,0.991455,-0.00364,0.010631,-0.012169,92.291733,37.381989,-147.714081,,,
729717052.28371,-0.992735,4.831904,99.85354,-0.085526,-0.013565,0.991455,-0.00364,0.010631,-0.012169,92.291733,37.381989,-147.714081,,,
729717052.283876,-0.992733,4.831904,138.466742,-0.085526,-0.013565,0.991455,-0.00364,0.010631,-0.012169,92.291733,37.381989,-147.714081,,,
729717052.286042,-0.992735,4.831904,99.85354,-0.085526,-0.013565,0.991455,-0.00364,0.010631,-0.012169,92.291733,37.381989,-147.714081,,,
729717052.28629,-0.992734,4.831907,102.93039,-0.085526,-0.013565,0.991455,-0.00364,0.010631,-0.012169,92.291733,37.381989,-147.714081,,,
729717052.28696,-0.992733,4.831904,138.466742,-0.085526,-0.013565,0.991455,-0.00364,0.010631,-0.012169,92.291733,37.381989,-147.714081,,,
729717052.291097,-0.997993,4.833936,99.853561,-0.085724,-0.017288,0.988739,-0.021871,0.009069,0.001105,92.289276,37.347015,-147.523987,,,
729717052.292962,-0.997992,4.833938,102.930412,-0.085724,-0.017288,0.988739,-0.021871,0.009069,0.001105,92.289276,37.347015,-147.523987,,,
729717052.293143,-1.004841,4.836591,138.469238,-0.085724,-0.017288,0.988739,-0.021871,0.009069,0.001105,92.289276,37.347015,-147.523987,,,
729717052.293963,-1.004842,4.836591,99.856037,-0.085724,-0.017288,0.988739,-0.021871,0.009069,0.001105,92.289276,37.347015,-147.523987,,,
729717052.294134,-1.004841,4.836591,138.469238,-0.085724,-0.017288,0.988739,-0.021871,0.009069,0.001105,92.289276,37.347015,-147.523987,,,
729717052.296016,-1.004842,4.836591,99.856037,-0.085724,-0.017288,0.988739,-0.021871,0.009069,0.001105,92.289276,37.347015,-147.523987,,,
729717052.296546,-1.004842,4.836594,102.932887,-0.085724,-0.017288,0.988739,-0.021871,0.009069,0.001105,92.289276,37.347015,-147.523987,,,
729717052.296968,-1.004841,4.836591,138.469238,-0.085724,-0.017288,0.988739,-0.021871,0.009069,0.001105,92.289276,37.347015,-147.523987,,,
729717052.300434,-1.016564,4.842043,99.860896,-0.082825,-0.013412,0.986435,-0.048338,0.027791,0.015514,92.289276,37.347015,-147.523987,,,
729717052.301777,-1.016564,4.842045,102.937747,-0.082825,-0.013412,0.986435,-0.048338,0.027791,0.015514,92.289276,37.347015,-147.523987,,,
729717052.301936,-1.016563,4.842043,138.474098,-0.082825,-0.013412,0.986435,-0.048338,0.027791,0.015514,92.289276,37.347015,-147.523987,,,
729717052.302504,-1.016564,4.842043,99.860896,-0.082825,-0.013412,0.986435,-0.048338,0.027791,0.015514,92.289276,37.347015,-147.523987,,,
729717052.30348,-1.031303,4.850947,102.944775,-0.082825,-0.013412,0.986435,-0.048338,0.027791,0.015514,92.289276,37.347015,-147.523987,,,
729717052.303709,-1.031302,4.850945,138.481128,-0.082825,-0.013412,0.986435,-0.048338,0.027791,0.015514,92.289276,37.347015,-147.523987,,,
729717052.306742,-1.031303,4.850945,99.867924,-0.082825,-0.013412,0.986435,-0.048338,0.027791,0.015514,92.289276,37.347015,-147.523987,,,
729717052.306965,-1.031303,4.850947,102.944775,-0.082825,-0.013412,0.986435,-0.048338,0.027791,0.015514,92.289276,37.347015,-147.523987,,,
729717052.307095,-1.031302,4.850945,138.481128,-0.082825,-0.013412,0.986435,-0.048338,0.027791,0.015514,92.289276,37.347015,-147.523987,,,
729717052.310305,-1.049406,4.86023,99.876404,-0.076187,-0.008667,0.990479,-0.068721,0.035729,0.023973,92.289276,37.347015,-147.523987,,,
729717052.311442,-1.049405,4.860233,102.953255,-0.076187,-0.008667,0.990479,-0.068721,0.035729,0.023973,92.289276,37.347015,-147.523987,,,
729717052.311589,-1.049405,4.860231,138.489607,-0.076187,-0.008667,0.990479,-0.068721,0.035729,0.023973,92.289276,37.347015,-147.523987,,,
729717052.31256,-1.049406,4.86023,99.876404,-0.076187,-0.008667,0.990479,-0.068721,0.035729,0.023973,92.289276,37.347015,-147.523987,,,
729717052.313593,-1.068562,4.871198,102.962544,-0.076187,-0.008667,0.990479,-0.068721,0.035729,0.023973,92.289276,37.347015,-147.523987,,,
729717052.313757,-1.068561,4.871196,138.498895,-0.076187,-0.008667,0.990479,-0.068721,0.035729,0.023973,92.289276,37.347015,-147.523987,,,
729717052.316636,-1.068562,4.871195,99.885694,-0.076187,-0.008667,0.990479,-0.068721,0.035729,0.023973,92.289276,37.347015,-147.523987,,,
729717052.316856,-1.068562,4.871198,102.962544,-0.076187,-0.008667,0.990479,-0.068721,0.035729,0.023973,92.289276,37.347015,-147.523987,,,
729717052.316995,-1.068561,4.871196,138.498895,-0.076187,-0.008667,0.990479,-0.068721,0.035729,0.023973,92.289276,37.347015,-147.523987,,,
729717052.320445,-1.086203,4.882846,99.895119,-0.077545,-0.009048,0.98851,-0.060164,0.04664,0.025859,92.289276,37.347015,-147.523987,,,
729717052.321799,-1.086202,4.882848,102.97197,-0.077545,-0.009048,0.98851,-0.060164,0.04664,0.025859,92.289276,37.347015,-147.523987,,,
729717052.321998,-1.086202,4.882846,138.508325,-0.077545,-0.009048,0.98851,-0.060164,0.04664,0.025859,92.289276,37.347015,-147.523987,,,
729717052.322502,-1.086203,4.882846,99.895119,-0.077545,-0.009048,0.98851,-0.060164,0.04664,0.025859,92.289276,37.347015,-147.523987,,,
729717052.323604,-1.102874,4.896308,102.980261,-0.077545,-0.009048,0.98851,-0.060164,0.04664,0.025859,92.289276,37.347015,-147.523987,,,
729717052.323763,-1.102873,4.896306,138.516616,-0.077545,-0.009048,0.98851,-0.060164,0.04664,0.025859,92.289276,37.347015,-147.523987,,,
729717052.326518,-1.102875,4.896306,99.90341,-0.077545,-0.009048,0.98851,-0.060164,0.04664,0.025859,92.289276,37.347015,-147.523987,,,
729717052.326736,-1.102874,4.896308,102.980261,-0.077545,-0.009048,0.98851,-0.060164,0.04664,0.025859,92.289276,37.347015,-147.523987,,,
729717052.326904,-1.102873,4.896306,138.516616,-0.077545,-0.009048,0.98851,-0.060164,0.04664,0.025859,92.289276,37.347015,-147.523987,,,
729717052.331083,-1.117241,4.910295,99.910622,-0.074402,-0.011658,1.002716,-0.046295,0.051238,0.019431,92.401535,37.446167,-147.824295,,,
729717052.332948,-1.11724,4.910298,102.987473,-0.074402,-0.011658,1.002716,-0.046295,0.051238,0.019431,92.401535,37.446167,-147.824295,,,
729717052.333113,-1.129518,4.922996,138.530259,-0.074402,-0.011658,1.002716,-0.046295,0.051238,0.019431,92.401535,37.446167,-147.824295,,,
729717052.333899,-1.12952,4.922996,99.917056,-0.074402,-0.011658,1.002716,-0.046295,0.051238,0.019431,92.401535,37.446167,-147.824295,,,
729717052.334054,-1.129518,4.922996,138.530259,-0.074402,-0.011658,1.002716,-0.046295,0.051238,0.019431,92.401535,37.446167,-147.824295,,,
729717052.336009,-1.12952,4.922996,99.917056,-0.074402,-0.011658,1.002716,-0.046295,0.051238,0.019431,92.401535,37.446167,-147.824295,,,
729717052.336884,-1.129519,4.922998,102.993907,-0.074402,-0.011658,1.002716,-0.046295,0.051238,0.019431,92.401535,37.446167,-147.824295,,,
729717052.337056,-1.129518,4.922996,138.530259,-0.074402,-0.011658,1.002716,-0.046295,0.051238,0.019431,92.401535,37.446167,-147.824295,,,
729717052.340494,-1.14098,4.934834,99.922922,-0.076065,-0.015427,0.998184,-0.040175,0.040053,0.015838,92.401535,37.446167,-147.824295,,,
729717052.341925,-1.140979,4.934836,102.999772,-0.076065,-0.015427,0.998184,-0.040175,0.040053,0.015838,92.401535,37.446167,-147.824295,,,
729717052.342079,-1.140978,4.934834,138.536124,-0.076065,-0.015427,0.998184,-0.040175,0.040053,0.015838,92.401535,37.446167,-147.824295,,,
729717052.342476,-1.14098,4.934834,99.922922,-0.076065,-0.015427,0.998184,-0.040175,0.040053,0.015838,92.401535,37.446167,-147.824295,,,
729717052.343613,-1.15063,4.943907,103.005642,-0.076065,-0.015427,0.998184,-0.040175,0.040053,0.015838,92.401535,37.446167,-147.824295,,,
729717052.343781,-1.150629,4.943905,138.541997,-0.076065,-0.015427,0.998184,-0.040175,0.040053,0.015838,92.401535,37.446167,-147.824295,,,
729717052.346631,-1.15063,4.943905,99.928791,-0.076065,-0.015427,0.998184,-0.040175,0.040053,0.015838,92.401535,37.446167,-147.824295,,,
729717052.34685,-1.15063,4.943907,103.005642,-0.076065,-0.015427,0.998184,-0.040175,0.040053,0.015838,92.401535,37.446167,-147.824295,,,
729717052.34699,-1.150629,4.943905,138.541997,-0.076065,-0.015427,0.998184,-0.040175,0.040053,0.015838,92.401535,37.446167,-147.824295,,,
729717052.350295,-1.161584,4.952922,99.935022,-0.083649,-0.016571,0.994354,-0.040593,0.031957,0.018082,92.401535,37.446167,-147.824295,,,
729717052.351259,-1.161583,4.952924,103.011873,-0.083649,-0.016571,0.994354,-0.040593,0.031957,0.018082,92.401535,37.446167,-147.824295,,,
729717052.351408,-1.161582,4.952922,138.548228,-0.083649,-0.016571,0.994354,-0.040593,0.031957,0.018082,92.401535,37.446167,-147.824295,,,
729717052.352568,-1.161584,4.952922,99.935022,-0.083649,-0.016571,0.994354,-0.040593,0.031957,0.018082,92.401535,37.446167,-147.824295,,,
729717052.353584,-1.172401,4.959683,103.018142,-0.083649,-0.016571,0.994354,-0.040593,0.031957,0.018082,92.401535,37.446167,-147.824295,,,
729717052.35374,-1.1724,4.95968,138.554498,-0.083649,-0.016571,0.994354,-0.040593,0.031957,0.018082,92.401535,37.446167,-147.824295,,,
729717052.356498,-1.172402,4.95968,99.941291,-0.083649,-0.016571,0.994354,-0.040593,0.031957,0.018082,92.401535,37.446167,-147.824295,,,
729717052.356709,-1.172401,4.959683,103.018142,-0.083649,-0.016571,0.994354,-0.040593,0.031957,0.018082,92.401535,37.446167,-147.824295,,,
729717052.356895,-1.1724,4.95968,138.554498,-0.083649,-0.016571,0.994354,-0.040593,0.031957,0.018082,92.401535,37.446167,-147.824295,,,
729717052.360742,-1.18742,4.965157,99.947328,-0.085846,-0.014923,0.989334,-0.057791,0.018668,0.014811,92.401535,37.446167,-147.824295,,,
729717052.362122,-1.187419,4.965159,103.024179,-0.085846,-0.014923,0.989334,-0.057791,0.018668,0.014811,92.401535,37.446167,-147.824295,,,
729717052.362273,-1.187419,4.965157,138.560534,-0.085846,-0.014923,0.989334,-0.057791,0.018668,0.014811,92.401535,37.446167,-147.824295,,,
729717052.362481,-1.18742,4.965157,99.947328,-0.085846,-0.014923,0.989334,-0.057791,0.018668,0.014811,92.401535,37.446167,-147.824295,,,
729717052.363387,-1.203679,4.968355,103.02999,-0.085846,-0.014923,0.989334,-0.057791,0.018668,0.014811,92.401535,37.446167,-147.824295,,,
729717052.363611,-1.203679,4.968353,138.566344,-0.085846,-0.014923,0.989334,-0.057791,0.018668,0.014811,92.401535,37.446167,-147.824295,,,
729717052.366311,-1.20368,4.968352,99.95314,-0.085846,-0.014923,0.989334,-0.057791,0.018668,0.014811,92.401535,37.446167,-147.824295,,,
729717052.366516,-1.203679,4.968355,103.02999,-0.085846,-0.014923,0.989334,-0.057791,0.018668,0.014811,92.401535,37.446167,-147.824295,,,
729717052.36693,-1.203679,4.968353,138.566344,-0.085846,-0.014923,0.989334,-0.057791,0.018668,0.014811,92.401535,37.446167,-147.824295,,,
729717052.371551,-1.22275,4.968851,99.958951,-0.084808,-0.013687,0.98703,-0.069882,-0.000522,0.013752,92.361542,37.692932,-147.52243,,,
729717052.37372,-1.22275,4.968853,103.035802,-0.084808,-0.013687,0.98703,-0.069882,-0.000522,0.013752,92.361542,37.692932,-147.52243,,,
729717052.373898,-1.241363,4.966163,138.577854,-0.084808,-0.013687,0.98703,-0.069882,-0.000522,0.013752,92.361542,37.692932,-147.52243,,,
729717052.374351,-1.241364,4.966163,99.96465,-0.084808,-0.013687,0.98703,-0.069882,-0.000522,0.013752,92.361542,37.692932,-147.52243,,,
729717052.375984,-1.241364,4.966163,99.96465,-0.084808,-0.013687,0.98703,-0.069882,-0.000522,0.013752,92.361542,37.692932,-147.52243,,,
729717052.376573,-1.241363,4.966165,103.041501,-0.084808,-0.013687,0.98703,-0.069882,-0.000522,0.013752,92.361542,37.692932,-147.52243,,,
729717052.37696,-1.241363,4.966163,138.577854,-0.084808,-0.013687,0.98703,-0.069882,-0.000522,0.013752,92.361542,37.692932,-147.52243,,,
729717052.380589,-1.260802,4.960845,99.97003,-0.086731,-0.019073,0.992447,-0.064176,-0.021,0.011979,92.361542,37.692932,-147.52243,,,
729717052.382016,-1.260801,4.960848,103.04688,-0.086731,-0.019073,0.992447,-0.064176,-0.021,0.011979,92.361542,37.692932,-147.52243,,,
729717052.38217,-1.260801,4.960846,138.583232,-0.086731,-0.019073,0.992447,-0.064176,-0.021,0.011979,92.361542,37.692932,-147.52243,,,
729717052.382452,-1.260802,4.960845,99.97003,-0.086731,-0.019073,0.992447,-0.064176,-0.021,0.011979,92.361542,37.692932,-147.52243,,,
729717052.383461,-1.275596,4.950899,103.05147,-0.086731,-0.019073,0.992447,-0.064176,-0.021,0.011979,92.361542,37.692932,-147.52243,,,
729717052.383632,-1.275595,4.950897,138.587826,-0.086731,-0.019073,0.992447,-0.064176,-0.021,0.011979,92.361542,37.692932,-147.52243,,,
729717052.386518,-1.275597,4.950897,99.97462,-0.086731,-0.019073,0.992447,-0.064176,-0.021,0.011979,92.361542,37.692932,-147.52243,,,
729717052.38673,-1.275596,4.950899,103.05147,-0.086731,-0.019073,0.992447,-0.064176,-0.021,0.011979,92.361542,37.692932,-147.52243,,,
729717052.386889,-1.275595,4.950897,138.587826,-0.086731,-0.019073,0.992447,-0.064176,-0.021,0.011979,92.361542,37.692932,-147.52243,,,
729717052.390298,-1.29257,4.941088,99.978222,-0.086334,-0.023605,0.998596,-0.057707,-0.034501,0.005239,92.361542,37.692932,-147.52243,,,
729717052.391438,-1.292569,4.94109,103.055073,-0.086334,-0.023605,0.998596,-0.057707,-0.034501,0.005239,92.361542,37.692932,-147.52243,,,
729717052.39159,-1.292569,4.941088,138.591428,-0.086334,-0.023605,0.998596,-0.057707,-0.034501,0.005239,92.361542,37.692932,-147.52243,,,
729717052.392539,-1.29257,4.941088,99.978222,-0.086334,-0.023605,0.998596,-0.057707,-0.034501,0.005239,92.361542,37.692932,-147.52243,,,
729717052.393453,-1.30509,4.927405,103.057545,-0.086334,-0.023605,0.998596,-0.057707,-0.034501,0.005239,92.361542,37.692932,-147.52243,,,
729717052.393613,-1.305089,4.927403,138.5939,-0.086334,-0.023605,0.998596,-0.057707,-0.034501,0.005239,92.361542,37.692932,-147.52243,,,
729717052.39653,-1.30509,4.927403,99.980694,-0.086334,-0.023605,0.998596,-0.057707,-0.034501,0.005239,92.361542,37.692932,-147.52243,,,
729717052.396743,-1.30509,4.927405,103.057545,-0.086334,-0.023605,0.998596,-0.057707,-0.034501,0.005239,92.361542,37.692932,-147.52243,,,
729717052.396897,-1.305089,4.927403,138.5939,-0.086334,-0.023605,0.998596,-0.057707,-0.034501,0.005239,92.361542,37.692932,-147.52243,,,
729717052.401121,-1.31892,4.913893,99.981613,-0.084229,-0.022705,0.998444,-0.043735,-0.048334,-0.004734,92.361542,37.692932,-147.52243,,,
729717052.403046,-1.318919,4.913895,103.058464,-0.084229,-0.022705,0.998444,-0.043735,-0.048334,-0.004734,92.361542,37.692932,-147.52243,,,
729717052.403214,-1.327966,4.89624,138.594559,-0.084229,-0.022705,0.998444,-0.043735,-0.048334,-0.004734,92.361542,37.692932,-147.52243,,,
729717052.403725,-1.327968,4.89624,99.981355,-0.084229,-0.022705,0.998444,-0.043735,-0.048334,-0.004734,92.361542,37.692932,-147.52243,,,
729717052.403832,-1.327966,4.89624,138.594559,-0.084229,-0.022705,0.998444,-0.043735,-0.048334,-0.004734,92.361542,37.692932,-147.52243,,,
729717052.406012,-1.327968,4.89624,99.981355,-0.084229,-0.022705,0.998444,-0.043735,-0.048334,-0.004734,92.361542,37.692932,-147.52243,,,
729717052.406566,-1.327967,4.896243,103.058206,-0.084229,-0.022705,0.998444,-0.043735,-0.048334,-0.004734,92.361542,37.692932,-147.52243,,,
729717052.406928,-1.327966,4.89624,138.594559,-0.084229,-0.022705,0.998444,-0.043735,-0.048334,-0.004734,92.361542,37.692932,-147.52243,,,
729717052.410473,-1.337995,4.881038,99.980292,-0.084152,-0.025009,0.994171,-0.030207,-0.04956,-0.009553,92.361542,37.692932,-147.52243,,,
729717052.411913,-1.337994,4.88104,103.057143,-0.084152,-0.025009,0.994171,-0.030207,-0.04956,-0.009553,92.277679,37.596512,-147.756866,,,
729717052.412022,-1.337993,4.881038,138.593496,-0.084152,-0.025009,0.994171,-0.030207,-0.04956,-0.009553,92.277679,37.596512,-147.756866,,,
729717052.412757,-1.337995,4.881038,99.980292,-0.084152,-0.025009,0.994171,-0.030207,-0.04956,-0.009553,92.277679,37.596512,-147.756866,,,
729717052.413101,-1.344418,4.864501,103.055462,-0.084152,-0.025009,0.994171,-0.030207,-0.04956,-0.009553,92.277679,37.596512,-147.756866,,,
729717052.413593,-1.344417,4.864499,138.591815,-0.084152,-0.025009,0.994171,-0.030207,-0.04956,-0.009553,92.277679,37.596512,-147.756866,,,
729717052.416203,-1.344419,4.864499,99.978612,-0.084152,-0.025009,0.994171,-0.030207,-0.04956,-0.009553,92.277679,37.596512,-147.756866,,,
729717052.416342,-1.344418,4.864501,103.055462,-0.084152,-0.025009,0.994171,-0.030207,-0.04956,-0.009553,92.277679,37.596512,-147.756866,,,
729717052.416915,-1.344417,4.864499,138.591815,-0.084152,-0.025009,0.994171,-0.030207,-0.04956,-0.009553,92.277679,37.596512,-147.756866,,,
729717052.420459,-1.351211,4.854705,99.977164,-0.085464,-0.028046,1.000671,-0.017947,-0.021678,-0.007296,92.277679,37.596512,-147.756866,,,
729717052.421632,-1.35121,4.854708,103.054015,-0.085464,-0.028046,1.000671,-0.017947,-0.021678,-0.007296,92.277679,37.596512,-147.756866,,,
729717052.421733,-1.35121,4.854705,138.590367,-0.085464,-0.028046,1.000671,-0.017947,-0.021678,-0.007296,92.277679,37.596512,-147.756866,,,
729717052.422472,-1.351211,4.854705,99.977164,-0.085464,-0.028046,1.000671,-0.017947,-0.021678,-0.007296,92.277679,37.596512,-147.756866,,,
729717052.422941,-1.35121,4.849553,103.053434,-0.085464,-0.028046,1.000671,-0.017947,-0.021678,-0.007296,92.277679,37.596512,-147.756866,,,
729717052.423587,-1.353491,4.84955,138.589788,-0.085464,-0.028046,1.000671,-0.017947,-0.021678,-0.007296,92.277679,37.596512,-147.756866,,,
729717052.426034,-1.353493,4.84955,99.976584,-0.085464,-0.028046,1.000671,-0.017947,-0.021678,-0.007296,92.277679,37.596512,-147.756866,,,
729717052.426243,-1.353492,4.849553,103.053434,-0.085464,-0.028046,1.000671,-0.017947,-0.021678,-0.007296,92.277679,37.596512,-147.756866,,,
729717052.426924,-1.353491,4.84955,138.589788,-0.085464,-0.028046,1.000671,-0.017947,-0.021678,-0.007296,92.277679,37.596512,-147.756866,,,
729717052.431931,-1.35414,4.849422,99.978095,-0.084549,-0.032349,1.012375,0.003591,0.009196,0.009076,92.277679,37.596512,-147.756866,,,
729717052.434131,-1.35414,4.849425,103.054946,-0.084549,-0.032349,1.012375,0.003591,0.009196,0.009076,92.277679,37.596512,-147.756866,,,
729717052.434258,-1.348914,4.853092,138.595192,-0.084549,-0.032349,1.012375,0.003591,0.009196,0.009076,92.277679,37.596512,-147.756866,,,
729717052.434403,-1.348915,4.853091,99.981987,-0.084549,-0.032349,1.012375,0.003591,0.009196,0.009076,92.277679,37.596512,-147.756866,,,
729717052.435925,-1.348915,4.853091,99.981987,-0.084549,-0.032349,1.012375,0.003591,0.009196,0.009076,92.277679,37.596512,-147.756866,,,
729717052.436406,-1.348914,4.853094,103.058838,-0.084549,-0.032349,1.012375,0.003591,0.009196,0.009076,92.277679,37.596512,-147.756866,,,
729717052.436926,-1.348914,4.853092,138.595192,-0.084549,-0.032349,1.012375,0.003591,0.009196,0.009076,92.277679,37.596512,-147.756866,,,
729717052.440678,-1.342922,4.859452,99.98822,-0.082062,-0.037415,1.012375,0.020598,0.030712,0.026964,92.277679,37.596512,-147.756866,,,
729717052.442117,-1.342921,4.859454,103.065071,-0.082062,-0.037415,1.012375,0.020598,0.030712,0.026964,92.277679,37.596512,-147.756866,,,
729717052.442286,-1.342921,4.859452,138.601426,-0.082062,-0.037415,1.012375,0.020598,0.030712,0.026964,92.277679,37.596512,-147.756866,,,
729717052.44272,-1.342922,4.859452,99.98822,-0.082062,-0.037415,1.012375,0.020598,0.030712,0.026964,92.277679,37.596512,-147.756866,,,
729717052.442928,-1.342921,4.859454,103.065071,-0.082062,-0.037415,1.012375,0.020598,0.030712,0.026964,92.277679,37.596512,-147.756866,,,
729717052.443596,-1.334312,4.869227,138.609285,-0.082062,-0.037415,1.012375,0.020598,0.030712,0.026964,92.277679,37.596512,-147.756866,,,
729717052.446463,-1.334314,4.869227,99.996079,-0.082062,-0.037415,1.012375,0.020598,0.030712,0.026964,92.277679,37.596512,-147.756866,,,
729717052.446916,-1.334313,4.869229,103.07293,-0.082062,-0.037415,1.012375,0.020598,0.030712,0.026964,92.277679,37.596512,-147.756866,,,
729717052.447019,-1.334312,4.869227,138.609285,-0.082062,-0.037415,1.012375,0.020598,0.030712,0.026964,92.277679,37.596512,-147.756866,,,
729717052.4501,-1.328643,4.882184,100.00353,-0.08374,-0.035828,1.00415,0.016411,0.054291,0.023774,92.277679,37.596512,-147.756866,,,
729717052.451165,-1.328642,4.882187,103.08038,-0.08374,-0.035828,1.00415,0.016411,0.054291,0.023774,92.277679,37.596512,-147.756866,,,
729717052.451345,-1.328641,4.882184,138.616736,-0.08374,-0.035828,1.00415,0.016411,0.054291,0.023774,92.277679,37.596512,-147.756866,,,
729717052.453049,-1.328643,4.882184,100.00353,-0.08374,-0.035828,1.00415,0.016411,0.054291,0.023774,92.329178,37.637161,-147.573761,,,
729717052.454293,-1.322646,4.898997,103.086627,-0.08374,-0.035828,1.00415,0.016411,0.054291,0.023774,92.329178,37.637161,-147.573761,,,
729717052.454458,-1.322645,4.898994,138.622981,-0.08374,-0.035828,1.00415,0.016411,0.054291,0.023774,92.329178,37.637161,-147.573761,,,
729717052.456328,-1.322646,4.898994,100.009776,-0.08374,-0.035828,1.00415,0.016411,0.054291,0.023774,92.329178,37.637161,-147.573761,,,
729717052.456474,-1.322646,4.898997,103.086627,-0.08374,-0.035828,1.00415,0.016411,0.054291,0.023774,92.329178,37.637161,-147.573761,,,
729717052.456895,-1.322645,4.898994,138.622981,-0.08374,-0.035828,1.00415,0.016411,0.054291,0.023774,92.329178,37.637161,-147.573761,,,
729717052.460247,-1.318495,4.91692,100.014461,-0.08316,-0.027802,1.001495,0.014473,0.06546,0.012807,92.329178,37.637161,-147.573761,,,
729717052.461318,-1.318495,4.916923,103.091311,-0.08316,-0.027802,1.001495,0.014473,0.06546,0.012807,92.329178,37.637161,-147.573761,,,
729717052.461465,-1.318494,4.916921,138.627665,-0.08316,-0.027802,1.001495,0.014473,0.06546,0.012807,92.329178,37.637161,-147.573761,,,
729717052.462565,-1.318495,4.91692,100.014461,-0.08316,-0.027802,1.001495,0.014473,0.06546,0.012807,92.329178,37.637161,-147.573761,,,
729717052.462979,-1.318495,4.916923,103.091311,-0.08316,-0.027802,1.001495,0.014473,0.06546,0.012807,92.329178,37.637161,-147.573761,,,
729717052.46362,-1.314742,4.935137,138.630595,-0.08316,-0.027802,1.001495,0.014473,0.06546,0.012807,92.329178,37.637161,-147.573761,,,
729717052.466673,-1.314744,4.935136,100.01739,-0.08316,-0.027802,1.001495,0.014473,0.06546,0.012807,92.329178,37.637161,-147.573761,,,
729717052.467345,-1.314743,4.935139,103.094241,-0.08316,-0.027802,1.001495,0.014473,0.06546,0.012807,92.329178,37.637161,-147.573761,,,
729717052.467496,-1.314742,4.935137,138.630595,-0.08316,-0.027802,1.001495,0.014473,0.06546,0.012807,92.329178,37.637161,-147.573761,,,
729717052.470171,-1.31082,4.952971,100.018758,-0.083908,-0.023438,0.997177,0.016713,0.064576,0.00211,92.329178,37.637161,-147.573761,,,
729717052.47136,-1.310819,4.952973,103.095608,-0.083908,-0.023438,0.997177,0.016713,0.064576,0.00211,92.329178,37.637161,-147.573761,,,
729717052.471507,-1.310818,4.952971,138.631962,-0.083908,-0.023438,0.997177,0.016713,0.064576,0.00211,92.329178,37.637161,-147.573761,,,
729717052.472547,-1.31082,4.952971,100.018758,-0.083908,-0.023438,0.997177,0.016713,0.064576,0.00211,92.329178,37.637161,-147.573761,,,
729717052.473234,-1.310819,4.969944,103.095904,-0.083908,-0.023438,0.997177,0.016713,0.064576,0.00211,92.329178,37.637161,-147.573761,,,
729717052.473622,-1.305513,4.969942,138.632258,-0.083908,-0.023438,0.997177,0.016713,0.064576,0.00211,92.329178,37.637161,-147.573761,,,
729717052.476322,-1.305514,4.969942,100.019053,-0.083908,-0.023438,0.997177,0.016713,0.064576,0.00211,92.329178,37.637161,-147.573761,,,
729717052.476528,-1.305513,4.969944,103.095904,-0.083908,-0.023438,0.997177,0.016713,0.064576,0.00211,92.329178,37.637161,-147.573761,,,
729717052.476928,-1.305513,4.969942,138.632258,-0.083908,-0.023438,0.997177,0.016713,0.064576,0.00211,92.329178,37.637161,-147.573761,,,
729717052.480598,-1.298778,4.985479,100.018982,-0.086914,-0.025665,0.994049,0.027367,0.05337,0.00045,92.329178,37.637161,-147.573761,,,
729717052.481996,-1.298778,4.985481,103.095833,-0.086914,-0.025665,0.994049,0.027367,0.05337,0.00045,92.329178,37.637161,-147.573761,,,
729717052.48215,-1.298777,4.985479,138.632186,-0.086914,-0.025665,0.994049,0.027367,0.05337,0.00045,92.329178,37.637161,-147.573761,,,
729717052.482471,-1.298778,4.985479,100.018982,-0.086914,-0.025665,0.994049,0.027367,0.05337,0.00045,92.329178,37.637161,-147.573761,,,
729717052.482995,-1.298778,4.985481,103.095833,-0.086914,-0.025665,0.994049,0.027367,0.05337,0.00045,92.329178,37.637161,-147.573761,,,
729717052.483641,-1.291232,4.997959,138.631924,-0.086914,-0.025665,0.994049,0.027367,0.05337,0.00045,92.329178,37.637161,-147.573761,,,
729717052.486522,-1.291233,4.997959,100.018719,-0.086914,-0.025665,0.994049,0.027367,0.05337,0.00045,92.329178,37.637161,-147.573761,,,
729717052.487198,-1.291233,4.997961,103.09557,-0.086914,-0.025665,0.994049,0.027367,0.05337,0.00045,92.329178,37.637161,-147.573761,,,
729717052.487353,-1.291232,4.997959,138.631924,-0.086914,-0.025665,0.994049,0.027367,0.05337,0.00045,92.329178,37.637161,-147.573761,,,
729717052.491004,-1.282674,5.009279,100.018289,-0.084091,-0.030518,0.990524,0.033168,0.040017,-0.00036,92.329178,37.637161,-147.573761,,,
729717052.493273,-1.282673,5.009282,103.095139,-0.084091,-0.030518,0.990524,0.033168,0.040017,-0.00036,92.574295,37.622742,-147.413849,,,
729717052.493452,-1.273761,5.01879,138.631149,-0.084091,-0.030518,0.990524,0.033168,0.040017,-0.00036,92.574295,37.622742,-147.413849,,,
729717052.494719,-1.273762,5.01879,100.017943,-0.084091,-0.030518,0.990524,0.033168,0.040017,-0.00036,92.574295,37.622742,-147.413849,,,
729717052.495922,-1.273762,5.01879,100.017943,-0.084091,-0.030518,0.990524,0.033168,0.040017,-0.00036,92.574295,37.622742,-147.413849,,,
729717052.496936,-1.273762,5.018792,103.094794,-0.084091,-0.030518,0.990524,0.033168,0.040017,-0.00036,92.574295,37.622742,-147.413849,,,
729717052.497098,-1.273761,5.01879,138.631149,-0.084091,-0.030518,0.990524,0.033168,0.040017,-0.00036,92.574295,37.622742,-147.413849,,,
729717052.501084,-1.262126,5.027469,100.017968,-0.085434,-0.032776,0.988724,0.043543,0.030888,0.003049,92.574295,37.622742,-147.413849,,,
729717052.502701,-1.262125,5.027471,103.094819,-0.085434,-0.032776,0.988724,0.043543,0.030888,0.003049,92.574295,37.622742,-147.413849,,,
729717052.502814,-1.262124,5.027469,138.631174,-0.085434,-0.032776,0.988724,0.043543,0.030888,0.003049,92.574295,37.622742,-147.413849,,,
729717052.502952,-1.262126,5.027469,100.017968,-0.085434,-0.032776,0.988724,0.043543,0.030888,0.003049,92.574295,37.622742,-147.413849,,,
729717052.50307,-1.262125,5.027471,103.094819,-0.085434,-0.032776,0.988724,0.043543,0.030888,0.003049,92.574295,37.622742,-147.413849,,,
729717052.50356,-1.251924,5.033176,138.631195,-0.085434,-0.032776,0.988724,0.043543,0.030888,0.003049,92.574295,37.622742,-147.413849,,,
729717052.506181,-1.251926,5.033176,100.017989,-0.085434,-0.032776,0.988724,0.043543,0.030888,0.003049,92.574295,37.622742,-147.413849,,,
729717052.506482,-1.251925,5.033178,103.09484,-0.085434,-0.032776,0.988724,0.043543,0.030888,0.003049,92.574295,37.622742,-147.413849,,,
729717052.506947,-1.251924,5.033176,138.631195,-0.085434,-0.032776,0.988724,0.043543,0.030888,0.003049,92.574295,37.622742,-147.413849,,,
729717052.510813,-1.240525,5.036743,100.017597,-0.086884,-0.028427,0.985733,0.037772,0.010411,-0.000495,92.574295,37.622742,-147.413849,,,
729717052.51227,-1.240524,5.036745,103.094448,-0.086884,-0.028427,0.985733,0.037772,0.010411,-0.000495,92.574295,37.622742,-147.413849,,,
729717052.51239,-1.240523,5.036743,138.630803,-0.086884,-0.028427,0.985733,0.037772,0.010411,-0.000495,92.574295,37.622742,-147.413849,,,
729717052.512527,-1.240525,5.036743,100.017597,-0.086884,-0.028427,0.985733,0.037772,0.010411,-0.000495,92.574295,37.622742,-147.413849,,,
729717052.512937,-1.240524,5.036745,103.094448,-0.086884,-0.028427,0.985733,0.037772,0.010411,-0.000495,92.574295,37.622742,-147.413849,,,
729717052.513593,-1.233931,5.035708,138.630152,-0.086884,-0.028427,0.985733,0.037772,0.010411,-0.000495,92.574295,37.622742,-147.413849,,,
729717052.516318,-1.233933,5.035708,100.016945,-0.086884,-0.028427,0.985733,0.037772,0.010411,-0.000495,92.574295,37.622742,-147.413849,,,
729717052.516765,-1.233932,5.03571,103.093796,-0.086884,-0.028427,0.985733,0.037772,0.010411,-0.000495,92.574295,37.622742,-147.413849,,,
729717052.516935,-1.233931,5.035708,138.630152,-0.086884,-0.028427,0.985733,0.037772,0.010411,-0.000495,92.574295,37.622742,-147.413849,,,
729717052.521121,-1.225337,5.033072,100.015508,-0.082733,-0.020935,0.975098,0.028374,-0.011069,-0.007043,92.574295,37.622742,-147.413849,,,
729717052.522703,-1.225337,5.033075,103.092359,-0.082733,-0.020935,0.975098,0.028374,-0.011069,-0.007043,92.574295,37.622742,-147.413849,,,
729717052.522816,-1.225336,5.033072,138.628716,-0.082733,-0.020935,0.975098,0.028374,-0.011069,-0.007043,92.574295,37.622742,-147.413849,,,
729717052.522955,-1.225337,5.033072,100.015508,-0.082733,-0.020935,0.975098,0.028374,-0.011069,-0.007043,92.574295,37.622742,-147.413849,,,
729717052.523093,-1.225337,5.033075,103.092359,-0.082733,-0.020935,0.975098,0.028374,-0.011069,-0.007043,92.574295,37.622742,-147.413849,,,
729717052.523559,-1.221888,5.026752,138.62548,-0.082733,-0.020935,0.975098,0.028374,-0.011069,-0.007043,92.574295,37.622742,-147.413849,,,
729717052.526514,-1.221889,5.026752,100.012274,-0.082733,-0.020935,0.975098,0.028374,-0.011069,-0.007043,92.574295,37.622742,-147.413849,,,
729717052.526981,-1.221888,5.026754,103.089125,-0.082733,-0.020935,0.975098,0.028374,-0.011069,-0.007043,92.574295,37.622742,-147.413849,,,
729717052.527131,-1.221888,5.026752,138.62548,-0.082733,-0.020935,0.975098,0.028374,-0.011069,-0.007043,92.574295,37.622742,-147.413849,,,
729717052.530081,-1.216546,5.020995,100.007341,-0.077515,-0.016174,0.979141,0.017339,-0.01771,-0.020107,92.574295,37.622742,-147.413849,,,
729717052.531121,-1.216545,5.020998,103.084192,-0.077515,-0.016174,0.979141,0.017339,-0.01771,-0.020107,92.574295,37.622742,-147.413849,,,
729717052.53128,-1.216544,5.020996,138.620546,-0.077515,-0.016174,0.979141,0.017339,-0.01771,-0.020107,92.574295,37.622742,-147.413849,,,
729717052.532605,-1.216546,5.020995,100.007341,-0.077515,-0.016174,0.979141,0.017339,-0.01771,-0.020107,92.574295,37.622742,-147.413849,,,
729717052.532982,-1.216545,5.020998,103.084192,-0.077515,-0.016174,0.979141,0.017339,-0.01771,-0.020107,92.574295,37.622742,-147.413849,,,
729717052.533622,-1.215512,5.013715,138.614393,-0.077515,-0.016174,0.979141,0.017339,-0.01771,-0.020107,92.436279,37.667953,-147.651474,,,
729717052.536902,-1.215514,5.013715,100.001188,-0.077515,-0.016174,0.979141,0.017339,-0.01771,-0.020107,92.436279,37.667953,-147.651474,,,
729717052.537826,-1.215513,5.013718,103.078038,-0.077515,-0.016174,0.979141,0.017339,-0.01771,-0.020107,92.436279,37.667953,-147.651474,,,
729717052.537989,-1.215512,5.013715,138.614393,-0.077515,-0.016174,0.979141,0.017339,-0.01771,-0.020107,92.436279,37.667953,-147.651474,,,
729717052.540223,-1.214854,5.007912,99.994001,-0.074448,-0.017105,0.980637,0.000578,-0.014838,-0.028983,92.436279,37.667953,-147.651474,,,
729717052.541443,-1.214853,5.007915,103.070852,-0.074448,-0.017105,0.980637,0.000578,-0.014838,-0.028983,92.436279,37.667953,-147.651474,,,
729717052.541591,-1.214852,5.007912,138.607207,-0.074448,-0.017105,0.980637,0.000578,-0.014838,-0.028983,92.436279,37.667953,-147.651474,,,
729717052.54255,-1.214854,5.007912,99.994001,-0.074448,-0.017105,0.980637,0.000578,-0.014838,-0.028983,92.436279,37.667953,-147.651474,,,
729717052.542989,-1.214853,5.007915,103.070852,-0.074448,-0.017105,0.980637,0.000578,-0.014838,-0.028983,92.436279,37.667953,-147.651474,,,
729717052.543619,-1.216724,5.00166,138.598848,-0.074448,-0.017105,0.980637,0.000578,-0.014838,-0.028983,92.436279,37.667953,-147.651474,,,
729717052.546601,-1.216726,5.00166,99.985644,-0.074448,-0.017105,0.980637,0.000578,-0.014838,-0.028983,92.436279,37.667953,-147.651474,,,
729717052.547431,-1.216725,5.001662,103.062494,-0.074448,-0.017105,0.980637,0.000578,-0.014838,-0.028983,92.436279,37.667953,-147.651474,,,
729717052.54759,-1.216724,5.00166,138.598848,-0.074448,-0.017105,0.980637,0.000578,-0.014838,-0.028983,92.436279,37.667953,-147.651474,,,
729717052.550643,-1.220196,4.997891,99.976975,-0.07605,-0.017548,0.982544,-0.01312,-0.00544,-0.032549,92.436279,37.667953,-147.651474,,,
729717052.552196,-1.220195,4.997893,103.053826,-0.07605,-0.017548,0.982544,-0.01312,-0.00544,-0.032549,92.436279,37.667953,-147.651474,,,
729717052.552395,-1.220194,4.997891,138.590179,-0.07605,-0.017548,0.982544,-0.01312,-0.00544,-0.032549,92.436279,37.667953,-147.651474,,,
729717052.552621,-1.220196,4.997891,99.976975,-0.07605,-0.017548,0.982544,-0.01312,-0.00544,-0.032549,92.436279,37.667953,-147.651474,,,
729717052.553008,-1.220195,4.997893,103.053826,-0.07605,-0.017548,0.982544,-0.01312,-0.00544,-0.032549,92.436279,37.667953,-147.651474,,,
729717052.553641,-1.227856,4.996683,138.580977,-0.07605,-0.017548,0.982544,-0.01312,-0.00544,-0.032549,92.436279,37.667953,-147.651474,,,
729717052.556469,-1.227857,4.996683,99.967776,-0.07605,-0.017548,0.982544,-0.01312,-0.00544,-0.032549,92.436279,37.667953,-147.651474,,,
729717052.556927,-1.227857,4.996685,103.044626,-0.07605,-0.017548,0.982544,-0.01312,-0.00544,-0.032549,92.436279,37.667953,-147.651474,,,
729717052.557035,-1.227856,4.996683,138.580977,-0.07605,-0.017548,0.982544,-0.01312,-0.00544,-0.032549,92.436279,37.667953,-147.651474,,,
729717052.560806,-1.23727,4.998594,99.957729,-0.07872,-0.016495,0.986984,-0.031894,0.015647,-0.040084,92.436279,37.667953,-147.651474,,,
729717052.562284,-1.23727,4.998596,103.034579,-0.07872,-0.016495,0.986984,-0.031894,0.015647,-0.040084,92.436279,37.667953,-147.651474,,,
729717052.562435,-1.237269,4.998594,138.570931,-0.07872,-0.016495,0.986984,-0.031894,0.015647,-0.040084,92.436279,37.667953,-147.651474,,,
729717052.562589,-1.23727,4.998594,99.957729,-0.07872,-0.016495,0.986984,-0.031894,0.015647,-0.040084,92.436279,37.667953,-147.651474,,,
729717052.562973,-1.23727,4.998596,103.034579,-0.07872,-0.016495,0.986984,-0.031894,0.015647,-0.040084,92.436279,37.667953,-147.651474,,,
729717052.563631,-1.251437,5.001664,138.560889,-0.07872,-0.016495,0.986984,-0.031894,0.015647,-0.040084,92.436279,37.667953,-147.651474,,,
729717052.566337,-1.251439,5.001663,99.947686,-0.07872,-0.016495,0.986984,-0.031894,0.015647,-0.040084,92.436279,37.667953,-147.651474,,,
729717052.566693,-1.251438,5.001666,103.024537,-0.07872,-0.016495,0.986984,-0.031894,0.015647,-0.040084,92.436279,37.667953,-147.651474,,,
729717052.56691,-1.251437,5.001664,138.560889,-0.07872,-0.016495,0.986984,-0.031894,0.015647,-0.040084,92.436279,37.667953,-147.651474,,,
729717052.569856,-1.26693,5.005383,99.938315,-0.084732,-0.017441,0.987762,-0.053605,0.016312,-0.037341,92.436279,37.667953,-147.651474,,,
729717052.57033,-1.266929,5.005385,103.015166,-0.084732,-0.017441,0.987762,-0.053605,0.016312,-0.037341,92.436279,37.667953,-147.651474,,,
729717052.570424,-1.266928,5.005383,138.551518,-0.084732,-0.017441,0.987762,-0.053605,0.016312,-0.037341,92.436279,37.667953,-147.651474,,,
729717052.572623,-1.26693,5.005383,99.938315,-0.084732,-0.017441,0.987762,-0.053605,0.016312,-0.037341,92.436279,37.667953,-147.651474,,,
729717052.572883,-1.266929,5.005385,103.015166,-0.084732,-0.017441,0.987762,-0.053605,0.016312,-0.037341,92.436279,37.667953,-147.651474,,,
729717052.573566,-1.287094,5.007871,138.542946,-0.084732,-0.017441,0.987762,-0.053605,0.016312,-0.037341,92.436279,37.667953,-147.651474,,,
729717052.576382,-1.287095,5.00787,99.92974,-0.084732,-0.017441,0.987762,-0.053605,0.016312,-0.037341,92.474976,37.589661,-147.636383,,,
729717052.576835,-1.287095,5.007873,103.006591,-0.084732,-0.017441,0.987762,-0.053605,0.016312,-0.037341,92.474976,37.589661,-147.636383,,,
729717052.576916,-1.287094,5.007871,138.542946,-0.084732,-0.017441,0.987762,-0.053605,0.016312,-0.037341,92.474976,37.589661,-147.636383,,,
729717052.580609,-1.307179,5.009965,99.92143,-0.089066,-0.019058,0.983826,-0.070993,0.011176,-0.037179,92.474976,37.589661,-147.636383,,,
729717052.581858,-1.307179,5.009967,102.99828,-0.089066,-0.019058,0.983826,-0.070993,0.011176,-0.037179,92.474976,37.589661,-147.636383,,,
729717052.582016,-1.307178,5.009965,138.534634,-0.089066,-0.019058,0.983826,-0.070993,0.011176,-0.037179,92.474976,37.589661,-147.636383,,,
729717052.582497,-1.307179,5.009965,99.92143,-0.089066,-0.019058,0.983826,-0.070993,0.011176,-0.037179,92.474976,37.589661,-147.636383,,,
729717052.582998,-1.307179,5.009967,102.99828,-0.089066,-0.019058,0.983826,-0.070993,0.011176,-0.037179,92.474976,37.589661,-147.636383,,,
729717052.583661,-1.331224,5.011741,138.526609,-0.089066,-0.019058,0.983826,-0.070993,0.011176,-0.037179,92.474976,37.589661,-147.636383,,,
729717052.586572,-1.331225,5.011741,99.913404,-0.089066,-0.019058,0.983826,-0.070993,0.011176,-0.037179,92.474976,37.589661,-147.636383,,,
729717052.587192,-1.331225,5.011743,102.990255,-0.089066,-0.019058,0.983826,-0.070993,0.011176,-0.037179,92.474976,37.589661,-147.636383,,,
729717052.587346,-1.331224,5.011741,138.526609,-0.089066,-0.019058,0.983826,-0.070993,0.011176,-0.037179,92.474976,37.589661,-147.636383,,,
729717052.590233,-1.354539,5.012276,99.90638,-0.093246,-0.022736,0.986099,-0.079592,0.002874,-0.03097,92.474976,37.589661,-147.636383,,,
729717052.591444,-1.354538,5.012279,102.983231,-0.093246,-0.022736,0.986099,-0.079592,0.002874,-0.03097,92.474976,37.589661,-147.636383,,,
729717052.591593,-1.354537,5.012276,138.519584,-0.093246,-0.022736,0.986099,-0.079592,0.002874,-0.03097,92.474976,37.589661,-147.636383,,,
729717052.592541,-1.354539,5.012276,99.90638,-0.093246,-0.022736,0.986099,-0.079592,0.002874,-0.03097,92.474976,37.589661,-147.636383,,,
729717052.592989,-1.354538,5.012279,102.983231,-0.093246,-0.022736,0.986099,-0.079592,0.002874,-0.03097,92.474976,37.589661,-147.636383,,,
729717052.593621,-1.378258,5.011552,138.513466,-0.093246,-0.022736,0.986099,-0.079592,0.002874,-0.03097,92.474976,37.589661,-147.636383,,,
729717052.596482,-1.378259,5.011552,99.900263,-0.093246,-0.022736,0.986099,-0.079592,0.002874,-0.03097,92.474976,37.589661,-147.636383,,,
729717052.596948,-1.378259,5.011554,102.977114,-0.093246,-0.022736,0.986099,-0.079592,0.002874,-0.03097,92.474976,37.589661,-147.636383,,,
729717052.597103,-1.378258,5.011552,138.513466,-0.093246,-0.022736,0.986099,-0.079592,0.002874,-0.03097,92.474976,37.589661,-147.636383,,,
729717052.60092,-1.400777,5.010053,99.893997,-0.092911,-0.024994,0.989487,-0.071571,-0.003423,-0.031332,92.474976,37.589661,-147.636383,,,
729717052.602518,-1.400776,5.010055,102.970848,-0.092911,-0.024994,0.989487,-0.071571,-0.003423,-0.031332,92.474976,37.589661,-147.636383,,,
729717052.602681,-1.400776,5.010053,138.5072,-0.092911,-0.024994,0.989487,-0.071571,-0.003423,-0.031332,92.474976,37.589661,-147.636383,,,
729717052.60289,-1.400777,5.010053,99.893997,-0.092911,-0.024994,0.989487,-0.071571,-0.003423,-0.031332,92.474976,37.589661,-147.636383,,,
729717052.603087,-1.400776,5.010055,102.970848,-0.092911,-0.024994,0.989487,-0.071571,-0.003423,-0.031332,92.474976,37.589661,-147.636383,,,
729717052.603613,-1.419567,5.00554,138.500104,-0.092911,-0.024994,0.989487,-0.071571,-0.003423,-0.031332,92.474976,37.589661,-147.636383,,,
729717052.606344,-1.419569,5.00554,99.886902,-0.092911,-0.024994,0.989487,-0.071571,-0.003423,-0.031332,92.474976,37.589661,-147.636383,,,
729717052.606958,-1.419568,5.005543,102.963753,-0.092911,-0.024994,0.989487,-0.071571,-0.003423,-0.031332,92.474976,37.589661,-147.636383,,,
729717052.607114,-1.419567,5.00554,138.500104,-0.092911,-0.024994,0.989487,-0.071571,-0.003423,-0.031332,92.474976,37.589661,-147.636383,,,
729717052.610646,-1.437821,5.002015,99.87941,-0.085068,-0.026428,0.996338,-0.056382,-0.009657,-0.033077,92.474976,37.589661,-147.636383,,,
729717052.611938,-1.437821,5.002017,102.956261,-0.085068,-0.026428,0.996338,-0.056382,-0.009657,-0.033077,92.474976,37.589661,-147.636383,,,
729717052.61209,-1.43782,5.002015,138.492612,-0.085068,-0.026428,0.996338,-0.056382,-0.009657,-0.033077,92.474976,37.589661,-147.636383,,,
729717052.612478,-1.437821,5.002015,99.87941,-0.085068,-0.026428,0.996338,-0.056382,-0.009657,-0.033077,92.474976,37.589661,-147.636383,,,
729717052.612995,-1.437821,5.002017,102.956261,-0.085068,-0.026428,0.996338,-0.056382,-0.009657,-0.033077,92.474976,37.589661,-147.636383,,,
729717052.613619,-1.451767,4.995671,138.485331,-0.085068,-0.026428,0.996338,-0.056382,-0.009657,-0.033077,92.474976,37.589661,-147.636383,,,
729717052.617266,-1.451769,4.995671,99.872126,-0.085068,-0.026428,0.996338,-0.056382,-0.009657,-0.033077,92.578217,37.801208,-147.422806,,,
729717052.618754,-1.451768,4.995674,102.948977,-0.085068,-0.026428,0.996338,-0.056382,-0.009657,-0.033077,92.578217,37.801208,-147.422806,,,
729717052.618956,-1.465345,4.992169,138.478664,-0.09053,-0.03273,1.000229,-0.041012,-0.009206,-0.028004,92.578217,37.801208,-147.422806,,,
729717052.619808,-1.465347,4.992168,99.865459,-0.09053,-0.03273,1.000229,-0.041012,-0.009206,-0.028004,92.578217,37.801208,-147.422806,,,
729717052.620781,-1.465346,4.992171,102.94231,-0.09053,-0.03273,1.000229,-0.041012,-0.009206,-0.028004,92.578217,37.801208,-147.422806,,,
729717052.620954,-1.465345,4.992169,138.478664,-0.09053,-0.03273,1.000229,-0.041012,-0.009206,-0.028004,92.578217,37.801208,-147.422806,,,
729717052.622646,-1.465347,4.992168,99.865459,-0.09053,-0.03273,1.000229,-0.041012,-0.009206,-0.028004,92.578217,37.801208,-147.422806,,,
729717052.622974,-1.465346,4.992171,102.94231,-0.09053,-0.03273,1.000229,-0.041012,-0.009206,-0.028004,92.578217,37.801208,-147.422806,,,
729717052.623619,-1.474909,4.985952,138.472725,-0.09053,-0.03273,1.000229,-0.041012,-0.009206,-0.028004,92.578217,37.801208,-147.422806,,,
729717052.62625,-1.47491,4.985952,99.859521,-0.09053,-0.03273,1.000229,-0.041012,-0.009206,-0.028004,92.578217,37.801208,-147.422806,,,
729717052.626464,-1.474909,4.985954,102.936372,-0.09053,-0.03273,1.000229,-0.041012,-0.009206,-0.028004,92.578217,37.801208,-147.422806,,,
729717052.626936,-1.474909,4.985952,138.472725,-0.09053,-0.03273,1.000229,-0.041012,-0.009206,-0.028004,92.578217,37.801208,-147.422806,,,
729717052.63019,-1.485438,4.982152,99.85534,-0.094666,-0.035385,1.001465,-0.03567,-0.010145,-0.015668,92.578217,37.801208,-147.422806,,,
729717052.631303,-1.485438,4.982154,102.932191,-0.094666,-0.035385,1.001465,-0.03567,-0.010145,-0.015668,92.578217,37.801208,-147.422806,,,
729717052.631457,-1.485437,4.982152,138.468544,-0.094666,-0.035385,1.001465,-0.03567,-0.010145,-0.015668,92.578217,37.801208,-147.422806,,,
729717052.632567,-1.485438,4.982152,99.85534,-0.094666,-0.035385,1.001465,-0.03567,-0.010145,-0.015668,92.578217,37.801208,-147.422806,,,
729717052.632984,-1.485438,4.982154,102.932191,-0.094666,-0.035385,1.001465,-0.03567,-0.010145,-0.015668,92.578217,37.801208,-147.422806,,,
729717052.633642,-1.493708,4.975881,138.465255,-0.094666,-0.035385,1.001465,-0.03567,-0.010145,-0.015668,92.578217,37.801208,-147.422806,,,
729717052.636241,-1.49371,4.975881,99.852052,-0.094666,-0.035385,1.001465,-0.03567,-0.010145,-0.015668,92.578217,37.801208,-147.422806,,,
729717052.636444,-1.493709,4.975883,102.928902,-0.094666,-0.035385,1.001465,-0.03567,-0.010145,-0.015668,92.578217,37.801208,-147.422806,,,
729717052.636959,-1.493708,4.975881,138.465255,-0.094666,-0.035385,1.001465,-0.03567,-0.010145,-0.015668,92.578217,37.801208,-147.422806,,,
729717052.640847,-1.503805,4.971111,99.849495,-0.090927,-0.034958,0.997681,-0.034903,-0.014398,-0.010834,92.578217,37.801208,-147.422806,,,
729717052.642384,-1.503804,4.971113,102.926346,-0.090927,-0.034958,0.997681,-0.034903,-0.014398,-0.010834,92.578217,37.801208,-147.422806,,,
729717052.642596,-1.503803,4.971111,138.462699,-0.090927,-0.034958,0.997681,-0.034903,-0.014398,-0.010834,92.578217,37.801208,-147.422806,,,
729717052.642972,-1.503805,4.971111,99.849495,-0.090927,-0.034958,0.997681,-0.034903,-0.014398,-0.010834,92.578217,37.801208,-147.422806,,,
729717052.643205,-1.503804,4.971113,102.926346,-0.090927,-0.034958,0.997681,-0.034903,-0.014398,-0.010834,92.578217,37.801208,-147.422806,,,
729717052.64362,-1.512793,4.965054,138.460947,-0.090927,-0.034958,0.997681,-0.034903,-0.014398,-0.010834,92.578217,37.801208,-147.422806,,,
729717052.646324,-1.512794,4.965054,99.847744,-0.090927,-0.034958,0.997681,-0.034903,-0.014398,-0.010834,92.578217,37.801208,-147.422806,,,
729717052.646928,-1.512793,4.965056,102.924595,-0.090927,-0.034958,0.997681,-0.034903,-0.014398,-0.010834,92.578217,37.801208,-147.422806,,,
729717052.647086,-1.512793,4.965054,138.460947,-0.090927,-0.034958,0.997681,-0.034903,-0.014398,-0.010834,92.578217,37.801208,-147.422806,,,
729717052.650431,-1.525657,4.95863,99.845949,-0.084335,-0.030777,0.993744,-0.045752,-0.022121,-0.012193,92.578217,37.801208,-147.422806,,,
729717052.652009,-1.525657,4.958633,102.9228,-0.084335,-0.030777,0.993744,-0.045752,-0.022121,-0.012193,92.578217,37.801208,-147.422806,,,
729717052.652154,-1.525656,4.958631,138.459151,-0.084335,-0.030777,0.993744,-0.045752,-0.022121,-0.012193,92.578217,37.801208,-147.422806,,,
729717052.65245,-1.525657,4.95863,99.845949,-0.084335,-0.030777,0.993744,-0.045752,-0.022121,-0.012193,92.578217,37.801208,-147.422806,,,
729717052.652996,-1.525657,4.958633,102.9228,-0.084335,-0.030777,0.993744,-0.045752,-0.022121,-0.012193,92.578217,37.801208,-147.422806,,,
729717052.653618,-1.538273,4.952142,138.456566,-0.084335,-0.030777,0.993744,-0.045752,-0.022121,-0.012193,92.578217,37.801208,-147.422806,,,
729717052.65729,-1.538275,4.952141,99.84336,-0.084335,-0.030777,0.993744,-0.045752,-0.022121,-0.012193,92.538223,38.004593,-147.682816,,,
729717052.658466,-1.538274,4.952144,102.920211,-0.084335,-0.030777,0.993744,-0.045752,-0.022121,-0.012193,92.538223,38.004593,-147.682816,,,
729717052.658621,-1.554448,4.944265,138.452168,-0.077927,-0.020996,0.989105,-0.057003,-0.025821,-0.025769,92.538223,38.004593,-147.682816,,,
729717052.660213,-1.55445,4.944265,99.838961,-0.077927,-0.020996,0.989105,-0.057003,-0.025821,-0.025769,92.538223,38.004593,-147.682816,,,
729717052.661493,-1.554449,4.944267,102.915812,-0.077927,-0.020996,0.989105,-0.057003,-0.025821,-0.025769,92.538223,38.004593,-147.682816,,,
729717052.66165,-1.554448,4.944265,138.452168,-0.077927,-0.020996,0.989105,-0.057003,-0.025821,-0.025769,92.538223,38.004593,-147.682816,,,
729717052.662551,-1.55445,4.944265,99.838961,-0.077927,-0.020996,0.989105,-0.057003,-0.025821,-0.025769,92.538223,38.004593,-147.682816,,,
729717052.662993,-1.554449,4.944267,102.915812,-0.077927,-0.020996,0.989105,-0.057003,-0.025821,-0.025769,92.538223,38.004593,-147.682816,,,
729717052.663624,-1.571738,4.938014,138.445941,-0.077927,-0.020996,0.989105,-0.057003,-0.025821,-0.025769,92.538223,38.004593,-147.682816,,,
729717052.66654,-1.57174,4.938014,99.832736,-0.077927,-0.020996,0.989105,-0.057003,-0.025821,-0.025769,92.538223,38.004593,-147.682816,,,
729717052.667146,-1.571739,4.938016,102.909587,-0.077927,-0.020996,0.989105,-0.057003,-0.025821,-0.025769,92.538223,38.004593,-147.682816,,,
729717052.667298,-1.571738,4.938014,138.445941,-0.077927,-0.020996,0.989105,-0.057003,-0.025821,-0.025769,92.538223,38.004593,-147.682816,,,
729717052.670549,-1.592203,4.930482,99.824788,-0.073929,-0.016663,0.987137,-0.06981,-0.021529,-0.03852,92.538223,38.004593,-147.682816,,,
729717052.67195,-1.592202,4.930484,102.901638,-0.073929,-0.016663,0.987137,-0.06981,-0.021529,-0.03852,92.538223,38.004593,-147.682816,,,
729717052.672054,-1.592201,4.930482,138.437993,-0.073929,-0.016663,0.987137,-0.06981,-0.021529,-0.03852,92.538223,38.004593,-147.682816,,,
729717052.672432,-1.592203,4.930482,99.824788,-0.073929,-0.016663,0.987137,-0.06981,-0.021529,-0.03852,92.538223,38.004593,-147.682816,,,
729717052.672945,-1.592202,4.930484,102.901638,-0.073929,-0.016663,0.987137,-0.06981,-0.021529,-0.03852,92.538223,38.004593,-147.682816,,,
729717052.673587,-1.613161,4.926381,138.429001,-0.073929,-0.016663,0.987137,-0.06981,-0.021529,-0.03852,92.538223,38.004593,-147.682816,,,
729717052.676203,-1.613163,4.92638,99.815798,-0.073929,-0.016663,0.987137,-0.06981,-0.021529,-0.03852,92.538223,38.004593,-147.682816,,,
729717052.676616,-1.613162,4.926383,102.892648,-0.073929,-0.016663,0.987137,-0.06981,-0.021529,-0.03852,92.538223,38.004593,-147.682816,,,
729717052.676916,-1.613161,4.926381,138.429001,-0.073929,-0.016663,0.987137,-0.06981,-0.021529,-0.03852,92.538223,38.004593,-147.682816,,,
729717052.680067,-1.635921,4.921699,99.806564,-0.075516,-0.020477,0.991501,-0.077404,-0.010582,-0.040379,92.538223,38.004593,-147.682816,,,
729717052.680732,-1.635921,4.921702,102.883414,-0.075516,-0.020477,0.991501,-0.077404,-0.010582,-0.040379,92.538223,38.004593,-147.682816,,,
729717052.680812,-1.63592,4.921699,138.419767,-0.075516,-0.020477,0.991501,-0.077404,-0.010582,-0.040379,92.538223,38.004593,-147.682816,,,
729717052.682705,-1.635921,4.921699,99.806564,-0.075516,-0.020477,0.991501,-0.077404,-0.010582,-0.040379,92.538223,38.004593,-147.682816,,,
729717052.683014,-1.635921,4.921702,102.883414,-0.075516,-0.020477,0.991501,-0.077404,-0.010582,-0.040379,92.538223,38.004593,-147.682816,,,
729717052.683654,-1.658683,4.917807,138.410571,-0.075516,-0.020477,0.991501,-0.077404,-0.010582,-0.040379,92.538223,38.004593,-147.682816,,,
729717052.686649,-1.658685,4.917807,99.797367,-0.075516,-0.020477,0.991501,-0.077404,-0.010582,-0.040379,92.538223,38.004593,-147.682816,,,
729717052.687467,-1.658684,4.917809,102.874217,-0.075516,-0.020477,0.991501,-0.077404,-0.010582,-0.040379,92.538223,38.004593,-147.682816,,,
729717052.687675,-1.658683,4.917807,138.410571,-0.075516,-0.020477,0.991501,-0.077404,-0.010582,-0.040379,92.538223,38.004593,-147.682816,,,
729717052.690902,-1.682039,4.914813,99.788211,-0.078568,-0.026367,0.990585,-0.076757,-0.003753,-0.040024,92.538223,38.004593,-147.682816,,,
729717052.692309,-1.682038,4.914816,102.865062,-0.078568,-0.026367,0.990585,-0.076757,-0.003753,-0.040024,92.538223,38.004593,-147.682816,,,
729717052.692518,-1.682037,4.914813,138.401415,-0.078568,-0.026367,0.990585,-0.076757,-0.003753,-0.040024,92.538223,38.004593,-147.682816,,,
729717052.692922,-1.682039,4.914813,99.788211,-0.078568,-0.026367,0.990585,-0.076757,-0.003753,-0.040024,92.538223,38.004593,-147.682816,,,
729717052.693198,-1.682038,4.914816,102.865062,-0.078568,-0.026367,0.990585,-0.076757,-0.003753,-0.040024,92.538223,38.004593,-147.682816,,,
729717052.693638,-1.705308,4.914217,138.392565,-0.078568,-0.026367,0.990585,-0.076757,-0.003753,-0.040024,92.538223,38.004593,-147.682816,,,
729717052.696728,-1.705309,4.914217,99.779361,-0.078568,-0.026367,0.990585,-0.076757,-0.003753,-0.040024,92.538223,38.004593,-147.682816,,,
729717052.698219,-1.705309,4.91422,102.856212,-0.078568,-0.026367,0.990585,-0.076757,-0.003753,-0.040024,92.330368,38.095779,-147.382538,,,
729717052.698409,-1.705308,4.914217,138.392565,-0.078568,-0.026367,0.990585,-0.076757,-0.003753,-0.040024,92.330368,38.095779,-147.382538,,,
729717052.701681,-1.72777,4.915471,99.771193,-0.076401,-0.032364,0.99559,-0.073847,0.013336,-0.03487,92.330368,38.095779,-147.382538,,,
729717052.703782,-1.727769,4.915473,102.848043,-0.076401,-0.032364,0.99559,-0.073847,0.013336,-0.03487,92.330368,38.095779,-147.382538,,,
729717052.703958,-1.749577,4.921738,138.377147,-0.076401,-0.032364,0.99559,-0.073847,0.013336,-0.03487,92.330368,38.095779,-147.382538,,,
729717052.704563,-1.749579,4.921738,99.763944,-0.076401,-0.032364,0.99559,-0.073847,0.013336,-0.03487,92.330368,38.095779,-147.382538,,,
729717052.705939,-1.749579,4.921738,99.763944,-0.076401,-0.032364,0.99559,-0.073847,0.013336,-0.03487,92.330368,38.095779,-147.382538,,,
729717052.706726,-1.749578,4.921741,102.840795,-0.076401,-0.032364,0.99559,-0.073847,0.013336,-0.03487,92.330368,38.095779,-147.382538,,,
