Time (sec),Pitch (deg),Roll (deg),Yaw(deg),X-Acceleration (g),Y-Acceleration (g),Z-Acceleration (g),Pitch Rate (deg/sec),Roll Rate (deg/sec),Yaw Rate (deg/sec),Magnetic Field in X direction (uT),Magnetic Field in Y direction (uT),Magnetic Field in Z Direction (uT),Latitude (deg),Longitude (deg),Altitude (m)
729716055.984101,-37.695807,-1.128298,-87.103669,0.043533,-0.578842,0.812988,-0.983377,0.049119,-0.127626,65.319138,46.590668,-145.4785,,,
729716055.984322,-37.695796,-1.128302,-84.026789,0.043533,-0.578842,0.812988,-0.983377,0.049119,-0.127626,65.319138,46.590668,-145.4785,,,
729716055.988938,-37.968295,-1.155556,-87.16248,0.043533,-0.578842,0.812988,-0.929613,0.024522,-0.157625,65.319138,46.590668,-145.4785,,,
729716055.989168,-37.968283,-1.15556,-84.0856,0.043533,-0.578842,0.812988,-0.929613,0.024522,-0.157625,65.319138,46.590668,-145.4785,,,
729716055.991675,-38.234528,-1.188359,-87.22591,0.043564,-0.583542,0.788361,-0.929613,0.024522,-0.157625,65.319138,46.590668,-145.4785,,,
729716055.991895,-38.234517,-1.188363,-84.149031,0.043564,-0.583542,0.788361,-0.929613,0.024522,-0.157625,65.319138,46.590668,-145.4785,,,
729716055.994119,-38.234528,-1.188359,-87.22591,0.043564,-0.583542,0.788361,-0.929613,0.024522,-0.157625,65.319138,46.590668,-145.4785,,,
729716055.994437,-38.234517,-1.188363,-84.149031,0.043564,-0.583542,0.788361,-0.929613,0.024522,-0.157625,65.319138,46.590668,-145.4785,,,
729716055.999008,-38.497703,-1.225426,-87.292399,0.043564,-0.583542,0.788361,-0.9153,0.007203,-0.16857,65.319138,46.590668,-145.4785,,,
729716055.999265,-38.497692,-1.22543,-84.215519,0.043564,-0.583542,0.788361,-0.9153,0.007203,-0.16857,65.319138,46.590668,-145.4785,,,
729716056.00273,-38.760479,-1.266455,-87.36045,0.030411,-0.596252,0.768112,-0.9153,0.007203,-0.16857,65.305923,48.290558,-144.529388,,,
729716056.002995,-38.760467,-1.266459,-84.28357,0.030411,-0.596252,0.768112,-0.9153,0.007203,-0.16857,65.305923,48.290558,-144.529388,,,
729716056.003955,-38.760479,-1.266455,-87.36045,0.030411,-0.596252,0.768112,-0.9153,0.007203,-0.16857,65.305923,48.290558,-144.529388,,,
729716056.00435,-38.760467,-1.266459,-84.28357,0.030411,-0.596252,0.768112,-0.9153,0.007203,-0.16857,65.305923,48.290558,-144.529388,,,
729716056.009599,-39.025762,-1.311893,-87.429489,0.030411,-0.596252,0.768112,-0.947402,-0.01715,-0.167695,65.305923,48.290558,-144.529388,,,
729716056.009817,-39.02575,-1.311897,-84.35261,0.030411,-0.596252,0.768112,-0.947402,-0.01715,-0.167695,65.305923,48.290558,-144.529388,,,
729716056.011782,-39.296923,-1.362154,-87.499614,0.024399,-0.605103,0.739304,-0.947402,-0.01715,-0.167695,65.305923,48.290558,-144.529388,,,
729716056.013188,-39.296912,-1.362158,-84.422734,0.024399,-0.605103,0.739304,-0.947402,-0.01715,-0.167695,65.305923,48.290558,-144.529388,,,
729716056.013951,-39.296923,-1.362154,-87.499614,0.024399,-0.605103,0.739304,-0.947402,-0.01715,-0.167695,65.305923,48.290558,-144.529388,,,
729716056.014301,-39.296912,-1.362158,-84.422734,0.024399,-0.605103,0.739304,-0.947402,-0.01715,-0.167695,65.305923,48.290558,-144.529388,,,
729716056.018906,-39.577313,-1.416464,-87.570647,0.024399,-0.605103,0.739304,-1.015989,-0.039951,-0.169459,65.305923,48.290558,-144.529388,,,
729716056.01915,-39.577302,-1.416468,-84.493768,0.024399,-0.605103,0.739304,-1.015989,-0.039951,-0.169459,65.305923,48.290558,-144.529388,,,
729716056.021745,-39.577313,-1.474391,-87.64274,0.029114,-0.610672,0.71492,-1.015989,-0.039951,-0.169459,65.305923,48.290558,-144.529388,,,
729716056.021945,-39.869399,-1.474395,-84.56586,0.029114,-0.610672,0.71492,-1.015989,-0.039951,-0.169459,65.305923,48.290558,-144.529388,,,
729716056.024478,-39.869411,-1.474391,-87.64274,0.029114,-0.610672,0.71492,-1.015989,-0.039951,-0.169459,65.305923,48.290558,-144.529388,,,
729716056.024699,-39.869399,-1.474395,-84.56586,0.029114,-0.610672,0.71492,-1.015989,-0.039951,-0.169459,65.305923,48.290558,-144.529388,,,
729716056.02904,-40.175334,-1.53602,-87.717087,0.029114,-0.610672,0.71492,-1.12149,-0.055295,-0.176493,65.305923,48.290558,-144.529388,,,
729716056.029282,-40.175322,-1.536024,-84.640207,0.029114,-0.610672,0.71492,-1.12149,-0.055295,-0.176493,65.305923,48.290558,-144.529388,,,
729716056.032109,-40.497085,-1.602306,-87.794518,0.032761,-0.619904,0.698029,-1.12149,-0.055295,-0.176493,65.305923,48.290558,-144.529388,,,
729716056.032369,-40.497073,-1.60231,-84.717638,0.032761,-0.619904,0.698029,-1.12149,-0.055295,-0.176493,65.305923,48.290558,-144.529388,,,
729716056.034034,-40.497085,-1.602306,-87.794518,0.032761,-0.619904,0.698029,-1.12149,-0.055295,-0.176493,65.305923,48.290558,-144.529388,,,
729716056.034272,-40.497073,-1.60231,-84.717638,0.032761,-0.619904,0.698029,-1.12149,-0.055295,-0.176493,65.305923,48.290558,-144.529388,,,
729716056.038813,-40.837559,-1.674236,-87.875088,0.032761,-0.619904,0.698029,-1.264467,-0.078118,-0.18447,65.305923,48.290558,-144.529388,,,
729716056.039045,-40.837546,-1.67424,-84.798208,0.032761,-0.619904,0.698029,-1.264467,-0.078118,-0.18447,65.305923,48.290558,-144.529388,,,
729716056.041748,-40.837559,-1.674236,-87.875088,0.029541,-0.628006,0.671371,-1.264467,-0.078118,-0.18447,64.962341,50.425903,-143.016479,,,
729716056.041982,-41.199445,-1.752484,-84.882615,0.029541,-0.628006,0.671371,-1.264467,-0.078118,-0.18447,64.962341,50.425903,-143.016479,,,
729716056.044931,-41.199458,-1.75248,-87.959495,0.029541,-0.628006,0.671371,-1.264467,-0.078118,-0.18447,64.962341,50.425903,-143.016479,,,
729716056.045245,-41.199445,-1.752484,-84.882615,0.029541,-0.628006,0.671371,-1.264467,-0.078118,-0.18447,64.962341,50.425903,-143.016479,,,
729716056.048974,-41.582771,-1.837542,-88.048794,0.029541,-0.628006,0.671371,-1.413572,-0.094673,-0.200922,64.962341,50.425903,-143.016479,,,
729716056.049214,-41.582758,-1.837546,-84.971914,0.029541,-0.628006,0.671371,-1.413572,-0.094673,-0.200922,64.962341,50.425903,-143.016479,,,
729716056.051974,-41.986702,-1.92924,-88.143906,0.030136,-0.637589,0.647751,-1.413572,-0.094673,-0.200922,64.962341,50.425903,-143.016479,,,
729716056.052214,-41.986689,-1.929244,-85.067025,0.030136,-0.637589,0.647751,-1.413572,-0.094673,-0.200922,64.962341,50.425903,-143.016479,,,
729716056.054054,-41.986702,-1.92924,-88.143906,0.030136,-0.637589,0.647751,-1.413572,-0.094673,-0.200922,64.962341,50.425903,-143.016479,,,
729716056.054285,-41.986689,-1.929244,-85.067025,0.030136,-0.637589,0.647751,-1.413572,-0.094673,-0.200922,64.962341,50.425903,-143.016479,,,
729716056.058761,-42.40946,-2.026574,-88.245784,0.030136,-0.637589,0.647751,-1.542525,-0.090923,-0.22507,64.962341,50.425903,-143.016479,,,
729716056.059014,-42.409446,-2.026578,-85.168903,0.030136,-0.637589,0.647751,-1.542525,-0.090923,-0.22507,64.962341,50.425903,-143.016479,,,
729716056.061159,-42.40946,-2.026574,-88.354333,0.032852,-0.650146,0.645081,-1.542525,-0.090923,-0.22507,64.962341,50.425903,-143.016479,,,
729716056.06147,-42.849497,-2.12692,-85.277453,0.032852,-0.650146,0.645081,-1.542525,-0.090923,-0.22507,64.962341,50.425903,-143.016479,,,
729716056.064794,-42.849511,-2.126916,-88.354333,0.032852,-0.650146,0.645081,-1.542525,-0.090923,-0.22507,64.962341,50.425903,-143.016479,,,
729716056.065022,-42.849497,-2.12692,-85.277453,0.032852,-0.650146,0.645081,-1.542525,-0.090923,-0.22507,64.962341,50.425903,-143.016479,,,
729716056.068869,-43.304449,-2.227181,-88.468948,0.032852,-0.650146,0.645081,-1.637723,-0.048605,-0.241119,64.962341,50.425903,-143.016479,,,
729716056.0691,-43.304435,-2.227185,-85.392068,0.032852,-0.650146,0.645081,-1.637723,-0.048605,-0.241119,64.962341,50.425903,-143.016479,,,
729716056.071307,-43.304449,-2.227181,-88.589619,0.034515,-0.66188,0.655411,-1.637723,-0.048605,-0.241119,64.962341,50.425903,-143.016479,,,
729716056.071519,-43.771649,-2.325138,-85.512738,0.034515,-0.66188,0.655411,-1.637723,-0.048605,-0.241119,64.962341,50.425903,-143.016479,,,
729716056.074894,-43.771663,-2.325134,-88.589619,0.034515,-0.66188,0.655411,-1.637723,-0.048605,-0.241119,64.962341,50.425903,-143.016479,,,
729716056.075127,-43.771649,-2.325138,-85.512738,0.034515,-0.66188,0.655411,-1.637723,-0.048605,-0.241119,64.962341,50.425903,-143.016479,,,
729716056.080034,-44.247439,-2.419522,-88.715858,0.034515,-0.66188,0.655411,-1.679875,0.009506,-0.251883,64.962341,50.425903,-143.016479,,,
729716056.080524,-44.247425,-2.419526,-85.638977,0.034515,-0.66188,0.655411,-1.679875,0.009506,-0.251883,64.962341,50.425903,-143.016479,,,
729716056.082689,-44.247439,-2.508477,-88.845717,0.038239,-0.678818,0.667007,-1.679875,0.009506,-0.251883,64.42717,53.6194,-141.049637,,,
729716056.08296,-44.726226,-2.508482,-85.768836,0.038239,-0.678818,0.667007,-1.679875,0.009506,-0.251883,64.42717,53.6194,-141.049637,,,
729716056.084326,-44.72624,-2.508477,-88.845717,0.038239,-0.678818,0.667007,-1.679875,0.009506,-0.251883,64.42717,53.6194,-141.049637,,,
729716056.084537,-44.726226,-2.508482,-85.768836,0.038239,-0.678818,0.667007,-1.679875,0.009506,-0.251883,64.42717,53.6194,-141.049637,,,
729716056.088752,-45.205748,-2.588772,-88.976645,0.038239,-0.678818,0.667007,-1.680715,0.081331,-0.242881,64.42717,53.6194,-141.049637,,,
729716056.088988,-45.205733,-2.588777,-85.899764,0.038239,-0.678818,0.667007,-1.680715,0.081331,-0.242881,64.42717,53.6194,-141.049637,,,
729716056.090713,-45.205748,-2.588772,-88.976645,0.038239,-0.678818,0.667007,-1.680715,0.081331,-0.242881,64.42717,53.6194,-141.049637,,,
729716056.090933,-45.684632,-2.658578,-86.028571,0.037766,-0.700241,0.683258,-1.680715,0.081331,-0.242881,64.42717,53.6194,-141.049637,,,
729716056.0955,-45.684647,-2.658574,-89.105453,0.037766,-0.700241,0.683258,-1.680715,0.081331,-0.242881,64.42717,53.6194,-141.049637,,,
729716056.095765,-46.158557,-2.717441,-86.152713,0.037766,-0.700241,0.683258,-1.633112,0.137664,-0.205141,64.42717,53.6194,-141.049637,,,
729716056.098771,-46.158572,-2.717437,-89.229594,0.037766,-0.700241,0.683258,-1.633112,0.137664,-0.205141,64.42717,53.6194,-141.049637,,,
729716056.099005,-46.158557,-2.717441,-86.152713,0.037766,-0.700241,0.683258,-1.633112,0.137664,-0.205141,64.42717,53.6194,-141.049637,,,
729716056.10142,-46.158572,-2.717437,-89.229594,0.026031,-0.717911,0.687546,-1.633112,0.137664,-0.205141,64.42717,53.6194,-141.049637,,,
729716056.101639,-46.624078,-2.764247,-86.270103,0.026031,-0.717911,0.687546,-1.633112,0.137664,-0.205141,64.42717,53.6194,-141.049637,,,
729716056.104986,-46.624093,-2.764243,-89.346984,0.026031,-0.717911,0.687546,-1.633112,0.137664,-0.205141,64.42717,53.6194,-141.049637,,,
729716056.105208,-46.624078,-2.764247,-86.270103,0.026031,-0.717911,0.687546,-1.633112,0.137664,-0.205141,64.42717,53.6194,-141.049637,,,
729716056.108834,-47.077931,-2.799541,-89.455759,0.026031,-0.717911,0.687546,-1.536585,0.168878,-0.161111,64.42717,53.6194,-141.049637,,,
729716056.109066,-47.077915,-2.799546,-86.378878,0.026031,-0.717911,0.687546,-1.536585,0.168878,-0.161111,64.42717,53.6194,-141.049637,,,
729716056.11169,-47.077931,-2.799541,-89.55532,0.016907,-0.738998,0.696869,-1.536585,0.168878,-0.161111,64.42717,53.6194,-141.049637,,,
729716056.11202,-47.516757,-2.825632,-86.478438,0.016907,-0.738998,0.696869,-1.536585,0.168878,-0.161111,64.42717,53.6194,-141.049637,,,
729716056.114746,-47.516773,-2.825628,-89.55532,0.016907,-0.738998,0.696869,-1.536585,0.168878,-0.161111,64.42717,53.6194,-141.049637,,,
729716056.114974,-47.516757,-2.825632,-86.478438,0.016907,-0.738998,0.696869,-1.536585,0.168878,-0.161111,64.42717,53.6194,-141.049637,,,
729716056.118902,-47.938554,-2.845275,-89.644775,0.016907,-0.738998,0.696869,-1.412847,0.150917,-0.116759,64.42717,53.6194,-141.049637,,,
729716056.119159,-47.938537,-2.845279,-86.567893,0.016907,-0.738998,0.696869,-1.412847,0.150917,-0.116759,64.42717,53.6194,-141.049637,,,
729716056.120674,-47.938554,-2.845275,-89.644775,0.016907,-0.738998,0.696869,-1.412847,0.150917,-0.116759,64.42717,53.6194,-141.049637,,,
729716056.120932,-48.342071,-2.860895,-86.647381,0.008377,-0.757111,0.695969,-1.412847,0.150917,-0.116759,64.42717,53.6194,-141.049637,,,
729716056.126146,-48.342088,-2.860891,-89.724263,0.008377,-0.757111,0.695969,-1.412847,0.150917,-0.116759,64.488174,56.404251,-138.988831,,,
729716056.126396,-48.726122,-2.871422,-86.717968,0.008377,-0.757111,0.695969,-1.269515,0.15369,-0.081955,64.488174,56.404251,-138.988831,,,
729716056.12848,-48.726139,-2.871418,-89.79485,0.008377,-0.757111,0.695969,-1.269515,0.15369,-0.081955,64.488174,56.404251,-138.988831,,,
729716056.128814,-48.726122,-2.871422,-86.717968,0.008377,-0.757111,0.695969,-1.269515,0.15369,-0.081955,64.488174,56.404251,-138.988831,,,
729716056.130773,-48.726139,-2.871418,-89.79485,0.008377,-0.757111,0.695969,-1.269515,0.15369,-0.081955,64.488174,56.404251,-138.988831,,,
729716056.131008,-49.088899,-2.875709,-86.780756,0.003326,-0.766083,0.694687,-1.269515,0.15369,-0.081955,64.488174,56.404251,-138.988831,,,
729716056.135907,-49.088916,-2.875705,-89.857638,0.003326,-0.766083,0.694687,-1.269515,0.15369,-0.081955,64.488174,56.404251,-138.988831,,,
729716056.136188,-49.42748,-2.874825,-86.837717,0.003326,-0.766083,0.694687,-1.096356,0.159639,-0.064858,64.488174,56.404251,-138.988831,,,
729716056.138891,-49.427497,-2.874821,-89.914599,0.003326,-0.766083,0.694687,-1.096356,0.159639,-0.064858,64.488174,56.404251,-138.988831,,,
729716056.139151,-49.42748,-2.874825,-86.837717,0.003326,-0.766083,0.694687,-1.096356,0.159639,-0.064858,64.488174,56.404251,-138.988831,,,
729716056.140788,-49.427497,-2.874821,-89.914599,0.003326,-0.766083,0.694687,-1.096356,0.159639,-0.064858,64.488174,56.404251,-138.988831,,,
729716056.141008,-49.74032,-2.869661,-86.889394,0.009857,-0.768478,0.710678,-1.096356,0.159639,-0.064858,64.488174,56.404251,-138.988831,,,
729716056.145314,-49.740337,-2.869656,-89.966276,0.009857,-0.768478,0.710678,-1.096356,0.159639,-0.064858,64.488174,56.404251,-138.988831,,,
729716056.145605,-49.74032,-2.869661,-86.889394,0.009857,-0.768478,0.710678,-1.096356,0.159639,-0.064858,64.488174,56.404251,-138.988831,,,
729716056.148651,-50.026232,-2.861296,-90.01288,0.009857,-0.768478,0.710678,-0.9009,0.158835,-0.048406,64.488174,56.404251,-138.988831,,,
729716056.148886,-50.026215,-2.861301,-86.935998,0.009857,-0.768478,0.710678,-0.9009,0.158835,-0.048406,64.488174,56.404251,-138.988831,,,
729716056.150711,-50.026232,-2.861296,-90.01288,0.009857,-0.768478,0.710678,-0.9009,0.158835,-0.048406,64.488174,56.404251,-138.988831,,,
729716056.150935,-50.284802,-2.848925,-86.97803,0.010864,-0.775024,0.716431,-0.9009,0.158835,-0.048406,64.488174,56.404251,-138.988831,,,
729716056.155439,-50.28482,-2.84892,-90.054912,0.010864,-0.775024,0.716431,-0.9009,0.158835,-0.048406,64.488174,56.404251,-138.988831,,,
729716056.155729,-50.284802,-2.831467,-87.015114,0.010864,-0.775024,0.716431,-0.9009,0.158835,-0.048406,64.488174,56.404251,-138.988831,,,
729716056.158588,-50.516329,-2.831462,-90.091996,0.010864,-0.775024,0.716431,-0.719021,0.160426,-0.036691,64.488174,56.404251,-138.988831,,,
729716056.158825,-50.516311,-2.831467,-87.015114,0.010864,-0.775024,0.716431,-0.719021,0.160426,-0.036691,64.488174,56.404251,-138.988831,,,
729716056.160755,-50.516329,-2.831462,-90.091996,0.010864,-0.775024,0.716431,-0.719021,0.160426,-0.036691,64.488174,56.404251,-138.988831,,,
729716056.161047,-50.722513,-2.81129,-87.047272,0.00705,-0.78331,0.723236,-0.719021,0.160426,-0.036691,64.488174,56.404251,-138.988831,,,
729716056.16574,-50.722531,-2.811286,-90.124155,0.00705,-0.78331,0.723236,-0.719021,0.160426,-0.036691,64.709351,57.900894,-137.46756,,,
729716056.165985,-50.90407,-2.790285,-87.074631,0.00705,-0.78331,0.723236,-0.544952,0.14685,-0.023447,64.709351,57.900894,-137.46756,,,
729716056.168777,-50.904088,-2.79028,-90.151514,0.00705,-0.78331,0.723236,-0.544952,0.14685,-0.023447,64.709351,57.900894,-137.46756,,,
729716056.169007,-50.90407,-2.790285,-87.074631,0.00705,-0.78331,0.723236,-0.544952,0.14685,-0.023447,64.709351,57.900894,-137.46756,,,
729716056.17074,-50.904088,-2.79028,-90.151514,0.00705,-0.78331,0.723236,-0.544952,0.14685,-0.023447,64.709351,57.900894,-137.46756,,,
729716056.170983,-51.060043,-2.766219,-87.096788,0.007416,-0.786682,0.703934,-0.544952,0.14685,-0.023447,64.709351,57.900894,-137.46756,,,
729716056.175629,-51.060061,-2.766214,-90.173671,0.007416,-0.786682,0.703934,-0.544952,0.14685,-0.023447,64.709351,57.900894,-137.46756,,,
729716056.175869,-51.189617,-2.736882,-87.114134,0.007416,-0.786682,0.703934,-0.544952,0.14685,-0.023447,64.709351,57.900894,-137.46756,,,
729716056.178735,-51.189635,-2.736877,-90.191017,0.007416,-0.786682,0.703934,-0.361938,0.162871,-0.016887,64.709351,57.900894,-137.46756,,,
729716056.179072,-51.189617,-2.736882,-87.114134,0.007416,-0.786682,0.703934,-0.361938,0.162871,-0.016887,64.709351,57.900894,-137.46756,,,
729716056.180741,-51.189635,-2.736877,-90.191017,0.007416,-0.786682,0.703934,-0.361938,0.162871,-0.016887,64.709351,57.900894,-137.46756,,,
729716056.180954,-51.293102,-2.703193,-87.128634,0.010574,-0.797379,0.722565,-0.361938,0.162871,-0.016887,64.709351,57.900894,-137.46756,,,
729716056.185446,-51.293121,-2.703189,-90.205517,0.010574,-0.797379,0.722565,-0.361938,0.162871,-0.016887,64.709351,57.900894,-137.46756,,,
729716056.185724,-51.293102,-2.703193,-87.128634,0.010574,-0.797379,0.722565,-0.361938,0.162871,-0.016887,64.709351,57.900894,-137.46756,,,
729716056.188576,-51.371379,-2.669004,-90.218693,0.010574,-0.797379,0.722565,-0.188483,0.142056,-0.020226,64.709351,57.900894,-137.46756,,,
729716056.188805,-51.371361,-2.669009,-87.14181,0.010574,-0.797379,0.722565,-0.188483,0.142056,-0.020226,64.709351,57.900894,-137.46756,,,
729716056.191058,-51.371379,-2.669004,-90.218693,0.017685,-0.804718,0.72406,-0.188483,0.142056,-0.020226,64.709351,57.900894,-137.46756,,,
729716056.191264,-51.426057,-2.638523,-87.154012,0.017685,-0.804718,0.72406,-0.188483,0.142056,-0.020226,64.709351,57.900894,-137.46756,,,
729716056.195053,-51.426075,-2.638518,-90.230895,0.017685,-0.804718,0.72406,-0.188483,0.142056,-0.020226,64.709351,57.900894,-137.46756,,,
729716056.195279,-51.426057,-2.638523,-87.154012,0.017685,-0.804718,0.72406,-0.188483,0.142056,-0.020226,64.709351,57.900894,-137.46756,,,
729716056.198659,-51.459117,-2.61369,-90.241951,0.017685,-0.804718,0.72406,-0.047659,0.097525,-0.023815,64.709351,57.900894,-137.46756,,,
729716056.198904,-51.459099,-2.613694,-87.165068,0.017685,-0.804718,0.72406,-0.047659,0.097525,-0.023815,64.709351,57.900894,-137.46756,,,
729716056.200756,-51.459117,-2.61369,-90.241951,0.017685,-0.804718,0.72406,-0.047659,0.097525,-0.023815,64.709351,57.900894,-137.46756,,,
729716056.200956,-51.459099,-2.595681,-87.175744,0.011963,-0.814072,0.700287,-0.047659,0.097525,-0.023815,64.709351,57.900894,-137.46756,,,
729716056.206424,-51.472129,-2.595676,-90.252627,0.011963,-0.814072,0.700287,-0.047659,0.097525,-0.023815,65.060593,58.041992,-137.363159,,,
729716056.206709,-51.465987,-2.583562,-87.187225,0.011963,-0.814072,0.700287,0.086628,0.067102,-0.035442,65.060593,58.041992,-137.363159,,,
729716056.209468,-51.466005,-2.583558,-90.264108,0.011963,-0.814072,0.700287,0.086628,0.067102,-0.035442,65.060593,58.041992,-137.363159,,,
729716056.209733,-51.465987,-2.583562,-87.187225,0.011963,-0.814072,0.700287,0.086628,0.067102,-0.035442,65.060593,58.041992,-137.363159,,,
729716056.21061,-51.466005,-2.583558,-90.264108,0.011963,-0.814072,0.700287,0.086628,0.067102,-0.035442,65.060593,58.041992,-137.363159,,,
729716056.211099,-51.441294,-2.575608,-87.200676,0.005386,-0.818436,0.697693,0.086628,0.067102,-0.035442,65.060593,58.041992,-137.363159,,,
729716056.215092,-51.441313,-2.575603,-90.277559,0.005386,-0.818436,0.697693,0.086628,0.067102,-0.035442,65.060593,58.041992,-137.363159,,,
729716056.215332,-51.441294,-2.575608,-87.200676,0.005386,-0.818436,0.697693,0.086628,0.067102,-0.035442,65.060593,58.041992,-137.363159,,,
729716056.218859,-51.399242,-2.571673,-90.294279,0.005386,-0.818436,0.697693,0.196049,0.060034,-0.053567,65.060593,58.041992,-137.363159,,,
729716056.219109,-51.399224,-2.571677,-87.217396,0.005386,-0.818436,0.697693,0.196049,0.060034,-0.053567,65.060593,58.041992,-137.363159,,,
729716056.220738,-51.399242,-2.571673,-90.294279,0.005386,-0.818436,0.697693,0.196049,0.060034,-0.053567,65.060593,58.041992,-137.363159,,,
729716056.220999,-51.399224,-2.571129,-87.237025,0.014435,-0.813324,0.714691,0.196049,0.060034,-0.053567,65.060593,58.041992,-137.363159,,,
729716056.225142,-51.342911,-2.571125,-90.313908,0.014435,-0.813324,0.714691,0.196049,0.060034,-0.053567,65.060593,58.041992,-137.363159,,,
729716056.225375,-51.342893,-2.571129,-87.237025,0.014435,-0.813324,0.714691,0.196049,0.060034,-0.053567,65.060593,58.041992,-137.363159,,,
729716056.228597,-51.276751,-2.573656,-90.335036,0.014435,-0.813324,0.714691,0.247189,0.040427,-0.061654,65.060593,58.041992,-137.363159,,,
729716056.228964,-51.276733,-2.57366,-87.258153,0.014435,-0.813324,0.714691,0.247189,0.040427,-0.061654,65.060593,58.041992,-137.363159,,,
729716056.230729,-51.276751,-2.573656,-90.335036,0.014435,-0.813324,0.714691,0.247189,0.040427,-0.061654,65.060593,58.041992,-137.363159,,,
729716056.230937,-51.276733,-2.57366,-87.280194,0.014435,-0.813324,0.714691,0.247189,0.040427,-0.061654,65.060593,58.041992,-137.363159,,,
729716056.235454,-51.205246,-2.579803,-90.357077,0.017715,-0.813339,0.701569,0.247189,0.040427,-0.061654,65.060593,58.041992,-137.363159,,,
729716056.235724,-51.205228,-2.579808,-87.280194,0.017715,-0.813339,0.701569,0.247189,0.040427,-0.061654,65.060593,58.041992,-137.363159,,,
729716056.238886,-51.132878,-2.587653,-90.379088,0.017715,-0.813339,0.701569,0.240454,0.034616,-0.056919,65.060593,58.041992,-137.363159,,,
729716056.239144,-51.13286,-2.587657,-87.302206,0.017715,-0.813339,0.701569,0.240454,0.034616,-0.056919,65.060593,58.041992,-137.363159,,,
729716056.240743,-51.132878,-2.587653,-90.379088,0.017715,-0.813339,0.701569,0.240454,0.034616,-0.056919,65.060593,58.041992,-137.363159,,,
729716056.240953,-51.13286,-2.587657,-87.302206,0.015472,-0.820221,0.673843,0.240454,0.034616,-0.056919,65.060593,58.041992,-137.363159,,,
729716056.245856,-51.063344,-2.59351,-90.399039,0.015472,-0.820221,0.673843,0.240454,0.034616,-0.056919,65.02829,57.83757,-137.501816,,,
729716056.246138,-51.000186,-2.594343,-87.338752,0.015472,-0.820221,0.673843,0.188361,0.060953,-0.036989,65.02829,57.83757,-137.501816,,,
729716056.248457,-51.000203,-2.594338,-90.415635,0.015472,-0.820221,0.673843,0.188361,0.060953,-0.036989,65.02829,57.83757,-137.501816,,,
729716056.248681,-51.000186,-2.594343,-87.338752,0.015472,-0.820221,0.673843,0.188361,0.060953,-0.036989,65.02829,57.83757,-137.501816,,,
729716056.250772,-51.000203,-2.594338,-90.415635,0.015472,-0.820221,0.673843,0.188361,0.060953,-0.036989,65.02829,57.83757,-137.501816,,,
729716056.250961,-51.000186,-2.594343,-87.350754,0.015472,-0.820221,0.673843,0.188361,0.060953,-0.036989,65.02829,57.83757,-137.501816,,,
729716056.255056,-50.94602,-2.587633,-90.427637,0.020828,-0.824692,0.656281,0.188361,0.060953,-0.036989,65.02829,57.83757,-137.501816,,,
729716056.255291,-50.946002,-2.587637,-87.350754,0.020828,-0.824692,0.656281,0.188361,0.060953,-0.036989,65.02829,57.83757,-137.501816,,,
729716056.258635,-50.902596,-2.57217,-90.434256,0.020828,-0.824692,0.656281,0.110559,0.088109,-0.007923,65.02829,57.83757,-137.501816,,,
729716056.258879,-50.902578,-2.572175,-87.357373,0.020828,-0.824692,0.656281,0.110559,0.088109,-0.007923,65.02829,57.83757,-137.501816,,,
729716056.260771,-50.902596,-2.57217,-90.434256,0.020828,-0.824692,0.656281,0.110559,0.088109,-0.007923,65.02829,57.83757,-137.501816,,,
729716056.261071,-50.902578,-2.549076,-87.359258,0.025711,-0.826385,0.644424,0.110559,0.088109,-0.007923,65.02829,57.83757,-137.501816,,,
729716056.265709,-50.871359,-2.549072,-90.436141,0.025711,-0.826385,0.644424,0.110559,0.088109,-0.007923,65.02829,57.83757,-137.501816,,,
729716056.266006,-50.852115,-2.518906,-87.356337,0.025711,-0.826385,0.644424,0.110559,0.088109,-0.007923,65.02829,57.83757,-137.501816,,,
729716056.269801,-50.852133,-2.518902,-90.433219,0.025711,-0.826385,0.644424,0.032905,0.113881,0.011482,65.02829,57.83757,-137.501816,,,
729716056.27008,-50.852115,-2.518906,-87.356337,0.025711,-0.826385,0.644424,0.032905,0.113881,0.011482,65.02829,57.83757,-137.501816,,,
729716056.270578,-50.852133,-2.518902,-90.433219,0.025711,-0.826385,0.644424,0.032905,0.113881,0.011482,65.02829,57.83757,-137.501816,,,
729716056.271036,-50.852115,-2.518906,-87.356337,0.025711,-0.826385,0.644424,0.032905,0.113881,0.011482,65.02829,57.83757,-137.501816,,,
729716056.275072,-50.844256,-2.481918,-90.425988,0.031708,-0.821365,0.638992,0.032905,0.113881,0.011482,65.02829,57.83757,-137.501816,,,
729716056.275308,-50.844238,-2.481923,-87.349106,0.031708,-0.821365,0.638992,0.032905,0.113881,0.011482,65.02829,57.83757,-137.501816,,,
729716056.279774,-50.845764,-2.440144,-90.416257,0.031708,-0.821365,0.638992,-0.041519,0.132337,0.020858,65.02829,57.83757,-137.501816,,,
729716056.280247,-50.845746,-2.440149,-87.339374,0.031708,-0.821365,0.638992,-0.041519,0.132337,0.020858,65.02829,57.83757,-137.501816,,,
729716056.280561,-50.845764,-2.440144,-90.416257,0.031708,-0.821365,0.638992,-0.041519,0.132337,0.020858,65.02829,57.83757,-137.501816,,,
729716056.280981,-50.845746,-2.440149,-87.339374,0.031708,-0.821365,0.638992,-0.041519,0.132337,0.020858,65.02829,57.83757,-137.501816,,,
729716056.285547,-50.857148,-2.395025,-90.404789,0.036758,-0.806976,0.642975,-0.041519,0.132337,0.020858,65.02829,57.83757,-137.501816,,,
729716056.285828,-50.85713,-2.39503,-87.327906,0.036758,-0.806976,0.642975,-0.041519,0.132337,0.020858,65.02829,57.83757,-137.501816,,,
729716056.289214,-50.878364,-2.34769,-90.392227,0.036758,-0.806976,0.642975,-0.100816,0.13349,0.03148,65.087189,57.777039,-137.993164,,,
729716056.289462,-50.878347,-2.347695,-87.315344,0.036758,-0.806976,0.642975,-0.100816,0.13349,0.03148,65.087189,57.777039,-137.993164,,,
729716056.290705,-50.878364,-2.34769,-90.392227,0.036758,-0.806976,0.642975,-0.100816,0.13349,0.03148,65.087189,57.777039,-137.993164,,,
729716056.290998,-50.878347,-2.347695,-87.315344,0.036758,-0.806976,0.642975,-0.100816,0.13349,0.03148,65.087189,57.777039,-137.993164,,,
729716056.295587,-50.907434,-2.300014,-90.379806,0.030991,-0.797897,0.637405,-0.100816,0.13349,0.03148,65.087189,57.777039,-137.993164,,,
729716056.295854,-50.907416,-2.300019,-87.302924,0.030991,-0.797897,0.637405,-0.100816,0.13349,0.03148,65.087189,57.777039,-137.993164,,,
729716056.298777,-50.942026,-2.253691,-90.36877,0.030991,-0.797897,0.637405,-0.130906,0.13744,0.020793,65.087189,57.777039,-137.993164,,,
729716056.299009,-50.942008,-2.253695,-87.291888,0.030991,-0.797897,0.637405,-0.130906,0.13744,0.020793,65.087189,57.777039,-137.993164,,,
729716056.300716,-50.942026,-2.253691,-90.36877,0.030991,-0.797897,0.637405,-0.130906,0.13744,0.020793,65.087189,57.777039,-137.993164,,,
729716056.300981,-50.942008,-2.253695,-87.291888,0.030991,-0.797897,0.637405,-0.130906,0.13744,0.020793,65.087189,57.777039,-137.993164,,,
729716056.305338,-50.97951,-2.209759,-90.361322,0.032272,-0.790039,0.643005,-0.130906,0.13744,0.020793,65.087189,57.777039,-137.993164,,,
729716056.305572,-50.979492,-2.209764,-87.28444,0.032272,-0.790039,0.643005,-0.130906,0.13744,0.020793,65.087189,57.777039,-137.993164,,,
729716056.309172,-51.017527,-2.168814,-90.359224,0.032272,-0.790039,0.643005,-0.129365,0.140438,-0.009647,65.087189,57.777039,-137.993164,,,
729716056.309425,-51.017509,-2.168819,-87.282341,0.032272,-0.790039,0.643005,-0.129365,0.140438,-0.009647,65.087189,57.777039,-137.993164,,,
729716056.310646,-51.017527,-2.168814,-90.359224,0.032272,-0.790039,0.643005,-0.129365,0.140438,-0.009647,65.087189,57.777039,-137.993164,,,
729716056.311049,-51.017509,-2.168819,-87.282341,0.032272,-0.790039,0.643005,-0.129365,0.140438,-0.009647,65.087189,57.777039,-137.993164,,,
729716056.315596,-51.054591,-2.132768,-90.363599,0.04068,-0.784195,0.657578,-0.129365,0.140438,-0.009647,65.087189,57.777039,-137.993164,,,
729716056.315867,-51.054573,-2.132773,-87.286717,0.04068,-0.784195,0.657578,-0.129365,0.140438,-0.009647,65.087189,57.777039,-137.993164,,,
729716056.318991,-51.089821,-2.104339,-90.376433,0.04068,-0.784195,0.657578,-0.113853,0.134612,-0.039925,65.087189,57.777039,-137.993164,,,
729716056.319261,-51.089803,-2.104344,-87.29955,0.04068,-0.784195,0.657578,-0.113853,0.134612,-0.039925,65.087189,57.777039,-137.993164,,,
729716056.320713,-51.089821,-2.104339,-90.376433,0.04068,-0.784195,0.657578,-0.113853,0.134612,-0.039925,65.087189,57.777039,-137.993164,,,
729716056.320965,-51.089803,-2.104344,-87.29955,0.04068,-0.784195,0.657578,-0.113853,0.134612,-0.039925,65.087189,57.777039,-137.993164,,,
729716056.325064,-51.121982,-2.082398,-90.396763,0.041077,-0.779495,0.65686,-0.113853,0.134612,-0.039925,65.087189,57.777039,-137.993164,,,
729716056.325285,-51.121964,-2.082403,-87.319881,0.041077,-0.779495,0.65686,-0.113853,0.134612,-0.039925,65.087189,57.777039,-137.993164,,,
729716056.329287,-51.150311,-2.065742,-90.422821,0.041077,-0.779495,0.65686,-0.087462,0.132384,-0.065334,65.362656,57.742599,-137.787674,,,
729716056.329643,-51.150293,-2.065747,-87.345938,0.041077,-0.779495,0.65686,-0.087462,0.132384,-0.065334,65.362656,57.742599,-137.787674,,,
729716056.330611,-51.150311,-2.065742,-90.422821,0.041077,-0.779495,0.65686,-0.087462,0.132384,-0.065334,65.362656,57.742599,-137.787674,,,
729716056.330958,-51.150293,-2.065747,-87.345938,0.041077,-0.779495,0.65686,-0.087462,0.132384,-0.065334,65.362656,57.742599,-137.787674,,,
729716056.335252,-51.174987,-2.052391,-90.45301,0.041336,-0.772766,0.655273,-0.087462,0.132384,-0.065334,65.362656,57.742599,-137.787674,,,
729716056.335476,-51.174969,-2.052396,-87.376127,0.041336,-0.772766,0.655273,-0.087462,0.132384,-0.065334,65.362656,57.742599,-137.787674,,,
729716056.338576,-51.195451,-2.040001,-90.485087,0.041336,-0.772766,0.655273,-0.06259,0.13965,-0.06876,65.362656,57.742599,-137.787674,,,
729716056.3388,-51.195432,-2.040006,-87.408204,0.041336,-0.772766,0.655273,-0.06259,0.13965,-0.06876,65.362656,57.742599,-137.787674,,,
729716056.340725,-51.195451,-2.040001,-90.485087,0.041336,-0.772766,0.655273,-0.06259,0.13965,-0.06876,65.362656,57.742599,-137.787674,,,
729716056.340973,-51.195432,-2.040006,-87.408204,0.041336,-0.772766,0.655273,-0.06259,0.13965,-0.06876,65.362656,57.742599,-137.787674,,,
729716056.345321,-51.21297,-2.026647,-90.516914,0.036194,-0.771057,0.653809,-0.06259,0.13965,-0.06876,65.362656,57.742599,-137.787674,,,
729716056.345562,-51.212952,-2.026652,-87.440031,0.036194,-0.771057,0.653809,-0.06259,0.13965,-0.06876,65.362656,57.742599,-137.787674,,,
729716056.348616,-51.228578,-2.011407,-90.546123,0.036194,-0.771057,0.653809,-0.057832,0.124999,-0.052294,65.362656,57.742599,-137.787674,,,
729716056.348845,-51.22856,-2.011412,-87.46924,0.036194,-0.771057,0.653809,-0.057832,0.124999,-0.052294,65.362656,57.742599,-137.787674,,,
729716056.350703,-51.228578,-2.011407,-90.546123,0.036194,-0.771057,0.653809,-0.057832,0.124999,-0.052294,65.362656,57.742599,-137.787674,,,
729716056.350958,-51.22856,-2.011412,-87.46924,0.036194,-0.771057,0.653809,-0.057832,0.124999,-0.052294,65.362656,57.742599,-137.787674,,,
729716056.355422,-51.246509,-1.996584,-90.571309,0.032318,-0.773376,0.638641,-0.057832,0.124999,-0.052294,65.362656,57.742599,-137.787674,,,
729716056.355658,-51.246491,-1.996589,-87.494426,0.032318,-0.773376,0.638641,-0.057832,0.124999,-0.052294,65.362656,57.742599,-137.787674,,,
729716056.358761,-51.268496,-1.981761,-90.590597,0.032318,-0.773376,0.638641,-0.097477,0.093096,-0.0313,65.362656,57.742599,-137.787674,,,
729716056.358995,-51.268478,-1.981766,-87.513714,0.032318,-0.773376,0.638641,-0.097477,0.093096,-0.0313,65.362656,57.742599,-137.787674,,,
729716056.360714,-51.268496,-1.981761,-90.590597,0.032318,-0.773376,0.638641,-0.097477,0.093096,-0.0313,65.362656,57.742599,-137.787674,,,
729716056.361046,-51.268478,-1.981766,-87.513714,0.032318,-0.773376,0.638641,-0.097477,0.093096,-0.0313,65.362656,57.742599,-137.787674,,,
729716056.365512,-51.296787,-1.968201,-90.606165,0.029007,-0.778015,0.604752,-0.097477,0.093096,-0.0313,65.362656,57.742599,-137.787674,,,
729716056.365754,-51.296769,-1.968206,-87.529282,0.029007,-0.778015,0.604752,-0.097477,0.093096,-0.0313,65.362656,57.742599,-137.787674,,,
729716056.369392,-51.332746,-1.951622,-90.618281,0.029007,-0.778015,0.604752,-0.155872,0.106155,-0.022562,65.386536,58.095001,-137.7052,,,
729716056.369637,-51.332728,-1.951627,-87.541399,0.029007,-0.778015,0.604752,-0.155872,0.106155,-0.022562,65.386536,58.095001,-137.7052,,,
729716056.370696,-51.332746,-1.951622,-90.618281,0.029007,-0.778015,0.604752,-0.155872,0.106155,-0.022562,65.386536,58.095001,-137.7052,,,
729716056.370978,-51.332728,-1.951627,-87.541399,0.029007,-0.778015,0.604752,-0.155872,0.106155,-0.022562,65.386536,58.095001,-137.7052,,,
729716056.375364,-51.377214,-1.932903,-90.630841,0.029083,-0.773865,0.598618,-0.155872,0.106155,-0.022562,65.386536,58.095001,-137.7052,,,
729716056.375608,-51.377195,-1.932908,-87.553958,0.029083,-0.773865,0.598618,-0.155872,0.106155,-0.022562,65.386536,58.095001,-137.7052,,,
729716056.378813,-51.431521,-1.911174,-90.645256,0.029083,-0.773865,0.598618,-0.227719,0.135576,-0.03215,65.386536,58.095001,-137.7052,,,
729716056.37917,-51.431503,-1.911179,-87.568373,0.029083,-0.773865,0.598618,-0.227719,0.135576,-0.03215,65.386536,58.095001,-137.7052,,,
729716056.380661,-51.431521,-1.911174,-90.645256,0.029083,-0.773865,0.598618,-0.227719,0.135576,-0.03215,65.386536,58.095001,-137.7052,,,
729716056.380931,-51.431503,-1.911179,-87.568373,0.029083,-0.773865,0.598618,-0.227719,0.135576,-0.03215,65.386536,58.095001,-137.7052,,,
729716056.385357,-51.496002,-1.890025,-90.665044,0.040283,-0.765915,0.596512,-0.227719,0.135576,-0.03215,65.386536,58.095001,-137.7052,,,
729716056.385605,-51.495983,-1.89003,-87.588161,0.040283,-0.765915,0.596512,-0.227719,0.135576,-0.03215,65.386536,58.095001,-137.7052,,,
729716056.388732,-51.574469,-1.866008,-90.68651,0.040283,-0.765915,0.596512,-0.324117,0.159655,-0.04543,65.386536,58.095001,-137.7052,,,
729716056.388987,-51.57445,-1.866013,-87.609627,0.040283,-0.765915,0.596512,-0.324117,0.159655,-0.04543,65.386536,58.095001,-137.7052,,,
729716056.390705,-51.574469,-1.866008,-90.68651,0.040283,-0.765915,0.596512,-0.324117,0.159655,-0.04543,65.386536,58.095001,-137.7052,,,
729716056.390929,-51.57445,-1.866013,-87.609627,0.040283,-0.765915,0.596512,-0.324117,0.159655,-0.04543,65.386536,58.095001,-137.7052,,,
729716056.395481,-51.66319,-1.844821,-90.714111,0.040314,-0.764755,0.578278,-0.324117,0.159655,-0.04543,65.386536,58.095001,-137.7052,,,
729716056.395712,-51.663172,-1.844826,-87.637228,0.040314,-0.764755,0.578278,-0.324117,0.159655,-0.04543,65.386536,58.095001,-137.7052,,,
729716056.398761,-51.769812,-1.819341,-90.742657,0.040314,-0.764755,0.578278,-0.419928,0.177838,-0.059887,65.386536,58.095001,-137.7052,,,
729716056.398993,-51.769794,-1.819346,-87.665774,0.040314,-0.764755,0.578278,-0.419928,0.177838,-0.059887,65.386536,58.095001,-137.7052,,,
729716056.400699,-51.769812,-1.819341,-90.742657,0.040314,-0.764755,0.578278,-0.419928,0.177838,-0.059887,65.386536,58.095001,-137.7052,,,
729716056.400929,-51.769794,-1.819346,-87.665774,0.040314,-0.764755,0.578278,-0.419928,0.177838,-0.059887,65.386536,58.095001,-137.7052,,,
729716056.405435,-51.88737,-1.798525,-90.778134,0.037323,-0.767807,0.567245,-0.419928,0.177838,-0.059887,65.386536,58.095001,-137.7052,,,
729716056.405656,-51.887352,-1.79853,-87.701251,0.037323,-0.767807,0.567245,-0.419928,0.177838,-0.059887,65.386536,58.095001,-137.7052,,,
729716056.409212,-52.022247,-1.776069,-90.814341,0.037323,-0.767807,0.567245,-0.517418,0.18076,-0.075219,65.665527,58.543121,-137.328873,,,
729716056.409456,-52.022229,-1.776074,-87.737458,0.037323,-0.767807,0.567245,-0.517418,0.18076,-0.075219,65.665527,58.543121,-137.328873,,,
729716056.410634,-52.022247,-1.776069,-90.814341,0.037323,-0.767807,0.567245,-0.517418,0.18076,-0.075219,65.665527,58.543121,-137.328873,,,
729716056.410958,-52.022229,-1.776074,-87.737458,0.037323,-0.767807,0.567245,-0.517418,0.18076,-0.075219,65.665527,58.543121,-137.328873,,,
729716056.415427,-52.167447,-1.759379,-90.85709,0.03273,-0.770538,0.55806,-0.517418,0.18076,-0.075219,65.665527,58.543121,-137.328873,,,
729716056.415653,-52.167428,-1.759384,-87.780207,0.03273,-0.770538,0.55806,-0.517418,0.18076,-0.075219,65.665527,58.543121,-137.328873,,,
729716056.41838,-52.328897,-1.744153,-90.901912,0.03273,-0.770538,0.55806,-0.604326,0.176187,-0.082631,65.665527,58.543121,-137.328873,,,
729716056.418607,-52.328878,-1.744158,-87.825028,0.03273,-0.770538,0.55806,-0.604326,0.176187,-0.082631,65.665527,58.543121,-137.328873,,,
729716056.420823,-52.328897,-1.744153,-90.901912,0.03273,-0.770538,0.55806,-0.604326,0.176187,-0.082631,65.665527,58.543121,-137.328873,,,
729716056.421015,-52.328878,-1.744158,-87.825028,0.03273,-0.770538,0.55806,-0.604326,0.176187,-0.082631,65.665527,58.543121,-137.328873,,,
729716056.425072,-52.498459,-1.733729,-90.950755,0.02803,-0.7715,0.555161,-0.604326,0.176187,-0.082631,65.665527,58.543121,-137.328873,,,
729716056.425338,-52.49844,-1.733734,-87.873871,0.02803,-0.7715,0.555161,-0.604326,0.176187,-0.082631,65.665527,58.543121,-137.328873,,,
729716056.428894,-52.67996,-1.724153,-91.000783,0.02803,-0.7715,0.555161,-0.661299,0.174798,-0.090175,65.665527,58.543121,-137.328873,,,
729716056.42929,-52.679941,-1.724158,-87.9239,0.02803,-0.7715,0.555161,-0.661299,0.174798,-0.090175,65.665527,58.543121,-137.328873,,,
729716056.430655,-52.67996,-1.724153,-91.000783,0.02803,-0.7715,0.555161,-0.661299,0.174798,-0.090175,65.665527,58.543121,-137.328873,,,
729716056.430935,-52.679941,-1.724158,-87.9239,0.02803,-0.7715,0.555161,-0.661299,0.174798,-0.090175,65.665527,58.543121,-137.328873,,,
729716056.435047,-52.868486,-1.716146,-91.052893,0.021378,-0.770325,0.556961,-0.661299,0.174798,-0.090175,65.665527,58.543121,-137.328873,,,
729716056.435277,-52.868467,-1.716151,-87.976009,0.021378,-0.770325,0.556961,-0.661299,0.174798,-0.090175,65.665527,58.543121,-137.328873,,,
729716056.438447,-53.061952,-1.709357,-91.106316,0.021378,-0.770325,0.556961,-0.692008,0.169276,-0.092928,65.665527,58.543121,-137.328873,,,
729716056.438668,-53.061933,-1.709362,-88.029432,0.021378,-0.770325,0.556961,-0.692008,0.169276,-0.092928,65.665527,58.543121,-137.328873,,,
729716056.440749,-53.061952,-1.709357,-91.106316,0.021378,-0.770325,0.556961,-0.692008,0.169276,-0.092928,65.665527,58.543121,-137.328873,,,
729716056.440966,-53.061933,-1.709362,-88.029432,0.021378,-0.770325,0.556961,-0.692008,0.169276,-0.092928,65.665527,58.543121,-137.328873,,,
729716056.444778,-53.258898,-1.705766,-91.160712,0.019424,-0.772369,0.561646,-0.692008,0.169276,-0.092928,65.665527,58.543121,-137.328873,,,
729716056.445007,-53.258878,-1.705772,-88.083829,0.019424,-0.772369,0.561646,-0.692008,0.169276,-0.092928,65.665527,58.543121,-137.328873,,,
729716056.448611,-53.457401,-1.706253,-91.215831,0.019424,-0.772369,0.561646,-0.696123,0.143405,-0.095789,65.665527,58.543121,-137.328873,,,
729716056.448847,-53.457381,-1.706258,-88.138948,0.019424,-0.772369,0.561646,-0.696123,0.143405,-0.095789,65.665527,58.543121,-137.328873,,,
729716056.451464,-53.457401,-1.706253,-91.215831,0.019424,-0.772369,0.561646,-0.696123,0.143405,-0.095789,65.815613,59.534485,-136.141357,,,
729716056.451688,-53.65649,-1.710696,-88.195615,0.018234,-0.775314,0.563461,-0.696123,0.143405,-0.095789,65.815613,59.534485,-136.141357,,,
729716056.454879,-53.65651,-1.710691,-91.272499,0.018234,-0.775314,0.563461,-0.696123,0.143405,-0.095789,65.815613,59.534485,-136.141357,,,
729716056.455096,-53.65649,-1.710696,-88.195615,0.018234,-0.775314,0.563461,-0.696123,0.143405,-0.095789,65.815613,59.534485,-136.141357,,,
729716056.458494,-53.853191,-1.718094,-91.330287,0.018234,-0.775314,0.563461,-0.670041,0.136847,-0.101751,65.815613,59.534485,-136.141357,,,
729716056.458716,-53.853172,-1.718099,-88.253404,0.018234,-0.775314,0.563461,-0.670041,0.136847,-0.101751,65.815613,59.534485,-136.141357,,,
729716056.460747,-53.853191,-1.718094,-91.330287,0.018234,-0.775314,0.563461,-0.670041,0.136847,-0.101751,65.815613,59.534485,-136.141357,,,
729716056.461061,-53.853172,-1.718099,-88.253404,0.018234,-0.775314,0.563461,-0.670041,0.136847,-0.101751,65.815613,59.534485,-136.141357,,,
729716056.465306,-54.04501,-1.726822,-91.388424,0.016571,-0.779114,0.570297,-0.670041,0.136847,-0.101751,65.815613,59.534485,-136.141357,,,
729716056.465544,-54.044989,-1.726828,-88.31154,0.016571,-0.779114,0.570297,-0.670041,0.136847,-0.101751,65.815613,59.534485,-136.141357,,,
729716056.468811,-54.23063,-1.738204,-91.447925,0.016571,-0.779114,0.570297,-0.628119,0.120131,-0.107833,65.815613,59.534485,-136.141357,,,
729716056.469077,-54.23061,-1.738209,-88.371041,0.016571,-0.779114,0.570297,-0.628119,0.120131,-0.107833,65.815613,59.534485,-136.141357,,,
729716056.470777,-54.23063,-1.738204,-91.447925,0.016571,-0.779114,0.570297,-0.628119,0.120131,-0.107833,65.815613,59.534485,-136.141357,,,
729716056.470995,-54.23061,-1.738209,-88.371041,0.016571,-0.779114,0.570297,-0.628119,0.120131,-0.107833,65.815613,59.534485,-136.141357,,,
729716056.475592,-54.410477,-1.75454,-91.508669,0.01445,-0.779144,0.580521,-0.628119,0.120131,-0.107833,65.815613,59.534485,-136.141357,,,
729716056.475833,-54.410456,-1.754546,-88.431785,0.01445,-0.779144,0.580521,-0.628119,0.120131,-0.107833,65.815613,59.534485,-136.141357,,,
729716056.478599,-54.585318,-1.777813,-91.570768,0.01445,-0.779144,0.580521,-0.599835,0.081527,-0.109439,65.815613,59.534485,-136.141357,,,
729716056.478928,-54.585298,-1.777818,-88.493884,0.01445,-0.779144,0.580521,-0.599835,0.081527,-0.109439,65.815613,59.534485,-136.141357,,,
729716056.480691,-54.585318,-1.777813,-91.570768,0.01445,-0.779144,0.580521,-0.599835,0.081527,-0.109439,65.815613,59.534485,-136.141357,,,
729716056.48092,-54.585298,-1.777818,-88.493884,0.01445,-0.779144,0.580521,-0.599835,0.081527,-0.109439,65.815613,59.534485,-136.141357,,,
729716056.485308,-54.756188,-1.806923,-91.633192,0.008636,-0.784622,0.567642,-0.599835,0.081527,-0.109439,65.815613,59.534485,-136.141357,,,
729716056.485524,-54.756168,-1.806929,-88.556308,0.008636,-0.784622,0.567642,-0.599835,0.081527,-0.109439,65.815613,59.534485,-136.141357,,,
729716056.488608,-54.92408,-1.840592,-91.696035,0.008636,-0.784622,0.567642,-0.575769,0.060154,-0.108151,65.815613,59.534485,-136.141357,,,
729716056.488845,-54.92406,-1.840597,-88.619151,0.008636,-0.784622,0.567642,-0.575769,0.060154,-0.108151,65.815613,59.534485,-136.141357,,,
729716056.49137,-54.92408,-1.840592,-91.696035,0.008636,-0.784622,0.567642,-0.575769,0.060154,-0.108151,65.869064,60.570526,-135.21286,,,
729716056.491588,-55.08872,-1.876687,-88.682674,0.008301,-0.793137,0.560516,-0.575769,0.060154,-0.108151,65.869064,60.570526,-135.21286,,,
729716056.495367,-55.088741,-1.876682,-91.759559,0.008301,-0.793137,0.560516,-0.575769,0.060154,-0.108151,65.869064,60.570526,-135.21286,,,
729716056.4957,-55.08872,-1.876687,-88.682674,0.008301,-0.793137,0.560516,-0.575769,0.060154,-0.108151,65.869064,60.570526,-135.21286,,,
729716056.498582,-55.250482,-1.912251,-91.824105,0.008301,-0.793137,0.560516,-0.559199,0.07234,-0.112335,65.869064,60.570526,-135.21286,,,
729716056.498817,-55.250461,-1.912257,-88.747221,0.008301,-0.793137,0.560516,-0.559199,0.07234,-0.112335,65.869064,60.570526,-135.21286,,,
729716056.500706,-55.250482,-1.912251,-91.824105,0.008301,-0.793137,0.560516,-0.559199,0.07234,-0.112335,65.869064,60.570526,-135.21286,,,
729716056.500929,-55.250461,-1.912257,-88.747221,0.008301,-0.793137,0.560516,-0.559199,0.07234,-0.112335,65.869064,60.570526,-135.21286,,,
729716056.505417,-55.410009,-1.946519,-91.889844,0.01355,-0.801559,0.569275,-0.559199,0.07234,-0.112335,65.869064,60.570526,-135.21286,,,
729716056.505644,-55.409988,-1.946525,-88.812959,0.01355,-0.801559,0.569275,-0.559199,0.07234,-0.112335,65.869064,60.570526,-135.21286,,,
729716056.508768,-55.567087,-1.978998,-91.956222,0.01355,-0.801559,0.569275,-0.542767,0.088948,-0.117199,65.869064,60.570526,-135.21286,,,
729716056.509008,-55.567066,-1.979003,-88.879337,0.01355,-0.801559,0.569275,-0.542767,0.088948,-0.117199,65.869064,60.570526,-135.21286,,,
729716056.510685,-55.567087,-1.978998,-91.956222,0.01355,-0.801559,0.569275,-0.542767,0.088948,-0.117199,65.869064,60.570526,-135.21286,,,
729716056.511034,-55.567066,-1.979003,-88.879337,0.01355,-0.801559,0.569275,-0.542767,0.088948,-0.117199,65.869064,60.570526,-135.21286,,,
729716056.515501,-55.721349,-2.010802,-92.02407,0.022552,-0.808624,0.568924,-0.542767,0.088948,-0.117199,65.869064,60.570526,-135.21286,,,
729716056.515737,-55.721328,-2.010807,-88.947186,0.022552,-0.808624,0.568924,-0.542767,0.088948,-0.117199,65.869064,60.570526,-135.21286,,,
729716056.518592,-55.872737,-2.042034,-92.092096,0.022552,-0.808624,0.568924,-0.519796,0.090125,-0.110681,65.869064,60.570526,-135.21286,,,
729716056.518818,-55.872715,-2.042039,-89.015211,0.022552,-0.808624,0.568924,-0.519796,0.090125,-0.110681,65.869064,60.570526,-135.21286,,,
729716056.520776,-55.872737,-2.042034,-92.092096,0.022552,-0.808624,0.568924,-0.519796,0.090125,-0.110681,65.869064,60.570526,-135.21286,,,
729716056.520986,-55.872715,-2.042039,-89.015211,0.022552,-0.808624,0.568924,-0.519796,0.090125,-0.110681,65.869064,60.570526,-135.21286,,,
729716056.525229,-56.021431,-2.071379,-92.158247,0.024887,-0.816895,0.565063,-0.519796,0.090125,-0.110681,65.869064,60.570526,-135.21286,,,
729716056.525448,-56.021409,-2.071384,-89.081363,0.024887,-0.816895,0.565063,-0.519796,0.090125,-0.110681,65.869064,60.570526,-135.21286,,,
729716056.528816,-56.167753,-2.099557,-92.222403,0.024887,-0.816895,0.565063,-0.506208,0.081111,-0.102172,65.869064,60.570526,-135.21286,,,
729716056.529139,-56.167731,-2.099563,-89.145518,0.024887,-0.816895,0.565063,-0.506208,0.081111,-0.102172,65.869064,60.570526,-135.21286,,,
729716056.530686,-56.167753,-2.099557,-92.222403,0.024887,-0.816895,0.565063,-0.506208,0.081111,-0.102172,65.869064,60.570526,-135.21286,,,
729716056.530944,-56.167731,-2.099563,-89.145518,0.024887,-0.816895,0.565063,-0.506208,0.081111,-0.102172,65.869064,60.570526,-135.21286,,,
729716056.535916,-56.311752,-2.127489,-92.283461,0.018112,-0.823654,0.55809,-0.506208,0.081111,-0.102172,65.81781,61.419312,-134.510757,,,
729716056.53617,-56.31173,-2.127494,-89.206576,0.018112,-0.823654,0.55809,-0.506208,0.081111,-0.102172,65.81781,61.419312,-134.510757,,,
729716056.538702,-56.452719,-2.156241,-92.341686,0.018112,-0.823654,0.55809,-0.483039,0.0651,-0.090445,65.81781,61.419312,-134.510757,,,
729716056.538937,-56.452697,-2.156247,-89.264801,0.018112,-0.823654,0.55809,-0.483039,0.0651,-0.090445,65.81781,61.419312,-134.510757,,,
729716056.540706,-56.452719,-2.156241,-92.341686,0.018112,-0.823654,0.55809,-0.483039,0.0651,-0.090445,65.81781,61.419312,-134.510757,,,
729716056.540932,-56.452697,-2.156247,-89.264801,0.018112,-0.823654,0.55809,-0.483039,0.0651,-0.090445,65.81781,61.419312,-134.510757,,,
729716056.54565,-56.590961,-2.185355,-92.397701,0.013397,-0.827286,0.549896,-0.483039,0.0651,-0.090445,65.81781,61.419312,-134.510757,,,
729716056.545892,-56.590939,-2.185361,-89.320816,0.013397,-0.827286,0.549896,-0.483039,0.0651,-0.090445,65.81781,61.419312,-134.510757,,,
729716056.548383,-56.72651,-2.213724,-92.452258,0.013397,-0.827286,0.549896,-0.463858,0.065744,-0.088002,65.81781,61.419312,-134.510757,,,
729716056.548604,-56.726488,-2.213729,-89.375373,0.013397,-0.827286,0.549896,-0.463858,0.065744,-0.088002,65.81781,61.419312,-134.510757,,,
729716056.55073,-56.72651,-2.213724,-92.452258,0.013397,-0.827286,0.549896,-0.463858,0.065744,-0.088002,65.81781,61.419312,-134.510757,,,
729716056.55094,-56.726488,-2.213729,-89.375373,0.013397,-0.827286,0.549896,-0.463858,0.065744,-0.088002,65.81781,61.419312,-134.510757,,,
729716056.555242,-56.859395,-2.241475,-92.507205,0.015305,-0.828766,0.548492,-0.463858,0.065744,-0.088002,65.81781,61.419312,-134.510757,,,
729716056.555472,-56.859373,-2.241481,-89.43032,0.015305,-0.828766,0.548492,-0.463858,0.065744,-0.088002,65.81781,61.419312,-134.510757,,,
729716056.558606,-56.989265,-2.268263,-92.562554,0.015305,-0.828766,0.548492,-0.440892,0.076007,-0.087168,65.81781,61.419312,-134.510757,,,
729716056.558837,-56.989243,-2.268268,-89.485669,0.015305,-0.828766,0.548492,-0.440892,0.076007,-0.087168,65.81781,61.419312,-134.510757,,,
729716056.560724,-56.989265,-2.268263,-92.562554,0.015305,-0.828766,0.548492,-0.440892,0.076007,-0.087168,65.81781,61.419312,-134.510757,,,
729716056.561033,-56.989243,-2.268268,-89.485669,0.015305,-0.828766,0.548492,-0.440892,0.076007,-0.087168,65.81781,61.419312,-134.510757,,,
729716056.565154,-57.115358,-2.293645,-92.617841,0.019791,-0.82959,0.552994,-0.440892,0.076007,-0.087168,65.81781,61.419312,-134.510757,,,
729716056.565382,-57.115335,-2.29365,-89.540956,0.019791,-0.82959,0.552994,-0.440892,0.076007,-0.087168,65.81781,61.419312,-134.510757,,,
729716056.568658,-57.237881,-2.317322,-92.673256,0.019791,-0.82959,0.552994,-0.419275,0.089401,-0.088339,65.81781,61.419312,-134.510757,,,
729716056.56889,-57.237858,-2.317328,-89.59637,0.019791,-0.82959,0.552994,-0.419275,0.089401,-0.088339,65.81781,61.419312,-134.510757,,,
729716056.570781,-57.237881,-2.317322,-92.673256,0.019791,-0.82959,0.552994,-0.419275,0.089401,-0.088339,65.81781,61.419312,-134.510757,,,
729716056.570985,-57.237858,-2.317328,-89.59637,0.019791,-0.82959,0.552994,-0.419275,0.089401,-0.088339,65.81781,61.419312,-134.510757,,,
729716056.575767,-57.357818,-2.33989,-92.728095,0.021744,-0.834503,0.552582,-0.419275,0.089401,-0.088339,65.643372,61.789139,-133.383774,,,
729716056.576016,-57.357795,-2.339896,-89.651209,0.021744,-0.834503,0.552582,-0.419275,0.089401,-0.088339,65.643372,61.789139,-133.383774,,,
729716056.578756,-57.475953,-2.362082,-92.780633,0.021744,-0.834503,0.552582,-0.413474,0.071416,-0.07568,65.643372,61.789139,-133.383774,,,
729716056.579101,-57.475931,-2.362087,-89.703748,0.021744,-0.834503,0.552582,-0.413474,0.071416,-0.07568,65.643372,61.789139,-133.383774,,,
729716056.580668,-57.475953,-2.362082,-92.780633,0.021744,-0.834503,0.552582,-0.413474,0.071416,-0.07568,65.643372,61.789139,-133.383774,,,
729716056.580929,-57.475931,-2.362087,-89.703748,0.021744,-0.834503,0.552582,-0.413474,0.071416,-0.07568,65.643372,61.789139,-133.383774,,,
729716056.585488,-57.593293,-2.383921,-92.830004,0.018723,-0.839645,0.540176,-0.413474,0.071416,-0.07568,65.643372,61.789139,-133.383774,,,
729716056.585732,-57.59327,-2.383926,-89.753119,0.018723,-0.839645,0.540176,-0.413474,0.071416,-0.07568,65.643372,61.789139,-133.383774,,,
729716056.588724,-57.70971,-2.405508,-92.876505,0.018723,-0.839645,0.540176,-0.40308,0.064637,-0.065847,65.643372,61.789139,-133.383774,,,
729716056.588964,-57.709687,-2.405513,-89.799619,0.018723,-0.839645,0.540176,-0.40308,0.064637,-0.065847,65.643372,61.789139,-133.383774,,,
729716056.590702,-57.70971,-2.405508,-92.876505,0.018723,-0.839645,0.540176,-0.40308,0.064637,-0.065847,65.643372,61.789139,-133.383774,,,
729716056.590929,-57.709687,-2.405513,-89.799619,0.018723,-0.839645,0.540176,-0.40308,0.064637,-0.065847,65.643372,61.789139,-133.383774,,,
729716056.595325,-57.824682,-2.425273,-92.920294,0.015106,-0.841034,0.53363,-0.40308,0.064637,-0.065847,65.643372,61.789139,-133.383774,,,
729716056.59556,-57.824658,-2.425279,-89.843408,0.015106,-0.841034,0.53363,-0.40308,0.064637,-0.065847,65.643372,61.789139,-133.383774,,,
729716056.598758,-57.937593,-2.440495,-92.961478,0.015106,-0.841034,0.53363,-0.390492,0.081132,-0.057324,65.643372,61.789139,-133.383774,,,
729716056.599003,-57.93757,-2.440501,-89.884593,0.015106,-0.841034,0.53363,-0.390492,0.081132,-0.057324,65.643372,61.789139,-133.383774,,,
729716056.600704,-57.937593,-2.440495,-92.961478,0.015106,-0.841034,0.53363,-0.390492,0.081132,-0.057324,65.643372,61.789139,-133.383774,,,
729716056.600928,-57.93757,-2.440501,-89.884593,0.015106,-0.841034,0.53363,-0.390492,0.081132,-0.057324,65.643372,61.789139,-133.383774,,,
729716056.605229,-58.049084,-2.452305,-93.001367,0.015839,-0.839462,0.540466,-0.390492,0.081132,-0.057324,65.643372,61.789139,-133.383774,,,
729716056.605445,-58.049061,-2.452311,-89.924481,0.015839,-0.839462,0.540466,-0.390492,0.081132,-0.057324,65.643372,61.789139,-133.383774,,,
729716056.608393,-58.160511,-2.462191,-93.040025,0.015839,-0.839462,0.540466,-0.39273,0.082428,-0.053866,65.643372,61.789139,-133.383774,,,
729716056.60862,-58.160488,-2.462197,-89.963139,0.015839,-0.839462,0.540466,-0.39273,0.082428,-0.053866,65.643372,61.789139,-133.383774,,,
729716056.610727,-58.160511,-2.462191,-93.040025,0.015839,-0.839462,0.540466,-0.39273,0.082428,-0.053866,65.643372,61.789139,-133.383774,,,
729716056.611013,-58.160488,-2.462197,-89.963139,0.015839,-0.839462,0.540466,-0.39273,0.082428,-0.053866,65.643372,61.789139,-133.383774,,,
729716056.615818,-58.272973,-2.471278,-93.077692,0.02063,-0.839645,0.530548,-0.39273,0.082428,-0.053866,65.690033,62.457932,-133.010559,,,
729716056.616061,-58.272949,-2.471284,-90.000806,0.02063,-0.839645,0.530548,-0.39273,0.082428,-0.053866,65.690033,62.457932,-133.010559,,,
729716056.618327,-58.386819,-2.479195,-93.114138,0.02063,-0.839645,0.530548,-0.401782,0.084234,-0.04653,65.690033,62.457932,-133.010559,,,
729716056.618558,-58.386795,-2.479201,-90.037252,0.02063,-0.839645,0.530548,-0.401782,0.084234,-0.04653,65.690033,62.457932,-133.010559,,,
729716056.620825,-58.386819,-2.479195,-93.114138,0.02063,-0.839645,0.530548,-0.401782,0.084234,-0.04653,65.690033,62.457932,-133.010559,,,
729716056.62101,-58.386795,-2.479201,-90.037252,0.02063,-0.839645,0.530548,-0.401782,0.084234,-0.04653,65.690033,62.457932,-133.010559,,,
729716056.625024,-58.50174,-2.483749,-93.147944,0.016708,-0.844757,0.523621,-0.401782,0.084234,-0.04653,65.690033,62.457932,-133.010559,,,
729716056.625244,-58.501716,-2.483755,-90.071058,0.016708,-0.844757,0.523621,-0.401782,0.084234,-0.04653,65.690033,62.457932,-133.010559,,,
729716056.628677,-58.617616,-2.486507,-93.180953,0.016708,-0.844757,0.523621,-0.409016,0.092713,-0.045134,65.690033,62.457932,-133.010559,,,
729716056.629014,-58.617593,-2.486513,-90.104067,0.016708,-0.844757,0.523621,-0.409016,0.092713,-0.045134,65.690033,62.457932,-133.010559,,,
729716056.63068,-58.617616,-2.486507,-93.180953,0.016708,-0.844757,0.523621,-0.409016,0.092713,-0.045134,65.690033,62.457932,-133.010559,,,
729716056.630927,-58.617593,-2.486513,-90.104067,0.016708,-0.844757,0.523621,-0.409016,0.092713,-0.045134,65.690033,62.457932,-133.010559,,,
729716056.634942,-58.734624,-2.489694,-93.214334,0.015778,-0.843689,0.521347,-0.409016,0.092713,-0.045134,65.690033,62.457932,-133.010559,,,
729716056.635182,-58.7346,-2.4897,-90.137448,0.015778,-0.843689,0.521347,-0.409016,0.092713,-0.045134,65.690033,62.457932,-133.010559,,,
729716056.63821,-58.852323,-2.494079,-93.24913,0.015778,-0.843689,0.521347,-0.416293,0.090439,-0.052147,65.690033,62.457932,-133.010559,,,
729716056.638451,-58.852299,-2.494084,-90.172244,0.015778,-0.843689,0.521347,-0.416293,0.090439,-0.052147,65.690033,62.457932,-133.010559,,,
729716056.640773,-58.852323,-2.494079,-93.24913,0.015778,-0.843689,0.521347,-0.416293,0.090439,-0.052147,65.690033,62.457932,-133.010559,,,
729716056.641011,-58.852299,-2.494084,-90.172244,0.015778,-0.843689,0.521347,-0.416293,0.090439,-0.052147,65.690033,62.457932,-133.010559,,,
729716056.645104,-58.971305,-2.500956,-93.286589,0.023788,-0.841873,0.51651,-0.416293,0.090439,-0.052147,65.690033,62.457932,-133.010559,,,
729716056.645335,-58.971281,-2.500962,-90.209703,0.023788,-0.841873,0.51651,-0.416293,0.090439,-0.052147,65.690033,62.457932,-133.010559,,,
729716056.648438,-59.091233,-2.510935,-93.326233,0.023788,-0.841873,0.51651,-0.41831,0.084438,-0.053207,65.690033,62.457932,-133.010559,,,
729716056.648681,-59.091208,-2.510941,-90.249347,0.023788,-0.841873,0.51651,-0.41831,0.084438,-0.053207,65.690033,62.457932,-133.010559,,,
729716056.650728,-59.091233,-2.510935,-93.326233,0.023788,-0.841873,0.51651,-0.41831,0.084438,-0.053207,65.690033,62.457932,-133.010559,,,
729716056.650939,-59.091208,-2.510941,-90.249347,0.023788,-0.841873,0.51651,-0.41831,0.084438,-0.053207,65.690033,62.457932,-133.010559,,,
729716056.65584,-59.21142,-2.522808,-93.367791,0.022186,-0.842484,0.51358,-0.41831,0.084438,-0.053207,65.722916,62.93129,-131.741043,,,
729716056.656078,-59.211396,-2.522814,-90.290905,0.022186,-0.842484,0.51358,-0.41831,0.084438,-0.053207,65.722916,62.93129,-131.741043,,,
729716056.658504,-59.331776,-2.537021,-93.41222,0.022186,-0.842484,0.51358,-0.420399,0.088302,-0.067573,65.722916,62.93129,-131.741043,,,
729716056.658735,-59.331751,-2.537027,-90.335334,0.022186,-0.842484,0.51358,-0.420399,0.088302,-0.067573,65.722916,62.93129,-131.741043,,,
729716056.660728,-59.331776,-2.537021,-93.41222,0.022186,-0.842484,0.51358,-0.420399,0.088302,-0.067573,65.722916,62.93129,-131.741043,,,
729716056.661025,-59.331751,-2.537027,-90.335334,0.022186,-0.842484,0.51358,-0.420399,0.088302,-0.067573,65.722916,62.93129,-131.741043,,,
729716056.665095,-59.451819,-2.554059,-93.460126,0.020065,-0.844666,0.514404,-0.420399,0.088302,-0.067573,65.722916,62.93129,-131.741043,,,
729716056.665316,-59.451794,-2.554065,-90.38324,0.020065,-0.844666,0.514404,-0.420399,0.088302,-0.067573,65.722916,62.93129,-131.741043,,,
729716056.668425,-59.571728,-2.574376,-93.512326,0.020065,-0.844666,0.514404,-0.42272,0.089153,-0.085042,65.722916,62.93129,-131.741043,,,
729716056.668655,-59.571704,-2.574382,-90.43544,0.020065,-0.844666,0.514404,-0.42272,0.089153,-0.085042,65.722916,62.93129,-131.741043,,,
729716056.670818,-59.571728,-2.574376,-93.512326,0.020065,-0.844666,0.514404,-0.42272,0.089153,-0.085042,65.722916,62.93129,-131.741043,,,
729716056.671004,-59.571704,-2.574382,-90.43544,0.020065,-0.844666,0.514404,-0.42272,0.089153,-0.085042,65.722916,62.93129,-131.741043,,,
729716056.675246,-59.692699,-2.599245,-93.56951,0.025299,-0.844406,0.510681,-0.42272,0.089153,-0.085042,65.722916,62.93129,-131.741043,,,
729716056.675488,-59.692674,-2.599251,-90.492623,0.025299,-0.844406,0.510681,-0.42272,0.089153,-0.085042,65.722916,62.93129,-131.741043,,,
729716056.678409,-59.815552,-2.627588,-93.630246,0.025299,-0.844406,0.510681,-0.439867,0.085616,-0.088486,65.722916,62.93129,-131.741043,,,
729716056.678736,-59.815526,-2.627594,-90.553359,0.025299,-0.844406,0.510681,-0.439867,0.085616,-0.088486,65.722916,62.93129,-131.741043,,,
729716056.680716,-59.815552,-2.627588,-93.630246,0.025299,-0.844406,0.510681,-0.439867,0.085616,-0.088486,65.722916,62.93129,-131.741043,,,
729716056.680933,-59.815526,-2.627594,-90.553359,0.025299,-0.844406,0.510681,-0.439867,0.085616,-0.088486,65.722916,62.93129,-131.741043,,,
729716056.685584,-59.941082,-2.658125,-93.692276,0.025757,-0.85289,0.499557,-0.439867,0.085616,-0.088486,65.722916,62.93129,-131.741043,,,
729716056.685819,-59.941057,-2.65813,-90.615389,0.025757,-0.85289,0.499557,-0.439867,0.085616,-0.088486,65.722916,62.93129,-131.741043,,,
729716056.688786,-60.070062,-2.689853,-93.754112,0.025757,-0.85289,0.499557,-0.467573,0.074761,-0.083908,65.722916,62.93129,-131.741043,,,
729716056.689022,-60.070037,-2.689859,-90.677225,0.025757,-0.85289,0.499557,-0.467573,0.074761,-0.083908,65.722916,62.93129,-131.741043,,,
729716056.690702,-60.070062,-2.689853,-93.754112,0.025757,-0.85289,0.499557,-0.467573,0.074761,-0.083908,65.722916,62.93129,-131.741043,,,
729716056.690929,-60.070037,-2.689859,-90.677225,0.025757,-0.85289,0.499557,-0.467573,0.074761,-0.083908,65.722916,62.93129,-131.741043,,,
729716056.69631,-60.203024,-2.722135,-93.814954,0.013824,-0.865005,0.488342,-0.467573,0.074761,-0.083908,65.37236,63.549805,-131.434891,,,
729716056.696558,-60.202999,-2.722141,-90.738067,0.013824,-0.865005,0.488342,-0.467573,0.074761,-0.083908,65.37236,63.549805,-131.434891,,,
729716056.69826,-60.340471,-2.754283,-93.874052,0.013824,-0.865005,0.488342,-0.499388,0.070689,-0.076526,65.37236,63.549805,-131.434891,,,
