Time (sec),Pitch (deg),Roll (deg),Yaw(deg),X-Acceleration (g),Y-Acceleration (g),Z-Acceleration (g),Pitch Rate (deg/sec),Roll Rate (deg/sec),Yaw Rate (deg/sec),Magnetic Field in X direction (uT),Magnetic Field in Y direction (uT),Magnetic Field in Z Direction (uT),Latitude (deg),Longitude (deg),Altitude (m)
729706345.605264,-6.600976,4.360899,169.775923,-0.075287,-0.107925,0.979279,0.028127,0.030232,-0.006539,89.516037,16.834503,-146.313171,,,
729706345.6086,-6.598327,4.366996,169.77219,-0.071747,-0.107407,0.977707,0.00514,0.025898,-0.015081,89.516037,16.834503,-146.313171,,,
729706345.61192,-6.598101,4.372814,169.768187,-0.071747,-0.107407,0.977707,0.00514,0.025898,-0.015081,89.660217,16.825546,-146.325546,,,
729706345.61533,-6.598101,4.372814,169.768187,-0.071747,-0.107407,0.977707,0.00514,0.025898,-0.015081,89.660217,16.825546,-146.325546,,,
729706345.61862,-6.600333,4.379503,169.76424,-0.071213,-0.109375,0.979874,-0.01061,0.029645,-0.016169,89.660217,16.825546,-146.325546,,,
729706345.62192,-6.604462,4.386182,169.75981,-0.071213,-0.109375,0.979874,-0.01061,0.029645,-0.016169,89.660217,16.825546,-146.325546,,,
729706345.625264,-6.604462,4.386182,169.75981,-0.071213,-0.109375,0.979874,-0.01061,0.029645,-0.016169,89.660217,16.825546,-146.325546,,,
729706345.628645,-6.609984,4.394408,169.755518,-0.073441,-0.113602,0.984283,-0.017957,0.03479,-0.016376,89.660217,16.825546,-146.325546,,,
729706345.631914,-6.61522,4.401713,169.751685,-0.073441,-0.113602,0.984283,-0.017957,0.03479,-0.016376,89.660217,16.825546,-146.325546,,,
729706345.635273,-6.61522,4.401713,169.751685,-0.073441,-0.113602,0.984283,-0.017957,0.03479,-0.016376,89.660217,16.825546,-146.325546,,,
729706345.638599,-6.62024,4.411149,169.748036,-0.074539,-0.117416,0.991791,-0.013551,0.038957,-0.016011,89.660217,16.825546,-146.325546,,,
729706345.641962,-6.623889,4.419505,169.743976,-0.074539,-0.117416,0.991791,-0.013551,0.038957,-0.016011,89.660217,16.825546,-146.325546,,,
729706345.645244,-6.623889,4.419505,169.743976,-0.074539,-0.117416,0.991791,-0.013551,0.038957,-0.016011,89.660217,16.825546,-146.325546,,,
729706345.6486,-6.626492,4.430983,169.740168,-0.072922,-0.119888,0.995468,-0.004474,0.04684,-0.015128,89.660217,16.825546,-146.325546,,,
729706345.651937,-6.627341,4.441533,169.7361,-0.072922,-0.119888,0.995468,-0.004474,0.04684,-0.015128,89.660217,16.825546,-146.325546,,,
729706345.655327,-6.627341,4.441533,169.7361,-0.072922,-0.119888,0.995468,-0.004474,0.04684,-0.015128,89.728363,16.631866,-146.356308,,,
729706345.658616,-6.62622,4.453327,169.731505,-0.072647,-0.119385,0.996597,0.009522,0.047768,-0.018657,89.728363,16.631866,-146.356308,,,
729706345.661936,-6.623266,4.465288,169.725574,-0.072647,-0.119385,0.996597,0.009522,0.047768,-0.018657,89.728363,16.631866,-146.356308,,,
729706345.665276,-6.623266,4.465288,169.725574,-0.072647,-0.119385,0.996597,0.009522,0.047768,-0.018657,89.728363,16.631866,-146.356308,,,
729706345.668652,-6.619239,4.478126,169.718519,-0.076141,-0.119308,0.999908,0.01856,0.051027,-0.026188,89.728363,16.631866,-146.356308,,,
729706345.67191,-6.613133,4.490409,169.710823,-0.076141,-0.119308,0.999908,0.01856,0.051027,-0.026188,89.728363,16.631866,-146.356308,,,
729706345.675275,-6.613133,4.490409,169.710823,-0.076141,-0.119308,0.999908,0.01856,0.051027,-0.026188,89.728363,16.631866,-146.356308,,,
729706345.678596,-6.606117,4.502487,169.702714,-0.078659,-0.120865,0.997971,0.028815,0.047324,-0.02856,89.728363,16.631866,-146.356308,,,
729706345.681976,-6.597646,4.513439,169.694555,-0.078659,-0.120865,0.997971,0.028815,0.047324,-0.02856,89.728363,16.631866,-146.356308,,,
729706345.685267,-6.597646,4.513439,169.694555,-0.078659,-0.120865,0.997971,0.028815,0.047324,-0.02856,89.728363,16.631866,-146.356308,,,
729706345.688603,-6.589422,4.523817,169.686626,-0.081268,-0.121658,0.992294,0.031152,0.040233,-0.02712,89.728363,16.631866,-146.356308,,,
729706345.691926,-6.580587,4.532143,169.678726,-0.081268,-0.121658,0.992294,0.031152,0.040233,-0.02712,89.728363,16.631866,-146.356308,,,
729706345.695314,-6.580587,4.532143,169.678726,-0.081268,-0.121658,0.992294,0.031152,0.040233,-0.02712,89.942459,16.562164,-146.374252,,,
729706345.698609,-6.573043,4.540684,169.671465,-0.084534,-0.117279,0.987747,0.026409,0.033959,-0.023881,89.942459,16.562164,-146.374252,,,
729706345.701987,-6.56678,4.546835,169.664364,-0.084534,-0.117279,0.987747,0.026409,0.033959,-0.023881,89.942459,16.562164,-146.374252,,,
729706345.705261,-6.56678,4.546835,169.664364,-0.084534,-0.117279,0.987747,0.026409,0.033959,-0.023881,89.942459,16.562164,-146.374252,,,
729706345.708593,-6.563026,4.552309,169.658121,-0.084717,-0.114227,0.977371,0.01038,0.021865,-0.019937,89.942459,16.562164,-146.374252,,,
729706345.711948,-6.561431,4.556234,169.652914,-0.084717,-0.114227,0.977371,0.01038,0.021865,-0.019937,89.942459,16.562164,-146.374252,,,
729706345.7153,-6.561431,4.556234,169.652914,-0.084717,-0.114227,0.977371,0.01038,0.021865,-0.019937,89.942459,16.562164,-146.374252,,,
729706345.718658,-6.561794,4.56135,169.648265,-0.086182,-0.114853,0.975845,-0.00457,0.024503,-0.017832,89.942459,16.562164,-146.374252,,,
729706345.721918,-6.564458,4.56647,169.643745,-0.086182,-0.114853,0.975845,-0.00457,0.024503,-0.017832,89.942459,16.562164,-146.374252,,,
729706345.725261,-6.564458,4.56647,169.643745,-0.086182,-0.114853,0.975845,-0.00457,0.024503,-0.017832,89.942459,16.562164,-146.374252,,,
729706345.728599,-6.567604,4.573715,169.639153,-0.084457,-0.116684,0.978287,-0.01095,0.033169,-0.019594,89.942459,16.562164,-146.374252,,,
729706345.731994,-6.57183,4.580734,169.634564,-0.084457,-0.116684,0.978287,-0.01095,0.033169,-0.019594,89.942459,16.562164,-146.374252,,,
729706345.735259,-6.57183,4.580734,169.634564,-0.084457,-0.116684,0.978287,-0.01095,0.033169,-0.019594,89.972595,16.858032,-146.328293,,,
729706345.7386,-6.575626,4.588816,169.630529,-0.084305,-0.115356,0.979797,-0.011648,0.032281,-0.01675,89.972595,16.858032,-146.328293,,,
729706345.741922,-6.578804,4.595953,169.626983,-0.084305,-0.115356,0.979797,-0.011648,0.032281,-0.01675,89.972595,16.858032,-146.328293,,,
729706345.745332,-6.578804,4.595953,169.626983,-0.084305,-0.115356,0.979797,-0.011648,0.032281,-0.01675,89.972595,16.858032,-146.328293,,,
729706345.748596,-6.580126,4.603975,169.624011,-0.083054,-0.116257,0.980942,-0.001814,0.03152,-0.012718,89.972595,16.858032,-146.328293,,,
729706345.751933,-6.580565,4.610716,169.620236,-0.083054,-0.116257,0.980942,-0.001814,0.03152,-0.012718,89.972595,16.858032,-146.328293,,,
729706345.755266,-6.580565,4.610716,169.620236,-0.083054,-0.116257,0.980942,-0.001814,0.03152,-0.012718,89.972595,16.858032,-146.328293,,,
729706345.758654,-6.579233,4.61723,169.615935,-0.080688,-0.117615,0.980759,0.007298,0.026647,-0.016082,89.972595,16.858032,-146.328293,,,
729706345.761954,-6.577444,4.622903,169.611018,-0.080688,-0.117615,0.980759,0.007298,0.026647,-0.016082,89.972595,16.858032,-146.328293,,,
729706345.765247,-6.577444,4.622903,169.611018,-0.080688,-0.117615,0.980759,0.007298,0.026647,-0.016082,89.972595,16.858032,-146.328293,,,
729706345.768593,-6.574426,4.627713,169.605077,-0.080582,-0.117706,0.977737,0.012192,0.020618,-0.022886,89.972595,16.858032,-146.328293,,,
729706345.771956,-6.572339,4.632412,169.598739,-0.080582,-0.117706,0.977737,0.012192,0.020618,-0.022886,89.972595,16.858032,-146.328293,,,
729706345.775314,-6.572339,4.632412,169.598739,-0.080582,-0.117706,0.977737,0.012192,0.020618,-0.022886,89.947067,16.914886,-146.250519,,,
729706345.778586,-6.571015,4.636339,169.592414,-0.080063,-0.114716,0.971603,0.003093,0.017902,-0.02319,89.947067,16.914886,-146.250519,,,
729706345.781973,-6.572394,4.640788,169.58646,-0.080063,-0.114716,0.971603,0.003093,0.017902,-0.02319,89.947067,16.914886,-146.250519,,,
729706345.78533,-6.572394,4.640788,169.58646,-0.080063,-0.114716,0.971603,0.003093,0.017902,-0.02319,89.947067,16.914886,-146.250519,,,
729706345.788599,-6.576136,4.644063,169.581001,-0.082214,-0.114441,0.967087,-0.015064,0.015133,-0.020552,89.947067,16.914886,-146.250519,,,
729706345.791956,-6.582127,4.648131,169.576335,-0.082214,-0.114441,0.967087,-0.015064,0.015133,-0.020552,89.947067,16.914886,-146.250519,,,
729706345.795267,-6.582127,4.648131,169.576335,-0.082214,-0.114441,0.967087,-0.015064,0.015133,-0.020552,89.947067,16.914886,-146.250519,,,
729706345.79865,-6.589874,4.651886,169.572336,-0.08168,-0.116241,0.970978,-0.028087,0.019265,-0.016171,89.947067,16.914886,-146.250519,,,
729706345.801925,-6.589874,4.651886,169.568876,-0.08168,-0.116241,0.970978,-0.028087,0.019265,-0.016171,89.947067,16.914886,-146.250519,,,
729706345.805256,-6.599029,4.657749,169.568876,-0.08168,-0.116241,0.970978,-0.028087,0.019265,-0.016171,89.947067,16.914886,-146.250519,,,
729706345.808584,-6.60816,4.664738,169.565685,-0.083008,-0.12204,0.982056,-0.030878,0.033174,-0.013828,89.947067,16.914886,-146.250519,,,
729706345.812005,-6.616568,4.674606,169.563348,-0.083008,-0.12204,0.982056,-0.030878,0.033174,-0.013828,89.947067,16.914886,-146.250519,,,
729706345.815277,-6.616568,4.674606,169.563348,-0.083008,-0.12204,0.982056,-0.030878,0.033174,-0.013828,89.947067,16.914886,-146.250519,,,
729706345.818599,-6.622775,4.684432,169.561428,-0.084671,-0.124115,0.989212,-0.017606,0.037707,-0.009278,90.022827,16.82254,-146.203232,,,
729706345.821933,-6.622775,4.684432,169.561428,-0.084671,-0.124115,0.989212,-0.017606,0.037707,-0.009278,90.022827,16.82254,-146.203232,,,
729706345.825319,-6.627062,4.694704,169.560265,-0.084671,-0.124115,0.989212,-0.017606,0.037707,-0.009278,90.022827,16.82254,-146.203232,,,
729706345.828591,-6.628229,4.703079,169.559622,-0.085022,-0.125977,0.9879,0.002504,0.028338,-0.003536,90.022827,16.82254,-146.203232,,,
729706345.83193,-6.628229,4.703079,169.559622,-0.085022,-0.125977,0.9879,0.002504,0.028338,-0.003536,90.022827,16.82254,-146.203232,,,
729706345.835264,-6.626889,4.710092,169.559103,-0.085022,-0.125977,0.9879,0.002504,0.028338,-0.003536,90.022827,16.82254,-146.203232,,,
729706345.83866,-6.623179,4.715595,169.557911,-0.086533,-0.124908,0.988831,0.017232,0.019584,-0.00682,90.022827,16.82254,-146.203232,,,
729706345.841922,-6.623179,4.715595,169.557911,-0.086533,-0.124908,0.988831,0.017232,0.019584,-0.00682,90.022827,16.82254,-146.203232,,,
729706345.845253,-6.618884,4.720072,169.556369,-0.086533,-0.124908,0.988831,0.017232,0.019584,-0.00682,90.022827,16.82254,-146.203232,,,
729706345.848611,-6.614596,4.723779,169.554518,-0.086685,-0.117264,0.98381,0.014199,0.014656,-0.009209,90.022827,16.82254,-146.203232,,,
729706345.85199,-6.614596,4.723779,169.551444,-0.086685,-0.117264,0.98381,0.014199,0.014656,-0.009209,90.022827,16.82254,-146.203232,,,
729706345.855249,-6.611883,4.725812,169.551444,-0.086685,-0.117264,0.98381,0.014199,0.014656,-0.009209,90.022827,16.82254,-146.203232,,,
729706345.858597,-6.610491,4.726303,169.548002,-0.083908,-0.116013,0.976028,0.00296,0.003378,-0.012811,90.188156,16.717743,-145.985886,,,
729706345.861923,-6.610491,4.726303,169.548002,-0.083908,-0.116013,0.976028,0.00296,0.003378,-0.012811,90.188156,16.717743,-145.985886,,,
729706345.865249,-6.611094,4.725459,169.545083,-0.083908,-0.116013,0.976028,0.00296,0.003378,-0.012811,90.188156,16.717743,-145.985886,,,
729706345.868585,-6.612576,4.723884,169.542392,-0.085785,-0.118256,0.977631,-0.004856,-0.000133,-0.011671,90.188156,16.717743,-145.985886,,,
729706345.871917,-6.612576,4.723884,169.542392,-0.085785,-0.118256,0.977631,-0.004856,-0.000133,-0.011671,90.188156,16.717743,-145.985886,,,
729706345.875309,-6.614437,4.72316,169.539876,-0.085785,-0.118256,0.977631,-0.004856,-0.000133,-0.011671,90.188156,16.717743,-145.985886,,,
729706345.878591,-6.615826,4.722833,169.538085,-0.084473,-0.121338,0.982971,-0.003231,0.004354,-0.006272,90.188156,16.717743,-145.985886,,,
729706345.881919,-6.615826,4.722833,169.538085,-0.084473,-0.121338,0.982971,-0.003231,0.004354,-0.006272,90.188156,16.717743,-145.985886,,,
729706345.885252,-6.617721,4.724153,169.537495,-0.084473,-0.121338,0.982971,-0.003231,0.004354,-0.006272,90.188156,16.717743,-145.985886,,,
729706345.888658,-6.619191,4.726402,169.537751,-0.080368,-0.12262,0.985504,-0.005078,0.012642,-0.000256,90.188156,16.717743,-145.985886,,,
729706345.891912,-6.619191,4.726402,169.537751,-0.080368,-0.12262,0.985504,-0.005078,0.012642,-0.000256,90.188156,16.717743,-145.985886,,,
729706345.895275,-6.621228,4.729994,169.538719,-0.080368,-0.12262,0.985504,-0.005078,0.012642,-0.000256,90.188156,16.717743,-145.985886,,,
729706345.898584,-6.621881,4.734288,169.54043,-0.079834,-0.120697,0.984604,-0.003066,0.019063,0.005334,89.928116,17.056091,-146.237778,,,
729706345.901969,-6.621881,4.734288,169.54043,-0.079834,-0.120697,0.984604,-0.003066,0.019063,0.005334,89.928116,17.056091,-146.237778,,,
729706345.905261,-6.623974,4.739994,169.542562,-0.079834,-0.120697,0.984604,-0.003066,0.019063,0.005334,89.928116,17.056091,-146.237778,,,
729706345.908602,-6.625293,4.745032,169.544774,-0.080917,-0.11792,0.981186,-0.004287,0.018462,0.006264,89.928116,17.056091,-146.237778,,,
729706345.911945,-6.625293,4.745032,169.544774,-0.080917,-0.11792,0.981186,-0.004287,0.018462,0.006264,89.928116,17.056091,-146.237778,,,
729706345.915343,-6.627234,4.749835,169.547252,-0.080917,-0.11792,0.981186,-0.004287,0.018462,0.006264,89.928116,17.056091,-146.237778,,,
729706345.918582,-6.627381,4.752926,169.549402,-0.082092,-0.119354,0.978058,0.000643,0.010722,0.004801,89.928116,17.056091,-146.237778,,,
729706345.921947,-6.627381,4.752926,169.549402,-0.082092,-0.119354,0.978058,0.000643,0.010722,0.004801,89.928116,17.056091,-146.237778,,,
729706345.925267,-6.627378,4.755845,169.550666,-0.082092,-0.119354,0.978058,0.000643,0.010722,0.004801,89.928116,17.056091,-146.237778,,,
729706345.92859,-6.625978,4.757398,169.550982,-0.079239,-0.117462,0.976669,0.005765,0.007223,-0.000754,89.928116,17.056091,-146.237778,,,
729706345.931952,-6.625978,4.757398,169.550982,-0.079239,-0.117462,0.976669,0.005765,0.007223,-0.000754,89.928116,17.056091,-146.237778,,,
729706345.935255,-6.624832,4.758295,169.550722,-0.079239,-0.117462,0.976669,0.005765,0.007223,-0.000754,89.928116,17.056091,-146.237778,,,
729706345.938611,-6.624127,4.758349,169.548938,-0.074509,-0.11467,0.978195,0.003104,0.006243,-0.011115,90.19754,16.832275,-146.486359,,,
729706345.941983,-6.624127,4.758349,169.548938,-0.074509,-0.11467,0.978195,0.003104,0.006243,-0.011115,90.19754,16.832275,-146.486359,,,
729706345.94527,-6.624304,4.759267,169.545648,-0.074509,-0.11467,0.978195,0.003104,0.006243,-0.011115,90.19754,16.832275,-146.486359,,,
729706345.948596,-6.625142,4.759287,169.541539,-0.076523,-0.113113,0.978638,-0.004066,0.004763,-0.016909,90.19754,16.832275,-146.486359,,,
729706345.951929,-6.625142,4.759287,169.541539,-0.076523,-0.113113,0.978638,-0.004066,0.004763,-0.016909,90.19754,16.832275,-146.486359,,,
729706345.955258,-6.628065,4.760882,169.537193,-0.076523,-0.113113,0.978638,-0.004066,0.004763,-0.016909,90.19754,16.832275,-146.486359,,,
729706345.958586,-6.632087,4.763446,169.532919,-0.078262,-0.117599,0.981384,-0.015555,0.015814,-0.016854,90.19754,16.832275,-146.486359,,,
729706345.961967,-6.632087,4.763446,169.532919,-0.078262,-0.117599,0.981384,-0.015555,0.015814,-0.016854,90.19754,16.832275,-146.486359,,,
729706345.965281,-6.638199,4.76718,169.529185,-0.078262,-0.117599,0.981384,-0.015555,0.015814,-0.016854,90.19754,16.832275,-146.486359,,,
729706345.968588,-6.644221,4.772208,169.526145,-0.080338,-0.118011,0.986557,-0.021312,0.024107,-0.012477,90.19754,16.832275,-146.486359,,,
729706345.971952,-6.644221,4.772208,169.526145,-0.080338,-0.118011,0.986557,-0.021312,0.024107,-0.012477,90.19754,16.832275,-146.486359,,,
729706345.975271,-6.652383,4.778324,169.523769,-0.080338,-0.118011,0.986557,-0.021312,0.024107,-0.012477,90.19754,16.832275,-146.486359,,,
729706345.978584,-6.661308,4.785807,169.522177,-0.085236,-0.119827,0.987991,-0.031762,0.030968,-0.008153,90.19754,16.832275,-146.486359,,,
729706345.982004,-6.661308,4.785807,169.522177,-0.085236,-0.119827,0.987991,-0.031762,0.030968,-0.008153,90.066544,16.730606,-146.151901,,,
729706345.985299,-6.671051,4.793149,169.521527,-0.085236,-0.119827,0.987991,-0.031762,0.030968,-0.008153,90.066544,16.730606,-146.151901,,,
729706345.988621,-6.679808,4.800078,169.521508,-0.087387,-0.121582,0.987808,-0.028242,0.025846,-0.003685,90.066544,16.730606,-146.151901,,,
729706345.991929,-6.679808,4.800078,169.521508,-0.087387,-0.121582,0.987808,-0.028242,0.025846,-0.003685,90.066544,16.730606,-146.151901,,,
729706345.99533,-6.687686,4.80587,169.521605,-0.087387,-0.121582,0.987808,-0.028242,0.025846,-0.003685,90.066544,16.730606,-146.151901,,,
729706345.998578,-6.693811,4.810115,169.521524,-0.089813,-0.123337,0.989197,-0.018136,0.015739,-0.003953,90.066544,16.730606,-146.151901,,,
729706346.001942,-6.693811,4.810115,169.521524,-0.089813,-0.123337,0.989197,-0.018136,0.015739,-0.003953,90.066544,16.730606,-146.151901,,,
729706346.005259,-6.698736,4.812962,169.521488,-0.089813,-0.123337,0.989197,-0.018136,0.015739,-0.003953,90.066544,16.730606,-146.151901,,,
729706346.008588,-6.700739,4.81483,169.521477,-0.091034,-0.121582,0.991531,-0.001143,0.007505,-0.002503,90.066544,16.730606,-146.151901,,,
729706346.011917,-6.700739,4.81483,169.521477,-0.091034,-0.121582,0.991531,-0.001143,0.007505,-0.002503,90.066544,16.730606,-146.151901,,,
729706346.015282,-6.700294,4.814267,169.520912,-0.091034,-0.121582,0.991531,-0.001143,0.007505,-0.002503,90.066544,16.730606,-146.151901,,,
729706346.018587,-6.698226,4.813554,169.520155,-0.091232,-0.122101,0.992172,0.009774,-0.000364,-0.003723,90.066544,16.730606,-146.151901,,,
729706346.021918,-6.698226,4.813554,169.520155,-0.091232,-0.122101,0.992172,0.009774,-0.000364,-0.003723,90.093903,16.634201,-146.168915,,,
729706346.025339,-6.695257,4.810789,169.519453,-0.091232,-0.122101,0.992172,0.009774,-0.000364,-0.003723,90.093903,16.634201,-146.168915,,,
729706346.02858,-6.692202,4.809692,169.519233,-0.089005,-0.120575,0.991867,0.011893,0.002141,-0.001213,90.093903,16.634201,-146.168915,,,
729706346.032006,-6.692202,4.809692,169.519233,-0.089005,-0.120575,0.991867,0.011893,0.002141,-0.001213,90.093903,16.634201,-146.168915,,,
729706346.035256,-6.689187,4.808382,169.519162,-0.089005,-0.120575,0.991867,0.011893,0.002141,-0.001213,90.093903,16.634201,-146.168915,,,
729706346.038594,-6.687566,4.807781,169.519728,-0.085785,-0.117447,0.988907,0.001916,0.000714,0.001727,90.093903,16.634201,-146.168915,,,
729706346.041932,-6.687566,4.807781,169.519728,-0.085785,-0.117447,0.988907,0.001916,0.000714,0.001727,90.093903,16.634201,-146.168915,,,
729706346.045319,-6.687513,4.806836,169.520533,-0.085785,-0.117447,0.988907,0.001916,0.000714,0.001727,90.093903,16.634201,-146.168915,,,
729706346.048585,-6.688187,4.807548,169.521415,-0.086716,-0.117447,0.987381,-0.005079,0.007529,0.00113,90.093903,16.634201,-146.168915,,,
729706346.051942,-6.688187,4.807548,169.521415,-0.086716,-0.117447,0.987381,-0.005079,0.007529,0.00113,90.093903,16.634201,-146.168915,,,
729706346.055258,-6.6904,4.808914,169.522263,-0.086716,-0.117447,0.987381,-0.005079,0.007529,0.00113,90.093903,16.634201,-146.168915,,,
729706346.058589,-6.693232,4.810577,169.523681,-0.088165,-0.117798,0.98732,-0.011625,0.008421,0.004461,90.093903,16.634201,-146.168915,,,
729706346.061926,-6.693232,4.810577,169.523681,-0.088165,-0.117798,0.98732,-0.011625,0.008421,0.004461,90.166092,16.847717,-146.315094,,,
729706346.065277,-6.69736,4.812757,169.525459,-0.088165,-0.117798,0.98732,-0.011625,0.008421,0.004461,90.166092,16.847717,-146.315094,,,
729706346.06859,-6.701418,4.813902,169.527218,-0.087585,-0.119843,0.986145,-0.014219,0.004491,0.00447,90.166092,16.847717,-146.315094,,,
729706346.072005,-6.701418,4.813902,169.527218,-0.087585,-0.119843,0.986145,-0.014219,0.004491,0.00447,90.166092,16.847717,-146.315094,,,
729706346.075269,-6.706351,4.814508,169.529512,-0.087585,-0.119843,0.986145,-0.014219,0.004491,0.00447,90.166092,16.847717,-146.315094,,,
729706346.078585,-6.709699,4.812512,169.531538,-0.087189,-0.12085,0.981964,-0.007866,-0.007574,0.003828,90.166092,16.847717,-146.315094,,,
729706346.081939,-6.709699,4.812512,169.531538,-0.087189,-0.12085,0.981964,-0.007866,-0.007574,0.003828,90.166092,16.847717,-146.315094,,,
729706346.0853,-6.71141,4.810603,169.533305,-0.087189,-0.12085,0.981964,-0.007866,-0.007574,0.003828,90.166092,16.847717,-146.315094,,,
729706346.088584,-6.711272,4.807498,169.534331,-0.083572,-0.11969,0.985428,0.001287,-0.007477,0.000391,90.166092,16.847717,-146.315094,,,
729706346.091945,-6.711272,4.807498,169.534331,-0.083572,-0.11969,0.985428,0.001287,-0.007477,0.000391,90.166092,16.847717,-146.315094,,,
729706346.095256,-6.71132,4.806134,169.534748,-0.083572,-0.11969,0.985428,0.001287,-0.007477,0.000391,90.166092,16.847717,-146.315094,,,
729706346.098585,-6.71071,4.804857,169.534316,-0.078293,-0.119507,0.989197,0.002619,0.002485,-0.004367,90.166092,16.847717,-146.315094,,,
729706346.101918,-6.71071,4.804857,169.534316,-0.078293,-0.119507,0.989197,0.002619,0.002485,-0.004367,90.189499,16.838531,-146.08255,,,
729706346.10495,-6.71068,4.806167,169.533343,-0.078293,-0.119507,0.989197,0.002619,0.002485,-0.004367,90.189499,16.838531,-146.08255,,,
729706346.108626,-6.710967,4.807929,169.531853,-0.0784,-0.118088,0.989212,-0.00242,0.013765,-0.007472,90.189499,16.838531,-146.08255,,,
729706346.111912,-6.710967,4.807929,169.531853,-0.0784,-0.118088,0.989212,-0.00242,0.013765,-0.007472,90.189499,16.838531,-146.08255,,,
729706346.11527,-6.712381,4.813202,169.530606,-0.0784,-0.118088,0.989212,-0.00242,0.013765,-0.007472,90.189499,16.838531,-146.08255,,,
729706346.118585,-6.714192,4.820034,169.52944,-0.0802,-0.118561,0.989655,-0.006511,0.029359,-0.006659,90.189499,16.838531,-146.08255,,,
729706346.121938,-6.714192,4.820034,169.52944,-0.0802,-0.118561,0.989655,-0.006511,0.029359,-0.006659,90.189499,16.838531,-146.08255,,,
729706346.125322,-6.716957,4.828654,169.528376,-0.0802,-0.118561,0.989655,-0.006511,0.029359,-0.006659,90.189499,16.838531,-146.08255,,,
729706346.128578,-6.720569,4.837872,169.527677,-0.086578,-0.118515,0.98996,-0.013646,0.036089,-0.004388,90.189499,16.838531,-146.08255,,,
729706346.13192,-6.720569,4.837872,169.527677,-0.086578,-0.118515,0.98996,-0.013646,0.036089,-0.004388,90.189499,16.838531,-146.08255,,,
729706346.135256,-6.724918,4.847853,169.528428,-0.086578,-0.118515,0.98996,-0.013646,0.036089,-0.004388,90.189499,16.838531,-146.08255,,,
729706346.138584,-6.729861,4.855434,169.530477,-0.090103,-0.118347,0.984604,-0.018862,0.024291,0.004897,90.189499,16.838531,-146.08255,,,
729706346.141916,-6.729861,4.855434,169.530477,-0.090103,-0.118347,0.984604,-0.018862,0.024291,0.004897,90.189499,16.838531,-146.08255,,,
729706346.14526,-6.735009,4.860871,169.533123,-0.090103,-0.118347,0.984604,-0.018862,0.024291,0.004897,90.420959,16.710236,-146.370453,,,
729706346.148584,-6.739484,4.86353,169.536133,-0.093185,-0.119324,0.982437,-0.015393,0.008464,0.008156,90.420959,16.710236,-146.370453,,,
729706346.151964,-6.739484,4.86353,169.536133,-0.093185,-0.119324,0.982437,-0.015393,0.008464,0.008156,90.420959,16.710236,-146.370453,,,
729706346.155257,-6.743815,4.864927,169.538755,-0.093185,-0.119324,0.982437,-0.015393,0.008464,0.008156,90.420959,16.710236,-146.370453,,,
729706346.158587,-6.746889,4.864122,169.540259,-0.090698,-0.116013,0.984543,-0.009297,-0.001531,0.001446,90.420959,16.710236,-146.370453,,,
729706346.161947,-6.746889,4.864122,169.540259,-0.090698,-0.116013,0.984543,-0.009297,-0.001531,0.001446,90.420959,16.710236,-146.370453,,,
729706346.165328,-6.74994,4.862859,169.540608,-0.090698,-0.116013,0.984543,-0.009297,-0.001531,0.001446,90.420959,16.710236,-146.370453,,,
729706346.168579,-6.752429,4.861086,169.540005,-0.086426,-0.114532,0.984451,-0.007168,-0.001849,-0.004667,90.420959,16.710236,-146.370453,,,
729706346.17195,-6.752429,4.861086,169.540005,-0.086426,-0.114532,0.984451,-0.007168,-0.001849,-0.004667,90.420959,16.710236,-146.370453,,,
729706346.175272,-6.755016,4.859472,169.538766,-0.086426,-0.114532,0.984451,-0.007168,-0.001849,-0.004667,90.420959,16.710236,-146.370453,,,
729706346.178583,-6.757547,4.85954,169.537342,-0.08551,-0.117172,0.986969,-0.008713,0.006576,-0.006506,90.420959,16.710236,-146.370453,,,
729706346.181928,-6.757547,4.85954,169.537342,-0.08551,-0.117172,0.986969,-0.008713,0.006576,-0.006506,90.420959,16.710236,-146.370453,,,
729706346.18527,-6.760637,4.860283,169.536263,-0.08551,-0.117172,0.986969,-0.008713,0.006576,-0.006506,90.052689,16.974854,-146.283325,,,
729706346.188585,-6.764552,4.86312,169.536675,-0.087341,-0.118607,0.985367,-0.016239,0.012401,0.002328,90.052689,16.974854,-146.283325,,,
729706346.191982,-6.764552,4.86312,169.536675,-0.087341,-0.118607,0.985367,-0.016239,0.012401,0.002328,90.052689,16.974854,-146.283325,,,
729706346.195251,-6.769578,4.865322,169.538555,-0.087341,-0.118607,0.985367,-0.016239,0.012401,0.002328,90.052689,16.974854,-146.283325,,,
729706346.198584,-6.774381,4.868826,169.541178,-0.088043,-0.12149,0.985062,-0.01612,0.014705,0.006781,90.052689,16.974854,-146.283325,,,
729706346.20195,-6.774381,4.868826,169.541178,-0.088043,-0.12149,0.985062,-0.01612,0.014705,0.006781,90.052689,16.974854,-146.283325,,,
729706346.205344,-6.778995,4.872556,169.544158,-0.088043,-0.12149,0.985062,-0.01612,0.014705,0.006781,90.052689,16.974854,-146.283325,,,
729706346.208582,-6.783059,4.875683,169.547303,-0.088135,-0.122299,0.985947,-0.013149,0.010093,0.008115,90.052689,16.974854,-146.283325,,,
729706346.211917,-6.783059,4.875683,169.547303,-0.088135,-0.122299,0.985947,-0.013149,0.010093,0.008115,90.052689,16.974854,-146.283325,,,
729706346.215289,-6.786492,4.87858,169.550071,-0.088135,-0.122299,0.985947,-0.013149,0.010093,0.008115,90.052689,16.974854,-146.283325,,,
729706346.218589,-6.789045,4.88018,169.552123,-0.086639,-0.118546,0.985336,-0.006794,0.006406,0.004264,90.052689,16.974854,-146.283325,,,
729706346.221968,-6.789045,4.88018,169.552123,-0.086639,-0.118546,0.985336,-0.006794,0.006406,0.004264,90.052689,16.974854,-146.283325,,,
729706346.225253,-6.791602,4.881793,169.553327,-0.086639,-0.118546,0.985336,-0.006794,0.006406,0.004264,90.290054,17.112534,-146.552078,,,
729706346.22861,-6.794925,4.880335,169.553384,-0.083664,-0.115829,0.981049,-0.012551,-0.004888,-0.003086,90.290054,17.112534,-146.552078,,,
729706346.231977,-6.794925,4.880335,169.553384,-0.083664,-0.115829,0.981049,-0.012551,-0.004888,-0.003086,90.290054,17.112534,-146.552078,,,
729706346.235265,-6.799599,4.87915,169.552701,-0.083664,-0.115829,0.981049,-0.012551,-0.004888,-0.003086,90.290054,17.112534,-146.552078,,,
729706346.238612,-6.805602,4.876349,169.551429,-0.085739,-0.115829,0.978989,-0.021416,-0.005875,-0.006736,90.290054,17.112534,-146.552078,,,
729706346.241916,-6.805602,4.876349,169.551429,-0.085739,-0.115829,0.978989,-0.021416,-0.005875,-0.006736,90.290054,17.112534,-146.552078,,,
729706346.245303,-6.81229,4.874359,169.551009,-0.085739,-0.115829,0.978989,-0.021416,-0.005875,-0.006736,90.290054,17.112534,-146.552078,,,
729706346.248582,-6.820578,4.872164,169.551191,-0.086365,-0.11792,0.978592,-0.030448,-0.004004,-0.002823,90.290054,17.112534,-146.552078,,,
729706346.251933,-6.820578,4.872164,169.551191,-0.086365,-0.11792,0.978592,-0.030448,-0.004004,-0.002823,90.290054,17.112534,-146.552078,,,
729706346.25526,-6.829256,4.870673,169.552568,-0.086365,-0.11792,0.978592,-0.030448,-0.004004,-0.002823,90.290054,17.112534,-146.552078,,,
729706346.258599,-6.838235,4.870259,169.555134,-0.084839,-0.121094,0.982361,-0.03159,0.004739,0.005636,90.290054,17.112534,-146.552078,,,
729706346.261932,-6.838235,4.870259,169.555134,-0.084839,-0.121094,0.982361,-0.03159,0.004739,0.005636,90.290054,17.112534,-146.552078,,,
729706346.265322,-6.846983,4.872044,169.558266,-0.084839,-0.121094,0.982361,-0.03159,0.004739,0.005636,90.290054,17.112534,-146.552078,,,
729706346.26858,-6.855903,4.875265,169.561789,-0.08374,-0.120392,0.985687,-0.032017,0.016419,0.008527,90.14888,17.070862,-146.499817,,,
729706346.271998,-6.855903,4.875265,169.561789,-0.08374,-0.120392,0.985687,-0.032017,0.016419,0.008527,90.14888,17.070862,-146.499817,,,
729706346.275264,-6.865353,4.880679,169.566252,-0.08374,-0.120392,0.985687,-0.032017,0.016419,0.008527,90.14888,17.070862,-146.499817,,,
729706346.278582,-6.875767,4.886442,169.571366,-0.083832,-0.11937,0.984436,-0.03992,0.022843,0.012885,90.14888,17.070862,-146.499817,,,
729706346.281928,-6.875767,4.886442,169.571366,-0.083832,-0.11937,0.984436,-0.03992,0.022843,0.012885,90.14888,17.070862,-146.499817,,,
729706346.285317,-6.888006,4.8932,169.576171,-0.083832,-0.11937,0.984436,-0.03992,0.022843,0.012885,90.14888,17.070862,-146.499817,,,
729706346.288582,-6.900289,4.898607,169.580601,-0.086319,-0.120941,0.981506,-0.043039,0.017943,0.010489,90.14888,17.070862,-146.499817,,,
729706346.291928,-6.900289,4.898607,169.580601,-0.086319,-0.120941,0.981506,-0.043039,0.017943,0.010489,90.14888,17.070862,-146.499817,,,
729706346.295272,-6.913489,4.90423,169.585467,-0.086319,-0.120941,0.981506,-0.043039,0.017943,0.010489,90.14888,17.070862,-146.499817,,,
729706346.298591,-6.927725,4.90835,169.590533,-0.088898,-0.120773,0.978867,-0.05127,0.012031,0.011739,90.14888,17.070862,-146.499817,,,
729706346.30194,-6.927725,4.90835,169.590533,-0.088898,-0.120773,0.978867,-0.05127,0.012031,0.011739,90.14888,17.070862,-146.499817,,,
729706346.305286,-6.942136,4.911395,169.595303,-0.088898,-0.120773,0.978867,-0.05127,0.012031,0.011739,90.14888,17.070862,-146.499817,,,
729706346.308585,-6.95613,4.913218,169.600152,-0.087524,-0.12323,0.982422,-0.04601,0.003019,0.012705,90.217758,16.940399,-146.723816,,,
729706346.311988,-6.95613,4.913218,169.600152,-0.087524,-0.12323,0.982422,-0.04601,0.003019,0.012705,90.217758,16.940399,-146.723816,,,
729706346.315267,-6.968234,4.91332,169.604967,-0.087524,-0.12323,0.982422,-0.04601,0.003019,0.012705,90.217758,16.940399,-146.723816,,,
729706346.318588,-6.979761,4.9129,169.60927,-0.087204,-0.130722,0.993164,-0.038188,0.000928,0.009963,90.217758,16.940399,-146.723816,,,
729706346.321932,-6.979761,4.9129,169.60927,-0.087204,-0.130722,0.993164,-0.038188,0.000928,0.009963,90.217758,16.940399,-146.723816,,,
729706346.325324,-6.988856,4.913335,169.61339,-0.087204,-0.130722,0.993164,-0.038188,0.000928,0.009963,90.217758,16.940399,-146.723816,,,
729706346.328589,-6.995214,4.915101,169.616865,-0.083832,-0.134109,1.00206,-0.016108,0.012476,0.007602,90.217758,16.940399,-146.723816,,,
729706346.331916,-6.995214,4.915101,169.616865,-0.083832,-0.134109,1.00206,-0.016108,0.012476,0.007602,90.217758,16.940399,-146.723816,,,
729706346.335261,-6.997916,4.919648,169.619809,-0.083832,-0.134109,1.00206,-0.016108,0.012476,0.007602,90.217758,16.940399,-146.723816,,,
729706346.338589,-6.997957,4.925732,169.622529,-0.082748,-0.130707,1.011246,0.002988,0.025168,0.007921,90.217758,16.940399,-146.723816,,,
729706346.341941,-6.997957,4.925732,169.622529,-0.082748,-0.130707,1.011246,0.002988,0.025168,0.007921,90.217758,16.940399,-146.723816,,,
729706346.345265,-6.996096,4.932427,169.625704,-0.082748,-0.130707,1.011246,0.002988,0.025168,0.007921,90.217758,16.940399,-146.723816,,,
729706346.348591,-6.992051,4.939108,169.630121,-0.090408,-0.13147,1.006317,0.016985,0.023126,0.017645,90.292542,17.201233,-146.402924,,,
729706346.351975,-6.992051,4.939108,169.630121,-0.090408,-0.13147,1.006317,0.016985,0.023126,0.017645,90.292542,17.201233,-146.402924,,,
729706346.355266,-6.986823,4.944542,169.636203,-0.090408,-0.13147,1.006317,0.016985,0.023126,0.017645,90.292542,17.201233,-146.402924,,,
729706346.358589,-6.98172,4.948926,169.644196,-0.096634,-0.131516,0.996246,0.016753,0.011851,0.030619,90.292542,17.201233,-146.402924,,,
729706346.361918,-6.98172,4.948926,169.644196,-0.096634,-0.131516,0.996246,0.016753,0.011851,0.030619,90.292542,17.201233,-146.402924,,,
729706346.365261,-6.97666,4.951767,169.653926,-0.096634,-0.131516,0.996246,0.016753,0.011851,0.030619,90.292542,17.201233,-146.402924,,,
729706346.36859,-6.972857,4.953166,169.665141,-0.097366,-0.12326,0.987869,0.007445,-0.000343,0.040043,90.292542,17.201233,-146.402924,,,
729706346.371933,-6.972857,4.953166,169.665141,-0.097366,-0.12326,0.987869,0.007445,-0.000343,0.040043,90.292542,17.201233,-146.402924,,,
729706346.375335,-6.970179,4.953418,169.677271,-0.097366,-0.12326,0.987869,0.007445,-0.000343,0.040043,90.292542,17.201233,-146.402924,,,
729706346.378576,-6.969377,4.953131,169.689968,-0.096329,-0.121796,0.985092,-0.006903,-0.001649,0.043078,90.292542,17.201233,-146.402924,,,
729706346.381933,-6.969377,4.953131,169.689968,-0.096329,-0.121796,0.985092,-0.006903,-0.001649,0.043078,90.292542,17.201233,-146.402924,,,
729706346.385256,-6.970555,4.953578,169.702599,-0.096329,-0.121796,0.985092,-0.006903,-0.001649,0.043078,90.292542,17.201233,-146.402924,,,
729706346.388583,-6.971081,4.95161,169.713954,-0.092834,-0.123734,0.985092,-0.002293,-0.012918,0.035163,90.156509,17.076172,-146.157745,,,
729706346.39196,-6.971081,4.95161,169.713954,-0.092834,-0.123734,0.985092,-0.002293,-0.012918,0.035163,90.156509,17.076172,-146.157745,,,
729706346.395256,-6.971219,4.949106,169.724844,-0.092834,-0.123734,0.985092,-0.002293,-0.012918,0.035163,90.156509,17.076172,-146.157745,,,
729706346.398583,-6.969386,4.947061,169.735732,-0.090134,-0.127594,0.991226,0.006974,-0.008326,0.036136,90.156509,17.076172,-146.157745,,,
729706346.40198,-6.969386,4.947061,169.735732,-0.090134,-0.127594,0.991226,0.006974,-0.008326,0.036136,90.156509,17.076172,-146.157745,,,
729706346.40525,-6.96646,4.944079,169.745598,-0.090134,-0.127594,0.991226,0.006974,-0.008326,0.036136,90.156509,17.076172,-146.157745,,,
729706346.4086,-6.960079,4.940423,169.754416,-0.087509,-0.121658,0.989426,0.023543,-0.012287,0.030304,90.156509,17.076172,-146.157745,,,
729706346.411936,-6.960079,4.940423,169.754416,-0.087509,-0.121658,0.989426,0.023543,-0.012287,0.030304,90.156509,17.076172,-146.157745,,,
729706346.415335,-6.952845,4.935566,169.761969,-0.087509,-0.121658,0.989426,0.023543,-0.012287,0.030304,90.156509,17.076172,-146.157745,,,
729706346.41858,-6.94381,4.930612,169.768399,-0.085327,-0.12088,0.986053,0.029757,-0.017676,0.022315,90.156509,17.076172,-146.157745,,,
729706346.421931,-6.94381,4.930612,169.768399,-0.085327,-0.12088,0.986053,0.029757,-0.017676,0.022315,90.156509,17.076172,-146.157745,,,
729706346.425267,-6.935954,4.92513,169.774506,-0.085327,-0.12088,0.986053,0.029757,-0.017676,0.022315,90.156509,17.076172,-146.157745,,,
729706346.428593,-6.928675,4.919775,169.780073,-0.085205,-0.116821,0.977158,0.021311,-0.01768,0.017661,90.156509,17.076172,-146.157745,,,
729706346.431932,-6.928675,4.919775,169.780073,-0.085205,-0.116821,0.977158,0.021311,-0.01768,0.017661,89.993271,17.108063,-146.35231,,,
729706346.435261,-6.925341,4.915982,169.78547,-0.085205,-0.116821,0.977158,0.021311,-0.01768,0.017661,89.993271,17.108063,-146.35231,,,
729706346.438589,-6.924372,4.912317,169.790752,-0.084839,-0.112259,0.974121,-0.00233,-0.008103,0.015925,89.993271,17.108063,-146.35231,,,
729706346.441986,-6.924372,4.912317,169.790752,-0.084839,-0.112259,0.974121,-0.00233,-0.008103,0.015925,89.993271,17.108063,-146.35231,,,
729706346.445253,-6.927196,4.912544,169.79621,-0.084839,-0.112259,0.974121,-0.00233,-0.008103,0.015925,89.993271,17.108063,-146.35231,,,
729706346.448583,-6.932031,4.912893,169.801466,-0.084991,-0.114166,0.976349,-0.021135,0.005901,0.014496,89.993271,17.108063,-146.35231,,,
729706346.451934,-6.932031,4.912893,169.801466,-0.084991,-0.114166,0.976349,-0.021135,0.005901,0.014496,89.993271,17.108063,-146.35231,,,
729706346.455296,-6.938382,4.917209,169.807205,-0.084991,-0.114166,0.976349,-0.021135,0.005901,0.014496,89.993271,17.108063,-146.35231,,,
729706346.458577,-6.94496,4.920988,169.813225,-0.084778,-0.120728,0.984924,-0.024101,0.016198,0.01792,89.993271,17.108063,-146.35231,,,
729706346.461916,-6.94496,4.920988,169.813225,-0.084778,-0.120728,0.984924,-0.024101,0.016198,0.01792,89.993271,17.108063,-146.35231,,,
729706346.465265,-6.950047,4.927693,169.819308,-0.084778,-0.120728,0.984924,-0.024101,0.016198,0.01792,89.993271,17.108063,-146.35231,,,
729706346.468673,-6.952535,4.933775,169.825654,-0.085419,-0.124985,0.989777,-0.007753,0.023253,0.022579,89.993271,17.108063,-146.35231,,,
729706346.471906,-6.952535,4.933775,169.825654,-0.085419,-0.124985,0.989777,-0.007753,0.023253,0.022579,90.178116,17.010574,-146.582642,,,
729706346.475249,-6.952977,4.940875,169.832923,-0.085419,-0.124985,0.989777,-0.007753,0.023253,0.022579,90.178116,17.010574,-146.582642,,,
729706346.478583,-6.950291,4.947175,169.84008,-0.085236,-0.12468,0.992508,0.010107,0.021686,0.023825,90.178116,17.010574,-146.582642,,,
729706346.48198,-6.950291,4.947175,169.84008,-0.085236,-0.12468,0.992508,0.010107,0.021686,0.023825,90.178116,17.010574,-146.582642,,,
729706346.485253,-6.947127,4.953463,169.846771,-0.085236,-0.12468,0.992508,0.010107,0.021686,0.023825,90.178116,17.010574,-146.582642,,,
729706346.488583,-6.943549,4.957024,169.85247,-0.083298,-0.1185,0.988953,0.01082,0.009772,0.017757,90.178116,17.010574,-146.582642,,,
729706346.491935,-6.943549,4.957024,169.85247,-0.083298,-0.1185,0.988953,0.01082,0.009772,0.017757,90.178116,17.010574,-146.582642,,,
729706346.495314,-6.940047,4.958373,169.857399,-0.083298,-0.1185,0.988953,0.01082,0.009772,0.017757,90.178116,17.010574,-146.582642,,,
729706346.498576,-6.93758,4.957252,169.861211,-0.083618,-0.115463,0.97937,0.004102,-0.00765,0.00922,90.178116,17.010574,-146.582642,,,
729706346.501927,-6.93758,4.957252,169.861211,-0.083618,-0.115463,0.97937,0.004102,-0.00765,0.00922,90.178116,17.010574,-146.582642,,,
729706346.505264,-6.936976,4.953088,169.863747,-0.083618,-0.115463,0.97937,0.004102,-0.00765,0.00922,90.178116,17.010574,-146.582642,,,
729706346.508581,-6.938022,4.945428,169.865355,-0.083694,-0.112,0.971634,-0.006295,-0.029992,0.002045,90.178116,17.010574,-146.582642,,,
729706346.511928,-6.938022,4.945428,169.865355,-0.083694,-0.112,0.971634,-0.006295,-0.029992,0.002045,90.195557,17.220459,-146.461197,,,
729706346.515246,-6.93992,4.935255,169.8662,-0.083694,-0.112,0.971634,-0.006295,-0.029992,0.002045,90.195557,17.220459,-146.461197,,,
729706346.518581,-6.943213,4.924235,169.86674,-0.083618,-0.115982,0.970123,-0.012245,-0.036854,-0.000745,90.195557,17.220459,-146.461197,,,
729706346.522001,-6.943213,4.924235,169.86674,-0.083618,-0.115982,0.970123,-0.012245,-0.036854,-0.000745,90.195557,17.220459,-146.461197,,,
729706346.525261,-6.946587,4.912924,169.867229,-0.083618,-0.115982,0.970123,-0.012245,-0.036854,-0.000745,90.195557,17.220459,-146.461197,,,
729706346.528591,-6.95084,4.901708,169.867702,-0.080063,-0.116425,0.972519,-0.013763,-0.035021,-0.000864,90.195557,17.220459,-146.461197,,,
729706346.531942,-6.95084,4.901708,169.867702,-0.080063,-0.116425,0.972519,-0.013763,-0.035021,-0.000864,90.195557,17.220459,-146.461197,,,
729706346.535319,-6.955006,4.892181,169.868269,-0.080063,-0.116425,0.972519,-0.013763,-0.035021,-0.000864,90.195557,17.220459,-146.461197,,,
729706346.538591,-6.960182,4.885308,169.868999,-0.07692,-0.116821,0.980515,-0.018772,-0.016157,-0.00011,90.195557,17.220459,-146.461197,,,
729706346.542012,-6.960182,4.885308,169.868999,-0.07692,-0.116821,0.980515,-0.018772,-0.016157,-0.00011,90.195557,17.220459,-146.461197,,,
729706346.545247,-6.966023,4.88195,169.870074,-0.07692,-0.116821,0.980515,-0.018772,-0.016157,-0.00011,90.195557,17.220459,-146.461197,,,
729706346.548592,-6.971901,4.881661,169.870908,-0.073898,-0.118256,0.986725,-0.02073,0.006496,-0.00181,90.195557,17.220459,-146.461197,,,
729706346.551915,-6.971901,4.881661,169.870908,-0.073898,-0.118256,0.986725,-0.02073,0.006496,-0.00181,90.253265,17.294037,-146.662628,,,
729706346.55525,-6.978004,4.884274,169.871838,-0.073898,-0.118256,0.986725,-0.02073,0.006496,-0.00181,90.253265,17.294037,-146.662628,,,
729706346.558609,-6.983907,4.888853,169.872689,-0.073364,-0.117416,0.98497,-0.022282,0.021864,-0.002323,90.253265,17.294037,-146.662628,,,
729706346.561983,-6.983907,4.888853,169.872689,-0.073364,-0.117416,0.98497,-0.022282,0.021864,-0.002323,90.253265,17.294037,-146.662628,,,
729706346.56526,-6.991215,4.894703,169.873143,-0.073364,-0.117416,0.98497,-0.022282,0.021864,-0.002323,90.253265,17.294037,-146.662628,,,
729706346.568607,-6.999676,4.901048,169.873272,-0.078705,-0.117981,0.983124,-0.030396,0.024407,-0.005418,90.253265,17.294037,-146.662628,,,
729706346.571927,-6.999676,4.901048,169.873272,-0.078705,-0.117981,0.983124,-0.030396,0.024407,-0.005418,90.253265,17.294037,-146.662628,,,
729706346.575318,-7.008107,4.905663,169.872442,-0.078705,-0.117981,0.983124,-0.030396,0.024407,-0.005418,90.253265,17.294037,-146.662628,,,
729706346.578594,-7.017298,4.908387,169.870806,-0.082321,-0.117783,0.981201,-0.031785,0.010872,-0.011274,90.253265,17.294037,-146.662628,,,
729706346.58193,-7.017298,4.908387,169.870806,-0.082321,-0.117783,0.981201,-0.031785,0.010872,-0.011274,90.253265,17.294037,-146.662628,,,
729706346.585251,-7.026243,4.90957,169.868334,-0.082321,-0.117783,0.981201,-0.031785,0.010872,-0.011274,90.253265,17.294037,-146.662628,,,
729706346.588592,-7.036834,4.908844,169.865201,-0.082642,-0.118973,0.983124,-0.037181,-0.0019,-0.016331,90.253265,17.294037,-146.662628,,,
729706346.591931,-7.036834,4.908844,169.865201,-0.082642,-0.118973,0.983124,-0.037181,-0.0019,-0.016331,90.253265,17.294037,-146.662628,,,
729706346.595257,-7.047246,4.906503,169.861737,-0.082642,-0.118973,0.983124,-0.037181,-0.0019,-0.016331,90.392792,17.024536,-146.435638,,,
729706346.598671,-7.057563,4.902577,169.858286,-0.082642,-0.118973,0.983124,-0.031649,-0.011304,-0.015578,90.392792,17.024536,-146.435638,,,
729706346.601911,-7.057563,4.902577,169.858286,-0.086395,-0.122162,0.983948,-0.031649,-0.011304,-0.015578,90.392792,17.024536,-146.435638,,,
729706346.605256,-7.066407,4.897144,169.854679,-0.086395,-0.122162,0.983948,-0.031649,-0.011304,-0.015578,90.392792,17.024536,-146.435638,,,
729706346.608623,-7.066407,4.897144,169.850511,-0.086395,-0.122162,0.983948,-0.031649,-0.011304,-0.015578,90.392792,17.024536,-146.435638,,,
729706346.611921,-7.073975,4.891911,169.850511,-0.087326,-0.126007,0.991379,-0.019742,-0.011109,-0.018656,90.392792,17.024536,-146.435638,,,
729706346.61525,-7.07814,4.887181,169.846005,-0.087326,-0.126007,0.991379,-0.019742,-0.011109,-0.018656,90.392792,17.024536,-146.435638,,,
729706346.618622,-7.07814,4.887181,169.841507,-0.087326,-0.126007,0.991379,-0.007345,0.003362,-0.018249,90.392792,17.024536,-146.435638,,,
729706346.621937,-7.081074,4.885321,169.841507,-0.08371,-0.126007,0.997894,-0.007345,0.003362,-0.018249,90.392792,17.024536,-146.435638,,,
729706346.625249,-7.083068,4.883824,169.837042,-0.08371,-0.126007,0.997894,-0.007345,0.003362,-0.018249,90.392792,17.024536,-146.435638,,,
729706346.628658,-7.083068,4.884551,169.832901,-0.08371,-0.126007,0.997894,-0.007345,0.003362,-0.018249,90.392792,17.024536,-146.435638,,,
729706346.631922,-7.085574,4.884551,169.832901,-0.080994,-0.125137,0.995743,-0.007788,0.008812,-0.017254,90.392792,17.024536,-146.435638,,,
729706346.635268,-7.088152,4.883812,169.82805,-0.080994,-0.125137,0.995743,-0.007788,0.008812,-0.017254,90.138931,17.269531,-146.548447,,,
729706346.638595,-7.088152,4.883812,169.82805,-0.080994,-0.125137,0.995743,-0.007788,0.008812,-0.017254,90.138931,17.269531,-146.548447,,,
729706346.641991,-7.09279,4.885058,169.823419,-0.081146,-0.122421,0.991196,-0.018406,0.010664,-0.018098,90.138931,17.269531,-146.548447,,,
729706346.645248,-7.098331,4.885339,169.819034,-0.081146,-0.122421,0.991196,-0.018406,0.010664,-0.018098,90.138931,17.269531,-146.548447,,,
729706346.648653,-7.098331,4.885339,169.819034,-0.081146,-0.122421,0.991196,-0.018406,0.010664,-0.018098,90.138931,17.269531,-146.548447,,,
729706346.651918,-7.1052,4.886873,169.814793,-0.086975,-0.123398,0.992722,-0.023586,0.011189,-0.018574,90.138931,17.269531,-146.548447,,,
729706346.655256,-7.112238,4.888501,169.809985,-0.086975,-0.123398,0.992722,-0.023586,0.011189,-0.018574,90.138931,17.269531,-146.548447,,,
729706346.658642,-7.112238,4.888501,169.809985,-0.086975,-0.123398,0.992722,-0.023586,0.011189,-0.018574,90.138931,17.269531,-146.548447,,,
729706346.66192,-7.119427,4.890519,169.805308,-0.08847,-0.125946,0.996613,-0.021246,0.010202,-0.017887,90.138931,17.269531,-146.548447,,,
729706346.665262,-7.125165,4.890763,169.801074,-0.08847,-0.125946,0.996613,-0.021246,0.010202,-0.017887,90.138931,17.269531,-146.548447,,,
729706346.668694,-7.125165,4.890763,169.801074,-0.08847,-0.125946,0.996613,-0.021246,0.010202,-0.017887,90.138931,17.269531,-146.548447,,,
729706346.671928,-7.130099,4.889548,169.797235,-0.092041,-0.127228,0.998016,-0.012358,-0.002834,-0.014732,90.138931,17.269531,-146.548447,,,
729706346.675257,-7.13228,4.886832,169.794131,-0.092041,-0.127228,0.998016,-0.012358,-0.002834,-0.014732,90.116409,17.32077,-146.665909,,,
729706346.678695,-7.13228,4.886832,169.794131,-0.092041,-0.127228,0.998016,-0.012358,-0.002834,-0.014732,90.116409,17.32077,-146.665909,,,
729706346.681982,-7.132244,4.882971,169.791531,-0.093674,-0.130508,1.002258,0.005111,-0.010686,-0.00971,90.116409,17.32077,-146.665909,,,
729706346.685249,-7.12948,4.879556,169.788698,-0.093674,-0.130508,1.002258,0.005111,-0.010686,-0.00971,90.116409,17.32077,-146.665909,,,
729706346.688758,-7.12948,4.879556,169.788698,-0.093674,-0.130508,1.004898,0.025005,-0.008873,-0.012614,90.116409,17.32077,-146.665909,,,
729706346.691911,-7.123913,4.875783,169.785133,-0.091507,-0.129211,1.004898,0.025005,-0.008873,-0.012614,90.116409,17.32077,-146.665909,,,
729706346.69526,-7.117084,4.872768,169.781231,-0.091507,-0.129211,1.004898,0.025005,-0.008873,-0.012614,90.116409,17.32077,-146.665909,,,
729706346.698658,-7.117084,4.872768,169.781231,-0.091507,-0.129211,1.004898,0.025005,-0.008873,-0.012614,90.116409,17.32077,-146.665909,,,
729706346.701916,-7.109029,4.870536,169.777276,-0.089737,-0.126282,1.004105,0.032119,-0.003115,-0.012371,90.116409,17.32077,-146.665909,,,
729706346.70525,-7.100307,4.867827,169.773214,-0.089737,-0.126282,1.004105,0.032119,-0.003115,-0.012371,90.116409,17.32077,-146.665909,,,
729706346.708622,-7.100307,4.867827,169.773214,-0.089737,-0.126282,1.004105,0.032119,-0.003115,-0.012371,90.116409,17.32077,-146.665909,,,
729706346.711931,-7.091453,4.865696,169.769731,-0.090775,-0.12677,0.997543,0.032407,-0.002805,-0.008751,90.116409,17.32077,-146.665909,,,
729706346.715308,-7.082691,4.862613,169.76674,-0.090775,-0.12677,0.997543,0.032407,-0.002805,-0.008751,90.225128,17.360413,-146.41452,,,
729706346.718639,-7.082691,4.862613,169.76674,-0.090775,-0.12677,0.997543,0.032407,-0.002805,-0.008751,90.225128,17.360413,-146.41452,,,
729706346.721989,-7.074457,4.860272,169.764095,-0.089615,-0.126663,0.992294,0.028437,-0.002396,-0.007236,90.225128,17.360413,-146.41452,,,
729706346.725242,-7.067422,4.858284,169.761819,-0.089615,-0.126663,0.992294,0.028437,-0.002396,-0.007236,90.225128,17.360413,-146.41452,,,
729706346.728655,-7.067422,4.858284,169.761819,-0.089615,-0.126663,0.992294,0.028437,-0.002396,-0.007236,90.225128,17.360413,-146.41452,,,
729706346.731932,-7.062441,4.855876,169.760406,-0.087646,-0.123077,0.985626,0.015018,-0.005583,-0.002324,90.225128,17.360413,-146.41452,,,
729706346.735247,-7.058935,4.853545,169.759929,-0.087646,-0.123077,0.985626,0.015018,-0.005583,-0.002324,90.225128,17.360413,-146.41452,,,
729706346.738605,-7.058935,4.853545,169.759929,-0.087646,-0.123077,0.985626,0.015018,-0.005583,-0.002324,90.225128,17.360413,-146.41452,,,
729706346.741907,-7.057062,4.850152,169.759497,-0.087433,-0.120682,0.980698,0.002897,-0.010076,-0.002668,90.225128,17.360413,-146.41452,,,
729706346.74525,-7.057018,4.846664,169.75925,-0.087433,-0.120682,0.980698,0.002897,-0.010076,-0.002668,90.225128,17.360413,-146.41452,,,
729706346.748646,-7.057018,4.846664,169.75925,-0.087433,-0.120682,0.980698,0.002897,-0.010076,-0.002668,90.225128,17.360413,-146.41452,,,
729706346.751919,-7.057493,4.841487,169.758351,-0.084595,-0.120453,0.97644,-0.001762,-0.015329,-0.006829,90.225128,17.360413,-146.41452,,,
729706346.755255,-7.05893,4.837709,169.756649,-0.084595,-0.120453,0.97644,-0.001762,-0.015329,-0.006829,90.225128,17.360413,-146.41452,,,
729706346.75858,-7.05893,4.837709,169.756649,-0.084595,-0.120453,0.97644,-0.001762,-0.015329,-0.006829,89.900192,17.172958,-146.242615,,,
729706346.761991,-7.059875,4.834355,169.7544,-0.081314,-0.122528,0.979507,-0.002097,-0.003289,-0.009575,89.900192,17.172958,-146.242615,,,
729706346.76525,-7.061595,4.834241,169.751674,-0.081314,-0.122528,0.979507,-0.002097,-0.003289,-0.009575,89.900192,17.172958,-146.242615,,,
729706346.7686,-7.061595,4.834241,169.751674,-0.081314,-0.122528,0.979507,-0.002097,-0.003289,-0.009575,89.900192,17.172958,-146.242615,,,
729706346.771956,-7.062812,4.834539,169.748201,-0.077072,-0.123672,0.983521,-0.002283,0.009197,-0.013624,89.900192,17.172958,-146.242615,,,
729706346.775255,-7.063858,4.837243,169.74463,-0.077072,-0.123672,0.983521,-0.002283,0.009197,-0.013624,89.900192,17.172958,-146.242615,,,
729706346.778599,-7.063858,4.837243,169.74463,-0.077072,-0.123672,0.983521,-0.002283,0.009197,-0.013624,89.900192,17.172958,-146.242615,,,
729706346.781931,-7.064564,4.839917,169.740903,-0.078979,-0.125107,0.987061,-0.001471,0.014631,-0.013984,89.900192,17.172958,-146.242615,,,
729706346.785256,-7.064521,4.843364,169.73779,-0.078979,-0.125107,0.987061,-0.001471,0.014631,-0.013984,89.900192,17.172958,-146.242615,,,
729706346.788664,-7.064521,4.843364,169.73779,-0.078979,-0.125107,0.987061,-0.001471,0.014631,-0.013984,89.900192,17.172958,-146.242615,,,
729706346.791917,-7.062104,4.845424,169.734827,-0.084,-0.128082,0.98555,0.013405,0.010325,-0.011048,89.900192,17.172958,-146.242615,,,
729706346.795255,-7.059399,4.848211,169.731657,-0.084,-0.128082,0.98555,0.013405,0.010325,-0.011048,89.900192,17.172958,-146.242615,,,
729706346.798583,-7.059399,4.848211,169.731657,-0.084,-0.128082,0.98555,0.013405,0.010325,-0.011048,90.118607,17.200668,-146.006317,,,
729706346.801987,-7.056983,4.850069,169.728536,-0.08313,-0.126038,0.983948,0.008631,0.010874,-0.010228,90.118607,17.200668,-146.006317,,,
729706346.805247,-7.0553,4.852635,169.725378,-0.08313,-0.126038,0.983948,0.008631,0.010874,-0.010228,90.118607,17.200668,-146.006317,,,
729706346.808603,-7.0553,4.852635,169.725378,-0.08313,-0.126038,0.983948,0.008631,0.010874,-0.010228,90.118607,17.200668,-146.006317,,,
729706346.811985,-7.054682,4.854228,169.722017,-0.083923,-0.12204,0.983612,0.000442,0.009293,-0.011657,90.118607,17.200668,-146.006317,,,
729706346.815276,-7.055553,4.855844,169.718867,-0.083923,-0.12204,0.983612,0.000442,0.009293,-0.011657,90.118607,17.200668,-146.006317,,,
729706346.818618,-7.055553,4.855844,169.718867,-0.083923,-0.12204,0.983612,0.000442,0.009293,-0.011657,90.118607,17.200668,-146.006317,,,
729706346.821947,-7.057846,4.855708,169.715552,-0.0858,-0.122589,0.979919,-0.008879,0.002126,-0.012953,90.118607,17.200668,-146.006317,,,
729706346.825259,-7.061427,4.854793,169.712507,-0.0858,-0.122589,0.979919,-0.008879,0.002126,-0.012953,90.118607,17.200668,-146.006317,,,
729706346.828661,-7.061427,4.854793,169.712507,-0.0858,-0.122589,0.979919,-0.008879,0.002126,-0.012953,90.118607,17.200668,-146.006317,,,
729706346.831926,-7.065997,4.851821,169.709658,-0.087448,-0.124313,0.977341,-0.015223,-0.008559,-0.011657,90.118607,17.200668,-146.006317,,,
729706346.835258,-7.071094,4.8486,169.707195,-0.087448,-0.124313,0.977341,-0.015223,-0.008559,-0.011657,90.118607,17.200668,-146.006317,,,
729706346.838684,-7.071094,4.8486,169.707195,-0.087448,-0.124313,0.977341,-0.015223,-0.008559,-0.011657,89.999023,17.081635,-146.450302,,,
729706346.841983,-7.076494,4.846395,169.704917,-0.087311,-0.126953,0.984543,-0.017194,-0.002492,-0.010671,89.999023,17.081635,-146.450302,,,
729706346.845246,-7.080461,4.843606,169.702478,-0.087311,-0.126953,0.984543,-0.017194,-0.002492,-0.010671,89.999023,17.081635,-146.450302,,,
729706346.848605,-7.080461,4.843606,169.702478,-0.087311,-0.126953,0.984543,-0.017194,-0.002492,-0.010671,89.999023,17.081635,-146.450302,,,
729706346.851924,-7.081843,4.840077,169.699802,-0.088593,-0.129257,0.990082,0.000407,-0.011296,-0.011282,89.999023,17.081635,-146.450302,,,
729706346.855248,-7.081036,4.832988,169.697145,-0.088593,-0.129257,0.990082,0.000407,-0.011296,-0.011282,89.999023,17.081635,-146.450302,,,
729706346.858599,-7.081036,4.832988,169.697145,-0.088593,-0.129257,0.990082,0.000407,-0.011296,-0.011282,89.999023,17.081635,-146.450302,,,
729706346.861915,-7.077768,4.825041,169.69464,-0.088867,-0.130585,0.989258,0.016697,-0.024469,-0.009718,89.999023,17.081635,-146.450302,,,
729706346.86525,-7.07227,4.816372,169.692323,-0.088867,-0.130585,0.989258,0.016697,-0.024469,-0.009718,89.999023,17.081635,-146.450302,,,
729706346.868649,-7.07227,4.816372,169.692323,-0.088867,-0.130585,0.989258,0.016697,-0.024469,-0.009718,89.999023,17.081635,-146.450302,,,
729706346.87192,-7.064668,4.807742,169.690739,-0.08931,-0.131119,0.994385,0.028578,-0.026344,-0.003855,89.999023,17.081635,-146.450302,,,
729706346.875254,-7.056903,4.799714,169.689219,-0.08931,-0.131119,0.994385,0.028578,-0.026344,-0.003855,89.999023,17.081635,-146.450302,,,
729706346.878638,-7.056903,4.799714,169.689219,-0.08931,-0.131119,0.994385,0.028578,-0.026344,-0.003855,89.999023,17.081635,-146.450302,,,
729706346.881999,-7.048685,4.791976,169.688006,-0.087036,-0.127045,0.991608,0.027664,-0.022484,-0.001569,89.854202,17.384903,-146.265198,,,
729706346.885248,-7.040953,4.784438,169.687633,-0.087036,-0.127045,0.991608,0.027664,-0.022484,-0.001569,89.854202,17.384903,-146.265198,,,
729706346.888606,-7.040953,4.784438,169.687633,-0.087036,-0.127045,0.991608,0.027664,-0.022484,-0.001569,89.854202,17.384903,-146.265198,,,
729706346.891936,-7.033483,4.776975,169.686917,-0.08519,-0.12207,0.98587,0.024498,-0.020203,-0.004051,89.854202,17.384903,-146.265198,,,
729706346.895255,-7.027617,4.771231,169.685548,-0.08519,-0.12207,0.98587,0.024498,-0.020203,-0.004051,89.854202,17.384903,-146.265198,,,
729706346.898594,-7.027617,4.771231,169.685548,-0.08519,-0.12207,0.98587,0.024498,-0.020203,-0.004051,89.854202,17.384903,-146.265198,,,
729706346.901949,-7.0229,4.765663,169.683526,-0.082703,-0.119171,0.983612,0.016741,-0.01493,-0.008818,89.854202,17.384903,-146.265198,,,
729706346.905246,-7.019431,4.761307,169.681612,-0.082703,-0.119171,0.983612,0.016741,-0.01493,-0.008818,89.854202,17.384903,-146.265198,,,
729706346.908605,-7.019431,4.761307,169.681612,-0.082703,-0.119171,0.983612,0.016741,-0.01493,-0.008818,89.854202,17.384903,-146.265198,,,
729706346.911937,-7.016673,4.75638,169.679843,-0.081619,-0.119446,0.978333,0.009851,-0.013762,-0.007728,89.854202,17.384903,-146.265198,,,
729706346.915256,-7.015076,4.751743,169.678086,-0.081619,-0.119446,0.978333,0.009851,-0.013762,-0.007728,89.854202,17.384903,-146.265198,,,
729706346.918665,-7.015076,4.751743,169.678086,-0.081619,-0.119446,0.978333,0.009851,-0.013762,-0.007728,89.854202,17.384903,-146.265198,,,
729706346.921927,-7.013862,4.745641,169.676563,-0.082504,-0.120422,0.975357,0.004135,-0.017702,-0.005785,89.85141,17.271912,-146.288406,,,
729706346.925255,-7.014245,4.740032,169.675473,-0.082504,-0.120422,0.975357,0.004135,-0.017702,-0.005785,89.85141,17.271912,-146.288406,,,
729706346.928592,-7.014245,4.740032,169.675473,-0.082504,-0.120422,0.975357,0.004135,-0.017702,-0.005785,89.85141,17.271912,-146.288406,,,
729706346.931978,-7.014829,4.733301,169.674542,-0.08252,-0.11911,0.976074,-0.001988,-0.019943,-0.004499,89.85141,17.271912,-146.288406,,,
729706346.935248,-7.016627,4.727422,169.673851,-0.08252,-0.11911,0.976074,-0.001988,-0.019943,-0.004499,89.85141,17.271912,-146.288406,,,
729706346.9386,-7.016627,4.727422,169.673851,-0.08252,-0.11911,0.976074,-0.001988,-0.019943,-0.004499,89.85141,17.271912,-146.288406,,,
729706346.941927,-7.018865,4.720935,169.673031,-0.081848,-0.119019,0.977798,-0.010171,-0.016017,-0.005084,89.85141,17.271912,-146.288406,,,
729706346.945253,-7.022902,4.717109,169.672754,-0.081848,-0.119019,0.977798,-0.010171,-0.016017,-0.005084,89.85141,17.271912,-146.288406,,,
729706346.948596,-7.022902,4.717109,169.672754,-0.081848,-0.119019,0.977798,-0.010171,-0.016017,-0.005084,89.85141,17.271912,-146.288406,,,
729706346.95193,-7.025997,4.712875,169.672459,-0.081406,-0.121002,0.980942,-0.009396,-0.01108,-0.004163,89.85141,17.271912,-146.288406,,,
729706346.955297,-7.02995,4.710664,169.672339,-0.081406,-0.121002,0.980942,-0.009396,-0.01108,-0.004163,89.85141,17.271912,-146.288406,,,
729706346.95864,-7.02995,4.710664,169.672339,-0.081406,-0.121002,0.980942,-0.009396,-0.01108,-0.004163,89.85141,17.271912,-146.288406,,,
729706346.961912,-7.033853,4.708661,169.672212,-0.084015,-0.123184,0.983856,-0.014159,-0.002554,-0.003743,89.7939,17.137848,-146.004776,,,
729706346.965253,-7.038963,4.70824,169.671933,-0.084015,-0.123184,0.983856,-0.014159,-0.002554,-0.003743,89.7939,17.137848,-146.004776,,,
729706346.968584,-7.038963,4.70824,169.671933,-0.084015,-0.123184,0.983856,-0.014159,-0.002554,-0.003743,89.7939,17.137848,-146.004776,,,
729706346.972,-7.044538,4.707686,169.671862,-0.082947,-0.121078,0.984329,-0.019151,0.00148,-0.002067,89.7939,17.137848,-146.004776,,,
729706346.975247,-7.050358,4.70763,169.672591,-0.082947,-0.121078,0.984329,-0.019151,0.00148,-0.002067,89.7939,17.137848,-146.004776,,,
729706346.978604,-7.050358,4.70763,169.672591,-0.082947,-0.121078,0.984329,-0.019151,0.00148,-0.002067,89.7939,17.137848,-146.004776,,,
729706346.981936,-7.057202,4.707289,169.673894,-0.084381,-0.121796,0.984375,-0.025802,0.001893,0.001739,89.7939,17.137848,-146.004776,,,
729706346.985257,-7.064516,4.707819,169.675519,-0.084381,-0.121796,0.984375,-0.025802,0.001893,0.001739,89.7939,17.137848,-146.004776,,,
729706346.988579,-7.064516,4.707819,169.675519,-0.084381,-0.121796,0.984375,-0.025802,0.001893,0.001739,89.7939,17.137848,-146.004776,,,
729706346.991937,-7.07286,4.708207,169.676953,-0.08519,-0.124863,0.985779,-0.030666,0.002247,0.000168,89.7939,17.137848,-146.004776,,,
729706346.995282,-7.081401,4.707859,169.678269,-0.08519,-0.124863,0.985779,-0.030666,0.002247,0.000168,89.7939,17.137848,-146.004776,,,
729706346.998579,-7.081401,4.707859,169.678269,-0.08519,-0.124863,0.985779,-0.030666,0.002247,0.000168,89.7939,17.137848,-146.004776,,,
729706347.001929,-7.090629,4.706213,169.679466,-0.085815,-0.124741,0.986481,-0.034495,-0.004471,-0.000729,89.915344,17.299194,-146.255264,,,
729706347.005255,-7.100105,4.704119,169.680657,-0.085815,-0.124741,0.986481,-0.034495,-0.004471,-0.000729,89.915344,17.299194,-146.255264,,,
729706347.008652,-7.100105,4.704119,169.680657,-0.085815,-0.124741,0.986481,-0.034495,-0.004471,-0.000729,89.915344,17.299194,-146.255264,,,
729706347.011916,-7.109192,4.700301,169.681849,-0.083374,-0.126831,0.987442,-0.030227,-0.014539,-7.6e-05,89.915344,17.299194,-146.255264,,,
729706347.015256,-7.116633,4.6952,169.682993,-0.083374,-0.126831,0.987442,-0.030227,-0.014539,-7.6e-05,89.915344,17.299194,-146.255264,,,
729706347.018602,-7.116633,4.6952,169.682993,-0.083374,-0.126831,0.987442,-0.030227,-0.014539,-7.6e-05,89.915344,17.299194,-146.255264,,,
729706347.021983,-7.122629,4.688219,169.683813,-0.085358,-0.130524,0.992447,-0.017942,-0.024608,-0.000968,89.915344,17.299194,-146.255264,,,
729706347.025244,-7.126529,4.679296,169.684267,-0.085358,-0.130524,0.992447,-0.017942,-0.024608,-0.000968,89.915344,17.299194,-146.255264,,,
729706347.028639,-7.126529,4.679296,169.684267,-0.085358,-0.130524,0.992447,-0.017942,-0.024608,-0.000968,89.915344,17.299194,-146.255264,,,
729706347.031927,-7.128973,4.668693,169.683947,-0.081894,-0.128479,0.993149,-0.005159,-0.035131,-0.005246,89.915344,17.299194,-146.255264,,,
729706347.035258,-7.129733,4.65751,169.683031,-0.081894,-0.128479,0.993149,-0.005159,-0.035131,-0.005246,89.915344,17.299194,-146.255264,,,
729706347.038398,-7.129733,4.65751,169.683031,-0.081894,-0.128479,0.993149,-0.005159,-0.035131,-0.005246,89.915344,17.299194,-146.255264,,,
