Time (sec),Pitch (deg),Roll (deg),Yaw(deg),X-Acceleration (g),Y-Acceleration (g),Z-Acceleration (g),Pitch Rate (deg/sec),Roll Rate (deg/sec),Yaw Rate (deg/sec),Magnetic Field in X direction (uT),Magnetic Field in Y direction (uT),Magnetic Field in Z Direction (uT),Latitude (deg),Longitude (deg),Altitude (m)
729717078.930151,-52.790273,21.911975,150.308697,-0.375595,-1.135696,0.846222,8.078375,-1.707109,0.89205,97.477448,71.069077,-105.496262,,,
729717078.93249,-52.790277,21.911976,111.6955,-0.375595,-1.135696,0.846222,8.078375,-1.707109,0.89205,97.477448,71.069077,-105.496262,,,
729717078.932743,-52.790258,21.911973,114.772348,-0.375595,-1.135696,0.846222,8.078375,-1.707109,0.89205,97.477448,71.069077,-105.496262,,,
729717078.933416,-52.790273,21.911975,150.308697,-0.375595,-1.135696,0.846222,8.078375,-1.707109,0.89205,97.477448,71.069077,-105.496262,,,
729717078.936839,-50.37941,20.41488,110.631722,-0.40126,-1.166397,0.733154,8.814848,-2.497348,0.883518,97.477448,71.069077,-105.496262,,,
729717078.937989,-50.379392,20.414878,113.70857,-0.40126,-1.166397,0.733154,8.814848,-2.497348,0.883518,97.477448,71.069077,-105.496262,,,
729717078.938097,-50.379406,20.414879,149.24492,-0.40126,-1.166397,0.733154,8.814848,-2.497348,0.883518,97.477448,71.069077,-105.496262,,,
729717078.938988,-50.37941,20.41488,110.631722,-0.40126,-1.166397,0.733154,8.814848,-2.497348,0.883518,97.477448,71.069077,-105.496262,,,
729717078.939882,-47.885851,18.933792,112.76243,-0.40126,-1.166397,0.733154,8.814848,-2.497348,0.883518,97.477448,71.069077,-105.496262,,,
729717078.940082,-47.885863,18.933792,148.298782,-0.40126,-1.166397,0.733154,8.814848,-2.497348,0.883518,97.477448,71.069077,-105.496262,,,
729717078.942935,-47.885868,18.933793,109.685582,-0.40126,-1.166397,0.733154,8.814848,-2.497348,0.883518,97.477448,71.069077,-105.496262,,,
729717078.943079,-47.885851,18.933792,112.76243,-0.40126,-1.166397,0.733154,8.814848,-2.497348,0.883518,97.477448,71.069077,-105.496262,,,
729717078.943375,-47.885863,18.933792,148.298782,-0.40126,-1.166397,0.733154,8.814848,-2.497348,0.883518,97.477448,71.069077,-105.496262,,,
729717078.946847,-45.343851,17.488535,108.868526,-0.441452,-1.206558,0.574814,9.046604,-3.094406,0.916444,97.477448,71.069077,-105.496262,,,
729717078.947994,-45.343836,17.488534,111.945375,-0.441452,-1.206558,0.574814,9.046604,-3.094406,0.916444,97.477448,71.069077,-105.496262,,,
729717078.948101,-45.343847,17.488534,147.481727,-0.441452,-1.206558,0.574814,9.046604,-3.094406,0.916444,97.477448,71.069077,-105.496262,,,
729717078.948977,-45.343851,17.488535,108.868526,-0.441452,-1.206558,0.574814,9.046604,-3.094406,0.916444,97.477448,71.069077,-105.496262,,,
729717078.950149,-42.788776,16.094966,111.255846,-0.441452,-1.206558,0.574814,9.046604,-3.094406,0.916444,97.507523,64.158875,-123.975967,,,
729717078.950282,-42.788786,16.094966,146.792197,-0.441452,-1.206558,0.574814,9.046604,-3.094406,0.916444,97.507523,64.158875,-123.975967,,,
729717078.953264,-42.78879,16.094966,108.178997,-0.441452,-1.206558,0.574814,9.046604,-3.094406,0.916444,97.507523,64.158875,-123.975967,,,
729717078.953427,-42.788776,16.094966,111.255846,-0.441452,-1.206558,0.574814,9.046604,-3.094406,0.916444,97.507523,64.158875,-123.975967,,,
729717078.953506,-42.788786,16.094966,146.792197,-0.441452,-1.206558,0.574814,9.046604,-3.094406,0.916444,97.507523,64.158875,-123.975967,,,
729717078.956848,-40.251861,14.769771,107.60245,-0.391495,-1.189758,0.463272,8.849098,-3.297803,0.883369,97.507523,64.158875,-123.975967,,,
729717078.957989,-40.251848,14.769771,110.6793,-0.391495,-1.189758,0.463272,8.849098,-3.297803,0.883369,97.507523,64.158875,-123.975967,,,
729717078.958095,-40.251857,14.76977,146.21565,-0.391495,-1.189758,0.463272,8.849098,-3.297803,0.883369,97.507523,64.158875,-123.975967,,,
729717078.959036,-40.251861,14.769771,107.60245,-0.391495,-1.189758,0.463272,8.849098,-3.297803,0.883369,97.507523,64.158875,-123.975967,,,
729717078.959923,-37.756809,13.5313,110.193009,-0.391495,-1.189758,0.463272,8.849098,-3.297803,0.883369,97.507523,64.158875,-123.975967,,,
729717078.960084,-37.756817,13.531299,145.729359,-0.391495,-1.189758,0.463272,8.849098,-3.297803,0.883369,97.507523,64.158875,-123.975967,,,
729717078.962961,-37.75682,13.5313,107.116159,-0.391495,-1.189758,0.463272,8.849098,-3.297803,0.883369,97.507523,64.158875,-123.975967,,,
729717078.963127,-37.756809,13.5313,110.193009,-0.391495,-1.189758,0.463272,8.849098,-3.297803,0.883369,97.507523,64.158875,-123.975967,,,
729717078.963373,-37.756817,13.531299,145.729359,-0.391495,-1.189758,0.463272,8.849098,-3.297803,0.883369,97.507523,64.158875,-123.975967,,,
729717078.966894,-35.322535,12.393203,106.700365,-0.182022,-1.08255,0.521729,8.39985,-3.006207,0.723004,97.507523,64.158875,-123.975967,,,
729717078.968042,-35.322525,12.393203,109.777215,-0.182022,-1.08255,0.521729,8.39985,-3.006207,0.723004,97.507523,64.158875,-123.975967,,,
729717078.96815,-35.322532,12.393202,145.313565,-0.182022,-1.08255,0.521729,8.39985,-3.006207,0.723004,97.507523,64.158875,-123.975967,,,
729717078.968973,-35.322535,12.393203,106.700365,-0.182022,-1.08255,0.521729,8.39985,-3.006207,0.723004,97.507523,64.158875,-123.975967,,,
729717078.96984,-32.963293,11.361463,109.418981,-0.182022,-1.08255,0.521729,8.39985,-3.006207,0.723004,97.507523,64.158875,-123.975967,,,
729717078.970084,-32.963299,11.361462,144.955332,-0.182022,-1.08255,0.521729,8.39985,-3.006207,0.723004,97.507523,64.158875,-123.975967,,,
729717078.972942,-32.963302,11.361462,106.34213,-0.182022,-1.08255,0.521729,8.39985,-3.006207,0.723004,97.507523,64.158875,-123.975967,,,
729717078.97309,-32.963293,11.361463,109.418981,-0.182022,-1.08255,0.521729,8.39985,-3.006207,0.723004,97.507523,64.158875,-123.975967,,,
729717078.973373,-32.963299,11.361462,144.955332,-0.182022,-1.08255,0.521729,8.39985,-3.006207,0.723004,97.507523,64.158875,-123.975967,,,
729717078.976876,-30.68408,10.436976,106.033038,-0.017731,-0.956787,0.620316,7.825616,-2.523141,0.567144,97.507523,64.158875,-123.975967,,,
729717078.978021,-30.684071,10.436977,109.109889,-0.017731,-0.956787,0.620316,7.825616,-2.523141,0.567144,97.507523,64.158875,-123.975967,,,
729717078.978127,-30.684077,10.436976,144.646241,-0.017731,-0.956787,0.620316,7.825616,-2.523141,0.567144,97.507523,64.158875,-123.975967,,,
729717078.978978,-30.68408,10.436976,106.033038,-0.017731,-0.956787,0.620316,7.825616,-2.523141,0.567144,97.507523,64.158875,-123.975967,,,
729717078.979842,-28.484073,9.618603,108.845776,-0.017731,-0.956787,0.620316,7.825616,-2.523141,0.567144,97.507523,64.158875,-123.975967,,,
729717078.980086,-28.484079,9.618602,144.382128,-0.017731,-0.956787,0.620316,7.825616,-2.523141,0.567144,97.507523,64.158875,-123.975967,,,
729717078.982943,-28.484082,9.618602,105.768925,-0.017731,-0.956787,0.620316,7.825616,-2.523141,0.567144,97.507523,64.158875,-123.975967,,,
729717078.983095,-28.484073,9.618603,108.845776,-0.017731,-0.956787,0.620316,7.825616,-2.523141,0.567144,97.507523,64.158875,-123.975967,,,
729717078.983374,-28.484079,9.618602,144.382128,-0.017731,-0.956787,0.620316,7.825616,-2.523141,0.567144,97.507523,64.158875,-123.975967,,,
729717078.986853,-26.364584,8.903458,105.547511,-0.000214,-0.822632,0.721832,7.251216,-2.002785,0.49941,97.507523,64.158875,-123.975967,,,
729717078.987995,-26.364577,8.903459,108.624363,-0.000214,-0.822632,0.721832,7.251216,-2.002785,0.49941,97.507523,64.158875,-123.975967,,,
729717078.988105,-26.364582,8.903458,144.160715,-0.000214,-0.822632,0.721832,7.251216,-2.002785,0.49941,97.507523,64.158875,-123.975967,,,
729717078.98908,-26.364584,8.903458,105.547511,-0.000214,-0.822632,0.721832,7.251216,-2.002785,0.49941,97.507523,64.158875,-123.975967,,,
729717078.989922,-24.334094,8.287959,108.444099,-0.000214,-0.822632,0.721832,7.251216,-2.002785,0.49941,97.507523,64.158875,-123.975967,,,
729717078.990071,-24.334099,8.287957,143.980452,-0.000214,-0.822632,0.721832,7.251216,-2.002785,0.49941,97.507523,64.158875,-123.975967,,,
729717078.99323,-24.334101,8.287957,105.367247,-0.000214,-0.822632,0.721832,7.251216,-2.002785,0.49941,94.796814,53.440735,-138.006577,,,
729717078.9937,-24.334094,8.287959,108.444099,-0.000214,-0.822632,0.721832,7.251216,-2.002785,0.49941,94.796814,53.440735,-138.006577,,,
729717078.993792,-24.334099,8.287957,143.980452,-0.000214,-0.822632,0.721832,7.251216,-2.002785,0.49941,94.796814,53.440735,-138.006577,,,
729717078.996776,-22.410128,7.768886,105.226678,-0.029587,-0.655151,0.799774,6.492657,-1.480128,0.489279,94.796814,53.440735,-138.006577,,,
729717078.997918,-22.410122,7.768887,108.303529,-0.029587,-0.655151,0.799774,6.492657,-1.480128,0.489279,94.796814,53.440735,-138.006577,,,
729717078.998025,-22.410126,7.768886,143.839881,-0.029587,-0.655151,0.799774,6.492657,-1.480128,0.489279,94.796814,53.440735,-138.006577,,,
729717078.999037,-22.410128,7.768886,105.226678,-0.029587,-0.655151,0.799774,6.492657,-1.480128,0.489279,94.796814,53.440735,-138.006577,,,
729717078.999908,-20.611457,7.344914,108.201224,-0.029587,-0.655151,0.799774,6.492657,-1.480128,0.489279,94.796814,53.440735,-138.006577,,,
729717079.000081,-20.611461,7.344912,143.737576,-0.029587,-0.655151,0.799774,6.492657,-1.480128,0.489279,94.796814,53.440735,-138.006577,,,
729717079.002953,-20.611463,7.344912,105.124373,-0.029587,-0.655151,0.799774,6.492657,-1.480128,0.489279,94.796814,53.440735,-138.006577,,,
729717079.003106,-20.611457,7.344914,108.201224,-0.029587,-0.655151,0.799774,6.492657,-1.480128,0.489279,94.796814,53.440735,-138.006577,,,
729717079.003374,-20.611461,7.344912,143.737576,-0.029587,-0.655151,0.799774,6.492657,-1.480128,0.489279,94.796814,53.440735,-138.006577,,,
729717079.006786,-18.964478,7.006449,105.061107,-0.030548,-0.45932,0.77948,5.417014,-0.995941,0.520273,94.796814,53.440735,-138.006577,,,
729717079.007842,-18.964473,7.006451,108.137958,-0.030548,-0.45932,0.77948,5.417014,-0.995941,0.520273,94.796814,53.440735,-138.006577,,,
729717079.007953,-18.964476,7.006449,143.67431,-0.030548,-0.45932,0.77948,5.417014,-0.995941,0.520273,94.796814,53.440735,-138.006577,,,
729717079.009084,-18.964478,7.006449,105.061107,-0.030548,-0.45932,0.77948,5.417014,-0.995941,0.520273,94.796814,53.440735,-138.006577,,,
729717079.010088,-17.511213,6.716752,108.116264,-0.030548,-0.45932,0.77948,5.417014,-0.995941,0.520273,94.796814,53.440735,-138.006577,,,
729717079.010249,-17.511216,6.71675,143.652616,-0.030548,-0.45932,0.77948,5.417014,-0.995941,0.520273,94.796814,53.440735,-138.006577,,,
729717079.013148,-17.511218,6.71675,105.039412,-0.030548,-0.45932,0.77948,5.417014,-0.995941,0.520273,94.796814,53.440735,-138.006577,,,
729717079.013371,-17.511213,6.716752,108.116264,-0.030548,-0.45932,0.77948,5.417014,-0.995941,0.520273,94.796814,53.440735,-138.006577,,,
729717079.013518,-17.511216,6.71675,143.652616,-0.030548,-0.45932,0.77948,5.417014,-0.995941,0.520273,94.796814,53.440735,-138.006577,,,
729717079.017393,-16.261805,6.470829,105.057448,-0.016113,-0.243774,0.626328,3.982578,-0.774997,0.572453,94.796814,53.440735,-138.006577,,,
729717079.018933,-16.2618,6.470831,108.1343,-0.016113,-0.243774,0.626328,3.982578,-0.774997,0.572453,94.796814,53.440735,-138.006577,,,
729717079.019044,-16.261802,6.470829,143.670654,-0.016113,-0.243774,0.626328,3.982578,-0.774997,0.572453,94.796814,53.440735,-138.006577,,,
729717079.019178,-16.261805,6.470829,105.057448,-0.016113,-0.243774,0.626328,3.982578,-0.774997,0.572453,94.796814,53.440735,-138.006577,,,
729717079.019825,-15.194436,6.32401,108.188225,-0.016113,-0.243774,0.626328,3.982578,-0.774997,0.572453,94.796814,53.440735,-138.006577,,,
729717079.020088,-15.194438,6.324008,143.724579,-0.016113,-0.243774,0.626328,3.982578,-0.774997,0.572453,94.796814,53.440735,-138.006577,,,
729717079.022936,-15.194441,6.324008,105.111373,-0.016113,-0.243774,0.626328,3.982578,-0.774997,0.572453,94.796814,53.440735,-138.006577,,,
729717079.023086,-15.194436,6.32401,108.188225,-0.016113,-0.243774,0.626328,3.982578,-0.774997,0.572453,94.796814,53.440735,-138.006577,,,
729717079.023428,-15.194438,6.324008,143.724579,-0.016113,-0.243774,0.626328,3.982578,-0.774997,0.572453,94.796814,53.440735,-138.006577,,,
729717079.02783,-14.295087,6.316787,105.196963,-0.015274,-0.086914,0.678711,2.797055,0.147689,0.647496,94.796814,53.440735,-138.006577,,,
729717079.029494,-14.295083,6.316789,108.273815,-0.015274,-0.086914,0.678711,2.797055,0.147689,0.647496,94.796814,53.440735,-138.006577,,,
729717079.02962,-13.5432,6.445729,143.91898,-0.015274,-0.086914,0.678711,2.797055,0.147689,0.647496,94.796814,53.440735,-138.006577,,,
729717079.030188,-13.543202,6.445729,105.305773,-0.015274,-0.086914,0.678711,2.797055,0.147689,0.647496,94.796814,53.440735,-138.006577,,,
729717079.030297,-13.5432,6.445729,143.91898,-0.015274,-0.086914,0.678711,2.797055,0.147689,0.647496,94.796814,53.440735,-138.006577,,,
729717079.032826,-13.543202,6.445729,105.305773,-0.015274,-0.086914,0.678711,2.797055,0.147689,0.647496,94.771194,46.262405,-143.030945,,,
729717079.033705,-13.543198,6.445731,108.382625,-0.015274,-0.086914,0.678711,2.797055,0.147689,0.647496,94.771194,46.262405,-143.030945,,,
729717079.033824,-13.5432,6.445729,143.91898,-0.015274,-0.086914,0.678711,2.797055,0.147689,0.647496,94.771194,46.262405,-143.030945,,,
729717079.037412,-12.906597,6.681556,105.425932,0.014297,-0.081177,0.800018,1.984776,0.883172,0.650373,94.771194,46.262405,-143.030945,,,
729717079.03896,-12.906593,6.681558,108.502783,0.014297,-0.081177,0.800018,1.984776,0.883172,0.650373,94.771194,46.262405,-143.030945,,,
729717079.039088,-12.906595,6.681556,144.039137,0.014297,-0.081177,0.800018,1.984776,0.883172,0.650373,94.771194,46.262405,-143.030945,,,
729717079.039228,-12.906597,6.681556,105.425932,0.014297,-0.081177,0.800018,1.984776,0.883172,0.650373,94.771194,46.262405,-143.030945,,,
729717079.039805,-12.351164,6.989733,108.622633,0.014297,-0.081177,0.800018,1.984776,0.883172,0.650373,94.771194,46.262405,-143.030945,,,
729717079.040093,-12.351166,6.989732,144.158989,0.014297,-0.081177,0.800018,1.984776,0.883172,0.650373,94.771194,46.262405,-143.030945,,,
729717079.042944,-12.351168,6.989732,105.545782,0.014297,-0.081177,0.800018,1.984776,0.883172,0.650373,94.771194,46.262405,-143.030945,,,
729717079.04309,-12.351164,6.989733,108.622633,0.014297,-0.081177,0.800018,1.984776,0.883172,0.650373,94.771194,46.262405,-143.030945,,,
729717079.043375,-12.351166,6.989732,144.158989,0.014297,-0.081177,0.800018,1.984776,0.883172,0.650373,94.771194,46.262405,-143.030945,,,
729717079.046782,-11.84775,7.339111,105.657618,0.019058,-0.150558,0.802917,1.625013,1.190118,0.574356,94.771194,46.262405,-143.030945,,,
729717079.047893,-11.847746,7.339113,108.734469,0.019058,-0.150558,0.802917,1.625013,1.190118,0.574356,94.771194,46.262405,-143.030945,,,
729717079.048023,-11.847748,7.339111,144.270825,0.019058,-0.150558,0.802917,1.625013,1.190118,0.574356,94.771194,46.262405,-143.030945,,,
729717079.048987,-11.84775,7.339111,105.657618,0.019058,-0.150558,0.802917,1.625013,1.190118,0.574356,94.771194,46.262405,-143.030945,,,
729717079.049889,-11.374386,7.70128,108.834913,0.019058,-0.150558,0.802917,1.625013,1.190118,0.574356,94.771194,46.262405,-143.030945,,,
729717079.050079,-11.374388,7.701279,144.371268,0.019058,-0.150558,0.802917,1.625013,1.190118,0.574356,94.771194,46.262405,-143.030945,,,
729717079.052951,-11.37439,7.701279,105.758061,0.019058,-0.150558,0.802917,1.625013,1.190118,0.574356,94.771194,46.262405,-143.030945,,,
729717079.053094,-11.374386,7.70128,108.834913,0.019058,-0.150558,0.802917,1.625013,1.190118,0.574356,94.771194,46.262405,-143.030945,,,
729717079.053372,-11.374388,7.701279,144.371268,0.019058,-0.150558,0.802917,1.625013,1.190118,0.574356,94.771194,46.262405,-143.030945,,,
729717079.057411,-10.916246,8.048575,105.844416,-0.103333,-0.223831,0.784271,1.525886,1.111282,0.485203,94.771194,46.262405,-143.030945,,,
729717079.059037,-10.916243,8.048576,108.921268,-0.103333,-0.223831,0.784271,1.525886,1.111282,0.485203,94.771194,46.262405,-143.030945,,,
729717079.059169,-10.916244,8.048574,144.457622,-0.103333,-0.223831,0.784271,1.525886,1.111282,0.485203,94.771194,46.262405,-143.030945,,,
729717079.059341,-10.916246,8.048575,105.844416,-0.103333,-0.223831,0.784271,1.525886,1.111282,0.485203,94.771194,46.262405,-143.030945,,,
729717079.059508,-10.916243,8.048576,108.921268,-0.103333,-0.223831,0.784271,1.525886,1.111282,0.485203,94.771194,46.262405,-143.030945,,,
729717079.060086,-10.464612,8.355065,144.526148,-0.103333,-0.223831,0.784271,1.525886,1.111282,0.485203,94.771194,46.262405,-143.030945,,,
729717079.062973,-10.464614,8.355065,105.912943,-0.103333,-0.223831,0.784271,1.525886,1.111282,0.485203,94.771194,46.262405,-143.030945,,,
729717079.063542,-10.464611,8.355067,108.989795,-0.103333,-0.223831,0.784271,1.525886,1.111282,0.485203,94.771194,46.262405,-143.030945,,,
729717079.063651,-10.464612,8.355065,144.526148,-0.103333,-0.223831,0.784271,1.525886,1.111282,0.485203,94.771194,46.262405,-143.030945,,,
729717079.066838,-10.012785,8.600073,105.957604,-0.21048,-0.231323,0.696152,1.545931,0.716056,0.338783,94.771194,46.262405,-143.030945,,,
729717079.067982,-10.012782,8.600074,109.034456,-0.21048,-0.231323,0.696152,1.545931,0.716056,0.338783,94.771194,46.262405,-143.030945,,,
729717079.068093,-10.012784,8.600072,144.570811,-0.21048,-0.231323,0.696152,1.545931,0.716056,0.338783,94.771194,46.262405,-143.030945,,,
729717079.069031,-10.012785,8.600073,105.957604,-0.21048,-0.231323,0.696152,1.545931,0.716056,0.338783,94.771194,46.262405,-143.030945,,,
729717079.069888,-9.559107,8.773349,109.049386,-0.21048,-0.231323,0.696152,1.545931,0.716056,0.338783,94.771194,46.262405,-143.030945,,,
729717079.070086,-9.559109,8.773347,144.58574,-0.21048,-0.231323,0.696152,1.545931,0.716056,0.338783,94.771194,46.262405,-143.030945,,,
729717079.073247,-9.55911,8.773347,105.972535,-0.21048,-0.231323,0.696152,1.545931,0.716056,0.338783,96.654282,42.795868,-143.354843,,,
729717079.073719,-9.559107,8.773349,109.049386,-0.21048,-0.231323,0.696152,1.545931,0.716056,0.338783,96.654282,42.795868,-143.354843,,,
729717079.073816,-9.559109,8.773347,144.58574,-0.21048,-0.231323,0.696152,1.545931,0.716056,0.338783,96.654282,42.795868,-143.354843,,,
729717079.07681,-9.105589,8.874762,105.956607,-0.223709,-0.176788,0.649033,1.576236,0.251602,0.136649,96.654282,42.795868,-143.354843,,,
729717079.077957,-9.105587,8.874764,109.033458,-0.223709,-0.176788,0.649033,1.576236,0.251602,0.136649,96.654282,42.795868,-143.354843,,,
729717079.078066,-9.105588,8.874762,144.56981,-0.223709,-0.176788,0.649033,1.576236,0.251602,0.136649,96.654282,42.795868,-143.354843,,,
729717079.07902,-9.105589,8.874762,105.956607,-0.223709,-0.176788,0.649033,1.576236,0.251602,0.136649,96.654282,42.795868,-143.354843,,,
729717079.079845,-8.654716,8.907908,108.990135,-0.223709,-0.176788,0.649033,1.576236,0.251602,0.136649,96.654282,42.795868,-143.354843,,,
729717079.080084,-8.654717,8.907906,144.526487,-0.223709,-0.176788,0.649033,1.576236,0.251602,0.136649,96.654282,42.795868,-143.354843,,,
729717079.082939,-8.654719,8.907907,105.913283,-0.223709,-0.176788,0.649033,1.576236,0.251602,0.136649,96.654282,42.795868,-143.354843,,,
729717079.083088,-8.654716,8.907908,108.990135,-0.223709,-0.176788,0.649033,1.576236,0.251602,0.136649,96.654282,42.795868,-143.354843,,,
729717079.083374,-8.654717,8.907906,144.526487,-0.223709,-0.176788,0.649033,1.576236,0.251602,0.136649,96.654282,42.795868,-143.354843,,,
729717079.087756,-8.209551,8.874213,105.8488,-0.239258,-0.139282,0.651077,1.559009,-0.194212,-0.01391,96.654282,42.795868,-143.354843,,,
729717079.089704,-8.209548,8.874215,108.925652,-0.239258,-0.139282,0.651077,1.559009,-0.194212,-0.01391,96.654282,42.795868,-143.354843,,,
729717079.089841,-7.774413,8.77414,144.383422,-0.239258,-0.139282,0.651077,1.559009,-0.194212,-0.01391,96.654282,42.795868,-143.354843,,,
729717079.090443,-7.774415,8.77414,105.770217,-0.239258,-0.139282,0.651077,1.559009,-0.194212,-0.01391,96.654282,42.795868,-143.354843,,,
729717079.090559,-7.774413,8.77414,144.383422,-0.239258,-0.139282,0.651077,1.559009,-0.194212,-0.01391,96.654282,42.795868,-143.354843,,,
729717079.092518,-7.774415,8.77414,105.770217,-0.239258,-0.139282,0.651077,1.559009,-0.194212,-0.01391,96.654282,42.795868,-143.354843,,,
729717079.093247,-7.774412,8.774141,108.847068,-0.239258,-0.139282,0.651077,1.559009,-0.194212,-0.01391,96.654282,42.795868,-143.354843,,,
729717079.093424,-7.774413,8.77414,144.383422,-0.239258,-0.139282,0.651077,1.559009,-0.194212,-0.01391,96.654282,42.795868,-143.354843,,,
729717079.096835,-7.353279,8.609793,105.684005,-0.251541,-0.138718,0.633423,1.468926,-0.637958,-0.088388,96.654282,42.795868,-143.354843,,,
729717079.097911,-7.353276,8.609795,108.760856,-0.251541,-0.138718,0.633423,1.468926,-0.637958,-0.088388,96.654282,42.795868,-143.354843,,,
729717079.098018,-7.353277,8.609793,144.297211,-0.251541,-0.138718,0.633423,1.468926,-0.637958,-0.088388,96.654282,42.795868,-143.354843,,,
729717079.098983,-7.353279,8.609793,105.684005,-0.251541,-0.138718,0.633423,1.468926,-0.637958,-0.088388,96.654282,42.795868,-143.354843,,,
729717079.099433,-7.353276,8.609795,108.760856,-0.251541,-0.138718,0.633423,1.468926,-0.637958,-0.088388,96.654282,42.795868,-143.354843,,,
729717079.100079,-6.94983,8.389991,144.210981,-0.251541,-0.138718,0.633423,1.468926,-0.637958,-0.088388,96.654282,42.795868,-143.354843,,,
729717079.102953,-6.949832,8.389992,105.597773,-0.251541,-0.138718,0.633423,1.468926,-0.637958,-0.088388,96.654282,42.795868,-143.354843,,,
729717079.103507,-6.94983,8.389993,108.674624,-0.251541,-0.138718,0.633423,1.468926,-0.637958,-0.088388,96.654282,42.795868,-143.354843,,,
729717079.103616,-6.94983,8.389991,144.210981,-0.251541,-0.138718,0.633423,1.468926,-0.637958,-0.088388,96.654282,42.795868,-143.354843,,,
729717079.106744,-6.564502,8.127229,105.519005,-0.234344,-0.150604,0.628174,1.333998,-0.94513,-0.068072,96.654282,42.795868,-143.354843,,,
729717079.107785,-6.5645,8.12723,108.595856,-0.234344,-0.150604,0.628174,1.333998,-0.94513,-0.068072,96.654282,42.795868,-143.354843,,,
729717079.107893,-6.5645,8.127229,144.132213,-0.234344,-0.150604,0.628174,1.333998,-0.94513,-0.068072,96.654282,42.795868,-143.354843,,,
729717079.109035,-6.564502,8.127229,105.519005,-0.234344,-0.150604,0.628174,1.333998,-0.94513,-0.068072,96.654282,42.795868,-143.354843,,,
729717079.109424,-6.5645,8.12723,108.595856,-0.234344,-0.150604,0.628174,1.333998,-0.94513,-0.068072,96.654282,42.795868,-143.354843,,,
729717079.1101,-6.197397,7.834105,144.06667,-0.234344,-0.150604,0.628174,1.333998,-0.94513,-0.068072,96.654282,42.795868,-143.354843,,,
729717079.113074,-6.197399,7.834105,105.453465,-0.234344,-0.150604,0.628174,1.333998,-0.94513,-0.068072,96.654282,42.795868,-143.354843,,,
729717079.114001,-6.197397,7.834107,108.530316,-0.234344,-0.150604,0.628174,1.333998,-0.94513,-0.068072,95.511703,40.34111,-145.171295,,,
729717079.114131,-6.197397,7.834105,144.06667,-0.234344,-0.150604,0.628174,1.333998,-0.94513,-0.068072,95.511703,40.34111,-145.171295,,,
729717079.117736,-5.845719,7.517384,105.404844,-0.211182,-0.159439,0.675003,1.207801,-1.120639,0.019561,95.511703,40.34111,-145.171295,,,
729717079.11937,-5.845717,7.517386,108.481695,-0.211182,-0.159439,0.675003,1.207801,-1.120639,0.019561,95.511703,40.34111,-145.171295,,,
729717079.119494,-5.509263,7.185108,143.987237,-0.211182,-0.159439,0.675003,1.207801,-1.120639,0.019561,95.511703,40.34111,-145.171295,,,
729717079.120055,-5.509265,7.185108,105.374034,-0.211182,-0.159439,0.675003,1.207801,-1.120639,0.019561,95.511703,40.34111,-145.171295,,,
729717079.120164,-5.509263,7.185108,143.987237,-0.211182,-0.159439,0.675003,1.207801,-1.120639,0.019561,95.511703,40.34111,-145.171295,,,
729717079.122524,-5.509265,7.185108,105.374034,-0.211182,-0.159439,0.675003,1.207801,-1.120639,0.019561,95.511703,40.34111,-145.171295,,,
729717079.123167,-5.509263,7.18511,108.450885,-0.211182,-0.159439,0.675003,1.207801,-1.120639,0.019561,95.511703,40.34111,-145.171295,,,
729717079.123422,-5.509263,7.185108,143.987237,-0.211182,-0.159439,0.675003,1.207801,-1.120639,0.019561,95.511703,40.34111,-145.171295,,,
729717079.126875,-5.188366,6.845899,105.35921,-0.170227,-0.148819,0.718521,1.085377,-1.178487,0.102418,95.511703,40.34111,-145.171295,,,
729717079.128025,-5.188364,6.845901,108.436061,-0.170227,-0.148819,0.718521,1.085377,-1.178487,0.102418,95.511703,40.34111,-145.171295,,,
729717079.128133,-5.188365,6.845899,143.972412,-0.170227,-0.148819,0.718521,1.085377,-1.178487,0.102418,95.511703,40.34111,-145.171295,,,
729717079.12896,-5.188366,6.845899,105.35921,-0.170227,-0.148819,0.718521,1.085377,-1.178487,0.102418,95.511703,40.34111,-145.171295,,,
729717079.129405,-5.188364,6.845901,108.436061,-0.170227,-0.148819,0.718521,1.085377,-1.178487,0.102418,95.511703,40.34111,-145.171295,,,
729717079.130066,-4.885079,6.511398,143.969757,-0.170227,-0.148819,0.718521,1.085377,-1.178487,0.102418,95.511703,40.34111,-145.171295,,,
729717079.132858,-4.88508,6.511398,105.356555,-0.170227,-0.148819,0.718521,1.085377,-1.178487,0.102418,95.511703,40.34111,-145.171295,,,
729717079.13344,-4.885078,6.5114,108.433406,-0.170227,-0.148819,0.718521,1.085377,-1.178487,0.102418,95.511703,40.34111,-145.171295,,,
729717079.133553,-4.885079,6.511398,143.969757,-0.170227,-0.148819,0.718521,1.085377,-1.178487,0.102418,95.511703,40.34111,-145.171295,,,
729717079.13683,-4.601191,6.192638,105.36093,-0.117264,-0.109253,0.768402,0.946436,-1.07236,0.124076,95.511703,40.34111,-145.171295,,,
729717079.137983,-4.601189,6.19264,108.437781,-0.117264,-0.109253,0.768402,0.946436,-1.07236,0.124076,95.511703,40.34111,-145.171295,,,
729717079.138093,-4.601189,6.192638,143.974134,-0.117264,-0.109253,0.768402,0.946436,-1.07236,0.124076,95.511703,40.34111,-145.171295,,,
729717079.138987,-4.601191,6.192638,105.36093,-0.117264,-0.109253,0.768402,0.946436,-1.07236,0.124076,95.511703,40.34111,-145.171295,,,
729717079.139432,-4.601189,6.19264,108.437781,-0.117264,-0.109253,0.768402,0.946436,-1.07236,0.124076,95.511703,40.34111,-145.171295,,,
729717079.140082,-4.338754,5.899518,143.981353,-0.117264,-0.109253,0.768402,0.946436,-1.07236,0.124076,95.511703,40.34111,-145.171295,,,
729717079.142944,-4.338756,5.899518,105.368151,-0.117264,-0.109253,0.768402,0.946436,-1.07236,0.124076,95.511703,40.34111,-145.171295,,,
729717079.1435,-4.338754,5.89952,108.445002,-0.117264,-0.109253,0.768402,0.946436,-1.07236,0.124076,95.511703,40.34111,-145.171295,,,
729717079.143613,-4.338754,5.899518,143.981353,-0.117264,-0.109253,0.768402,0.946436,-1.07236,0.124076,95.511703,40.34111,-145.171295,,,
729717079.146838,-4.099714,5.640386,105.375414,-0.070404,-0.059311,0.816589,0.784709,-0.834582,0.099303,95.511703,40.34111,-145.171295,,,
729717079.147904,-4.099712,5.640388,108.452265,-0.070404,-0.059311,0.816589,0.784709,-0.834582,0.099303,95.511703,40.34111,-145.171295,,,
729717079.148012,-4.099712,5.640386,143.988616,-0.070404,-0.059311,0.816589,0.784709,-0.834582,0.099303,95.511703,40.34111,-145.171295,,,
729717079.148985,-4.099714,5.640386,105.375414,-0.070404,-0.059311,0.816589,0.784709,-0.834582,0.099303,95.511703,40.34111,-145.171295,,,
729717079.14943,-4.099712,5.640388,108.452265,-0.070404,-0.059311,0.816589,0.784709,-0.834582,0.099303,95.511703,40.34111,-145.171295,,,
729717079.150078,-3.885465,5.421237,143.993005,-0.070404,-0.059311,0.816589,0.784709,-0.834582,0.099303,95.511703,40.34111,-145.171295,,,
729717079.152844,-3.885466,5.421237,105.379804,-0.070404,-0.059311,0.816589,0.784709,-0.834582,0.099303,95.511703,40.34111,-145.171295,,,
729717079.153396,-3.885465,5.421239,108.456655,-0.070404,-0.059311,0.816589,0.784709,-0.834582,0.099303,95.511703,40.34111,-145.171295,,,
729717079.153505,-3.885465,5.421237,143.993005,-0.070404,-0.059311,0.816589,0.784709,-0.834582,0.099303,95.511703,40.34111,-145.171295,,,
729717079.157009,-3.696475,5.244005,105.379307,-0.029785,-0.020462,0.846252,0.612393,-0.539239,0.044034,93.415497,38.463272,-146.558685,,,
729717079.158356,-3.696473,5.244007,108.456158,-0.029785,-0.020462,0.846252,0.612393,-0.539239,0.044034,93.415497,38.463272,-146.558685,,,
729717079.158469,-3.696473,5.244005,143.992508,-0.029785,-0.020462,0.846252,0.612393,-0.539239,0.044034,93.415497,38.463272,-146.558685,,,
729717079.15893,-3.696475,5.244005,105.379307,-0.029785,-0.020462,0.846252,0.612393,-0.539239,0.044034,93.415497,38.463272,-146.558685,,,
729717079.159435,-3.696473,5.244007,108.456158,-0.029785,-0.020462,0.846252,0.612393,-0.539239,0.044034,93.415497,38.463272,-146.558685,,,
729717079.160078,-3.533493,5.109579,143.986171,-0.029785,-0.020462,0.846252,0.612393,-0.539239,0.044034,93.415497,38.463272,-146.558685,,,
729717079.162946,-3.533494,5.109579,105.372964,-0.029785,-0.020462,0.846252,0.612393,-0.539239,0.044034,93.415497,38.463272,-146.558685,,,
729717079.16353,-3.533493,5.109581,108.449816,-0.029785,-0.020462,0.846252,0.612393,-0.539239,0.044034,93.415497,38.463272,-146.558685,,,
729717079.163636,-3.533493,5.109579,143.986171,-0.029785,-0.020462,0.846252,0.612393,-0.539239,0.044034,93.415497,38.463272,-146.558685,,,
729717079.167397,-3.395682,5.017808,105.360361,-0.00499,-0.001663,0.858887,0.441405,-0.239134,-0.017111,93.415497,38.463272,-146.558685,,,
729717079.169015,-3.395681,5.01781,108.437213,-0.00499,-0.001663,0.858887,0.441405,-0.239134,-0.017111,93.415497,38.463272,-146.558685,,,
729717079.169139,-3.39568,5.017808,143.973568,-0.00499,-0.001663,0.858887,0.441405,-0.239134,-0.017111,93.415497,38.463272,-146.558685,,,
729717079.169281,-3.395682,5.017808,105.360361,-0.00499,-0.001663,0.858887,0.441405,-0.239134,-0.017111,93.415497,38.463272,-146.558685,,,
729717079.169431,-3.395681,5.01781,108.437213,-0.00499,-0.001663,0.858887,0.441405,-0.239134,-0.017111,93.415497,38.463272,-146.558685,,,
729717079.170081,-3.282186,4.966644,143.954522,-0.00499,-0.001663,0.858887,0.441405,-0.239134,-0.017111,93.415497,38.463272,-146.558685,,,
729717079.172982,-3.282188,4.966644,105.341315,-0.00499,-0.001663,0.858887,0.441405,-0.239134,-0.017111,93.415497,38.463272,-146.558685,,,
729717079.173545,-3.282187,4.966647,108.418166,-0.00499,-0.001663,0.858887,0.441405,-0.239134,-0.017111,93.415497,38.463272,-146.558685,,,
729717079.173652,-3.282186,4.966644,143.954522,-0.00499,-0.001663,0.858887,0.441405,-0.239134,-0.017111,93.415497,38.463272,-146.558685,,,
729717079.177589,-3.192327,4.951753,105.316436,0.003281,-0.000671,0.872452,0.280436,0.016086,-0.072271,93.415497,38.463272,-146.558685,,,
729717079.179499,-3.192326,4.951755,108.393287,0.003281,-0.000671,0.872452,0.280436,0.016086,-0.072271,93.415497,38.463272,-146.558685,,,
729717079.17961,-3.125924,4.967922,143.901412,0.003281,-0.000671,0.872452,0.280436,0.016086,-0.072271,93.415497,38.463272,-146.558685,,,
729717079.180045,-3.125925,4.967922,105.288208,0.003281,-0.000671,0.872452,0.280436,0.016086,-0.072271,93.415497,38.463272,-146.558685,,,
729717079.180129,-3.125924,4.967922,143.901412,0.003281,-0.000671,0.872452,0.280436,0.016086,-0.072271,93.415497,38.463272,-146.558685,,,
729717079.182512,-3.125925,4.967922,105.288208,0.003281,-0.000671,0.872452,0.280436,0.016086,-0.072271,93.415497,38.463272,-146.558685,,,
729717079.183042,-3.125924,4.967924,108.365059,0.003281,-0.000671,0.872452,0.280436,0.016086,-0.072271,93.415497,38.463272,-146.558685,,,
729717079.183404,-3.125924,4.967922,143.901412,0.003281,-0.000671,0.872452,0.280436,0.016086,-0.072271,93.415497,38.463272,-146.558685,,,
729717079.187219,-3.081919,5.009344,105.260648,-0.010513,-0.017349,0.865509,0.124217,0.191958,-0.080923,93.415497,38.463272,-146.558685,,,
729717079.188702,-3.081917,5.009346,108.337499,-0.010513,-0.017349,0.865509,0.124217,0.191958,-0.080923,93.415497,38.463272,-146.558685,,,
729717079.188827,-3.081917,5.009344,143.873853,-0.010513,-0.017349,0.865509,0.124217,0.191958,-0.080923,93.415497,38.463272,-146.558685,,,
729717079.188968,-3.081919,5.009344,105.260648,-0.010513,-0.017349,0.865509,0.124217,0.191958,-0.080923,93.415497,38.463272,-146.558685,,,
729717079.189439,-3.081917,5.009346,108.337499,-0.010513,-0.017349,0.865509,0.124217,0.191958,-0.080923,93.415497,38.463272,-146.558685,,,
729717079.19008,-3.057864,5.069595,143.851319,-0.010513,-0.017349,0.865509,0.124217,0.191958,-0.080923,93.415497,38.463272,-146.558685,,,
729717079.192952,-3.057865,5.069595,105.238115,-0.010513,-0.017349,0.865509,0.124217,0.191958,-0.080923,93.415497,38.463272,-146.558685,,,
729717079.193514,-3.057864,5.069597,108.314966,-0.010513,-0.017349,0.865509,0.124217,0.191958,-0.080923,93.415497,38.463272,-146.558685,,,
729717079.193622,-3.057864,5.069595,143.851319,-0.010513,-0.017349,0.865509,0.124217,0.191958,-0.080923,93.415497,38.463272,-146.558685,,,
729717079.197194,-3.049963,5.139504,105.223913,-0.052658,-0.051315,0.858749,0.006826,0.256568,-0.03302,93.544159,38.00798,-146.7061,,,
729717079.198614,-3.049962,5.139507,108.300764,-0.052658,-0.051315,0.858749,0.006826,0.256568,-0.03302,93.544159,38.00798,-146.7061,,,
729717079.198729,-3.049962,5.139504,143.837117,-0.052658,-0.051315,0.858749,0.006826,0.256568,-0.03302,93.544159,38.00798,-146.7061,,,
729717079.198978,-3.049963,5.139504,105.223913,-0.052658,-0.051315,0.858749,0.006826,0.256568,-0.03302,93.544159,38.00798,-146.7061,,,
729717079.199438,-3.049962,5.139507,108.300764,-0.052658,-0.051315,0.858749,0.006826,0.256568,-0.03302,93.544159,38.00798,-146.7061,,,
729717079.20008,-3.054428,5.212164,143.833945,-0.052658,-0.051315,0.858749,0.006826,0.256568,-0.03302,93.544159,38.00798,-146.7061,,,
729717079.202695,-3.05443,5.212164,105.220742,-0.052658,-0.051315,0.858749,0.006826,0.256568,-0.03302,93.544159,38.00798,-146.7061,,,
729717079.202997,-3.054429,5.212167,108.297593,-0.052658,-0.051315,0.858749,0.006826,0.256568,-0.03302,93.544159,38.00798,-146.7061,,,
729717079.203405,-3.054428,5.212164,143.833945,-0.052658,-0.051315,0.858749,0.006826,0.256568,-0.03302,93.544159,38.00798,-146.7061,,,
729717079.207617,-3.066871,5.283788,105.230393,-0.087418,-0.080185,0.863403,-0.056934,0.244914,0.050666,93.544159,38.00798,-146.7061,,,
729717079.209507,-3.06687,5.28379,108.307244,-0.087418,-0.080185,0.863403,-0.056934,0.244914,0.050666,93.544159,38.00798,-146.7061,,,
729717079.209637,-3.066869,5.352007,143.866704,-0.087418,-0.080185,0.863403,-0.056934,0.244914,0.050666,93.544159,38.00798,-146.7061,,,
729717079.210219,-3.083346,5.352007,105.2535,-0.087418,-0.080185,0.863403,-0.056934,0.244914,0.050666,93.544159,38.00798,-146.7061,,,
729717079.21033,-3.083344,5.352007,143.866704,-0.087418,-0.080185,0.863403,-0.056934,0.244914,0.050666,93.544159,38.00798,-146.7061,,,
729717079.212501,-3.083346,5.352007,105.2535,-0.087418,-0.080185,0.863403,-0.056934,0.244914,0.050666,93.544159,38.00798,-146.7061,,,
729717079.213162,-3.083344,5.352009,108.330351,-0.087418,-0.080185,0.863403,-0.056934,0.244914,0.050666,93.544159,38.00798,-146.7061,,,
729717079.213419,-3.083344,5.352007,143.866704,-0.087418,-0.080185,0.863403,-0.056934,0.244914,0.050666,93.544159,38.00798,-146.7061,,,
729717079.216866,-3.100901,5.414768,105.287824,-0.105011,-0.096573,0.88591,-0.072187,0.20284,0.127406,93.544159,38.00798,-146.7061,,,
729717079.218031,-3.1009,5.41477,108.364675,-0.105011,-0.096573,0.88591,-0.072187,0.20284,0.127406,93.544159,38.00798,-146.7061,,,
729717079.21814,-3.1009,5.414768,143.901027,-0.105011,-0.096573,0.88591,-0.072187,0.20284,0.127406,93.544159,38.00798,-146.7061,,,
729717079.218978,-3.100901,5.414768,105.287824,-0.105011,-0.096573,0.88591,-0.072187,0.20284,0.127406,93.544159,38.00798,-146.7061,,,
729717079.219431,-3.1009,5.41477,108.364675,-0.105011,-0.096573,0.88591,-0.072187,0.20284,0.127406,93.544159,38.00798,-146.7061,,,
729717079.220078,-3.117563,5.470111,143.942231,-0.105011,-0.096573,0.88591,-0.072187,0.20284,0.127406,93.544159,38.00798,-146.7061,,,
729717079.22295,-3.117565,5.470111,105.32903,-0.105011,-0.096573,0.88591,-0.072187,0.20284,0.127406,93.544159,38.00798,-146.7061,,,
729717079.223507,-3.117564,5.470113,108.405881,-0.105011,-0.096573,0.88591,-0.072187,0.20284,0.127406,93.544159,38.00798,-146.7061,,,
729717079.223614,-3.117563,5.470111,143.942231,-0.105011,-0.096573,0.88591,-0.072187,0.20284,0.127406,93.544159,38.00798,-146.7061,,,
729717079.226731,-3.133761,5.516577,105.373048,-0.098755,-0.08992,0.9104,-0.071395,0.140219,0.147151,93.544159,38.00798,-146.7061,,,
729717079.227779,-3.13376,5.516579,108.449899,-0.098755,-0.08992,0.9104,-0.071395,0.140219,0.147151,93.544159,38.00798,-146.7061,,,
729717079.227885,-3.133759,5.516577,143.986251,-0.098755,-0.08992,0.9104,-0.071395,0.140219,0.147151,93.544159,38.00798,-146.7061,,,
729717079.229075,-3.133761,5.516577,105.373048,-0.098755,-0.08992,0.9104,-0.071395,0.140219,0.147151,93.544159,38.00798,-146.7061,,,
729717079.229471,-3.13376,5.516579,108.449899,-0.098755,-0.08992,0.9104,-0.071395,0.140219,0.147151,93.544159,38.00798,-146.7061,,,
729717079.230111,-3.150808,5.553731,144.029225,-0.098755,-0.08992,0.9104,-0.071395,0.140219,0.147151,93.544159,38.00798,-146.7061,,,
729717079.233176,-3.15081,5.553731,105.416025,-0.098755,-0.08992,0.9104,-0.071395,0.140219,0.147151,93.544159,38.00798,-146.7061,,,
729717079.233981,-3.150808,5.553733,108.492876,-0.098755,-0.08992,0.9104,-0.071395,0.140219,0.147151,93.544159,38.00798,-146.7061,,,
729717079.234138,-3.150808,5.553731,144.029225,-0.098755,-0.08992,0.9104,-0.071395,0.140219,0.147151,93.544159,38.00798,-146.7061,,,
729717079.23774,-3.169742,5.58041,105.454682,-0.08783,-0.067566,0.925797,-0.081999,0.069107,0.115943,93.827469,38.142746,-146.858047,,,
729717079.239527,-3.16974,5.580412,108.531533,-0.08783,-0.067566,0.925797,-0.081999,0.069107,0.115943,93.827469,38.142746,-146.858047,,,
729717079.239647,-3.16974,5.58041,144.067884,-0.08783,-0.067566,0.925797,-0.081999,0.069107,0.115943,93.827469,38.142746,-146.858047,,,
729717079.240189,-3.192531,5.59611,105.486882,-0.08783,-0.067566,0.925797,-0.081999,0.069107,0.115943,93.827469,38.142746,-146.858047,,,
729717079.240292,-3.192529,5.59611,144.100084,-0.08783,-0.067566,0.925797,-0.081999,0.069107,0.115943,93.827469,38.142746,-146.858047,,,
729717079.242524,-3.192531,5.59611,105.486882,-0.08783,-0.067566,0.925797,-0.081999,0.069107,0.115943,93.827469,38.142746,-146.858047,,,
729717079.243394,-3.192529,5.596112,108.563733,-0.08783,-0.067566,0.925797,-0.081999,0.069107,0.115943,93.827469,38.142746,-146.858047,,,
729717079.24355,-3.192529,5.59611,144.100084,-0.08783,-0.067566,0.925797,-0.081999,0.069107,0.115943,93.827469,38.142746,-146.858047,,,
729717079.247713,-3.219693,5.60097,105.511578,-0.082184,-0.05014,0.930054,-0.107536,-0.003314,0.06105,93.827469,38.142746,-146.858047,,,
729717079.249343,-3.219692,5.600972,108.588429,-0.082184,-0.05014,0.930054,-0.107536,-0.003314,0.06105,93.827469,38.142746,-146.858047,,,
729717079.249466,-3.219692,5.60097,144.124785,-0.082184,-0.05014,0.930054,-0.107536,-0.003314,0.06105,93.827469,38.142746,-146.858047,,,
729717079.249715,-3.219693,5.60097,105.511578,-0.082184,-0.05014,0.930054,-0.107536,-0.003314,0.06105,93.827469,38.142746,-146.858047,,,
729717079.250056,-3.250837,5.595531,144.142431,-0.082184,-0.05014,0.930054,-0.107536,-0.003314,0.06105,93.827469,38.142746,-146.858047,,,
729717079.252786,-3.250838,5.595531,105.529226,-0.082184,-0.05014,0.930054,-0.107536,-0.003314,0.06105,93.827469,38.142746,-146.858047,,,
729717079.253202,-3.250837,5.595533,108.606077,-0.082184,-0.05014,0.930054,-0.107536,-0.003314,0.06105,93.827469,38.142746,-146.858047,,,
729717079.253426,-3.250837,5.595531,144.142431,-0.082184,-0.05014,0.930054,-0.107536,-0.003314,0.06105,93.827469,38.142746,-146.858047,,,
729717079.257113,-3.285102,5.582465,105.54044,-0.084381,-0.047714,0.947189,-0.125121,-0.053702,0.014463,93.827469,38.142746,-146.858047,,,
729717079.258496,-3.2851,5.582467,108.617291,-0.084381,-0.047714,0.947189,-0.125121,-0.053702,0.014463,93.827469,38.142746,-146.858047,,,
729717079.258618,-3.2851,5.582465,144.153644,-0.084381,-0.047714,0.947189,-0.125121,-0.053702,0.014463,93.827469,38.142746,-146.858047,,,
729717079.258916,-3.285102,5.582465,105.54044,-0.084381,-0.047714,0.947189,-0.125121,-0.053702,0.014463,93.827469,38.142746,-146.858047,,,
729717079.259437,-3.2851,5.582467,108.617291,-0.084381,-0.047714,0.947189,-0.125121,-0.053702,0.014463,93.827469,38.142746,-146.858047,,,
729717079.260076,-3.321051,5.564726,144.158148,-0.084381,-0.047714,0.947189,-0.125121,-0.053702,0.014463,93.827469,38.142746,-146.858047,,,
729717079.262988,-3.321052,5.564726,105.544947,-0.084381,-0.047714,0.947189,-0.125121,-0.053702,0.014463,93.827469,38.142746,-146.858047,,,
729717079.263649,-3.321051,5.564728,108.621798,-0.084381,-0.047714,0.947189,-0.125121,-0.053702,0.014463,93.827469,38.142746,-146.858047,,,
729717079.263833,-3.321051,5.564726,144.158148,-0.084381,-0.047714,0.947189,-0.125121,-0.053702,0.014463,93.827469,38.142746,-146.858047,,,
729717079.267692,-3.356397,5.543559,105.542662,-0.071945,-0.054108,0.975922,-0.116628,-0.074582,-0.032038,93.827469,38.142746,-146.858047,,,
729717079.269306,-3.356396,5.543561,108.619513,-0.071945,-0.054108,0.975922,-0.116628,-0.074582,-0.032038,93.827469,38.142746,-146.858047,,,
729717079.269423,-3.356396,5.543559,144.155863,-0.071945,-0.054108,0.975922,-0.116628,-0.074582,-0.032038,93.827469,38.142746,-146.858047,,,
729717079.269562,-3.356397,5.543559,105.542662,-0.071945,-0.054108,0.975922,-0.116628,-0.074582,-0.032038,93.827469,38.142746,-146.858047,,,
729717079.270064,-3.356396,5.543559,144.155863,-0.071945,-0.054108,0.975922,-0.116628,-0.074582,-0.032038,93.827469,38.142746,-146.858047,,,
729717079.27321,-3.38938,5.519178,105.533485,-0.071945,-0.054108,0.975922,-0.116628,-0.074582,-0.032038,93.827469,38.142746,-146.858047,,,
729717079.274023,-3.389378,5.51918,108.610336,-0.071945,-0.054108,0.975922,-0.116628,-0.074582,-0.032038,93.827469,38.142746,-146.858047,,,
729717079.274164,-3.389378,5.519178,144.146689,-0.071945,-0.054108,0.975922,-0.116628,-0.074582,-0.032038,93.827469,38.142746,-146.858047,,,
729717079.277729,-3.418552,5.491751,105.516792,-0.052109,-0.060699,0.997147,-0.085442,-0.092373,-0.081497,93.621979,38.483093,-146.714432,,,
729717079.279427,-3.418551,5.491753,108.593643,-0.052109,-0.060699,0.997147,-0.085442,-0.092373,-0.081497,93.621979,38.483093,-146.714432,,,
729717079.279543,-3.418551,5.491751,144.129996,-0.052109,-0.060699,0.997147,-0.085442,-0.092373,-0.081497,93.621979,38.483093,-146.714432,,,
729717079.279681,-3.418552,5.491751,105.516792,-0.052109,-0.060699,0.997147,-0.085442,-0.092373,-0.081497,93.621979,38.483093,-146.714432,,,
729717079.280049,-3.442587,5.46353,144.106681,-0.052109,-0.060699,0.997147,-0.085442,-0.092373,-0.081497,93.621979,38.483093,-146.714432,,,
729717079.282971,-3.442589,5.46353,105.493477,-0.052109,-0.060699,0.997147,-0.085442,-0.092373,-0.081497,93.621979,38.483093,-146.714432,,,
729717079.283612,-3.442587,5.463532,108.570328,-0.052109,-0.060699,0.997147,-0.085442,-0.092373,-0.081497,93.621979,38.483093,-146.714432,,,
729717079.283769,-3.442587,5.46353,144.106681,-0.052109,-0.060699,0.997147,-0.085442,-0.092373,-0.081497,93.621979,38.483093,-146.714432,,,
729717079.287156,-3.461733,5.436232,105.46615,-0.049622,-0.067612,1.017776,-0.049248,-0.083979,-0.106002,93.621979,38.483093,-146.714432,,,
729717079.288632,-3.461732,5.436234,108.543001,-0.049622,-0.067612,1.017776,-0.049248,-0.083979,-0.106002,93.621979,38.483093,-146.714432,,,
729717079.288739,-3.461732,5.436232,144.079354,-0.049622,-0.067612,1.017776,-0.049248,-0.083979,-0.106002,93.621979,38.483093,-146.714432,,,
729717079.288874,-3.461733,5.436232,105.46615,-0.049622,-0.067612,1.017776,-0.049248,-0.083979,-0.106002,93.621979,38.483093,-146.714432,,,
729717079.289439,-3.461732,5.436234,108.543001,-0.049622,-0.067612,1.017776,-0.049248,-0.083979,-0.106002,93.621979,38.483093,-146.714432,,,
729717079.290079,-3.477355,5.410067,144.049849,-0.049622,-0.067612,1.017776,-0.049248,-0.083979,-0.106002,93.621979,38.483093,-146.714432,,,
729717079.293159,-3.477357,5.410067,105.436646,-0.049622,-0.067612,1.017776,-0.049248,-0.083979,-0.106002,93.621979,38.483093,-146.714432,,,
729717079.293969,-3.477355,5.410069,108.513497,-0.049622,-0.067612,1.017776,-0.049248,-0.083979,-0.106002,93.621979,38.483093,-146.714432,,,
729717079.294132,-3.477355,5.410067,144.049849,-0.049622,-0.067612,1.017776,-0.049248,-0.083979,-0.106002,93.621979,38.483093,-146.714432,,,
729717079.296576,-3.490225,5.384721,105.40746,-0.060898,-0.076736,1.024796,-0.030724,-0.078117,-0.101945,93.621979,38.483093,-146.714432,,,
729717079.297559,-3.490224,5.384723,108.484311,-0.060898,-0.076736,1.024796,-0.030724,-0.078117,-0.101945,93.621979,38.483093,-146.714432,,,
729717079.297661,-3.490224,5.384721,144.020662,-0.060898,-0.076736,1.024796,-0.030724,-0.078117,-0.101945,93.621979,38.483093,-146.714432,,,
729717079.299026,-3.490225,5.384721,105.40746,-0.060898,-0.076736,1.024796,-0.030724,-0.078117,-0.101945,93.621979,38.483093,-146.714432,,,
729717079.299425,-3.490224,5.384723,108.484311,-0.060898,-0.076736,1.024796,-0.030724,-0.078117,-0.101945,93.621979,38.483093,-146.714432,,,
729717079.300076,-3.501419,5.36059,143.994458,-0.060898,-0.076736,1.024796,-0.030724,-0.078117,-0.101945,93.621979,38.483093,-146.714432,,,
729717079.303179,-3.501421,5.36059,105.381251,-0.060898,-0.076736,1.024796,-0.030724,-0.078117,-0.101945,93.621979,38.483093,-146.714432,,,
729717079.303992,-3.501419,5.360592,108.458102,-0.060898,-0.076736,1.024796,-0.030724,-0.078117,-0.101945,93.621979,38.483093,-146.714432,,,
729717079.304126,-3.501419,5.36059,143.994458,-0.060898,-0.076736,1.024796,-0.030724,-0.078117,-0.101945,93.621979,38.483093,-146.714432,,,
729717079.307078,-3.513314,5.339178,105.359937,-0.067398,-0.082901,1.028275,-0.03905,-0.060974,-0.068647,93.621979,38.483093,-146.714432,,,
729717079.308508,-3.513313,5.33918,108.436788,-0.067398,-0.082901,1.028275,-0.03905,-0.060974,-0.068647,93.621979,38.483093,-146.714432,,,
729717079.308613,-3.513313,5.339178,143.973141,-0.067398,-0.082901,1.028275,-0.03905,-0.060974,-0.068647,93.621979,38.483093,-146.714432,,,
729717079.308915,-3.513314,5.339178,105.359937,-0.067398,-0.082901,1.028275,-0.03905,-0.060974,-0.068647,93.621979,38.483093,-146.714432,,,
729717079.309433,-3.513313,5.33918,108.436788,-0.067398,-0.082901,1.028275,-0.03905,-0.060974,-0.068647,93.621979,38.483093,-146.714432,,,
729717079.310075,-3.528617,5.323163,143.958299,-0.067398,-0.082901,1.028275,-0.03905,-0.060974,-0.068647,93.621979,38.483093,-146.714432,,,
729717079.312932,-3.528619,5.323163,105.345095,-0.067398,-0.082901,1.028275,-0.03905,-0.060974,-0.068647,93.621979,38.483093,-146.714432,,,
729717079.313492,-3.528617,5.323165,108.421946,-0.067398,-0.082901,1.028275,-0.03905,-0.060974,-0.068647,93.621979,38.483093,-146.714432,,,
729717079.313596,-3.528617,5.323163,143.958299,-0.067398,-0.082901,1.028275,-0.03905,-0.060974,-0.068647,93.621979,38.483093,-146.714432,,,
729717079.316762,-3.545867,5.314254,105.335929,-0.070251,-0.084595,1.025177,-0.059642,-0.013002,-0.030882,93.621979,38.483093,-146.714432,,,
729717079.318358,-3.545866,5.314256,108.41278,-0.070251,-0.084595,1.025177,-0.059642,-0.013002,-0.030882,93.577484,38.689743,-146.669586,,,
729717079.318469,-3.545866,5.314254,143.949132,-0.070251,-0.084595,1.025177,-0.059642,-0.013002,-0.030882,93.577484,38.689743,-146.669586,,,
729717079.319245,-3.545867,5.314254,105.335929,-0.070251,-0.084595,1.025177,-0.059642,-0.013002,-0.030882,93.577484,38.689743,-146.669586,,,
729717079.319429,-3.545866,5.314256,108.41278,-0.070251,-0.084595,1.025177,-0.059642,-0.013002,-0.030882,93.577484,38.689743,-146.669586,,,
729717079.320167,-3.564662,5.312945,143.944517,-0.070251,-0.084595,1.025177,-0.059642,-0.013002,-0.030882,93.577484,38.689743,-146.669586,,,
729717079.322945,-3.564663,5.312945,105.331316,-0.070251,-0.084595,1.025177,-0.059642,-0.013002,-0.030882,93.577484,38.689743,-146.669586,,,
729717079.323294,-3.564662,5.312947,108.408167,-0.070251,-0.084595,1.025177,-0.059642,-0.013002,-0.030882,93.577484,38.689743,-146.669586,,,
729717079.323417,-3.564662,5.312945,143.944517,-0.070251,-0.084595,1.025177,-0.059642,-0.013002,-0.030882,93.577484,38.689743,-146.669586,,,
729717079.327674,-3.58423,5.31832,105.330263,-0.068924,-0.084442,1.033737,-0.06624,0.030927,-0.006689,93.577484,38.689743,-146.669586,,,
729717079.329333,-3.584229,5.318322,108.407114,-0.068924,-0.084442,1.033737,-0.06624,0.030927,-0.006689,93.577484,38.689743,-146.669586,,,
729717079.329455,-3.584229,5.31832,143.943465,-0.068924,-0.084442,1.033737,-0.06624,0.030927,-0.006689,93.577484,38.689743,-146.669586,,,
729717079.330622,-3.602411,5.32871,105.330477,-0.068924,-0.084442,1.033737,-0.06624,0.030927,-0.006689,93.577484,38.689743,-146.669586,,,
729717079.330727,-3.602409,5.32871,143.943679,-0.068924,-0.084442,1.033737,-0.06624,0.030927,-0.006689,93.577484,38.689743,-146.669586,,,
729717079.332383,-3.602411,5.32871,105.330477,-0.068924,-0.084442,1.033737,-0.06624,0.030927,-0.006689,93.577484,38.689743,-146.669586,,,
729717079.333094,-3.60241,5.328712,108.407328,-0.068924,-0.084442,1.033737,-0.06624,0.030927,-0.006689,93.577484,38.689743,-146.669586,,,
729717079.333417,-3.602409,5.32871,143.943679,-0.068924,-0.084442,1.033737,-0.06624,0.030927,-0.006689,93.577484,38.689743,-146.669586,,,
729717079.336698,-3.618793,5.344412,105.330687,-0.0755,-0.085556,1.042389,-0.051023,0.067159,-0.005385,93.577484,38.689743,-146.669586,,,
729717079.337689,-3.618792,5.344414,108.407538,-0.0755,-0.085556,1.042389,-0.051023,0.067159,-0.005385,93.577484,38.689743,-146.669586,,,
729717079.337794,-3.618792,5.344412,143.943888,-0.0755,-0.085556,1.042389,-0.051023,0.067159,-0.005385,93.577484,38.689743,-146.669586,,,
729717079.339052,-3.618793,5.344412,105.330687,-0.0755,-0.085556,1.042389,-0.051023,0.067159,-0.005385,93.577484,38.689743,-146.669586,,,
729717079.339433,-3.618792,5.344414,108.407538,-0.0755,-0.085556,1.042389,-0.051023,0.067159,-0.005385,93.577484,38.689743,-146.669586,,,
729717079.340079,-3.632619,5.36456,143.943298,-0.0755,-0.085556,1.042389,-0.051023,0.067159,-0.005385,93.577484,38.689743,-146.669586,,,
729717079.342839,-3.632621,5.36456,105.330094,-0.0755,-0.085556,1.042389,-0.051023,0.067159,-0.005385,93.577484,38.689743,-146.669586,,,
729717079.343282,-3.632619,5.364562,108.406945,-0.0755,-0.085556,1.042389,-0.051023,0.067159,-0.005385,93.577484,38.689743,-146.669586,,,
729717079.343403,-3.632619,5.36456,143.943298,-0.0755,-0.085556,1.042389,-0.051023,0.067159,-0.005385,93.577484,38.689743,-146.669586,,,
729717079.3472,-3.644528,5.390442,105.327837,-0.080765,-0.07843,1.048782,-0.034475,0.104178,-0.015769,93.577484,38.689743,-146.669586,,,
729717079.348791,-3.644527,5.390444,108.404688,-0.080765,-0.07843,1.048782,-0.034475,0.104178,-0.015769,93.577484,38.689743,-146.669586,,,
729717079.348931,-3.644527,5.390442,143.941041,-0.080765,-0.07843,1.048782,-0.034475,0.104178,-0.015769,93.577484,38.689743,-146.669586,,,
729717079.349154,-3.644528,5.390442,105.327837,-0.080765,-0.07843,1.048782,-0.034475,0.104178,-0.015769,93.577484,38.689743,-146.669586,,,
729717079.34943,-3.644527,5.390444,108.404688,-0.080765,-0.07843,1.048782,-0.034475,0.104178,-0.015769,93.577484,38.689743,-146.669586,,,
729717079.350099,-3.653071,5.420493,143.93686,-0.080765,-0.07843,1.048782,-0.034475,0.104178,-0.015769,93.577484,38.689743,-146.669586,,,
729717079.353111,-3.653072,5.420493,105.323654,-0.080765,-0.07843,1.048782,-0.034475,0.104178,-0.015769,93.577484,38.689743,-146.669586,,,
729717079.353601,-3.653071,5.420496,108.400505,-0.080765,-0.07843,1.048782,-0.034475,0.104178,-0.015769,93.577484,38.689743,-146.669586,,,
729717079.353714,-3.653071,5.420493,143.93686,-0.080765,-0.07843,1.048782,-0.034475,0.104178,-0.015769,93.577484,38.689743,-146.669586,,,
729717079.356979,-3.658577,5.455844,105.317698,-0.082047,-0.066574,1.049973,-0.011234,0.131917,-0.026649,93.577484,38.689743,-146.669586,,,
729717079.35848,-3.658575,5.455846,108.394549,-0.082047,-0.066574,1.049973,-0.011234,0.131917,-0.026649,93.577484,38.689743,-146.669586,,,
729717079.358588,-3.658575,5.455844,143.930904,-0.082047,-0.066574,1.049973,-0.011234,0.131917,-0.026649,93.577484,38.689743,-146.669586,,,
729717079.359235,-3.658577,5.455844,105.317698,-0.082047,-0.066574,1.049973,-0.011234,0.131917,-0.026649,93.687363,38.539536,-146.560181,,,
729717079.359746,-3.658575,5.455846,108.394549,-0.082047,-0.066574,1.049973,-0.011234,0.131917,-0.026649,93.687363,38.539536,-146.560181,,,
729717079.360083,-3.66095,5.491035,143.922861,-0.082047,-0.066574,1.049973,-0.011234,0.131917,-0.026649,93.687363,38.539536,-146.560181,,,
729717079.362797,-3.660952,5.491035,105.309656,-0.082047,-0.066574,1.049973,-0.011234,0.131917,-0.026649,93.687363,38.539536,-146.560181,,,
729717079.363101,-3.66095,5.491038,108.386507,-0.082047,-0.066574,1.049973,-0.011234,0.131917,-0.026649,93.687363,38.539536,-146.560181,,,
729717079.363394,-3.66095,5.491035,143.922861,-0.082047,-0.066574,1.049973,-0.011234,0.131917,-0.026649,93.687363,38.539536,-146.560181,,,
729717079.367528,-3.659991,5.529917,105.299071,-0.081039,-0.06636,1.040649,0.013716,0.14231,-0.043084,93.687363,38.539536,-146.560181,,,
729717079.369203,-3.659989,5.529919,108.375923,-0.081039,-0.06636,1.040649,0.013716,0.14231,-0.043084,93.687363,38.539536,-146.560181,,,
729717079.369327,-3.659989,5.529917,143.912275,-0.081039,-0.06636,1.040649,0.013716,0.14231,-0.043084,93.687363,38.539536,-146.560181,,,
729717079.369466,-3.659991,5.529917,105.299071,-0.081039,-0.06636,1.040649,0.013716,0.14231,-0.043084,93.687363,38.539536,-146.560181,,,
729717079.36958,-3.659989,5.529919,108.375923,-0.081039,-0.06636,1.040649,0.013716,0.14231,-0.043084,93.687363,38.539536,-146.560181,,,
729717079.370048,-3.65666,5.565924,143.897978,-0.081039,-0.06636,1.040649,0.013716,0.14231,-0.043084,93.687363,38.539536,-146.560181,,,
729717079.372836,-3.656662,5.565924,105.284774,-0.081039,-0.06636,1.040649,0.013716,0.14231,-0.043084,93.687363,38.539536,-146.560181,,,
729717079.373243,-3.656661,5.565926,108.361625,-0.081039,-0.06636,1.040649,0.013716,0.14231,-0.043084,93.687363,38.539536,-146.560181,,,
729717079.373382,-3.65666,5.565924,143.897978,-0.081039,-0.06636,1.040649,0.013716,0.14231,-0.043084,93.687363,38.539536,-146.560181,,,
729717079.377085,-3.649661,5.602867,105.267183,-0.080231,-0.07132,1.033508,0.037557,0.132049,-0.064881,93.687363,38.539536,-146.560181,,,
729717079.378481,-3.649659,5.602869,108.344034,-0.080231,-0.07132,1.033508,0.037557,0.132049,-0.064881,93.687363,38.539536,-146.560181,,,
729717079.378635,-3.649659,5.602867,143.880386,-0.080231,-0.07132,1.033508,0.037557,0.132049,-0.064881,93.687363,38.539536,-146.560181,,,
729717079.378909,-3.649661,5.602867,105.267183,-0.080231,-0.07132,1.033508,0.037557,0.132049,-0.064881,93.687363,38.539536,-146.560181,,,
729717079.379438,-3.649659,5.602869,108.344034,-0.080231,-0.07132,1.033508,0.037557,0.132049,-0.064881,93.687363,38.539536,-146.560181,,,
729717079.380077,-3.640994,5.633144,143.860343,-0.080231,-0.07132,1.033508,0.037557,0.132049,-0.064881,93.687363,38.539536,-146.560181,,,
729717079.382787,-3.640996,5.633144,105.24714,-0.080231,-0.07132,1.033508,0.037557,0.132049,-0.064881,93.687363,38.539536,-146.560181,,,
729717079.383343,-3.640994,5.633146,108.323991,-0.080231,-0.07132,1.033508,0.037557,0.132049,-0.064881,93.687363,38.539536,-146.560181,,,
729717079.383452,-3.640994,5.633144,143.860343,-0.080231,-0.07132,1.033508,0.037557,0.132049,-0.064881,93.687363,38.539536,-146.560181,,,
729717079.386635,-3.628565,5.659992,105.227379,-0.092377,-0.0784,1.027328,0.054547,0.088195,-0.062479,93.687363,38.539536,-146.560181,,,
729717079.387602,-3.628563,5.659994,108.30423,-0.092377,-0.0784,1.027328,0.054547,0.088195,-0.062479,93.687363,38.539536,-146.560181,,,
729717079.387706,-3.628563,5.659992,143.840582,-0.092377,-0.0784,1.027328,0.054547,0.088195,-0.062479,93.687363,38.539536,-146.560181,,,
729717079.389093,-3.628565,5.659992,105.227379,-0.092377,-0.0784,1.027328,0.054547,0.088195,-0.062479,93.687363,38.539536,-146.560181,,,
729717079.389468,-3.628563,5.659994,108.30423,-0.092377,-0.0784,1.027328,0.054547,0.088195,-0.062479,93.687363,38.539536,-146.560181,,,
729717079.390107,-3.615727,5.674356,143.821504,-0.092377,-0.0784,1.027328,0.054547,0.088195,-0.062479,93.687363,38.539536,-146.560181,,,
729717079.393166,-3.615729,5.674356,105.208299,-0.092377,-0.0784,1.027328,0.054547,0.088195,-0.062479,93.687363,38.539536,-146.560181,,,
729717079.393975,-3.615727,5.674358,108.28515,-0.092377,-0.0784,1.027328,0.054547,0.088195,-0.062479,93.687363,38.539536,-146.560181,,,
729717079.394129,-3.615727,5.674356,143.821504,-0.092377,-0.0784,1.027328,0.054547,0.088195,-0.062479,93.687363,38.539536,-146.560181,,,
729717079.396643,-3.597763,5.682552,105.19027,-0.114456,-0.084686,1.01265,0.074584,0.019039,-0.054789,93.687363,38.539536,-146.560181,,,
729717079.397679,-3.597762,5.682554,108.267121,-0.114456,-0.084686,1.01265,0.074584,0.019039,-0.054789,93.687363,38.539536,-146.560181,,,
729717079.397782,-3.597762,5.682552,143.803474,-0.114456,-0.084686,1.01265,0.074584,0.019039,-0.054789,93.687363,38.539536,-146.560181,,,
729717079.399052,-3.597763,5.682552,105.19027,-0.114456,-0.084686,1.01265,0.074584,0.019039,-0.054789,93.687363,38.539536,-146.560181,,,
729717079.399477,-3.597762,5.682554,108.267121,-0.114456,-0.084686,1.01265,0.074584,0.019039,-0.054789,93.687363,38.539536,-146.560181,,,
729717079.400107,-3.578849,5.678164,143.785855,-0.114456,-0.084686,1.01265,0.074584,0.019039,-0.054789,93.697174,38.714661,-146.581528,,,
729717079.403396,-3.57885,5.678164,105.172652,-0.114456,-0.084686,1.01265,0.074584,0.019039,-0.054789,93.697174,38.714661,-146.581528,,,
729717079.404464,-3.578849,5.678166,108.249504,-0.114456,-0.084686,1.01265,0.074584,0.019039,-0.054789,93.697174,38.714661,-146.581528,,,
729717079.404611,-3.578849,5.678164,143.785855,-0.114456,-0.084686,1.01265,0.074584,0.019039,-0.054789,93.697174,38.714661,-146.581528,,,
729717079.407588,-3.55511,5.672751,105.15483,-0.122696,-0.079193,1.013107,0.091647,-0.019135,-0.056428,93.697174,38.714661,-146.581528,,,
729717079.409656,-3.555108,5.672753,108.231681,-0.122696,-0.079193,1.013107,0.091647,-0.019135,-0.056428,93.697174,38.714661,-146.581528,,,
729717079.409824,-3.555108,5.672751,143.768033,-0.122696,-0.079193,1.013107,0.091647,-0.019135,-0.056428,93.697174,38.714661,-146.581528,,,
729717079.410029,-3.55511,5.672751,105.15483,-0.122696,-0.079193,1.013107,0.091647,-0.019135,-0.056428,93.697174,38.714661,-146.581528,,,
729717079.410155,-3.532132,5.660255,143.748539,-0.122696,-0.079193,1.013107,0.091647,-0.019135,-0.056428,93.697174,38.714661,-146.581528,,,
729717079.412951,-3.532134,5.660255,105.135335,-0.122696,-0.079193,1.013107,0.091647,-0.019135,-0.056428,93.697174,38.714661,-146.581528,,,
729717079.413508,-3.532132,5.660257,108.212186,-0.122696,-0.079193,1.013107,0.091647,-0.019135,-0.056428,93.697174,38.714661,-146.581528,,,
729717079.413613,-3.532132,5.660255,143.748539,-0.122696,-0.079193,1.013107,0.091647,-0.019135,-0.056428,93.697174,38.714661,-146.581528,,,
729717079.416684,-3.506834,5.647385,105.114396,-0.116302,-0.0728,1.015686,0.095645,-0.041611,-0.067461,93.697174,38.714661,-146.581528,,,
729717079.417793,-3.506833,5.647387,108.191247,-0.116302,-0.0728,1.015686,0.095645,-0.041611,-0.067461,93.697174,38.714661,-146.581528,,,
729717079.417904,-3.506833,5.647385,143.7276,-0.116302,-0.0728,1.015686,0.095645,-0.041611,-0.067461,93.697174,38.714661,-146.581528,,,
729717079.419043,-3.506834,5.647385,105.114396,-0.116302,-0.0728,1.015686,0.095645,-0.041611,-0.067461,93.697174,38.714661,-146.581528,,,
729717079.419427,-3.506833,5.647387,108.191247,-0.116302,-0.0728,1.015686,0.095645,-0.041611,-0.067461,93.697174,38.714661,-146.581528,,,
729717079.420078,-3.506833,5.647385,143.7276,-0.116302,-0.0728,1.015686,0.095645,-0.041611,-0.067461,93.697174,38.714661,-146.581528,,,
