Time (sec),Pitch (deg),Roll (deg),Yaw(deg),X-Acceleration (g),Y-Acceleration (g),Z-Acceleration (g),Pitch Rate (deg/sec),Roll Rate (deg/sec),Yaw Rate (deg/sec),Magnetic Field in X direction (uT),Magnetic Field in Y direction (uT),Magnetic Field in Z Direction (uT),Latitude (deg),Longitude (deg),Altitude (m)
729705538.825392,-0.335531,-0.607551,75.875243,0.015289,0.003799,0.975891,0.021396,-0.014528,-0.047148,86.536774,35.706543,-149.012833,,,
729705538.828664,-0.332402,-0.613629,75.861662,0.015289,0.003799,0.975891,0.021396,-0.014528,-0.047148,86.536774,35.706543,-149.012833,,,
729705538.832001,-0.332402,-0.613629,75.861662,0.015289,0.003799,0.975891,0.021396,-0.014528,-0.047148,86.536774,35.706543,-149.012833,,,
729705538.835337,-0.329786,-0.615861,75.848313,0.017365,0.003662,0.977875,0.003404,0.003,-0.044654,86.536774,35.706543,-149.012833,,,
729705538.83876,-0.331986,-0.615647,75.83559,0.017365,0.003662,0.977875,0.003404,0.003,-0.044654,86.536774,35.706543,-149.012833,,,
729705538.842009,-0.331986,-0.615647,75.83559,0.017365,0.003662,0.977875,0.003404,0.003,-0.044654,86.536774,35.706543,-149.012833,,,
729705538.845393,-0.335709,-0.612695,75.82363,0.014999,0.003952,0.978302,-0.023888,0.017329,-0.037593,86.536774,35.706543,-149.012833,,,
729705538.848714,-0.344593,-0.610094,75.812722,0.014999,0.003952,0.978302,-0.023888,0.017329,-0.037593,86.536774,35.706543,-149.012833,,,
729705538.852014,-0.344593,-0.610094,75.812722,0.014999,0.003952,0.978302,-0.023888,0.017329,-0.037593,86.536774,35.706543,-149.012833,,,
729705538.855137,-0.355024,-0.605074,75.802795,0.014191,0.003799,0.975174,-0.043154,0.02097,-0.032813,86.536774,35.706543,-149.012833,,,
729705538.858742,-0.368377,-0.600288,75.7933,0.014191,0.003799,0.975174,-0.043154,0.02097,-0.032813,86.536774,35.706543,-149.012833,,,
729705538.862,-0.368377,-0.600288,75.7933,0.014191,0.003799,0.975174,-0.043154,0.02097,-0.032813,86.536774,35.706543,-149.012833,,,
729705538.865358,-0.384327,-0.5944,75.784034,0.011642,0.004517,0.978363,-0.060389,0.022459,-0.033299,86.665359,35.703796,-148.886597,,,
729705538.868714,-0.400916,-0.590051,75.774869,0.011642,0.004517,0.978363,-0.060389,0.022459,-0.033299,86.665359,35.703796,-148.886597,,,
729705538.871826,-0.400916,-0.590051,75.774869,0.011642,0.004517,0.978363,-0.060389,0.022459,-0.033299,86.665359,35.703796,-148.886597,,,
729705538.875386,-0.418693,-0.585431,75.76549,0.010849,0.002533,0.981079,-0.062206,0.01835,-0.034471,86.665359,35.703796,-148.886597,,,
729705538.878688,-0.43599,-0.582175,75.756132,0.010849,0.002533,0.981079,-0.062206,0.01835,-0.034471,86.665359,35.703796,-148.886597,,,
729705538.882,-0.43599,-0.582175,75.756132,0.010849,0.002533,0.981079,-0.062206,0.01835,-0.034471,86.665359,35.703796,-148.886597,,,
729705538.885332,-0.454132,-0.578996,75.746202,0.007675,4.6e-05,0.986176,-0.060593,0.007922,-0.036633,86.665359,35.703796,-148.886597,,,
729705538.888482,-0.454132,-0.578996,75.746202,0.007675,4.6e-05,0.986176,-0.060593,0.007922,-0.036633,86.665359,35.703796,-148.886597,,,
729705538.891827,-0.470961,-0.577912,75.735877,0.007675,4.6e-05,0.986176,-0.060593,0.007922,-0.036633,86.665359,35.703796,-148.886597,,,
729705538.895357,-0.488273,-0.577972,75.725899,0.006149,0.000336,0.990509,-0.057724,0.000267,-0.03568,86.665359,35.703796,-148.886597,,,
729705538.898693,-0.50424,-0.579764,75.715609,0.006149,0.000336,0.990509,-0.057724,0.000267,-0.03568,86.665359,35.703796,-148.886597,,,
729705538.902024,-0.50424,-0.579764,75.715609,0.006149,0.000336,0.990509,-0.057724,0.000267,-0.03568,86.665359,35.703796,-148.886597,,,
729705538.905472,-0.520048,-0.582364,75.70531,0.003159,0.001724,0.996323,-0.049805,-0.007106,-0.034749,86.404724,35.753891,-149.180954,,,
729705538.90869,-0.533803,-0.586796,75.695584,0.003159,0.001724,0.996323,-0.049805,-0.007106,-0.034749,86.404724,35.753891,-149.180954,,,
729705538.912016,-0.533803,-0.586796,75.695584,0.003159,0.001724,0.996323,-0.049805,-0.007106,-0.034749,86.404724,35.753891,-149.180954,,,
729705538.915348,-0.549222,-0.591218,75.686116,0.003876,0.004578,0.999161,-0.054609,-0.015099,-0.033974,86.404724,35.753891,-149.180954,,,
729705538.918774,-0.563525,-0.597527,75.676872,0.003876,0.004578,0.999161,-0.054609,-0.015099,-0.033974,86.404724,35.753891,-149.180954,,,
729705538.921841,-0.563525,-0.597527,75.676872,0.003876,0.004578,0.999161,-0.054609,-0.015099,-0.033974,86.404724,35.753891,-149.180954,,,
729705538.925388,-0.579983,-0.605398,75.667813,0.004196,0.002869,0.999207,-0.058272,-0.031121,-0.030236,86.404724,35.753891,-149.180954,,,
729705538.928695,-0.579983,-0.61602,75.659086,0.004196,0.002869,0.999207,-0.058272,-0.031121,-0.030236,86.404724,35.753891,-149.180954,,,
729705538.931999,-0.596068,-0.61602,75.659086,0.004196,0.002869,0.999207,-0.058272,-0.031121,-0.030236,86.404724,35.753891,-149.180954,,,
729705538.935333,-0.614938,-0.627957,75.650485,0.002167,0.002579,0.998215,-0.065303,-0.039929,-0.033076,86.404724,35.753891,-149.180954,,,
729705538.938457,-0.614938,-0.627957,75.650485,0.002167,0.002579,0.998215,-0.065303,-0.039929,-0.033076,86.404724,35.753891,-149.180954,,,
729705538.942042,-0.632507,-0.641186,75.641404,0.002167,0.002579,0.998215,-0.065303,-0.039929,-0.033076,86.404724,35.753891,-149.180954,,,
729705538.945335,-0.653171,-0.654241,75.632614,0.004898,-0.000977,1.007156,-0.071038,-0.041275,-0.029159,86.296143,36.053192,-149.148865,,,
729705538.948684,-0.653171,-0.654241,75.632614,0.004898,-0.000977,1.007156,-0.071038,-0.041275,-0.029159,86.296143,36.053192,-149.148865,,,
729705538.952002,-0.671677,-0.667645,75.624391,0.004898,-0.000977,1.007156,-0.071038,-0.041275,-0.029159,86.296143,36.053192,-149.148865,,,
729705538.955178,-0.691866,-0.68188,75.616521,0.002106,-0.009628,1.01416,-0.066433,-0.04741,-0.027269,86.296143,36.053192,-149.148865,,,
729705538.958707,-0.691866,-0.68188,75.616521,0.002106,-0.009628,1.01416,-0.066433,-0.04741,-0.027269,86.296143,36.053192,-149.148865,,,
729705538.96191,-0.707675,-0.695874,75.60888,0.002106,-0.009628,1.01416,-0.066433,-0.04741,-0.027269,86.296143,36.053192,-149.148865,,,
729705538.965348,-0.724101,-0.709632,75.600546,0.006561,-0.013611,1.02063,-0.051264,-0.044103,-0.029093,86.296143,36.053192,-149.148865,,,
729705538.968765,-0.724101,-0.709632,75.591759,0.006561,-0.013611,1.02063,-0.051264,-0.044103,-0.029093,86.296143,36.053192,-149.148865,,,
729705538.972107,-0.73518,-0.721708,75.591759,0.006561,-0.013611,1.02063,-0.051264,-0.044103,-0.029093,86.296143,36.053192,-149.148865,,,
729705538.975363,-0.745523,-0.734074,75.582751,0.009216,-0.010071,1.025253,-0.026588,-0.030537,-0.033303,86.296143,36.053192,-149.148865,,,
729705538.978669,-0.745523,-0.734074,75.582751,0.009216,-0.010071,1.025253,-0.026588,-0.030537,-0.033303,86.296143,36.053192,-149.148865,,,
729705538.982008,-0.748849,-0.741593,75.573192,0.009216,-0.010071,1.025253,-0.026588,-0.030537,-0.033303,86.296143,36.053192,-149.148865,,,
729705538.985333,-0.751172,-0.746624,75.563312,0.009811,-0.007401,1.036896,0.001486,-0.005501,-0.035773,86.296143,36.053192,-149.148865,,,
729705538.988834,-0.746515,-0.746548,75.552954,0.009811,-0.007401,1.036896,0.001486,-0.005501,-0.035773,86.2276,36.117859,-149.334244,,,
729705538.992011,-0.746515,-0.746548,75.552954,0.009811,-0.007401,1.036896,0.001486,-0.005501,-0.035773,86.2276,36.117859,-149.334244,,,
729705538.99534,-0.74286,-0.747366,75.542454,0.010422,-0.011017,1.029861,0.021585,0.00226,-0.035144,86.2276,36.117859,-149.334244,,,
729705538.998695,-0.74286,-0.747366,75.542454,0.010422,-0.011017,1.029861,0.021585,0.00226,-0.035144,86.2276,36.117859,-149.334244,,,
729705539.002014,-0.732924,-0.745805,75.532928,0.010422,-0.011017,1.029861,0.021585,0.00226,-0.035144,86.2276,36.117859,-149.334244,,,
729705539.005132,-0.724898,-0.745612,75.52445,0.008667,-0.01651,1.022354,0.028731,0.005113,-0.027265,86.2276,36.117859,-149.334244,,,
729705539.008705,-0.724898,-0.745612,75.52445,0.008667,-0.01651,1.022354,0.028731,0.005113,-0.027265,86.2276,36.117859,-149.334244,,,
729705539.012006,-0.712523,-0.743151,75.516428,0.008667,-0.01651,1.022354,0.028731,0.005113,-0.027265,86.2276,36.117859,-149.334244,,,
729705539.015332,-0.702082,-0.743836,75.50926,0.007736,-0.01886,1.016403,0.040175,-0.002294,-0.026413,86.2276,36.117859,-149.334244,,,
729705539.018701,-0.702082,-0.743836,75.50926,0.007736,-0.01886,1.016403,0.040175,-0.002294,-0.026413,86.2276,36.117859,-149.334244,,,
729705539.022094,-0.686309,-0.743409,75.502312,0.007736,-0.01886,1.016403,0.040175,-0.002294,-0.026413,86.2276,36.117859,-149.334244,,,
729705539.025355,-0.672012,-0.74545,75.494017,0.008728,-0.015045,1.012177,0.053453,-0.001666,-0.034588,86.2276,36.117859,-149.334244,,,
729705539.028684,-0.672012,-0.74545,75.494017,0.008728,-0.015045,1.012177,0.053453,-0.001666,-0.034588,86.383362,35.820496,-148.935608,,,
729705539.032101,-0.654257,-0.745012,75.484633,0.008728,-0.015045,1.012177,0.053453,-0.001666,-0.034588,86.383362,35.820496,-148.935608,,,
729705539.035336,-0.636359,-0.745676,75.473812,0.010483,-0.013306,1.014786,0.061993,0.005546,-0.046327,86.383362,35.820496,-148.935608,,,
729705539.038483,-0.636359,-0.745676,75.473812,0.010483,-0.013306,1.014786,0.061993,0.005546,-0.046327,86.383362,35.820496,-148.935608,,,
729705539.042039,-0.618374,-0.742857,75.461035,0.010483,-0.013306,1.014786,0.061993,0.005546,-0.046327,86.383362,35.820496,-148.935608,,,
729705539.045332,-0.599274,-0.739261,75.446278,0.012405,-0.01088,1.009399,0.068402,0.020125,-0.058407,86.383362,35.820496,-148.935608,,,
729705539.048694,-0.599274,-0.739261,75.446278,0.012405,-0.01088,1.009399,0.068402,0.020125,-0.058407,86.383362,35.820496,-148.935608,,,
729705539.052009,-0.579991,-0.732683,75.430507,0.012405,-0.01088,1.009399,0.068402,0.020125,-0.058407,86.383362,35.820496,-148.935608,,,
729705539.055478,-0.560182,-0.726278,75.415266,0.009079,-0.014252,1.000946,0.069804,0.026921,-0.054964,86.383362,35.820496,-148.935608,,,
729705539.058707,-0.560182,-0.726278,75.415266,0.009079,-0.014252,1.000946,0.069804,0.026921,-0.054964,86.383362,35.820496,-148.935608,,,
729705539.062008,-0.540076,-0.71959,75.400943,0.009079,-0.014252,1.000946,0.069804,0.026921,-0.054964,86.383362,35.820496,-148.935608,,,
729705539.065339,-0.520687,-0.714486,75.38816,0.003052,-0.017227,0.98732,0.065662,0.020909,-0.041796,86.383362,35.820496,-148.935608,,,
729705539.068675,-0.520687,-0.714486,75.38816,0.003052,-0.017227,0.98732,0.065662,0.020909,-0.041796,86.376724,35.67717,-148.959869,,,
729705539.072061,-0.502279,-0.710039,75.377522,0.003052,-0.017227,0.98732,0.065662,0.020909,-0.041796,86.376724,35.67717,-148.959869,,,
729705539.075349,-0.485748,-0.707179,75.368828,0.002151,-0.016571,0.984619,0.051002,0.009011,-0.028684,86.376724,35.67717,-148.959869,,,
729705539.078696,-0.485748,-0.707179,75.368828,0.002151,-0.016571,0.984619,0.051002,0.009011,-0.028684,86.376724,35.67717,-148.959869,,,
729705539.082154,-0.472589,-0.705196,75.361333,0.002151,-0.016571,0.984619,0.051002,0.009011,-0.028684,86.376724,35.67717,-148.959869,,,
729705539.085321,-0.460363,-0.705646,75.354406,0.004211,-0.010727,0.981522,0.041687,-0.00291,-0.024771,86.376724,35.67717,-148.959869,,,
729705539.088672,-0.460363,-0.705646,75.354406,0.004211,-0.010727,0.981522,0.041687,-0.00291,-0.024771,86.376724,35.67717,-148.959869,,,
729705539.092022,-0.451833,-0.705989,75.347524,0.004211,-0.010727,0.981522,0.041687,-0.00291,-0.024771,86.376724,35.67717,-148.959869,,,
729705539.095332,-0.442516,-0.708059,75.340108,0.009995,-0.001495,0.978409,0.029085,-0.007077,-0.030086,86.376724,35.67717,-148.959869,,,
729705539.098689,-0.442516,-0.708059,75.340108,0.009995,-0.001495,0.978409,0.029085,-0.007077,-0.030086,86.376724,35.67717,-148.959869,,,
729705539.102004,-0.436797,-0.709579,75.332085,0.009995,-0.001495,0.978409,0.029085,-0.007077,-0.030086,86.376724,35.67717,-148.959869,,,
729705539.105386,-0.430666,-0.712475,75.323231,0.014038,0.004318,0.980713,0.020464,-0.008405,-0.033156,86.376724,35.67717,-148.959869,,,
729705539.108657,-0.430666,-0.712475,75.323231,0.014038,0.004318,0.980713,0.020464,-0.008405,-0.033156,86.210754,35.868744,-148.81897,,,
729705539.112023,-0.426935,-0.715316,75.314325,0.014038,0.004318,0.980713,0.020464,-0.008405,-0.033156,86.210754,35.868744,-148.81897,,,
729705539.115325,-0.422699,-0.719414,75.305754,0.013763,0.002792,0.97937,0.011861,-0.013043,-0.030305,86.210754,35.868744,-148.81897,,,
729705539.118686,-0.422699,-0.719414,75.305754,0.013763,0.002792,0.97937,0.011861,-0.013043,-0.030305,86.210754,35.868744,-148.81897,,,
729705539.122144,-0.42062,-0.72353,75.297451,0.013763,0.002792,0.97937,0.011861,-0.013043,-0.030305,86.210754,35.868744,-148.81897,,,
729705539.125342,-0.418916,-0.728546,75.289671,0.015472,0.003998,0.979462,0.001371,-0.013371,-0.027978,86.210754,35.868744,-148.81897,,,
729705539.128704,-0.418916,-0.728546,75.289671,0.015472,0.003998,0.979462,0.001371,-0.013371,-0.027978,86.210754,35.868744,-148.81897,,,
729705539.132008,-0.4203,-0.733768,75.282343,0.015472,0.003998,0.979462,0.001371,-0.013371,-0.027978,86.210754,35.868744,-148.81897,,,
729705539.135343,-0.423383,-0.739116,75.275246,0.013611,0.00174,0.975845,-0.018201,-0.014067,-0.025574,86.210754,35.868744,-148.81897,,,
729705539.138723,-0.423383,-0.739116,75.275246,0.013611,0.00174,0.975845,-0.018201,-0.014067,-0.025574,86.210754,35.868744,-148.81897,,,
729705539.142027,-0.431505,-0.74246,75.26851,0.013611,0.00174,0.975845,-0.018201,-0.014067,-0.025574,86.210754,35.868744,-148.81897,,,
729705539.145337,-0.440944,-0.747231,75.262052,0.013123,-0.000824,0.978775,-0.039438,-0.013881,-0.024238,86.210754,35.868744,-148.81897,,,
729705539.148731,-0.440944,-0.747231,75.262052,0.013123,-0.000824,0.978775,-0.039438,-0.013881,-0.024238,86.210754,35.868744,-148.81897,,,
729705539.152005,-0.455431,-0.750658,75.255362,0.013123,-0.000824,0.978775,-0.039438,-0.013881,-0.024238,86.218491,36.06369,-149.382721,,,
729705539.155468,-0.469448,-0.757714,75.248307,0.014847,-0.003815,0.976074,-0.052086,-0.024257,-0.027735,86.218491,36.06369,-149.382721,,,
729705539.158651,-0.469448,-0.757714,75.248307,0.014847,-0.003815,0.976074,-0.052086,-0.024257,-0.027735,86.218491,36.06369,-149.382721,,,
729705539.162095,-0.485398,-0.762823,75.240499,0.014847,-0.003815,0.976074,-0.052086,-0.024257,-0.027735,86.218491,36.06369,-149.382721,,,
729705539.165327,-0.49895,-0.769567,75.231238,0.016357,-0.007767,0.989151,-0.041252,-0.016294,-0.035012,86.218491,36.06369,-149.382721,,,
729705539.16868,-0.49895,-0.769567,75.231238,0.016357,-0.007767,0.989151,-0.041252,-0.016294,-0.035012,86.218491,36.06369,-149.382721,,,
729705539.172059,-0.509385,-0.773394,75.221316,0.016357,-0.007767,0.989151,-0.041252,-0.016294,-0.035012,86.218491,36.06369,-149.382721,,,
729705539.175342,-0.518101,-0.778061,75.211449,0.012634,-0.01236,0.998764,-0.024792,-0.010456,-0.035554,86.218491,36.06369,-149.382721,,,
729705539.178732,-0.518101,-0.778061,75.211449,0.012634,-0.01236,0.998764,-0.024792,-0.010456,-0.035554,86.218491,36.06369,-149.382721,,,
729705539.182001,-0.52318,-0.782221,75.202044,0.012634,-0.01236,0.998764,-0.024792,-0.010456,-0.035554,86.218491,36.06369,-149.382721,,,
729705539.185369,-0.529237,-0.785366,75.193739,0.008408,-0.015076,0.997223,-0.016981,-0.006324,-0.027176,86.218491,36.06369,-149.382721,,,
729705539.188704,-0.529237,-0.785366,75.193739,0.008408,-0.015076,0.997223,-0.016981,-0.006324,-0.027176,86.218491,36.06369,-149.382721,,,
729705539.192067,-0.531662,-0.787316,75.186332,0.008408,-0.015076,0.997223,-0.016981,-0.006324,-0.027176,86.181061,35.9673,-149.082153,,,
729705539.195358,-0.536497,-0.787971,75.179804,0.0168,-0.014557,1.003174,-0.019552,0.006525,-0.0212,86.181061,35.9673,-149.082153,,,
729705539.198851,-0.536497,-0.787971,75.179804,0.0168,-0.014557,1.003174,-0.019552,0.006525,-0.0212,86.181061,35.9673,-149.082153,,,
729705539.201999,-0.540709,-0.78718,75.17466,0.0168,-0.014557,1.003174,-0.019552,0.006525,-0.0212,86.181061,35.9673,-149.082153,,,
729705539.205411,-0.548895,-0.784424,75.170699,0.017349,-0.016891,0.999542,-0.033337,0.017012,-0.012568,86.181061,35.9673,-149.082153,,,
729705539.20868,-0.548895,-0.784424,75.170699,0.017349,-0.016891,0.999542,-0.033337,0.017012,-0.012568,86.181061,35.9673,-149.082153,,,
729705539.212113,-0.557212,-0.780859,75.16762,0.017349,-0.016891,0.999542,-0.033337,0.017012,-0.012568,86.181061,35.9673,-149.082153,,,
729705539.21533,-0.570178,-0.777262,75.164862,0.015045,-0.014862,0.997086,-0.050101,0.01237,-0.01296,86.181061,35.9673,-149.082153,,,
729705539.218684,-0.570178,-0.777262,75.164862,0.015045,-0.014862,0.997086,-0.050101,0.01237,-0.01296,86.181061,35.9673,-149.082153,,,
729705539.22226,-0.583653,-0.774731,75.161762,0.015045,-0.014862,0.997086,-0.050101,0.01237,-0.01296,86.181061,35.9673,-149.082153,,,
729705539.225331,-0.59998,-0.773084,75.157268,0.018509,-0.010422,0.994171,-0.057385,0.007657,-0.020508,86.181061,35.9673,-149.082153,,,
729705539.228697,-0.59998,-0.773084,75.157268,0.018509,-0.010422,0.994171,-0.057385,0.007657,-0.020508,86.181061,35.9673,-149.082153,,,
729705539.232008,-0.615883,-0.772461,75.150775,0.018509,-0.010422,0.994171,-0.057385,0.007657,-0.020508,86.123535,36.296524,-149.323196,,,
729705539.235332,-0.633636,-0.772091,75.142868,0.01973,-0.009857,0.998505,-0.060237,0.002874,-0.031662,86.123535,36.296524,-149.323196,,,
729705539.238718,-0.633636,-0.772091,75.142868,0.01973,-0.009857,0.998505,-0.060237,0.002874,-0.031662,86.123535,36.296524,-149.323196,,,
729705539.242009,-0.64999,-0.772586,75.133077,0.01973,-0.009857,0.998505,-0.060237,0.002874,-0.031662,86.123535,36.296524,-149.323196,,,
729705539.245334,-0.666171,-0.772814,75.121839,0.020569,-0.011414,1.003265,-0.053747,0.003376,-0.042447,86.123535,36.296524,-149.323196,,,
729705539.248685,-0.666171,-0.772814,75.121839,0.020569,-0.011414,1.003265,-0.053747,0.003376,-0.042447,86.123535,36.296524,-149.323196,,,
729705539.252057,-0.68125,-0.773847,75.10955,0.020569,-0.011414,1.003265,-0.053747,0.003376,-0.042447,86.123535,36.296524,-149.323196,,,
729705539.25537,-0.695767,-0.775018,75.096374,0.018036,-0.013382,1.00354,-0.045577,-0.003341,-0.046761,86.123535,36.296524,-149.323196,,,
729705539.258676,-0.695767,-0.775018,75.096374,0.018036,-0.013382,1.00354,-0.045577,-0.003341,-0.046761,86.123535,36.296524,-149.323196,,,
729705539.262009,-0.708822,-0.776484,75.083345,0.018036,-0.013382,1.00354,-0.045577,-0.003341,-0.046761,86.123535,36.296524,-149.323196,,,
729705539.26533,-0.719387,-0.780298,75.07122,0.013046,-0.013336,1.005478,-0.031346,-0.012256,-0.040787,86.123535,36.296524,-149.323196,,,
729705539.26871,-0.719387,-0.780298,75.07122,0.013046,-0.013336,1.005478,-0.031346,-0.012256,-0.040787,86.123535,36.296524,-149.323196,,,
729705539.272054,-0.728556,-0.785723,75.060633,0.013046,-0.013336,1.005478,-0.031346,-0.012256,-0.040787,86.165634,36.095901,-149.063126,,,
729705539.275331,-0.734995,-0.793305,75.052911,0.005646,-0.015015,1.007431,-0.015874,-0.024189,-0.018753,86.165634,36.095901,-149.063126,,,
729705539.278665,-0.734995,-0.793305,75.052911,0.005646,-0.015015,1.007431,-0.015874,-0.024189,-0.018753,86.165634,36.095901,-149.063126,,,
729705539.282002,-0.740359,-0.803183,75.048115,0.005646,-0.015015,1.007431,-0.015874,-0.024189,-0.018753,86.165634,36.095901,-149.063126,,,
729705539.285337,-0.744715,-0.812641,75.045719,0.002716,-0.021179,1.010818,-0.012824,-0.032282,-0.003805,86.165634,36.095901,-149.063126,,,
729705539.288713,-0.744715,-0.812641,75.045719,0.002716,-0.021179,1.010818,-0.012824,-0.032282,-0.003805,86.165634,36.095901,-149.063126,,,
729705539.292118,-0.748947,-0.822359,75.045511,0.002716,-0.021179,1.010818,-0.012824,-0.032282,-0.003805,86.165634,36.095901,-149.063126,,,
729705539.295316,-0.752489,-0.831348,75.046392,0.003937,-0.020706,1.012985,-0.016725,-0.0227,0.002175,86.165634,36.095901,-149.063126,,,
729705539.298677,-0.752489,-0.831348,75.046392,0.003937,-0.020706,1.012985,-0.016725,-0.0227,0.002175,86.165634,36.095901,-149.063126,,,
729705539.302003,-0.756979,-0.838796,75.047683,0.003937,-0.020706,1.012985,-0.016725,-0.0227,0.002175,86.165634,36.095901,-149.063126,,,
729705539.305369,-0.762648,-0.842819,75.048767,0.005722,-0.016525,1.01387,-0.018033,-0.006009,0.002737,86.165634,36.095901,-149.063126,,,
729705539.308678,-0.762648,-0.842819,75.048767,0.005722,-0.016525,1.01387,-0.018033,-0.006009,0.002737,86.165634,36.095901,-149.063126,,,
729705539.312009,-0.767502,-0.846093,75.049704,0.005722,-0.016525,1.01387,-0.018033,-0.006009,0.002737,86.165634,36.095901,-149.063126,,,
729705539.315332,-0.77269,-0.847083,75.050691,0.013062,-0.011642,1.010406,-0.015332,0.004791,0.002198,85.873871,36.297714,-149.029266,,,
729705539.31871,-0.77269,-0.847083,75.050691,0.013062,-0.011642,1.010406,-0.015332,0.004791,0.002198,85.873871,36.297714,-149.029266,,,
729705539.322038,-0.776583,-0.847491,75.051372,0.013062,-0.011642,1.010406,-0.015332,0.004791,0.002198,85.873871,36.297714,-149.029266,,,
729705539.325336,-0.780268,-0.844542,75.052345,0.020889,-0.013214,1.007553,-0.010629,0.014083,0.004388,85.873871,36.297714,-149.029266,,,
729705539.328667,-0.780268,-0.844542,75.052345,0.020889,-0.013214,1.007553,-0.010629,0.014083,0.004388,85.873871,36.297714,-149.029266,,,
729705539.331994,-0.782921,-0.842145,75.054197,0.020889,-0.013214,1.007553,-0.010629,0.014083,0.004388,85.873871,36.297714,-149.029266,,,
729705539.335352,-0.785032,-0.83883,75.055686,0.028397,-0.013062,0.997604,-0.003788,0.017866,0.003217,85.873871,36.297714,-149.029266,,,
729705539.338788,-0.785032,-0.83883,75.055686,0.028397,-0.013062,0.997604,-0.003788,0.017866,0.003217,85.873871,36.297714,-149.029266,,,
729705539.342077,-0.785881,-0.834956,75.055853,0.028397,-0.013062,0.997604,-0.003788,0.017866,0.003217,85.873871,36.297714,-149.029266,,,
729705539.345337,-0.785625,-0.829897,75.054865,0.034561,-0.007156,0.994507,0.002113,0.024422,-0.008726,85.873871,36.297714,-149.029266,,,
729705539.348667,-0.785625,-0.829897,75.054865,0.034561,-0.007156,0.994507,0.002113,0.024422,-0.008726,85.873871,36.297714,-149.029266,,,
729705539.352012,-0.784635,-0.822487,75.052325,0.034561,-0.007156,0.994507,0.002113,0.024422,-0.008726,85.873871,36.297714,-149.029266,,,
729705539.35538,-0.782831,-0.815364,75.048367,0.03244,-0.005173,0.990875,0.010015,0.029199,-0.018345,86.151978,36.331009,-149.016083,,,
729705539.358659,-0.782831,-0.815364,75.048367,0.03244,-0.005173,0.990875,0.010015,0.029199,-0.018345,86.151978,36.331009,-149.016083,,,
729705539.362004,-0.780401,-0.80519,75.043415,0.03244,-0.005173,0.990875,0.010015,0.029199,-0.018345,86.151978,36.331009,-149.016083,,,
729705539.365337,-0.775309,-0.79676,75.037431,0.030548,-0.007385,0.988007,0.021287,0.031439,-0.025482,86.151978,36.331009,-149.016083,,,
729705539.368779,-0.775309,-0.79676,75.037431,0.030548,-0.007385,0.988007,0.021287,0.031439,-0.025482,86.151978,36.331009,-149.016083,,,
729705539.372051,-0.770667,-0.786709,75.031032,0.030548,-0.007385,0.988007,0.021287,0.031439,-0.025482,86.151978,36.331009,-149.016083,,,
729705539.375388,-0.763524,-0.779523,75.024872,0.024628,-0.008133,0.987198,0.026641,0.026854,-0.020422,86.151978,36.331009,-149.016083,,,
729705539.378721,-0.763524,-0.779523,75.024872,0.024628,-0.008133,0.987198,0.026641,0.026854,-0.020422,86.151978,36.331009,-149.016083,,,
729705539.38202,-0.757394,-0.770411,75.019244,0.024628,-0.008133,0.987198,0.026641,0.026854,-0.020422,86.151978,36.331009,-149.016083,,,
729705539.385338,-0.750111,-0.762932,75.013945,0.022141,-0.008957,0.985428,0.024961,0.031415,-0.018509,86.151978,36.331009,-149.016083,,,
729705539.388759,-0.750111,-0.762932,75.013945,0.022141,-0.008957,0.985428,0.024961,0.031415,-0.018509,86.151978,36.331009,-149.016083,,,
729705539.39205,-0.742799,-0.753551,75.009264,0.022141,-0.008957,0.985428,0.024961,0.031415,-0.018509,86.151978,36.331009,-149.016083,,,
729705539.395335,-0.73588,-0.744628,75.00508,0.020477,-0.010239,0.99115,0.021138,0.033969,-0.015938,86.021774,36.247131,-148.888885,,,
729705539.398667,-0.73588,-0.744628,75.00508,0.020477,-0.010239,0.99115,0.021138,0.033969,-0.015938,86.021774,36.247131,-148.888885,,,
729705539.401995,-0.730236,-0.736803,75.000715,0.020477,-0.010239,0.99115,0.021138,0.033969,-0.015938,86.021774,36.247131,-148.888885,,,
729705539.405384,-0.726148,-0.728049,74.996277,0.018814,-0.008408,0.987198,0.012379,0.035551,-0.01786,86.021774,36.247131,-148.888885,,,
729705539.408656,-0.726148,-0.728049,74.996277,0.018814,-0.008408,0.987198,0.012379,0.035551,-0.01786,86.021774,36.247131,-148.888885,,,
729705539.411998,-0.723642,-0.720421,74.991368,0.018814,-0.008408,0.987198,0.012379,0.035551,-0.01786,86.021774,36.247131,-148.888885,,,
729705539.415324,-0.722077,-0.708513,74.985877,0.020996,-0.003647,0.990173,0.002946,0.047497,-0.019621,86.021774,36.247131,-148.888885,,,
729705539.418701,-0.722077,-0.708513,74.985877,0.020996,-0.003647,0.990173,0.002946,0.047497,-0.019621,86.021774,36.247131,-148.888885,,,
729705539.422034,-0.72089,-0.699572,74.979738,0.020996,-0.003647,0.990173,0.002946,0.047497,-0.019621,86.021774,36.247131,-148.888885,,,
729705539.425327,-0.721712,-0.686278,74.973818,0.016983,-0.004227,0.989059,-0.006534,0.04594,-0.019116,86.021774,36.247131,-148.888885,,,
729705539.428661,-0.721712,-0.686278,74.973818,0.016983,-0.004227,0.989059,-0.006534,0.04594,-0.019116,86.021774,36.247131,-148.888885,,,
729705539.432054,-0.722521,-0.679472,74.968693,0.016983,-0.004227,0.989059,-0.006534,0.04594,-0.019116,86.021774,36.247131,-148.888885,,,
729705539.435411,-0.725985,-0.670396,74.963851,0.01091,-0.010956,0.982147,-0.014536,0.031138,-0.01793,85.943268,36.318542,-149.037521,,,
729705539.438709,-0.725985,-0.670396,74.963851,0.01091,-0.010956,0.982147,-0.014536,0.031138,-0.01793,85.943268,36.318542,-149.037521,,,
729705539.442014,-0.728883,-0.667342,74.958597,0.01091,-0.010956,0.982147,-0.014536,0.031138,-0.01793,85.943268,36.318542,-149.037521,,,
729705539.445328,-0.733533,-0.661493,74.952698,0.009277,-0.008484,0.986221,-0.016421,0.019915,-0.023142,85.943268,36.318542,-149.037521,,,
729705539.448675,-0.733533,-0.661493,74.952698,0.009277,-0.008484,0.986221,-0.016421,0.019915,-0.023142,85.943268,36.318542,-149.037521,,,
729705539.452012,-0.73735,-0.660723,74.946403,0.009277,-0.008484,0.986221,-0.016421,0.019915,-0.023142,85.943268,36.318542,-149.037521,,,
729705539.455364,-0.742241,-0.657571,74.939687,0.00975,-0.005066,0.988083,-0.017441,0.012263,-0.025796,85.943268,36.318542,-149.037521,,,
729705539.458728,-0.742241,-0.657571,74.939687,0.00975,-0.005066,0.988083,-0.017441,0.012263,-0.025796,85.943268,36.318542,-149.037521,,,
729705539.462024,-0.745386,-0.657919,74.932606,0.00975,-0.005066,0.988083,-0.017441,0.012263,-0.025796,85.943268,36.318542,-149.037521,,,
729705539.465324,-0.748658,-0.656116,74.925454,0.010651,-0.0056,0.993927,-0.007896,0.009689,-0.027427,85.943268,36.318542,-149.037521,,,
729705539.468677,-0.748658,-0.656116,74.925454,0.010651,-0.0056,0.993927,-0.007896,0.009689,-0.027427,85.943268,36.318542,-149.037521,,,
729705539.472125,-0.750274,-0.656513,74.918295,0.010651,-0.0056,0.993927,-0.007896,0.009689,-0.027427,85.943268,36.318542,-149.037521,,,
729705539.475321,-0.751581,-0.654403,74.911531,0.012405,-0.00914,0.99585,0.00048,0.010855,-0.024788,85.943268,36.318542,-149.037521,,,
729705539.478684,-0.751581,-0.654403,74.911531,0.012405,-0.00914,0.99585,0.00048,0.010855,-0.024788,86.059937,36.427338,-149.196075,,,
729705539.482017,-0.751172,-0.653808,74.90521,0.012405,-0.00914,0.99585,0.00048,0.010855,-0.024788,86.059937,36.427338,-149.196075,,,
729705539.485391,-0.750451,-0.649918,74.899353,0.012131,-0.012375,0.999481,0.003167,0.022221,-0.021695,86.059937,36.427338,-149.196075,,,
729705539.488716,-0.750451,-0.649918,74.899353,0.012131,-0.012375,0.999481,0.003167,0.022221,-0.021695,86.059937,36.427338,-149.196075,,,
729705539.492019,-0.747285,-0.646726,74.894479,0.012131,-0.012375,0.999481,0.003167,0.022221,-0.021695,86.059937,36.427338,-149.196075,,,
729705539.495331,-0.745948,-0.641149,74.891176,0.009186,-0.010422,1.000229,0.002033,0.024796,-0.009489,86.059937,36.427338,-149.196075,,,
729705539.498736,-0.745948,-0.641149,74.891176,0.009186,-0.010422,1.000229,0.002033,0.024796,-0.009489,86.059937,36.427338,-149.196075,,,
729705539.501996,-0.743099,-0.636502,74.889446,0.009186,-0.010422,1.000229,0.002033,0.024796,-0.009489,86.059937,36.427338,-149.196075,,,
729705539.505382,-0.742372,-0.628439,74.88913,0.00531,-0.008347,1.000366,0.001978,0.035274,0.000822,86.059937,36.427338,-149.196075,,,
729705539.508653,-0.742372,-0.628439,74.88913,0.00531,-0.008347,1.000366,0.001978,0.035274,0.000822,86.059937,36.427338,-149.196075,,,
729705539.511991,-0.741804,-0.619781,74.889954,0.00531,-0.008347,1.000366,0.001978,0.035274,0.000822,86.059937,36.427338,-149.196075,,,
729705539.515328,-0.743043,-0.60997,74.891935,0.003571,-0.007828,1.004105,-0.004039,0.036299,0.009215,86.059937,36.427338,-149.196075,,,
729705539.518659,-0.743043,-0.60997,74.891935,0.003571,-0.007828,1.004105,-0.004039,0.036299,0.009215,86.123016,36.28627,-148.840836,,,
729705539.52189,-0.744545,-0.599827,74.894976,0.003571,-0.007828,1.004105,-0.004039,0.036299,0.009215,86.123016,36.28627,-148.840836,,,
729705539.525352,-0.748042,-0.590374,74.898728,0.002457,-0.00824,1.003311,-0.014694,0.035115,0.014721,86.123016,36.28627,-148.840836,,,
729705539.52868,-0.748042,-0.590374,74.898728,0.002457,-0.00824,1.003311,-0.014694,0.035115,0.014721,86.123016,36.28627,-148.840836,,,
729705539.53201,-0.751264,-0.582009,74.902772,0.002457,-0.00824,1.003311,-0.014694,0.035115,0.014721,86.123016,36.28627,-148.840836,,,
729705539.53533,-0.758263,-0.575559,74.906929,-0.002441,-0.008652,0.999863,-0.027817,0.019992,0.014476,86.123016,36.28627,-148.840836,,,
729705539.538776,-0.758263,-0.575559,74.906929,-0.002441,-0.008652,0.999863,-0.027817,0.019992,0.014476,86.123016,36.28627,-148.840836,,,
729705539.542006,-0.765096,-0.570965,74.910856,-0.002441,-0.008652,0.999863,-0.027817,0.019992,0.014476,86.123016,36.28627,-148.840836,,,
729705539.545335,-0.774226,-0.567907,74.91485,-0.006531,-0.006866,1.000137,-0.030798,0.012151,0.012555,86.123016,36.28627,-148.840836,,,
729705539.548688,-0.774226,-0.567907,74.91485,-0.006531,-0.006866,1.000137,-0.030798,0.012151,0.012555,86.123016,36.28627,-148.840836,,,
729705539.55207,-0.782037,-0.565745,74.919139,-0.006531,-0.006866,1.000137,-0.030798,0.012151,0.012555,86.123016,36.28627,-148.840836,,,
729705539.555386,-0.790531,-0.563319,74.923764,-0.004639,-0.010925,1.00351,-0.023611,0.011474,0.015573,86.123016,36.28627,-148.840836,,,
729705539.558659,-0.790531,-0.563319,74.923764,-0.004639,-0.010925,1.00351,-0.023611,0.011474,0.015573,86.245377,36.357056,-148.896301,,,
729705539.562002,-0.796934,-0.561091,74.928955,-0.004639,-0.010925,1.00351,-0.023611,0.011474,0.015573,86.245377,36.357056,-148.896301,,,
729705539.56533,-0.801192,-0.557015,74.934673,-0.005219,-0.015991,1.009369,-0.004519,0.023836,0.02372,86.245377,36.357056,-148.896301,,,
729705539.56867,-0.801192,-0.557015,74.934673,-0.005219,-0.015991,1.009369,-0.004519,0.023836,0.02372,86.245377,36.357056,-148.896301,,,
729705539.572051,-0.801988,-0.551117,74.942159,-0.005219,-0.015991,1.009369,-0.004519,0.023836,0.02372,86.245377,36.357056,-148.896301,,,
729705539.575327,-0.799926,-0.542386,74.952286,-0.003738,-0.018829,1.014664,0.016554,0.039792,0.039975,86.245377,36.357056,-148.896301,,,
729705539.578733,-0.799926,-0.542386,74.952286,-0.003738,-0.018829,1.014664,0.016554,0.039792,0.039975,86.245377,36.357056,-148.896301,,,
729705539.581981,-0.793358,-0.530011,74.964546,-0.003738,-0.018829,1.014664,0.016554,0.039792,0.039975,86.245377,36.357056,-148.896301,,,
729705539.585323,-0.785717,-0.514974,74.978851,-0.001556,-0.01825,1.019165,0.032039,0.061572,0.055,86.245377,36.357056,-148.896301,,,
729705539.588721,-0.785717,-0.514974,74.978851,-0.001556,-0.01825,1.019165,0.032039,0.061572,0.055,86.245377,36.357056,-148.896301,,,
729705539.59205,-0.775784,-0.495849,74.995577,-0.001556,-0.01825,1.019165,0.032039,0.061572,0.055,86.245377,36.357056,-148.896301,,,
729705539.595319,-0.766398,-0.475339,75.014875,0.005844,-0.014679,1.012848,0.036452,0.079311,0.069769,86.245377,36.357056,-148.896301,,,
729705539.598698,-0.766398,-0.475339,75.014875,0.005844,-0.014679,1.012848,0.036452,0.079311,0.069769,86.245377,36.357056,-148.896301,,,
729705539.602002,-0.755711,-0.452066,75.035784,0.005844,-0.014679,1.012848,0.036452,0.079311,0.069769,86.141953,36.124039,-149.000717,,,
729705539.60538,-0.746601,-0.428608,75.056963,0.011581,-0.01059,1.008057,0.029887,0.085377,0.070421,86.141953,36.124039,-149.000717,,,
729705539.60868,-0.746601,-0.428608,75.056963,0.011581,-0.01059,1.008057,0.029887,0.085377,0.070421,86.141953,36.124039,-149.000717,,,
729705539.611989,-0.737807,-0.402744,75.078081,0.011581,-0.01059,1.008057,0.029887,0.085377,0.070421,86.141953,36.124039,-149.000717,,,
729705539.615318,-0.731316,-0.377218,75.098529,0.021774,-0.004623,1.001846,0.01889,0.094973,0.066145,86.141953,36.124039,-149.000717,,,
729705539.618736,-0.731316,-0.377218,75.098529,0.021774,-0.004623,1.001846,0.01889,0.094973,0.066145,86.141953,36.124039,-149.000717,,,
729705539.622044,-0.725516,-0.348608,75.118148,0.021774,-0.004623,1.001846,0.01889,0.094973,0.066145,86.141953,36.124039,-149.000717,,,
729705539.625324,-0.722216,-0.32347,75.136439,0.025314,-0.006897,1.002899,0.009501,0.084446,0.057646,86.141953,36.124039,-149.000717,,,
729705539.628679,-0.722216,-0.32347,75.136439,0.025314,-0.006897,1.002899,0.009501,0.084446,0.057646,86.141953,36.124039,-149.000717,,,
729705539.632057,-0.719449,-0.29777,75.15275,0.025314,-0.006897,1.002899,0.009501,0.084446,0.057646,86.141953,36.124039,-149.000717,,,
729705539.63532,-0.719196,-0.27764,75.167157,0.022995,-0.010223,0.992157,-0.003626,0.064367,0.044177,86.141953,36.124039,-149.000717,,,
729705539.638743,-0.719196,-0.27764,75.167157,0.022995,-0.010223,0.992157,-0.003626,0.064367,0.044177,86.141953,36.124039,-149.000717,,,
729705539.642002,-0.721322,-0.258846,75.179323,0.022995,-0.010223,0.992157,-0.003626,0.064367,0.044177,86.673386,36.138672,-148.954742,,,
729705539.645327,-0.725875,-0.246116,75.188708,0.024612,-0.009033,0.986923,-0.021418,0.037555,0.023008,86.673386,36.138672,-148.954742,,,
729705539.648686,-0.725875,-0.246116,75.188708,0.024612,-0.009033,0.986923,-0.021418,0.037555,0.023008,86.673386,36.138672,-148.954742,,,
729705539.651996,-0.733711,-0.236183,75.195077,0.024612,-0.009033,0.986923,-0.021418,0.037555,0.023008,86.673386,36.138672,-148.954742,,,
729705539.655363,-0.743102,-0.232359,75.198218,0.024246,-0.00766,0.983078,-0.038308,0.004207,2.5e-05,86.673386,36.138672,-148.954742,,,
729705539.65876,-0.743102,-0.232359,75.198218,0.024246,-0.00766,0.983078,-0.038308,0.004207,2.5e-05,86.673386,36.138672,-148.954742,,,
729705539.661999,-0.755895,-0.230707,75.198145,0.024246,-0.00766,0.983078,-0.038308,0.004207,2.5e-05,86.673386,36.138672,-148.954742,,,
729705539.665332,-0.768915,-0.233966,75.195048,0.025269,-0.007553,0.980423,-0.046304,-0.015164,-0.018053,86.673386,36.138672,-148.954742,,,
729705539.668681,-0.768915,-0.233966,75.195048,0.025269,-0.007553,0.980423,-0.046304,-0.015164,-0.018053,86.673386,36.138672,-148.954742,,,
729705539.67211,-0.783345,-0.23962,75.189229,0.025269,-0.007553,0.980423,-0.046304,-0.015164,-0.018053,86.673386,36.138672,-148.954742,,,
729705539.67534,-0.797163,-0.247261,75.180922,0.027512,-0.011673,0.984787,-0.047701,-0.021791,-0.034942,86.673386,36.138672,-148.954742,,,
729705539.678678,-0.797163,-0.247261,75.180922,0.027512,-0.011673,0.984787,-0.047701,-0.021791,-0.034942,86.673386,36.138672,-148.954742,,,
729705539.681992,-0.809738,-0.255881,75.171468,0.027512,-0.011673,0.984787,-0.047701,-0.021791,-0.034942,86.41301,36.352219,-148.577942,,,
729705539.685365,-0.821608,-0.263167,75.162035,0.022827,-0.021667,0.992203,-0.037064,-0.02218,-0.032246,86.41301,36.352219,-148.577942,,,
729705539.688718,-0.821608,-0.263167,75.162035,0.022827,-0.021667,0.992203,-0.037064,-0.02218,-0.032246,86.41301,36.352219,-148.577942,,,
729705539.692009,-0.830673,-0.27231,75.153311,0.022827,-0.021667,0.992203,-0.037064,-0.02218,-0.032246,86.41301,36.352219,-148.577942,,,
729705539.695365,-0.838709,-0.277229,75.146321,0.019958,-0.02832,1.000412,-0.02022,-0.009011,-0.020642,86.41301,36.352219,-148.577942,,,
729705539.698724,-0.838709,-0.277229,75.146321,0.019958,-0.02832,1.000412,-0.02022,-0.009011,-0.020642,86.41301,36.352219,-148.577942,,,
729705539.701998,-0.842752,-0.284446,75.141217,0.019958,-0.02832,1.000412,-0.02022,-0.009011,-0.020642,86.41301,36.352219,-148.577942,,,
729705539.705359,-0.8478,-0.285898,75.137389,0.019836,-0.029388,1.00235,-0.012217,0.0027,-0.012937,86.41301,36.352219,-148.577942,,,
729705539.708685,-0.8478,-0.285898,75.137389,0.019836,-0.029388,1.00235,-0.012217,0.0027,-0.012937,86.41301,36.352219,-148.577942,,,
729705539.712073,-0.85056,-0.289413,75.134296,0.019836,-0.029388,1.00235,-0.012217,0.0027,-0.012937,86.41301,36.352219,-148.577942,,,
729705539.715333,-0.85056,-0.286561,75.131119,0.019836,-0.029388,1.00235,-0.012217,0.0027,-0.012937,86.41301,36.352219,-148.577942,,,
729705539.718678,-0.854289,-0.286561,75.131119,0.019775,-0.025375,1.001175,-0.01756,0.020227,-0.012777,86.41301,36.352219,-148.577942,,,
729705539.72204,-0.858207,-0.285951,75.126611,0.019775,-0.025375,1.001175,-0.01756,0.020227,-0.012777,86.662903,36.254776,-149.108231,,,
729705539.725378,-0.864807,-0.280093,75.120713,0.019775,-0.025375,1.001175,-0.026681,0.023486,-0.024928,86.662903,36.254776,-149.108231,,,
729705539.728682,-0.864807,-0.280093,75.120713,0.015839,-0.018921,0.997925,-0.026681,0.023486,-0.024928,86.662903,36.254776,-149.108231,,,
729705539.73201,-0.871983,-0.278437,75.113271,0.015839,-0.018921,0.997925,-0.026681,0.023486,-0.024928,86.662903,36.254776,-149.108231,,,
729705539.735324,-0.871983,-0.278437,75.113271,0.015839,-0.018921,0.997925,-0.026681,0.023486,-0.035962,86.662903,36.254776,-149.108231,,,
729705539.738791,-0.882228,-0.273355,75.104731,0.008682,-0.018829,0.99408,-0.039726,0.019497,-0.035962,86.662903,36.254776,-149.108231,,,
729705539.741994,-0.892243,-0.273401,75.094763,0.008682,-0.018829,0.99408,-0.039726,0.019497,-0.035962,86.662903,36.254776,-149.108231,,,
729705539.745438,-0.904487,-0.269694,75.083654,0.008682,-0.018829,0.99408,-0.043501,0.015098,-0.039208,86.662903,36.254776,-149.108231,,,
729705539.74866,-0.904487,-0.269694,75.083654,0.002823,-0.018112,0.993439,-0.043501,0.015098,-0.039208,86.662903,36.254776,-149.108231,,,
729705539.752001,-0.915449,-0.2716,75.072332,0.002823,-0.018112,0.993439,-0.043501,0.015098,-0.039208,86.662903,36.254776,-149.108231,,,
729705539.755467,-0.927097,-0.268896,75.060752,0.002823,-0.018112,0.993439,-0.035444,0.011337,-0.042947,86.662903,36.254776,-149.108231,,,
729705539.758651,-0.927097,-0.268896,75.060752,-0.001709,-0.019348,0.995895,-0.035444,0.011337,-0.042947,86.662903,36.254776,-149.108231,,,
729705539.761993,-0.937179,-0.271455,75.049079,-0.001709,-0.019348,0.995895,-0.035444,0.011337,-0.042947,86.662903,36.254776,-149.108231,,,
729705539.765394,-0.937179,-0.271455,75.049079,-0.001709,-0.019348,0.995895,-0.028032,0.004564,-0.037531,86.562836,36.546112,-148.933578,,,
729705539.768666,-0.946077,-0.270829,75.038198,-0.004105,-0.02037,0.997009,-0.028032,0.004564,-0.037531,86.562836,36.546112,-148.933578,,,
729705539.772032,-0.95572,-0.273374,75.028064,-0.004105,-0.02037,0.997009,-0.028032,0.004564,-0.037531,86.562836,36.546112,-148.933578,,,
729705539.775343,-0.95572,-0.273374,75.028064,-0.004105,-0.02037,0.997009,-0.028032,0.004564,-0.037531,86.562836,36.546112,-148.933578,,,
729705539.77872,-0.962078,-0.27172,75.018837,-0.007233,-0.022308,0.999481,-0.020783,0.009879,-0.031055,86.562836,36.546112,-148.933578,,,
729705539.781985,-0.970783,-0.272767,75.010542,-0.007233,-0.022308,0.999481,-0.020783,0.009879,-0.031055,86.562836,36.546112,-148.933578,,,
729705539.785406,-0.970783,-0.272767,75.010542,-0.007233,-0.022308,0.999481,-0.020783,0.009879,-0.031055,86.562836,36.546112,-148.933578,,,
729705539.788711,-0.976041,-0.269712,75.003108,-0.007141,-0.018311,0.998093,-0.015749,0.016046,-0.02481,86.562836,36.546112,-148.933578,,,
729705539.791987,-0.983146,-0.269397,74.996223,-0.007141,-0.018311,0.998093,-0.015749,0.016046,-0.02481,86.562836,36.546112,-148.933578,,,
729705539.795409,-0.983146,-0.269397,74.996223,-0.007141,-0.018311,0.998093,-0.015749,0.016046,-0.02481,86.562836,36.546112,-148.933578,,,
729705539.798671,-0.987318,-0.265307,74.990208,-0.006638,-0.015549,0.998199,-0.011697,0.020767,-0.020124,86.562836,36.546112,-148.933578,,,
729705539.801999,-0.992062,-0.263295,74.984569,-0.006638,-0.015549,0.998199,-0.011697,0.020767,-0.020124,86.562836,36.546112,-148.933578,,,
729705539.805435,-0.992062,-0.263295,74.984569,-0.006638,-0.015549,0.998199,-0.011697,0.020767,-0.020124,86.455856,36.599442,-148.607788,,,
729705539.808648,-0.995448,-0.256975,74.979359,-0.004608,-0.015244,0.999634,-0.010799,0.027105,-0.017505,86.455856,36.599442,-148.607788,,,
729705539.812,-0.998131,-0.251823,74.974653,-0.004608,-0.015244,0.999634,-0.010799,0.027105,-0.017505,86.455856,36.599442,-148.607788,,,
729705539.81542,-0.998131,-0.251823,74.974653,-0.004608,-0.015244,0.999634,-0.010799,0.027105,-0.017505,86.455856,36.599442,-148.607788,,,
729705539.818657,-0.999667,-0.245396,74.970714,-0.009766,-0.014847,0.997543,-0.00288,0.024254,-0.013981,86.455856,36.599442,-148.607788,,,
729705539.822036,-1.000529,-0.239324,74.967584,-0.009766,-0.014847,0.997543,-0.00288,0.024254,-0.013981,86.455856,36.599442,-148.607788,,,
729705539.825404,-1.000529,-0.239324,74.967584,-0.009766,-0.014847,0.997543,-0.00288,0.024254,-0.013981,86.455856,36.599442,-148.607788,,,
729705539.828711,-0.999282,-0.234011,74.96536,-0.014114,-0.016022,0.999283,0.011824,0.017868,-0.005225,86.455856,36.599442,-148.607788,,,
729705539.83199,-0.995984,-0.22939,74.964427,-0.014114,-0.016022,0.999283,0.011824,0.017868,-0.005225,86.455856,36.599442,-148.607788,,,
729705539.835389,-0.995984,-0.22939,74.964427,-0.014114,-0.016022,0.999283,0.011824,0.017868,-0.005225,86.455856,36.599442,-148.607788,,,
729705539.838655,-0.990759,-0.225868,74.964818,-0.014603,-0.013962,1.002823,0.024423,0.01567,0.000662,86.455856,36.599442,-148.607788,,,
729705539.841994,-0.985039,-0.220817,74.965915,-0.014603,-0.013962,1.002823,0.024423,0.01567,0.000662,86.455856,36.599442,-148.607788,,,
729705539.845333,-0.985039,-0.220817,74.965915,-0.014603,-0.013962,1.002823,0.024423,0.01567,0.000662,86.415329,36.616837,-148.510666,,,
729705539.848662,-0.979083,-0.217989,74.967648,-0.012436,-0.012192,0.998779,0.016596,0.01127,0.003594,86.415329,36.616837,-148.510666,,,
729705539.851992,-0.975996,-0.214162,74.970237,-0.012436,-0.012192,0.998779,0.016596,0.01127,0.003594,86.415329,36.616837,-148.510666,,,
729705539.855532,-0.975996,-0.214162,74.973044,-0.012436,-0.012192,0.998779,0.016596,0.01127,0.003594,86.415329,36.616837,-148.510666,,,
729705539.858642,-0.97474,-0.213082,74.973044,-0.011154,-0.012466,0.992706,-0.002338,0.004615,0.011969,86.415329,36.616837,-148.510666,,,
729705539.862001,-0.977357,-0.210236,74.976493,-0.011154,-0.012466,0.992706,-0.002338,0.004615,0.011969,86.415329,36.616837,-148.510666,,,
729705539.865323,-0.977357,-0.210236,74.976493,-0.011154,-0.012466,0.992706,-0.002338,0.004615,0.011969,86.415329,36.616837,-148.510666,,,
729705539.868737,-0.981886,-0.209906,74.980583,-0.006866,-0.009094,0.988663,-0.024741,0.004182,0.011549,86.415329,36.616837,-148.510666,,,
729705539.872029,-0.989459,-0.207104,74.98417,-0.006866,-0.009094,0.988663,-0.024741,0.004182,0.011549,86.415329,36.616837,-148.510666,,,
729705539.875339,-0.989459,-0.207104,74.98417,-0.006866,-0.009094,0.988663,-0.024741,0.004182,0.011549,86.415329,36.616837,-148.510666,,,
729705539.878667,-0.999888,-0.20573,74.987038,-0.000961,-0.005936,0.9879,-0.042101,0.010684,0.009598,86.415329,36.616837,-148.510666,,,
729705539.881988,-1.011463,-0.201292,74.989635,-0.000961,-0.005936,0.9879,-0.042101,0.010684,0.009598,86.415329,36.616837,-148.510666,,,
729705539.885321,-1.011463,-0.201292,74.989635,-0.000961,-0.005936,0.9879,-0.042101,0.010684,0.009598,86.465485,36.515671,-148.541382,,,
729705539.888713,-1.023714,-0.198024,74.991798,0.002045,-0.009155,0.991562,-0.042231,0.012883,0.005781,86.465485,36.515671,-148.541382,,,
729705539.89199,-1.033907,-0.193268,74.993977,0.002045,-0.009155,0.991562,-0.042231,0.012883,0.005781,86.465485,36.515671,-148.541382,,,
729705539.895397,-1.033907,-0.193268,74.993977,0.002045,-0.009155,0.991562,-0.042231,0.012883,0.005781,86.465485,36.515671,-148.541382,,,
729705539.898671,-1.042961,-0.191547,74.996221,0.002914,-0.014526,0.991592,-0.024817,0.005946,0.008149,86.465485,36.515671,-148.541382,,,
729705539.901994,-1.049235,-0.187752,74.999032,0.002914,-0.014526,0.991592,-0.024817,0.005946,0.008149,86.465485,36.515671,-148.541382,,,
729705539.905377,-1.049235,-0.187752,74.999032,0.002914,-0.014526,0.991592,-0.024817,0.005946,0.008149,86.465485,36.515671,-148.541382,,,
729705539.908735,-1.053111,-0.18794,75.002957,-0.000885,-0.016586,0.995529,-0.004132,0.002951,0.015754,86.465485,36.515671,-148.541382,,,
729705539.911981,-1.053315,-0.184368,75.008245,-0.000885,-0.016586,0.995529,-0.004132,0.002951,0.015754,86.465485,36.515671,-148.541382,,,
729705539.915335,-1.053315,-0.184368,75.008245,-0.000885,-0.016586,0.995529,-0.004132,0.002951,0.015754,86.465485,36.515671,-148.541382,,,
729705539.918673,-1.051427,-0.184842,75.014421,-0.001648,-0.021164,0.999908,0.011313,0.002492,0.019973,86.465485,36.515671,-148.541382,,,
729705539.922033,-1.046443,-0.181968,75.021151,-0.001648,-0.021164,0.999908,0.011313,0.002492,0.019973,86.465485,36.515671,-148.541382,,,
729705539.92534,-1.046443,-0.181968,75.021151,-0.001648,-0.021164,0.999908,0.011313,0.002492,0.019973,86.465485,36.515671,-148.541382,,,
729705539.92867,-1.041683,-0.182406,75.028456,0.003555,-0.020126,0.996872,0.020594,0.003182,0.024707,86.340668,36.540359,-148.762436,,,
729705539.931989,-1.035497,-0.178194,75.035508,0.003555,-0.020126,0.996872,0.020594,0.003182,0.024707,86.340668,36.540359,-148.762436,,,
729705539.935404,-1.035497,-0.178194,75.035508,0.003555,-0.020126,0.996872,0.020594,0.003182,0.024707,86.340668,36.540359,-148.762436,,,
729705539.938702,-1.030912,-0.174223,75.041711,0.012802,-0.013992,0.999268,0.015561,0.025881,0.019046,86.340668,36.540359,-148.762436,,,
729705539.941818,-1.026102,-0.163714,75.047011,0.012802,-0.013992,0.999268,0.015561,0.025881,0.019046,86.340668,36.540359,-148.762436,,,
729705539.945344,-1.026102,-0.163714,75.047011,0.012802,-0.013992,0.999268,0.015561,0.025881,0.019046,86.340668,36.540359,-148.762436,,,
729705539.948731,-1.024417,-0.152196,75.050967,0.017044,-0.010544,0.998184,0.003277,0.049107,0.009773,86.340668,36.540359,-148.762436,,,
729705539.951981,-1.022141,-0.1365,75.054576,0.017044,-0.010544,0.998184,0.003277,0.049107,0.009773,86.340668,36.540359,-148.762436,,,
729705539.955381,-1.022141,-0.1365,75.054576,0.017044,-0.010544,0.998184,0.003277,0.049107,0.009773,86.340668,36.540359,-148.762436,,,
729705539.95867,-1.024539,-0.120704,75.057957,0.02005,-0.014221,0.992645,-0.013403,0.056985,0.011667,86.340668,36.540359,-148.762436,,,
729705539.96207,-1.026527,-0.104071,75.061114,0.02005,-0.014221,0.992645,-0.013403,0.056985,0.011667,86.340668,36.540359,-148.762436,,,
729705539.965361,-1.026527,-0.104071,75.061114,0.02005,-0.014221,0.992645,-0.013403,0.056985,0.011667,86.340668,36.540359,-148.762436,,,
729705539.968777,-1.032168,-0.087787,75.064129,0.021957,-0.017532,0.988419,-0.021644,0.061986,0.008825,86.652542,36.406891,-148.504822,,,
729705539.971993,-1.037691,-0.070945,75.0663,0.021957,-0.017532,0.988419,-0.021644,0.061986,0.008825,86.652542,36.406891,-148.504822,,,
729705539.975432,-1.037691,-0.070945,75.0663,0.021957,-0.017532,0.988419,-0.021644,0.061986,0.008825,86.652542,36.406891,-148.504822,,,
729705539.978687,-1.044086,-0.052768,75.067423,0.021866,-0.019089,0.990631,-0.021106,0.070217,0.000477,86.652542,36.406891,-148.504822,,,
729705539.981993,-1.049499,-0.034246,75.067178,0.021866,-0.019089,0.990631,-0.021106,0.070217,0.000477,86.652542,36.406891,-148.504822,,,
729705539.985429,-1.049499,-0.034246,75.067178,0.021866,-0.019089,0.990631,-0.021106,0.070217,0.000477,86.652542,36.406891,-148.504822,,,
729705539.98873,-1.05477,-0.015188,75.065529,0.017944,-0.016525,0.992523,-0.013861,0.072805,-0.010317,86.652542,36.406891,-148.504822,,,
729705539.992,-1.058378,0.004829,75.062797,0.017944,-0.016525,0.992523,-0.013861,0.072805,-0.010317,86.652542,36.406891,-148.504822,,,
729705539.995338,-1.058378,0.004829,75.062797,0.017944,-0.016525,0.992523,-0.013861,0.072805,-0.010317,86.652542,36.406891,-148.504822,,,
729705539.998675,-1.059731,0.025031,75.059341,0.013474,-0.014999,0.994064,0.001267,0.071202,-0.013029,86.652542,36.406891,-148.504822,,,
729705540.002087,-1.060241,0.044978,75.055594,0.013474,-0.014999,0.994064,0.001267,0.071202,-0.013029,86.652542,36.406891,-148.504822,,,
729705540.005363,-1.060241,0.044978,75.055594,0.013474,-0.014999,0.994064,0.001267,0.071202,-0.013029,86.652542,36.406891,-148.504822,,,
729705540.008625,-1.058798,0.064772,75.051782,0.007217,-0.014557,0.993469,0.010412,0.068741,-0.015361,86.652542,36.406891,-148.504822,,,
729705540.012076,-1.055628,0.082257,75.048252,0.007217,-0.014557,0.993469,0.010412,0.068741,-0.015361,86.966217,36.393768,-148.466141,,,
729705540.015362,-1.055628,0.082257,75.048252,0.007217,-0.014557,0.993469,0.010412,0.068741,-0.015361,86.966217,36.393768,-148.466141,,,
729705540.018677,-1.052406,0.10051,75.045316,0.002899,-0.01358,0.989655,0.008496,0.062383,-0.009984,86.966217,36.393768,-148.466141,,,
729705540.022124,-1.048432,0.11357,75.043212,0.002899,-0.01358,0.989655,0.008496,0.062383,-0.009984,86.966217,36.393768,-148.466141,,,
729705540.025379,-1.048432,0.11357,75.043212,0.002899,-0.01358,0.989655,0.008496,0.062383,-0.009984,86.966217,36.393768,-148.466141,,,
729705540.028729,-1.047439,0.128057,75.042532,-0.006378,-0.018372,0.985489,-0.004204,0.04635,0.001088,86.966217,36.393768,-148.466141,,,
729705540.031981,-1.047128,0.134914,75.043235,-0.006378,-0.018372,0.985489,-0.004204,0.04635,0.001088,86.966217,36.393768,-148.466141,,,
729705540.035358,-1.047128,0.134914,75.043235,-0.006378,-0.018372,0.985489,-0.004204,0.04635,0.001088,86.966217,36.393768,-148.466141,,,
729705540.038718,-1.051404,0.143436,75.044963,-0.009476,-0.022827,0.982666,-0.020564,0.025556,0.006078,86.966217,36.393768,-148.466141,,,
729705540.04198,-1.058556,0.145203,75.047084,-0.009476,-0.022827,0.982666,-0.020564,0.025556,0.006078,86.966217,36.393768,-148.466141,,,
729705540.045339,-1.058556,0.145203,75.047084,-0.009476,-0.022827,0.982666,-0.020564,0.025556,0.006078,86.966217,36.393768,-148.466141,,,
729705540.048689,-1.068895,0.151428,75.049343,-0.011719,-0.019699,0.983795,-0.040481,0.024703,0.002803,87.15242,36.410461,-148.801392,,,
729705540.051999,-1.081626,0.1533,75.050658,-0.011719,-0.019699,0.983795,-0.040481,0.024703,0.002803,87.15242,36.410461,-148.801392,,,
729705540.055376,-1.081626,0.1533,75.050658,-0.011719,-0.019699,0.983795,-0.040481,0.024703,0.002803,87.15242,36.410461,-148.801392,,,
729705540.058675,-1.096809,0.161521,75.050783,-0.008728,-0.016068,0.991409,-0.055851,0.034767,0.000665,87.15242,36.410461,-148.801392,,,
729705540.062003,-1.112767,0.165777,75.050575,-0.008728,-0.016068,0.991409,-0.055851,0.034767,0.000665,87.15242,36.410461,-148.801392,,,
729705540.065324,-1.112767,0.165777,75.050575,-0.008728,-0.016068,0.991409,-0.055851,0.034767,0.000665,87.15242,36.410461,-148.801392,,,
729705540.068673,-1.129471,0.175314,75.051701,-0.007675,-0.018143,0.992783,-0.058993,0.037173,0.008304,87.15242,36.410461,-148.801392,,,
729705540.072072,-1.145643,0.18135,75.05462,-0.007675,-0.018143,0.992783,-0.058993,0.037173,0.008304,87.15242,36.410461,-148.801392,,,
729705540.075322,-1.145643,0.18135,75.05462,-0.007675,-0.018143,0.992783,-0.058993,0.037173,0.008304,87.15242,36.410461,-148.801392,,,
729705540.078687,-1.161434,0.191854,75.059787,-0.012161,-0.024094,0.998886,-0.050865,0.038179,0.022588,87.15242,36.410461,-148.801392,,,
729705540.081987,-1.174969,0.198312,75.067363,-0.012161,-0.024094,0.998886,-0.050865,0.038179,0.022588,87.15242,36.410461,-148.801392,,,
729705540.085336,-1.174969,0.198312,75.067363,-0.012161,-0.024094,0.998886,-0.050865,0.038179,0.022588,87.15242,36.410461,-148.801392,,,
729705540.088703,-1.189093,0.20574,75.076721,-0.012299,-0.025955,0.998123,-0.048172,0.023651,0.031769,87.15242,36.410461,-148.801392,,,
729705540.091984,-1.20155,0.209146,75.086896,-0.012299,-0.025955,0.998123,-0.048172,0.023651,0.031769,87.226547,36.480652,-148.719147,,,
729705540.095341,-1.20155,0.209146,75.086896,-0.012299,-0.025955,0.998123,-0.048172,0.023651,0.031769,87.226547,36.480652,-148.719147,,,
729705540.098662,-1.215233,0.212481,75.096665,-0.01384,-0.020569,0.999268,-0.047788,0.010771,0.029595,87.226547,36.480652,-148.719147,,,
729705540.101852,-1.227925,0.214243,75.105003,-0.01384,-0.020569,0.999268,-0.047788,0.010771,0.029595,87.226547,36.480652,-148.719147,,,
729705540.10539,-1.227925,0.214243,75.105003,-0.01384,-0.020569,0.999268,-0.047788,0.010771,0.029595,87.226547,36.480652,-148.719147,,,
729705540.108663,-1.241867,0.215659,75.111746,-0.01384,-0.015488,1.003922,-0.049059,0.004948,0.017522,87.226547,36.480652,-148.719147,,,
729705540.111995,-1.25625,0.216896,75.116947,-0.01384,-0.015488,1.003922,-0.049059,0.004948,0.017522,87.226547,36.480652,-148.719147,,,
729705540.115387,-1.25625,0.216896,75.116947,-0.01384,-0.015488,1.003922,-0.049059,0.004948,0.017522,87.226547,36.480652,-148.719147,,,
729705540.118654,-1.270173,0.216476,75.12076,-0.013565,-0.013702,1.00676,-0.046629,0.00289,0.007405,87.226547,36.480652,-148.719147,,,
729705540.12204,-1.28393,0.217312,75.12384,-0.013565,-0.013702,1.00676,-0.046629,0.00289,0.007405,87.226547,36.480652,-148.719147,,,
729705540.12533,-1.28393,0.217312,75.12384,-0.013565,-0.013702,1.00676,-0.046629,0.00289,0.007405,87.226547,36.480652,-148.719147,,,
729705540.128721,-1.297447,0.215287,75.127439,-0.013657,-0.020157,1.008194,-0.043979,-0.005544,0.012438,87.226547,36.480652,-148.719147,,,
729705540.131982,-1.309375,0.213378,75.132167,-0.013657,-0.020157,1.008194,-0.043979,-0.005544,0.012438,87.174866,36.664734,-148.828033,,,
729705540.135333,-1.309375,0.213378,75.132167,-0.013657,-0.020157,1.008194,-0.043979,-0.005544,0.012438,87.174866,36.664734,-148.828033,,,
729705540.1387,-1.322184,0.209663,75.138722,-0.015121,-0.02533,1.008072,-0.040705,-0.009841,0.027558,87.174866,36.664734,-148.828033,,,
729705540.141985,-1.333173,0.206668,75.147682,-0.015121,-0.02533,1.008072,-0.040705,-0.009841,0.027558,87.174866,36.664734,-148.828033,,,
729705540.145351,-1.333173,0.206668,75.147682,-0.015121,-0.02533,1.008072,-0.040705,-0.009841,0.027558,87.174866,36.664734,-148.828033,,,
729705540.148682,-1.345372,0.203304,75.159047,-0.014023,-0.026642,1.013016,-0.038355,-0.009826,0.045834,87.174866,36.664734,-148.828033,,,
729705540.151993,-1.356817,0.201142,75.172949,-0.014023,-0.026642,1.013016,-0.038355,-0.009826,0.045834,87.174866,36.664734,-148.828033,,,
729705540.155466,-1.356817,0.201142,75.172949,-0.014023,-0.026642,1.013016,-0.038355,-0.009826,0.045834,87.174866,36.664734,-148.828033,,,
729705540.15866,-1.368166,0.197614,75.188607,-0.014648,-0.028534,1.016022,-0.035134,-0.008593,0.058157,87.174866,36.664734,-148.828033,,,
729705540.161989,-1.37934,0.197043,75.204739,-0.014648,-0.028534,1.016022,-0.035134,-0.008593,0.058157,87.174866,36.664734,-148.828033,,,
729705540.16532,-1.37934,0.197043,75.204739,-0.014648,-0.028534,1.016022,-0.035134,-0.008593,0.058157,87.174866,36.664734,-148.828033,,,
729705540.168711,-1.389075,0.196359,75.220835,-0.010605,-0.025787,1.022064,-0.029967,0.003781,0.051924,87.174866,36.664734,-148.828033,,,
729705540.172022,-1.397664,0.198887,75.236067,-0.010605,-0.025787,1.022064,-0.029967,0.003781,0.051924,87.146072,36.404633,-148.660797,,,
729705540.175326,-1.397664,0.198887,75.236067,-0.010605,-0.025787,1.022064,-0.029967,0.003781,0.051924,87.146072,36.404633,-148.660797,,,
729705540.178661,-1.404821,0.199901,75.249658,-0.012054,-0.028809,1.022766,-0.022799,0.004834,0.042337,87.146072,36.404633,-148.660797,,,
729705540.181988,-1.409565,0.202943,75.26183,-0.012054,-0.028809,1.022766,-0.022799,0.004834,0.042337,87.146072,36.404633,-148.660797,,,
729705540.185342,-1.409565,0.202943,75.26183,-0.012054,-0.028809,1.022766,-0.022799,0.004834,0.042337,87.146072,36.404633,-148.660797,,,
729705540.188721,-1.414327,0.202672,75.272424,-0.012558,-0.033127,1.017792,-0.011716,-0.002613,0.032768,87.146072,36.404633,-148.660797,,,
729705540.19198,-1.415651,0.203167,75.282374,-0.012558,-0.033127,1.017792,-0.011716,-0.002613,0.032768,87.146072,36.404633,-148.660797,,,
729705540.195137,-1.415651,0.203167,75.282374,-0.012558,-0.033127,1.017792,-0.011716,-0.002613,0.032768,87.146072,36.404633,-148.660797,,,
729705540.198688,-1.418177,0.199837,75.29237,-0.009399,-0.032547,1.014801,-0.002973,-0.014836,0.033989,87.146072,36.404633,-148.660797,,,
729705540.20199,-1.417042,0.19717,75.302541,-0.009399,-0.032547,1.014801,-0.002973,-0.014836,0.033989,87.146072,36.404633,-148.660797,,,
729705540.205376,-1.417042,0.19717,75.302541,-0.009399,-0.032547,1.014801,-0.002973,-0.014836,0.033989,87.146072,36.404633,-148.660797,,,
729705540.208742,-1.415107,0.191497,75.31198,-0.001312,-0.034943,1.016434,0.01607,-0.015283,0.030239,87.146072,36.404633,-148.660797,,,
729705540.212069,-1.410568,0.187321,75.320793,-0.001312,-0.034943,1.016434,0.01607,-0.015283,0.030239,87.246994,36.676407,-149.18251,,,
729705540.215334,-1.410568,0.187321,75.320793,-0.001312,-0.034943,1.016434,0.01607,-0.015283,0.030239,87.246994,36.676407,-149.18251,,,
729705540.218668,-1.404215,0.181432,75.32935,0.005676,-0.035828,1.015533,0.027965,-0.01778,0.02863,87.246994,36.676407,-149.18251,,,
729705540.222039,-1.39594,0.178661,75.337817,0.005676,-0.035828,1.015533,0.027965,-0.01778,0.02863,87.246994,36.676407,-149.18251,,,
729705540.225332,-1.39594,0.178661,75.337817,0.005676,-0.035828,1.015533,0.027965,-0.01778,0.02863,87.246994,36.676407,-149.18251,,,
729705540.228665,-1.38609,0.174149,75.346063,0.006271,-0.034424,1.012177,0.034137,-0.011375,0.025478,87.246994,36.676407,-149.18251,,,
729705540.231994,-1.37648,0.172628,75.354139,0.006271,-0.034424,1.012177,0.034137,-0.011375,0.025478,87.246994,36.676407,-149.18251,,,
729705540.235389,-1.37648,0.172628,75.354139,0.006271,-0.034424,1.012177,0.034137,-0.011375,0.025478,87.246994,36.676407,-149.18251,,,
729705540.238714,-1.366278,0.170492,75.361454,0.008865,-0.029144,1.009552,0.036385,-0.000311,0.022772,87.246994,36.676407,-149.18251,,,
729705540.241982,-1.35613,0.172263,75.368078,0.008865,-0.029144,1.009552,0.036385,-0.000311,0.022772,87.246994,36.676407,-149.18251,,,
729705540.245339,-1.35613,0.172263,75.368078,0.008865,-0.029144,1.009552,0.036385,-0.000311,0.022772,87.246994,36.676407,-149.18251,,,
729705540.248729,-1.345318,0.175061,75.374153,0.012024,-0.022781,1.004822,0.039331,0.023362,0.019944,87.246994,36.676407,-149.18251,,,
729705540.251988,-1.334504,0.182262,75.380061,0.012024,-0.022781,1.004822,0.039331,0.023362,0.019944,87.246994,36.676407,-149.18251,,,
729705540.25538,-1.334504,0.182262,75.380061,0.012024,-0.022781,1.004822,0.039331,0.023362,0.019944,87.097137,36.652786,-148.495758,,,
729705540.258656,-1.322866,0.191861,75.3857,0.013947,-0.01712,1.00061,0.040012,0.046144,0.016356,87.097137,36.652786,-148.495758,,,
729705540.26199,-1.312478,0.205512,75.390386,0.013947,-0.01712,1.00061,0.040012,0.046144,0.016356,87.097137,36.652786,-148.495758,,,
729705540.265367,-1.312478,0.205512,75.390386,0.013947,-0.01712,1.00061,0.040012,0.046144,0.016356,87.097137,36.652786,-148.495758,,,
729705540.268682,-1.300347,0.218076,75.394068,0.013962,-0.013672,0.988251,0.040385,0.04667,0.008024,87.097137,36.652786,-148.495758,,,
729705540.272054,-1.290921,0.231252,75.396819,0.013962,-0.013672,0.988251,0.040385,0.04667,0.008024,87.097137,36.652786,-148.495758,,,
