Time (sec),Pitch (deg),Roll (deg),Yaw(deg),X-Acceleration (g),Y-Acceleration (g),Z-Acceleration (g),Pitch Rate (deg/sec),Roll Rate (deg/sec),Yaw Rate (deg/sec),Magnetic Field in X direction (uT),Magnetic Field in Y direction (uT),Magnetic Field in Z Direction (uT),Latitude (deg),Longitude (deg),Altitude (m)
729716766.047828,-5.770656,1.853092,101.806932,-0.03038,-0.113007,1.002151,0.031497,-0.039671,-0.029742,89.810837,40.684143,-147.160736,,,
729716766.048496,-5.770654,1.853095,104.883783,-0.03038,-0.113007,1.002151,0.027762,-0.042081,-0.021805,89.810837,40.684143,-147.160736,,,
729716766.048871,-5.761913,1.840748,140.412617,-0.03038,-0.113007,1.002151,0.027762,-0.042081,-0.021805,89.810837,40.684143,-147.160736,,,
729716766.052354,-5.761915,1.840748,101.799414,-0.03038,-0.113007,1.002151,0.027762,-0.042081,-0.021805,89.810837,40.684143,-147.160736,,,
729716766.053757,-5.761913,1.840751,104.876265,-0.034409,-0.116318,0.992462,0.027762,-0.042081,-0.021805,89.810837,40.684143,-147.160736,,,
729716766.053968,-5.753472,1.82699,140.406277,-0.034409,-0.116318,0.992462,0.027762,-0.042081,-0.021805,89.810837,40.684143,-147.160736,,,
729716766.055459,-5.753474,1.82699,101.793073,-0.034409,-0.116318,0.992462,0.027762,-0.042081,-0.021805,89.810837,40.684143,-147.160736,,,
729716766.056763,-5.753472,1.826993,104.869924,-0.034409,-0.116318,0.992462,0.027762,-0.042081,-0.021805,89.65802,40.662933,-147.088211,,,
729716766.056921,-5.753472,1.82699,140.406277,-0.034409,-0.116318,0.992462,0.027762,-0.042081,-0.021805,89.65802,40.662933,-147.088211,,,
729716766.05822,-5.753474,1.82699,101.793073,-0.034409,-0.116318,0.992462,0.027762,-0.042081,-0.021805,89.65802,40.662933,-147.088211,,,
729716766.058987,-5.745998,1.813188,104.865018,-0.034409,-0.116318,0.992462,0.029106,-0.054908,-0.011076,89.65802,40.662933,-147.088211,,,
729716766.059143,-5.745999,1.813185,140.40137,-0.034409,-0.116318,0.992462,0.029106,-0.054908,-0.011076,89.65802,40.662933,-147.088211,,,
729716766.061844,-5.746,1.813185,101.788167,-0.034409,-0.116318,0.992462,0.029106,-0.054908,-0.011076,89.65802,40.662933,-147.088211,,,
729716766.062066,-5.745998,1.813188,104.865018,-0.034409,-0.116318,0.992462,0.029106,-0.054908,-0.011076,89.65802,40.662933,-147.088211,,,
729716766.062204,-5.745999,1.813185,140.40137,-0.034409,-0.116318,0.992462,0.029106,-0.054908,-0.011076,89.65802,40.662933,-147.088211,,,
729716766.06551,-5.737785,1.79717,101.784858,-0.035049,-0.114975,0.987717,0.029106,-0.054908,-0.011076,89.65802,40.662933,-147.088211,,,
729716766.066618,-5.737783,1.797173,104.861709,-0.035049,-0.114975,0.987717,0.029106,-0.054908,-0.011076,89.65802,40.662933,-147.088211,,,
729716766.066767,-5.737783,1.79717,140.398059,-0.035049,-0.114975,0.987717,0.029106,-0.054908,-0.011076,89.65802,40.662933,-147.088211,,,
729716766.06775,-5.737785,1.79717,101.784858,-0.035049,-0.114975,0.987717,0.029106,-0.054908,-0.011076,89.65802,40.662933,-147.088211,,,
729716766.069602,-5.737783,1.78245,104.859958,-0.035049,-0.114975,0.987717,0.02945,-0.041624,0.000802,89.65802,40.662933,-147.088211,,,
729716766.069812,-5.730285,1.782447,140.396313,-0.035049,-0.114975,0.987717,0.02945,-0.041624,0.000802,89.65802,40.662933,-147.088211,,,
729716766.072738,-5.730286,1.782447,101.783107,-0.035049,-0.114975,0.987717,0.02945,-0.041624,0.000802,89.65802,40.662933,-147.088211,,,
729716766.073468,-5.730285,1.78245,104.859958,-0.033127,-0.11322,0.986923,0.02945,-0.041624,0.000802,89.65802,40.662933,-147.088211,,,
729716766.073611,-5.722023,1.769175,140.395575,-0.033127,-0.11322,0.986923,0.02945,-0.041624,0.000802,89.65802,40.662933,-147.088211,,,
729716766.075054,-5.722024,1.769175,101.78237,-0.033127,-0.11322,0.986923,0.02945,-0.041624,0.000802,89.65802,40.662933,-147.088211,,,
729716766.075731,-5.722022,1.769178,104.859221,-0.033127,-0.11322,0.986923,0.02945,-0.041624,0.000802,89.65802,40.662933,-147.088211,,,
729716766.075893,-5.722023,1.769175,140.395575,-0.033127,-0.11322,0.986923,0.02945,-0.041624,0.000802,89.65802,40.662933,-147.088211,,,
729716766.077961,-5.722024,1.769175,101.78237,-0.033127,-0.11322,0.986923,0.02945,-0.041624,0.000802,89.65802,40.662933,-147.088211,,,
729716766.07823,-5.722022,1.769178,104.859221,-0.033127,-0.11322,0.986923,0.02945,-0.041624,0.000802,89.65802,40.662933,-147.088211,,,
729716766.078829,-5.714684,1.762534,140.396173,-0.033127,-0.11322,0.986923,0.025199,-0.003312,0.002554,89.65802,40.662933,-147.088211,,,
729716766.081945,-5.714686,1.762533,101.782968,-0.033127,-0.11322,0.986923,0.025199,-0.003312,0.002554,89.65802,40.662933,-147.088211,,,
729716766.082771,-5.714684,1.762536,104.859819,-0.033127,-0.11322,0.986923,0.025199,-0.003312,0.002554,89.65802,40.662933,-147.088211,,,
729716766.082907,-5.714684,1.762534,140.396173,-0.033127,-0.11322,0.986923,0.025199,-0.003312,0.002554,89.65802,40.662933,-147.088211,,,
729716766.084686,-5.707531,1.759757,101.784215,-0.028183,-0.110291,0.995926,0.025199,-0.003312,0.002554,89.65802,40.662933,-147.088211,,,
729716766.085082,-5.707529,1.75976,104.861066,-0.028183,-0.110291,0.995926,0.025199,-0.003312,0.002554,89.65802,40.662933,-147.088211,,,
729716766.085494,-5.70753,1.759757,140.397421,-0.028183,-0.110291,0.995926,0.025199,-0.003312,0.002554,89.65802,40.662933,-147.088211,,,
729716766.087946,-5.707531,1.759757,101.784215,-0.028183,-0.110291,0.995926,0.025199,-0.003312,0.002554,89.65802,40.662933,-147.088211,,,
729716766.088225,-5.707529,1.75976,104.861066,-0.028183,-0.110291,0.995926,0.025199,-0.003312,0.002554,89.65802,40.662933,-147.088211,,,
729716766.088827,-5.701531,1.762354,140.399117,-0.028183,-0.110291,0.995926,0.029628,0.01944,0.003449,89.65802,40.662933,-147.088211,,,
729716766.093026,-5.701532,1.762353,101.785911,-0.028183,-0.110291,0.995926,0.029628,0.01944,0.003449,89.65802,40.662933,-147.088211,,,
729716766.09514,-5.693514,1.765803,104.863947,-0.025909,-0.109039,0.989838,0.029628,0.01944,0.003449,89.65802,40.662933,-147.088211,,,
729716766.095312,-5.693514,1.7658,140.400302,-0.025909,-0.109039,0.989838,0.029628,0.01944,0.003449,89.65802,40.662933,-147.088211,,,
729716766.096155,-5.693516,1.7658,101.787096,-0.025909,-0.109039,0.989838,0.029628,0.01944,0.003449,89.65802,40.662933,-147.088211,,,
729716766.098356,-5.693516,1.7658,101.787096,-0.025909,-0.109039,0.989838,0.029628,0.01944,0.003449,89.851227,40.710632,-146.959732,,,
729716766.100402,-5.683897,1.772085,104.864446,-0.025909,-0.109039,0.989838,0.044899,0.026683,-0.001551,89.851227,40.710632,-146.959732,,,
729716766.100598,-5.683897,1.772082,140.4008,-0.025909,-0.109039,0.989838,0.044899,0.026683,-0.001551,89.851227,40.710632,-146.959732,,,
729716766.10233,-5.683898,1.772082,101.787595,-0.025909,-0.109039,0.989838,0.044899,0.026683,-0.001551,89.851227,40.710632,-146.959732,,,
729716766.102583,-5.683897,1.772085,104.864446,-0.025909,-0.109039,0.989838,0.044899,0.026683,-0.001551,89.851227,40.710632,-146.959732,,,
729716766.102702,-5.683897,1.772082,140.4008,-0.025909,-0.109039,0.989838,0.044899,0.026683,-0.001551,89.851227,40.710632,-146.959732,,,
729716766.105046,-5.671596,1.778862,101.787673,-0.02916,-0.108643,0.989471,0.044899,0.026683,-0.001551,89.851227,40.710632,-146.959732,,,
729716766.105734,-5.671594,1.778865,104.864524,-0.02916,-0.108643,0.989471,0.044899,0.026683,-0.001551,89.851227,40.710632,-146.959732,,,
729716766.105894,-5.671594,1.778862,140.400877,-0.02916,-0.108643,0.989471,0.044899,0.026683,-0.001551,89.851227,40.710632,-146.959732,,,
729716766.1079,-5.671596,1.778862,101.787673,-0.02916,-0.108643,0.989471,0.044899,0.026683,-0.001551,89.851227,40.710632,-146.959732,,,
729716766.109424,-5.671594,1.778865,104.864524,-0.02916,-0.108643,0.989471,0.050059,0.006307,0.007166,89.851227,40.710632,-146.959732,,,
729716766.109619,-5.659804,1.783358,140.40143,-0.02916,-0.108643,0.989471,0.050059,0.006307,0.007166,89.851227,40.710632,-146.959732,,,
729716766.112601,-5.659805,1.783358,101.788227,-0.02916,-0.108643,0.989471,0.050059,0.006307,0.007166,89.851227,40.710632,-146.959732,,,
729716766.113623,-5.659803,1.783361,104.865078,-0.037262,-0.108932,0.984024,0.050059,0.006307,0.007166,89.851227,40.710632,-146.959732,,,
729716766.113772,-5.64677,1.785324,140.403389,-0.037262,-0.108932,0.984024,0.050059,0.006307,0.007166,89.851227,40.710632,-146.959732,,,
729716766.115154,-5.646771,1.785323,101.790186,-0.037262,-0.108932,0.984024,0.050059,0.006307,0.007166,89.851227,40.710632,-146.959732,,,
729716766.115841,-5.64677,1.785327,104.867037,-0.037262,-0.108932,0.984024,0.050059,0.006307,0.007166,89.851227,40.710632,-146.959732,,,
729716766.115994,-5.64677,1.785324,140.403389,-0.037262,-0.108932,0.984024,0.050059,0.006307,0.007166,89.851227,40.710632,-146.959732,,,
729716766.117889,-5.646771,1.785323,101.790186,-0.037262,-0.108932,0.984024,0.050059,0.006307,0.007166,89.851227,40.710632,-146.959732,,,
729716766.118197,-5.64677,1.785327,104.867037,-0.037262,-0.108932,0.984024,0.050059,0.006307,0.007166,89.851227,40.710632,-146.959732,,,
729716766.118828,-5.637003,1.784393,140.406114,-0.037262,-0.108932,0.984024,0.024787,-0.004956,0.007439,89.851227,40.710632,-146.959732,,,
729716766.122705,-5.637004,1.784393,101.792911,-0.037262,-0.108932,0.984024,0.024787,-0.004956,0.007439,89.851227,40.710632,-146.959732,,,
729716766.124534,-5.637003,1.784396,104.869762,-0.037735,-0.104752,0.976257,0.024787,-0.004956,0.007439,89.851227,40.710632,-146.959732,,,
729716766.124711,-5.628825,1.781917,140.408874,-0.037735,-0.104752,0.976257,0.024787,-0.004956,0.007439,89.851227,40.710632,-146.959732,,,
729716766.125463,-5.628827,1.781917,101.795671,-0.037735,-0.104752,0.976257,0.024787,-0.004956,0.007439,89.851227,40.710632,-146.959732,,,
729716766.125891,-5.628825,1.78192,104.872522,-0.037735,-0.104752,0.976257,0.024787,-0.004956,0.007439,89.851227,40.710632,-146.959732,,,
729716766.126051,-5.628825,1.781917,140.408874,-0.037735,-0.104752,0.976257,0.024787,-0.004956,0.007439,89.851227,40.710632,-146.959732,,,
729716766.127944,-5.628827,1.781917,101.795671,-0.037735,-0.104752,0.976257,0.024787,-0.004956,0.007439,89.851227,40.710632,-146.959732,,,
729716766.128239,-5.628825,1.78192,104.872522,-0.037735,-0.104752,0.976257,0.024787,-0.004956,0.007439,89.851227,40.710632,-146.959732,,,
729716766.128838,-5.627181,1.779328,140.410748,-0.037735,-0.104752,0.976257,-0.004704,-0.008301,-0.003719,89.851227,40.710632,-146.959732,,,
729716766.13306,-5.627183,1.779327,101.797544,-0.037735,-0.104752,0.976257,-0.004704,-0.008301,-0.003719,89.851227,40.710632,-146.959732,,,
729716766.13495,-5.627862,1.775808,104.874059,-0.037735,-0.104752,0.976257,-0.004704,-0.008301,-0.003719,89.851227,40.710632,-146.959732,,,
729716766.135119,-5.627863,1.775806,140.410412,-0.026733,-0.095673,0.974472,-0.004704,-0.008301,-0.003719,89.851227,40.710632,-146.959732,,,
729716766.135668,-5.627864,1.775805,101.797208,-0.026733,-0.095673,0.974472,-0.004704,-0.008301,-0.003719,89.851227,40.710632,-146.959732,,,
729716766.136049,-5.627863,1.775806,140.410412,-0.026733,-0.095673,0.974472,-0.004704,-0.008301,-0.003719,89.851227,40.710632,-146.959732,,,
729716766.137879,-5.627864,1.775805,101.797208,-0.026733,-0.095673,0.974472,-0.004704,-0.008301,-0.003719,89.851227,40.710632,-146.959732,,,
729716766.138969,-5.627862,1.775808,104.874059,-0.026733,-0.095673,0.974472,-0.01386,-0.015604,-0.02036,89.915237,40.393448,-147.318344,,,
729716766.1391,-5.634011,1.772228,140.407729,-0.026733,-0.095673,0.974472,-0.01386,-0.015604,-0.02036,89.915237,40.393448,-147.318344,,,
729716766.14209,-5.634012,1.772228,101.794526,-0.026733,-0.095673,0.974472,-0.01386,-0.015604,-0.02036,89.915237,40.393448,-147.318344,,,
729716766.142418,-5.634011,1.772231,104.871377,-0.026733,-0.095673,0.974472,-0.01386,-0.015604,-0.02036,89.915237,40.393448,-147.318344,,,
729716766.142507,-5.634011,1.772228,140.407729,-0.026733,-0.095673,0.974472,-0.01386,-0.015604,-0.02036,89.915237,40.393448,-147.318344,,,
729716766.145293,-5.638674,1.766736,101.78993,-0.022385,-0.090805,0.975586,-0.01386,-0.015604,-0.02036,89.915237,40.393448,-147.318344,,,
729716766.146204,-5.638672,1.766739,104.866781,-0.022385,-0.090805,0.975586,-0.01386,-0.015604,-0.02036,89.915237,40.393448,-147.318344,,,
729716766.146347,-5.638672,1.766736,140.403133,-0.022385,-0.090805,0.975586,-0.01386,-0.015604,-0.02036,89.915237,40.393448,-147.318344,,,
729716766.147822,-5.638674,1.766736,101.78993,-0.022385,-0.090805,0.975586,-0.01386,-0.015604,-0.02036,89.915237,40.393448,-147.318344,,,
729716766.148209,-5.638672,1.766739,104.866781,-0.022385,-0.090805,0.975586,-0.01386,-0.015604,-0.02036,89.915237,40.393448,-147.318344,,,
729716766.14883,-5.645895,1.760511,140.397357,-0.022385,-0.090805,0.975586,-0.017347,-0.017761,-0.025672,89.915237,40.393448,-147.318344,,,
729716766.152184,-5.645897,1.760511,101.784153,-0.022385,-0.090805,0.975586,-0.017347,-0.017761,-0.025672,89.915237,40.393448,-147.318344,,,
729716766.153393,-5.645895,1.760514,104.861004,-0.022385,-0.090805,0.975586,-0.017347,-0.017761,-0.025672,89.915237,40.393448,-147.318344,,,
729716766.153581,-5.650978,1.753861,140.390661,-0.027908,-0.091522,0.983078,-0.017347,-0.017761,-0.025672,89.915237,40.393448,-147.318344,,,
729716766.15489,-5.65098,1.753861,101.777457,-0.027908,-0.091522,0.983078,-0.017347,-0.017761,-0.025672,89.915237,40.393448,-147.318344,,,
729716766.155684,-5.650978,1.753864,104.854308,-0.027908,-0.091522,0.983078,-0.017347,-0.017761,-0.025672,89.915237,40.393448,-147.318344,,,
729716766.155847,-5.650978,1.753861,140.390661,-0.027908,-0.091522,0.983078,-0.017347,-0.017761,-0.025672,89.915237,40.393448,-147.318344,,,
729716766.157891,-5.65098,1.753861,101.777457,-0.027908,-0.091522,0.983078,-0.017347,-0.017761,-0.025672,89.915237,40.393448,-147.318344,,,
729716766.158169,-5.650978,1.753864,104.854308,-0.027908,-0.091522,0.983078,-0.017347,-0.017761,-0.025672,89.915237,40.393448,-147.318344,,,
729716766.158837,-5.658135,1.746899,140.383859,-0.027908,-0.091522,0.983078,-0.021788,-0.021333,-0.022742,89.915237,40.393448,-147.318344,,,
729716766.161916,-5.658136,1.746898,101.770655,-0.027908,-0.091522,0.983078,-0.021788,-0.021333,-0.022742,89.915237,40.393448,-147.318344,,,
729716766.162537,-5.658135,1.746901,104.847506,-0.027908,-0.091522,0.983078,-0.021788,-0.021333,-0.022742,89.915237,40.393448,-147.318344,,,
729716766.162683,-5.658135,1.746899,140.383859,-0.027908,-0.091522,0.983078,-0.021788,-0.021333,-0.022742,89.915237,40.393448,-147.318344,,,
729716766.164951,-5.66479,1.739398,101.764625,-0.028534,-0.093338,0.982071,-0.021788,-0.021333,-0.022742,89.915237,40.393448,-147.318344,,,
729716766.165561,-5.664788,1.739401,104.841476,-0.028534,-0.093338,0.982071,-0.021788,-0.021333,-0.022742,89.915237,40.393448,-147.318344,,,
729716766.165715,-5.664788,1.739398,140.37783,-0.028534,-0.093338,0.982071,-0.021788,-0.021333,-0.022742,89.915237,40.393448,-147.318344,,,
729716766.167916,-5.66479,1.739398,101.764625,-0.028534,-0.093338,0.982071,-0.021788,-0.021333,-0.022742,89.915237,40.393448,-147.318344,,,
729716766.168164,-5.664788,1.739401,104.841476,-0.028534,-0.093338,0.982071,-0.021788,-0.021333,-0.022742,89.915237,40.393448,-147.318344,,,
729716766.168836,-5.674105,1.731083,140.373157,-0.028534,-0.093338,0.982071,-0.029266,-0.023132,-0.013039,89.915237,40.393448,-147.318344,,,
729716766.172354,-5.674106,1.731083,101.759953,-0.028534,-0.093338,0.982071,-0.029266,-0.023132,-0.013039,89.915237,40.393448,-147.318344,,,
729716766.173811,-5.674104,1.731086,104.836804,-0.028534,-0.093338,0.982071,-0.029266,-0.023132,-0.013039,89.915237,40.393448,-147.318344,,,
729716766.174021,-5.683004,1.723538,140.369797,-0.023346,-0.096024,0.978912,-0.029266,-0.023132,-0.013039,89.915237,40.393448,-147.318344,,,
729716766.175114,-5.683005,1.723538,101.756594,-0.023346,-0.096024,0.978912,-0.029266,-0.023132,-0.013039,89.915237,40.393448,-147.318344,,,
729716766.176222,-5.683003,1.723541,104.833445,-0.023346,-0.096024,0.978912,-0.029266,-0.023132,-0.013039,89.915237,40.393448,-147.318344,,,
729716766.176384,-5.683004,1.723538,140.369797,-0.023346,-0.096024,0.978912,-0.029266,-0.023132,-0.013039,89.915237,40.393448,-147.318344,,,
729716766.177884,-5.683005,1.723538,101.756594,-0.023346,-0.096024,0.978912,-0.029266,-0.023132,-0.013039,89.915237,40.393448,-147.318344,,,
729716766.178185,-5.683003,1.723541,104.833445,-0.023346,-0.096024,0.978912,-0.029266,-0.023132,-0.013039,89.915237,40.393448,-147.318344,,,
729716766.178916,-5.694397,1.715769,140.367484,-0.023346,-0.096024,0.978912,-0.036446,-0.01801,-0.001883,89.802872,40.647018,-147.100616,,,
729716766.182397,-5.694399,1.715768,101.75428,-0.023346,-0.096024,0.978912,-0.036446,-0.01801,-0.001883,89.802872,40.647018,-147.100616,,,
729716766.183661,-5.694397,1.715772,104.831131,-0.023346,-0.096024,0.978912,-0.036446,-0.01801,-0.001883,89.802872,40.647018,-147.100616,,,
729716766.183815,-5.705236,1.709099,140.366798,-0.018143,-0.099411,0.979828,-0.036446,-0.01801,-0.001883,89.802872,40.647018,-147.100616,,,
729716766.184845,-5.705238,1.709099,101.753596,-0.018143,-0.099411,0.979828,-0.036446,-0.01801,-0.001883,89.802872,40.647018,-147.100616,,,
729716766.185516,-5.705236,1.709102,104.830447,-0.018143,-0.099411,0.979828,-0.036446,-0.01801,-0.001883,89.802872,40.647018,-147.100616,,,
729716766.18568,-5.705236,1.709099,140.366798,-0.018143,-0.099411,0.979828,-0.036446,-0.01801,-0.001883,89.802872,40.647018,-147.100616,,,
729716766.187919,-5.705238,1.709099,101.753596,-0.018143,-0.099411,0.979828,-0.036446,-0.01801,-0.001883,89.802872,40.647018,-147.100616,,,
729716766.18816,-5.705236,1.709102,104.830447,-0.018143,-0.099411,0.979828,-0.036446,-0.01801,-0.001883,89.802872,40.647018,-147.100616,,,
729716766.188872,-5.717558,1.704239,140.367395,-0.018143,-0.099411,0.979828,-0.037521,-0.01398,0.000218,89.802872,40.647018,-147.100616,,,
729716766.192794,-5.717559,1.704239,101.754194,-0.018143,-0.099411,0.979828,-0.037521,-0.01398,0.000218,89.802872,40.647018,-147.100616,,,
729716766.194694,-5.717557,1.704242,104.831044,-0.020218,-0.09581,0.989441,-0.037521,-0.01398,0.000218,89.802872,40.647018,-147.100616,,,
729716766.194867,-5.728643,1.698911,140.368487,-0.020218,-0.09581,0.989441,-0.037521,-0.01398,0.000218,89.802872,40.647018,-147.100616,,,
729716766.195658,-5.728644,1.69891,101.755285,-0.020218,-0.09581,0.989441,-0.037521,-0.01398,0.000218,89.802872,40.647018,-147.100616,,,
729716766.195835,-5.728643,1.698911,140.368487,-0.020218,-0.09581,0.989441,-0.037521,-0.01398,0.000218,89.802872,40.647018,-147.100616,,,
729716766.197916,-5.728644,1.69891,101.755285,-0.020218,-0.09581,0.989441,-0.037521,-0.01398,0.000218,89.802872,40.647018,-147.100616,,,
729716766.198475,-5.728642,1.698913,104.832135,-0.020218,-0.09581,0.989441,-0.037521,-0.01398,0.000218,89.802872,40.647018,-147.100616,,,
729716766.198842,-5.741706,1.696249,140.369497,-0.020218,-0.09581,0.989441,-0.047972,-0.004997,-0.005785,89.802872,40.647018,-147.100616,,,
729716766.202663,-5.741707,1.696249,101.756294,-0.020218,-0.09581,0.989441,-0.047972,-0.004997,-0.005785,89.802872,40.647018,-147.100616,,,
729716766.204186,-5.741705,1.696252,104.833145,-0.020218,-0.09581,0.989441,-0.047972,-0.004997,-0.005785,89.802872,40.647018,-147.100616,,,
729716766.204299,-5.754897,1.69353,140.369279,-0.016724,-0.092224,0.991318,-0.047972,-0.004997,-0.005785,89.802872,40.647018,-147.100616,,,
729716766.204887,-5.754898,1.69353,101.756077,-0.016724,-0.092224,0.991318,-0.047972,-0.004997,-0.005785,89.802872,40.647018,-147.100616,,,
729716766.205458,-5.754897,1.693533,104.832928,-0.016724,-0.092224,0.991318,-0.047972,-0.004997,-0.005785,89.802872,40.647018,-147.100616,,,
729716766.205567,-5.754897,1.69353,140.369279,-0.016724,-0.092224,0.991318,-0.047972,-0.004997,-0.005785,89.802872,40.647018,-147.100616,,,
729716766.207921,-5.754898,1.69353,101.756077,-0.016724,-0.092224,0.991318,-0.047972,-0.004997,-0.005785,89.802872,40.647018,-147.100616,,,
729716766.208168,-5.754897,1.693533,104.832928,-0.016724,-0.092224,0.991318,-0.047972,-0.004997,-0.005785,89.802872,40.647018,-147.100616,,,
729716766.20884,-5.769269,1.691974,140.36719,-0.016724,-0.092224,0.991318,-0.048238,0.002658,-0.022291,89.802872,40.647018,-147.100616,,,
729716766.212656,-5.769271,1.691973,101.753988,-0.016724,-0.092224,0.991318,-0.048238,0.002658,-0.022291,89.802872,40.647018,-147.100616,,,
729716766.213995,-5.769269,1.691977,104.830839,-0.016724,-0.092224,0.991318,-0.048238,0.002658,-0.022291,89.802872,40.647018,-147.100616,,,
729716766.2141,-5.783661,1.691388,140.362651,-0.010391,-0.088913,0.990036,-0.048238,0.002658,-0.022291,89.802872,40.647018,-147.100616,,,
729716766.214557,-5.783663,1.691387,101.74945,-0.010391,-0.088913,0.990036,-0.048238,0.002658,-0.022291,89.802872,40.647018,-147.100616,,,
729716766.215112,-5.783661,1.69139,104.826301,-0.010391,-0.088913,0.990036,-0.048238,0.002658,-0.022291,89.802872,40.647018,-147.100616,,,
729716766.215468,-5.783661,1.691388,140.362651,-0.010391,-0.088913,0.990036,-0.048238,0.002658,-0.022291,89.802872,40.647018,-147.100616,,,
729716766.217953,-5.783663,1.691387,101.74945,-0.010391,-0.088913,0.990036,-0.048238,0.002658,-0.022291,89.802872,40.647018,-147.100616,,,
729716766.218174,-5.783661,1.69139,104.826301,-0.010391,-0.088913,0.990036,-0.048238,0.002658,-0.022291,89.802872,40.647018,-147.100616,,,
729716766.218837,-5.795503,1.689818,140.355839,-0.010391,-0.088913,0.990036,-0.029793,-0.000571,-0.029883,89.802872,40.647018,-147.100616,,,
729716766.223272,-5.795505,1.689818,101.742637,-0.010391,-0.088913,0.990036,-0.029793,-0.000571,-0.029883,89.634827,40.696609,-147.181168,,,
729716766.225102,-5.795503,1.687801,104.811579,-0.016525,-0.093979,0.995895,-0.029793,-0.000571,-0.029883,89.634827,40.696609,-147.181168,,,
729716766.225229,-5.805366,1.687798,140.347931,-0.016525,-0.093979,0.995895,-0.029793,-0.000571,-0.029883,89.634827,40.696609,-147.181168,,,
729716766.225848,-5.805367,1.687797,101.734729,-0.016525,-0.093979,0.995895,-0.029793,-0.000571,-0.029883,89.634827,40.696609,-147.181168,,,
729716766.225963,-5.805366,1.687798,140.347931,-0.016525,-0.093979,0.995895,-0.029793,-0.000571,-0.029883,89.634827,40.696609,-147.181168,,,
729716766.227915,-5.805367,1.687797,101.734729,-0.016525,-0.093979,0.995895,-0.029793,-0.000571,-0.029883,89.634827,40.696609,-147.181168,,,
729716766.2283,-5.805366,1.687801,104.811579,-0.016525,-0.093979,0.995895,-0.029793,-0.000571,-0.029883,89.634827,40.696609,-147.181168,,,
729716766.228811,-5.810825,1.68321,140.340056,-0.016525,-0.093979,0.995895,-0.01426,-0.023525,-0.027657,89.634827,40.696609,-147.181168,,,
729716766.231656,-5.810827,1.68321,101.726853,-0.016525,-0.093979,0.995895,-0.01426,-0.023525,-0.027657,89.634827,40.696609,-147.181168,,,
729716766.232287,-5.810825,1.683213,104.803704,-0.016525,-0.093979,0.995895,-0.01426,-0.023525,-0.027657,89.634827,40.696609,-147.181168,,,
729716766.232398,-5.810825,1.68321,140.340056,-0.016525,-0.093979,0.995895,-0.01426,-0.023525,-0.027657,89.634827,40.696609,-147.181168,,,
729716766.235011,-5.815441,1.67577,101.719407,-0.027512,-0.099548,0.997055,-0.01426,-0.023525,-0.027657,89.634827,40.696609,-147.181168,,,
729716766.235544,-5.815439,1.675774,104.796258,-0.027512,-0.099548,0.997055,-0.01426,-0.023525,-0.027657,89.634827,40.696609,-147.181168,,,
729716766.235652,-5.81544,1.675771,140.332611,-0.027512,-0.099548,0.997055,-0.01426,-0.023525,-0.027657,89.634827,40.696609,-147.181168,,,
729716766.237927,-5.815441,1.67577,101.719407,-0.027512,-0.099548,0.997055,-0.01426,-0.023525,-0.027657,89.634827,40.696609,-147.181168,,,
729716766.23816,-5.815439,1.675774,104.796258,-0.027512,-0.099548,0.997055,-0.01426,-0.023525,-0.027657,89.634827,40.696609,-147.181168,,,
729716766.238836,-5.817449,1.665666,140.326008,-0.027512,-0.099548,0.997055,-0.00428,-0.036821,-0.021002,89.634827,40.696609,-147.181168,,,
729716766.24215,-5.817451,1.665666,101.712805,-0.027512,-0.099548,0.997055,-0.00428,-0.036821,-0.021002,89.634827,40.696609,-147.181168,,,
729716766.2432,-5.817449,1.665669,104.789656,-0.027512,-0.099548,0.997055,-0.00428,-0.036821,-0.021002,89.634827,40.696609,-147.181168,,,
729716766.243385,-5.817449,1.665666,140.326008,-0.027512,-0.099548,0.997055,-0.00428,-0.036821,-0.021002,89.634827,40.696609,-147.181168,,,
729716766.244875,-5.819657,1.654476,101.707455,-0.031219,-0.102432,0.994995,-0.00428,-0.036821,-0.021002,89.634827,40.696609,-147.181168,,,
729716766.245628,-5.819655,1.654479,104.784306,-0.031219,-0.102432,0.994995,-0.00428,-0.036821,-0.021002,89.634827,40.696609,-147.181168,,,
729716766.245786,-5.819655,1.654476,140.320657,-0.031219,-0.102432,0.994995,-0.00428,-0.036821,-0.021002,89.634827,40.696609,-147.181168,,,
729716766.247911,-5.819657,1.654476,101.707455,-0.031219,-0.102432,0.994995,-0.00428,-0.036821,-0.021002,89.634827,40.696609,-147.181168,,,
729716766.248168,-5.819655,1.654479,104.784306,-0.031219,-0.102432,0.994995,-0.00428,-0.036821,-0.021002,89.634827,40.696609,-147.181168,,,
729716766.248837,-5.821845,1.642379,140.315276,-0.031219,-0.102432,0.994995,-0.009119,-0.041817,-0.023264,89.634827,40.696609,-147.181168,,,
729716766.251858,-5.821847,1.642379,101.702072,-0.031219,-0.102432,0.994995,-0.009119,-0.041817,-0.023264,89.634827,40.696609,-147.181168,,,
729716766.252485,-5.821845,1.642382,104.778923,-0.031219,-0.102432,0.994995,-0.009119,-0.041817,-0.023264,89.634827,40.696609,-147.181168,,,
729716766.252638,-5.821845,1.642379,140.315276,-0.031219,-0.102432,0.994995,-0.009119,-0.041817,-0.023264,89.634827,40.696609,-147.181168,,,
729716766.255155,-5.825016,1.628871,101.696186,-0.029175,-0.100586,0.997818,-0.009119,-0.041817,-0.023264,89.634827,40.696609,-147.181168,,,
729716766.256134,-5.825014,1.628874,104.773037,-0.029175,-0.100586,0.997818,-0.009119,-0.041817,-0.023264,89.634827,40.696609,-147.181168,,,
729716766.256294,-5.825014,1.628871,140.30939,-0.029175,-0.100586,0.997818,-0.009119,-0.041817,-0.023264,89.634827,40.696609,-147.181168,,,
729716766.257842,-5.825016,1.628871,101.696186,-0.029175,-0.100586,0.997818,-0.009119,-0.041817,-0.023264,89.634827,40.696609,-147.181168,,,
729716766.258184,-5.825014,1.628874,104.773037,-0.029175,-0.100586,0.997818,-0.009119,-0.041817,-0.023264,89.634827,40.696609,-147.181168,,,
729716766.258835,-5.828606,1.612031,140.303316,-0.029175,-0.100586,0.997818,-0.009472,-0.049339,-0.023941,89.634827,40.696609,-147.181168,,,
729716766.262167,-5.828608,1.612031,101.690112,-0.029175,-0.100586,0.997818,-0.009472,-0.049339,-0.023941,89.916092,40.784775,-147.180573,,,
729716766.263086,-5.828606,1.612034,104.766963,-0.029175,-0.100586,0.997818,-0.009472,-0.049339,-0.023941,89.916092,40.784775,-147.180573,,,
729716766.263229,-5.828606,1.612031,140.303316,-0.029175,-0.100586,0.997818,-0.009472,-0.049339,-0.023941,89.916092,40.784775,-147.180573,,,
729716766.265264,-5.832081,1.596132,101.683751,-0.02771,-0.096573,0.993713,-0.009472,-0.049339,-0.023941,89.916092,40.784775,-147.180573,,,
729716766.266278,-5.832079,1.596135,104.760602,-0.02771,-0.096573,0.993713,-0.009472,-0.049339,-0.023941,89.916092,40.784775,-147.180573,,,
729716766.266476,-5.832079,1.596132,140.296955,-0.02771,-0.096573,0.993713,-0.009472,-0.049339,-0.023941,89.916092,40.784775,-147.180573,,,
729716766.267786,-5.832081,1.596132,101.683751,-0.02771,-0.096573,0.993713,-0.009472,-0.049339,-0.023941,89.916092,40.784775,-147.180573,,,
729716766.268188,-5.832079,1.596135,104.760602,-0.02771,-0.096573,0.993713,-0.009472,-0.049339,-0.023941,89.916092,40.784775,-147.180573,,,
729716766.268836,-5.833415,1.580321,140.290344,-0.02771,-0.096573,0.993713,0.006607,-0.036953,-0.027881,89.916092,40.784775,-147.180573,,,
729716766.272721,-5.833417,1.580321,101.677142,-0.02771,-0.096573,0.993713,0.006607,-0.036953,-0.027881,89.916092,40.784775,-147.180573,,,
729716766.27452,-5.833415,1.580324,104.753992,-0.02771,-0.096573,0.993713,0.006607,-0.036953,-0.027881,89.916092,40.784775,-147.180573,,,
729716766.27469,-5.832972,1.567118,140.283541,-0.02829,-0.100571,1.002396,0.006607,-0.036953,-0.027881,89.916092,40.784775,-147.180573,,,
729716766.275448,-5.832974,1.567118,101.670339,-0.02829,-0.100571,1.002396,0.006607,-0.036953,-0.027881,89.916092,40.784775,-147.180573,,,
729716766.276032,-5.832972,1.567121,104.74719,-0.02829,-0.100571,1.002396,0.006607,-0.036953,-0.027881,89.916092,40.784775,-147.180573,,,
729716766.276202,-5.832972,1.567118,140.283541,-0.02829,-0.100571,1.002396,0.006607,-0.036953,-0.027881,89.916092,40.784775,-147.180573,,,
729716766.277923,-5.832974,1.567118,101.670339,-0.02829,-0.100571,1.002396,0.006607,-0.036953,-0.027881,89.916092,40.784775,-147.180573,,,
729716766.278166,-5.832972,1.567121,104.74719,-0.02829,-0.100571,1.002396,0.006607,-0.036953,-0.027881,89.916092,40.784775,-147.180573,,,
729716766.278844,-5.82909,1.553619,140.276299,-0.02829,-0.100571,1.002396,0.017108,-0.034515,-0.021005,89.916092,40.784775,-147.180573,,,
729716766.282181,-5.829091,1.553619,101.663093,-0.02829,-0.100571,1.002396,0.017108,-0.034515,-0.021005,89.916092,40.784775,-147.180573,,,
729716766.283295,-5.82909,1.553622,104.739944,-0.02829,-0.100571,1.002396,0.017108,-0.034515,-0.021005,89.916092,40.784775,-147.180573,,,
729716766.283476,-5.82909,1.553619,140.276299,-0.02829,-0.100571,1.002396,0.017108,-0.034515,-0.021005,89.916092,40.784775,-147.180573,,,
729716766.285213,-5.824529,1.5419,101.656642,-0.029037,-0.10614,1.007019,0.017108,-0.034515,-0.021005,89.916092,40.784775,-147.180573,,,
729716766.286331,-5.824528,1.541903,104.733493,-0.029037,-0.10614,1.007019,0.017108,-0.034515,-0.021005,89.916092,40.784775,-147.180573,,,
729716766.286509,-5.824528,1.5419,140.269846,-0.029037,-0.10614,1.007019,0.017108,-0.034515,-0.021005,89.916092,40.784775,-147.180573,,,
729716766.28787,-5.824529,1.5419,101.656642,-0.029037,-0.10614,1.007019,0.017108,-0.034515,-0.021005,89.916092,40.784775,-147.180573,,,
729716766.288183,-5.824528,1.541903,104.733493,-0.029037,-0.10614,1.007019,0.017108,-0.034515,-0.021005,89.916092,40.784775,-147.180573,,,
729716766.288833,-5.817295,1.529198,140.264491,-0.029037,-0.10614,1.007019,0.019351,-0.024716,-0.008778,89.916092,40.784775,-147.180573,,,
729716766.291984,-5.817297,1.529198,101.651286,-0.029037,-0.10614,1.007019,0.019351,-0.024716,-0.008778,89.916092,40.784775,-147.180573,,,
729716766.292719,-5.817295,1.529201,104.728137,-0.029037,-0.10614,1.007019,0.019351,-0.024716,-0.008778,89.916092,40.784775,-147.180573,,,
729716766.292856,-5.817295,1.529198,140.264491,-0.029037,-0.10614,1.007019,0.019351,-0.024716,-0.008778,89.916092,40.784775,-147.180573,,,
729716766.295286,-5.811305,1.520557,101.648546,-0.038452,-0.106812,1.001373,0.019351,-0.024716,-0.008778,89.916092,40.784775,-147.180573,,,
729716766.296243,-5.811303,1.52056,104.725397,-0.038452,-0.106812,1.001373,0.019351,-0.024716,-0.008778,89.916092,40.784775,-147.180573,,,
729716766.296396,-5.811303,1.520557,140.261751,-0.038452,-0.106812,1.001373,0.019351,-0.024716,-0.008778,89.916092,40.784775,-147.180573,,,
729716766.297811,-5.811305,1.520557,101.648546,-0.038452,-0.106812,1.001373,0.019351,-0.024716,-0.008778,89.916092,40.784775,-147.180573,,,
729716766.298192,-5.811303,1.52056,104.725397,-0.038452,-0.106812,1.001373,0.019351,-0.024716,-0.008778,89.916092,40.784775,-147.180573,,,
729716766.298832,-5.804083,1.511997,140.261172,-0.038452,-0.106812,1.001373,0.020403,-0.014592,0.005956,89.916092,40.784775,-147.180573,,,
729716766.303343,-5.804084,1.511996,101.647967,-0.038452,-0.106812,1.001373,0.020403,-0.014592,0.005956,89.454559,41.045853,-147.147186,,,
729716766.305494,-5.804082,1.506823,104.726166,-0.037842,-0.105835,0.998108,0.020403,-0.014592,0.005956,89.454559,41.045853,-147.147186,,,
729716766.305671,-5.797778,1.50682,140.26252,-0.037842,-0.105835,0.998108,0.020403,-0.014592,0.005956,89.454559,41.045853,-147.147186,,,
729716766.305879,-5.79778,1.50682,101.649315,-0.037842,-0.105835,0.998108,0.020403,-0.014592,0.005956,89.454559,41.045853,-147.147186,,,
729716766.307886,-5.79778,1.50682,101.649315,-0.037842,-0.105835,0.998108,0.020403,-0.014592,0.005956,89.454559,41.045853,-147.147186,,,
729716766.308184,-5.797778,1.506823,104.726166,-0.037842,-0.105835,0.998108,0.020403,-0.014592,0.005956,89.454559,41.045853,-147.147186,,,
729716766.30883,-5.791599,1.503062,140.265576,-0.037842,-0.105835,0.998108,0.021317,-0.00137,0.012849,89.454559,41.045853,-147.147186,,,
729716766.312007,-5.791601,1.503062,101.652372,-0.037842,-0.105835,0.998108,0.021317,-0.00137,0.012849,89.454559,41.045853,-147.147186,,,
729716766.312841,-5.791599,1.503065,104.729223,-0.037842,-0.105835,0.998108,0.021317,-0.00137,0.012849,89.454559,41.045853,-147.147186,,,
729716766.313005,-5.791599,1.503062,140.265576,-0.037842,-0.105835,0.998108,0.021317,-0.00137,0.012849,89.454559,41.045853,-147.147186,,,
729716766.315105,-5.786043,1.501192,101.655987,-0.031021,-0.103958,0.991882,0.021317,-0.00137,0.012849,89.454559,41.045853,-147.147186,,,
729716766.315803,-5.786041,1.501195,104.732838,-0.031021,-0.103958,0.991882,0.021317,-0.00137,0.012849,89.454559,41.045853,-147.147186,,,
729716766.315959,-5.786041,1.501192,140.26919,-0.031021,-0.103958,0.991882,0.021317,-0.00137,0.012849,89.454559,41.045853,-147.147186,,,
729716766.317904,-5.786043,1.501192,101.655987,-0.031021,-0.103958,0.991882,0.021317,-0.00137,0.012849,89.454559,41.045853,-147.147186,,,
729716766.318189,-5.786041,1.501195,104.732838,-0.031021,-0.103958,0.991882,0.021317,-0.00137,0.012849,89.454559,41.045853,-147.147186,,,
729716766.318835,-5.780344,1.50229,140.273127,-0.031021,-0.103958,0.991882,0.024993,0.011827,0.015075,89.454559,41.045853,-147.147186,,,
729716766.322554,-5.780345,1.50229,101.659924,-0.031021,-0.103958,0.991882,0.024993,0.011827,0.015075,89.454559,41.045853,-147.147186,,,
729716766.324214,-5.780343,1.502293,104.736775,-0.031021,-0.103958,0.991882,0.024993,0.011827,0.015075,89.454559,41.045853,-147.147186,,,
729716766.324374,-5.773654,1.504718,140.277566,-0.028854,-0.099182,0.992737,0.024993,0.011827,0.015075,89.454559,41.045853,-147.147186,,,
729716766.324837,-5.773655,1.504718,101.664363,-0.028854,-0.099182,0.992737,0.024993,0.011827,0.015075,89.454559,41.045853,-147.147186,,,
729716766.325283,-5.773653,1.504721,104.741213,-0.028854,-0.099182,0.992737,0.024993,0.011827,0.015075,89.454559,41.045853,-147.147186,,,
729716766.325468,-5.773654,1.504718,140.277566,-0.028854,-0.099182,0.992737,0.024993,0.011827,0.015075,89.454559,41.045853,-147.147186,,,
729716766.328025,-5.773655,1.504718,101.664363,-0.028854,-0.099182,0.992737,0.024993,0.011827,0.015075,89.454559,41.045853,-147.147186,,,
729716766.328224,-5.773653,1.504721,104.741213,-0.028854,-0.099182,0.992737,0.024993,0.011827,0.015075,89.454559,41.045853,-147.147186,,,
729716766.328833,-5.766544,1.508721,140.282619,-0.028854,-0.099182,0.992737,0.020134,0.015061,0.019803,89.454559,41.045853,-147.147186,,,
729716766.331879,-5.766545,1.508721,101.669415,-0.028854,-0.099182,0.992737,0.020134,0.015061,0.019803,89.454559,41.045853,-147.147186,,,
729716766.332653,-5.766543,1.508724,104.746266,-0.028854,-0.099182,0.992737,0.020134,0.015061,0.019803,89.454559,41.045853,-147.147186,,,
729716766.33281,-5.766544,1.508721,140.282619,-0.028854,-0.099182,0.992737,0.020134,0.015061,0.019803,89.454559,41.045853,-147.147186,,,
729716766.334936,-5.759841,1.512688,101.675164,-0.02916,-0.096878,0.989365,0.020134,0.015061,0.019803,89.454559,41.045853,-147.147186,,,
729716766.335403,-5.759839,1.512691,104.752015,-0.02916,-0.096878,0.989365,0.020134,0.015061,0.019803,89.454559,41.045853,-147.147186,,,
729716766.335551,-5.759839,1.512688,140.288368,-0.02916,-0.096878,0.989365,0.020134,0.015061,0.019803,89.454559,41.045853,-147.147186,,,
729716766.337921,-5.759841,1.512688,101.675164,-0.02916,-0.096878,0.989365,0.020134,0.015061,0.019803,89.454559,41.045853,-147.147186,,,
729716766.338164,-5.759839,1.512691,104.752015,-0.02916,-0.096878,0.989365,0.020134,0.015061,0.019803,89.454559,41.045853,-147.147186,,,
729716766.338866,-5.759839,1.517164,140.293781,-0.02916,-0.096878,0.989365,0.026318,0.021121,0.016875,89.454559,41.045853,-147.147186,,,
729716766.342164,-5.75282,1.517164,101.680578,-0.02916,-0.096878,0.989365,0.026318,0.021121,0.016875,89.454559,41.045853,-147.147186,,,
729716766.344198,-5.752819,1.517167,104.757429,-0.02916,-0.096878,0.989365,0.026318,0.021121,0.016875,89.443741,40.733948,-147.099319,,,
729716766.344428,-5.745736,1.521886,140.298556,-0.023148,-0.097366,0.981583,0.026318,0.021121,0.016875,89.443741,40.733948,-147.099319,,,
729716766.345562,-5.745738,1.521886,101.685349,-0.023148,-0.097366,0.981583,0.026318,0.021121,0.016875,89.443741,40.733948,-147.099319,,,
729716766.346106,-5.745736,1.521889,104.7622,-0.023148,-0.097366,0.981583,0.026318,0.021121,0.016875,89.443741,40.733948,-147.099319,,,
729716766.34624,-5.745736,1.521886,140.298556,-0.023148,-0.097366,0.981583,0.026318,0.021121,0.016875,89.443741,40.733948,-147.099319,,,
729716766.347828,-5.745738,1.521886,101.685349,-0.023148,-0.097366,0.981583,0.026318,0.021121,0.016875,89.443741,40.733948,-147.099319,,,
729716766.348187,-5.745736,1.521889,104.7622,-0.023148,-0.097366,0.981583,0.026318,0.021121,0.016875,89.443741,40.733948,-147.099319,,,
729716766.348853,-5.738568,1.527032,140.302431,-0.023148,-0.097366,0.981583,0.024159,0.017657,0.009353,89.443741,40.733948,-147.099319,,,
729716766.352048,-5.738569,1.527032,101.689224,-0.023148,-0.097366,0.981583,0.024159,0.017657,0.009353,89.443741,40.733948,-147.099319,,,
729716766.353156,-5.738567,1.527035,104.766075,-0.023148,-0.097366,0.981583,0.024159,0.017657,0.009353,89.443741,40.733948,-147.099319,,,
729716766.3533,-5.738568,1.527032,140.302431,-0.023148,-0.097366,0.981583,0.024159,0.017657,0.009353,89.443741,40.733948,-147.099319,,,
729716766.354845,-5.731393,1.531245,101.691956,-0.014725,-0.102264,0.975388,0.024159,0.017657,0.009353,89.443741,40.733948,-147.099319,,,
729716766.355452,-5.731391,1.531248,104.768807,-0.014725,-0.102264,0.975388,0.024159,0.017657,0.009353,89.443741,40.733948,-147.099319,,,
729716766.355603,-5.731391,1.531245,140.305164,-0.014725,-0.102264,0.975388,0.024159,0.017657,0.009353,89.443741,40.733948,-147.099319,,,
729716766.357927,-5.731393,1.531245,101.691956,-0.014725,-0.102264,0.975388,0.024159,0.017657,0.009353,89.443741,40.733948,-147.099319,,,
729716766.358161,-5.731391,1.531248,104.768807,-0.014725,-0.102264,0.975388,0.024159,0.017657,0.009353,89.443741,40.733948,-147.099319,,,
729716766.358841,-5.731391,1.531245,140.305164,-0.014725,-0.102264,0.975388,0.03253,0.018529,0.00197,89.443741,40.733948,-147.099319,,,
729716766.362434,-5.724317,1.53549,101.694164,-0.014725,-0.102264,0.975388,0.03253,0.018529,0.00197,89.443741,40.733948,-147.099319,,,
729716766.363843,-5.724315,1.535493,104.771015,-0.014725,-0.102264,0.975388,0.03253,0.018529,0.00197,89.443741,40.733948,-147.099319,,,
729716766.364038,-5.715702,1.540166,140.308522,-0.016754,-0.097794,0.970123,0.03253,0.018529,0.00197,89.443741,40.733948,-147.099319,,,
729716766.364828,-5.715703,1.540166,101.695318,-0.016754,-0.097794,0.970123,0.03253,0.018529,0.00197,89.443741,40.733948,-147.099319,,,
729716766.365359,-5.715701,1.540169,104.772169,-0.016754,-0.097794,0.970123,0.03253,0.018529,0.00197,89.443741,40.733948,-147.099319,,,
729716766.36553,-5.715702,1.540166,140.308522,-0.016754,-0.097794,0.970123,0.03253,0.018529,0.00197,89.443741,40.733948,-147.099319,,,
729716766.367941,-5.715703,1.540166,101.695318,-0.016754,-0.097794,0.970123,0.03253,0.018529,0.00197,89.443741,40.733948,-147.099319,,,
729716766.368163,-5.715701,1.540169,104.772169,-0.016754,-0.097794,0.970123,0.03253,0.018529,0.00197,89.443741,40.733948,-147.099319,,,
729716766.368831,-5.707423,1.547216,140.308914,-0.016754,-0.097794,0.970123,0.030861,0.027883,-0.002365,89.443741,40.733948,-147.099319,,,
729716766.373345,-5.707424,1.547215,101.695711,-0.016754,-0.097794,0.970123,0.030861,0.027883,-0.002365,89.443741,40.733948,-147.099319,,,
729716766.376015,-5.707423,1.547219,104.772562,-0.013138,-0.091888,0.968826,0.030861,0.027883,-0.002365,89.443741,40.733948,-147.099319,,,
729716766.376251,-5.698742,1.553773,140.308596,-0.013138,-0.091888,0.968826,0.030861,0.027883,-0.002365,89.443741,40.733948,-147.099319,,,
729716766.377033,-5.698744,1.553773,101.695392,-0.013138,-0.091888,0.968826,0.030861,0.027883,-0.002365,89.443741,40.733948,-147.099319,,,
729716766.377791,-5.698744,1.553773,101.695392,-0.013138,-0.091888,0.968826,0.030861,0.027883,-0.002365,89.443741,40.733948,-147.099319,,,
729716766.378446,-5.698742,1.553776,104.772243,-0.013138,-0.091888,0.968826,0.030861,0.027883,-0.002365,89.443741,40.733948,-147.099319,,,
729716766.378885,-5.698742,1.561579,140.307812,-0.013138,-0.091888,0.968826,0.02168,0.022534,-0.004169,89.443741,40.733948,-147.099319,,,
729716766.382188,-5.69162,1.561579,101.694611,-0.013138,-0.091888,0.968826,0.02168,0.022534,-0.004169,89.443741,40.733948,-147.099319,,,
729716766.383156,-5.691618,1.561582,104.771462,-0.013138,-0.091888,0.968826,0.02168,0.022534,-0.004169,89.443741,40.733948,-147.099319,,,
729716766.383347,-5.691618,1.561579,140.307812,-0.013138,-0.091888,0.968826,0.02168,0.022534,-0.004169,89.443741,40.733948,-147.099319,,,
729716766.385518,-5.684932,1.567566,101.693406,-0.01535,-0.088806,0.965271,0.02168,0.022534,-0.004169,89.715958,40.690186,-147.069244,,,
729716766.386793,-5.684931,1.56757,104.770257,-0.01535,-0.088806,0.965271,0.02168,0.022534,-0.004169,89.715958,40.690186,-147.069244,,,
729716766.386949,-5.684931,1.567567,140.306611,-0.01535,-0.088806,0.965271,0.02168,0.022534,-0.004169,89.715958,40.690186,-147.069244,,,
729716766.387732,-5.684932,1.567566,101.693406,-0.01535,-0.088806,0.965271,0.02168,0.022534,-0.004169,89.715958,40.690186,-147.069244,,,
729716766.388198,-5.684931,1.56757,104.770257,-0.01535,-0.088806,0.965271,0.02168,0.022534,-0.004169,89.715958,40.690186,-147.069244,,,
729716766.388922,-5.681453,1.573825,140.305783,-0.01535,-0.088806,0.965271,0.000652,0.017912,-0.004451,89.715958,40.690186,-147.069244,,,
729716766.391522,-5.681454,1.573824,101.692576,-0.01535,-0.088806,0.965271,0.000652,0.017912,-0.004451,89.715958,40.690186,-147.069244,,,
729716766.39194,-5.681453,1.573827,104.769427,-0.01535,-0.088806,0.965271,0.000652,0.017912,-0.004451,89.715958,40.690186,-147.069244,,,
729716766.392135,-5.681453,1.573825,140.305783,-0.01535,-0.088806,0.965271,0.000652,0.017912,-0.004451,89.715958,40.690186,-147.069244,,,
729716766.395092,-5.680727,1.578509,101.691955,-0.023209,-0.089493,0.962234,0.000652,0.017912,-0.004451,89.715958,40.690186,-147.069244,,,
729716766.395727,-5.680725,1.578512,104.768806,-0.023209,-0.089493,0.962234,0.000652,0.017912,-0.004451,89.715958,40.690186,-147.069244,,,
729716766.39588,-5.680725,1.57851,140.305158,-0.023209,-0.089493,0.962234,0.000652,0.017912,-0.004451,89.715958,40.690186,-147.069244,,,
729716766.397897,-5.680727,1.578509,101.691955,-0.023209,-0.089493,0.962234,0.000652,0.017912,-0.004451,89.715958,40.690186,-147.069244,,,
729716766.398166,-5.680725,1.578512,104.768806,-0.023209,-0.089493,0.962234,0.000652,0.017912,-0.004451,89.715958,40.690186,-147.069244,,,
729716766.398832,-5.680725,1.57851,140.305158,-0.023209,-0.089493,0.962234,0.000652,0.017912,-0.004451,89.715958,40.690186,-147.069244,,,
729716766.403046,-5.683545,1.581494,101.691668,-0.023209,-0.089493,0.962234,-0.016341,0.002854,4e-05,89.715958,40.690186,-147.069244,,,
729716766.405322,-5.683543,1.581497,104.768518,-0.023209,-0.089493,0.962234,-0.016341,0.002854,4e-05,89.715958,40.690186,-147.069244,,,
729716766.405504,-5.688513,1.582549,140.305263,-0.023407,-0.090164,0.960999,-0.016341,0.002854,4e-05,89.715958,40.690186,-147.069244,,,
729716766.406007,-5.688514,1.582549,101.692059,-0.023407,-0.090164,0.960999,-0.016341,0.002854,4e-05,89.715958,40.690186,-147.069244,,,
729716766.407877,-5.688514,1.582549,101.692059,-0.023407,-0.090164,0.960999,-0.016341,0.002854,4e-05,89.715958,40.690186,-147.069244,,,
729716766.408461,-5.688512,1.582552,104.76891,-0.023407,-0.090164,0.960999,-0.016341,0.002854,4e-05,89.715958,40.690186,-147.069244,,,
729716766.408892,-5.688513,1.582549,140.305263,-0.023407,-0.090164,0.960999,-0.016341,0.002854,4e-05,89.715958,40.690186,-147.069244,,,
729716766.413489,-5.695034,1.582271,101.692969,-0.023407,-0.090164,0.960999,-0.034284,-0.007137,-0.000216,89.715958,40.690186,-147.069244,,,
729716766.415803,-5.695032,1.582274,104.76982,-0.02269,-0.092896,0.971298,-0.034284,-0.007137,-0.000216,89.715958,40.690186,-147.069244,,,
729716766.416007,-5.703746,1.580118,140.307017,-0.02269,-0.092896,0.971298,-0.034284,-0.007137,-0.000216,89.715958,40.690186,-147.069244,,,
729716766.416412,-5.703748,1.580118,101.693812,-0.02269,-0.092896,0.971298,-0.034284,-0.007137,-0.000216,89.715958,40.690186,-147.069244,,,
729716766.417818,-5.703748,1.580118,101.693812,-0.02269,-0.092896,0.971298,-0.034284,-0.007137,-0.000216,89.715958,40.690186,-147.069244,,,
729716766.418199,-5.703746,1.580121,104.770663,-0.02269,-0.092896,0.971298,-0.034284,-0.007137,-0.000216,89.715958,40.690186,-147.069244,,,
729716766.41883,-5.703746,1.580118,140.307017,-0.02269,-0.092896,0.971298,-0.034284,-0.007137,-0.000216,89.715958,40.690186,-147.069244,,,
729716766.421732,-5.713148,1.576373,101.694068,-0.02269,-0.092896,0.971298,-0.032987,-0.008755,-0.0056,89.715958,40.690186,-147.069244,,,
729716766.422371,-5.713146,1.576376,104.770919,-0.02269,-0.092896,0.971298,-0.032987,-0.008755,-0.0056,89.715958,40.690186,-147.069244,,,
729716766.422536,-5.713146,1.576373,140.307273,-0.02269,-0.092896,0.971298,-0.032987,-0.008755,-0.0056,89.715958,40.690186,-147.069244,,,
729716766.425764,-5.722551,1.572607,101.69323,-0.02298,-0.100708,0.980881,-0.032987,-0.008755,-0.0056,89.584488,40.732864,-147.367081,,,
729716766.427209,-5.722549,1.57261,104.770081,-0.02298,-0.100708,0.980881,-0.032987,-0.008755,-0.0056,89.584488,40.732864,-147.367081,,,
729716766.427366,-5.722549,1.572607,140.306434,-0.02298,-0.100708,0.980881,-0.032987,-0.008755,-0.0056,89.584488,40.732864,-147.367081,,,
729716766.427731,-5.722551,1.572607,101.69323,-0.02298,-0.100708,0.980881,-0.032987,-0.008755,-0.0056,89.584488,40.732864,-147.367081,,,
729716766.428241,-5.722549,1.57261,104.770081,-0.02298,-0.100708,0.980881,-0.032987,-0.008755,-0.0056,89.584488,40.732864,-147.367081,,,
729716766.428879,-5.722549,1.572607,140.306434,-0.02298,-0.100708,0.980881,-0.032987,-0.008755,-0.0056,89.584488,40.732864,-147.367081,,,
729716766.431776,-5.732272,1.568372,101.690609,-0.02298,-0.100708,0.980881,-0.031504,-0.007291,-0.0176,89.584488,40.732864,-147.367081,,,
729716766.432434,-5.732271,1.568375,104.76746,-0.02298,-0.100708,0.980881,-0.031504,-0.007291,-0.0176,89.584488,40.732864,-147.367081,,,
729716766.4326,-5.732271,1.568372,140.303815,-0.02298,-0.100708,0.980881,-0.031504,-0.007291,-0.0176,89.584488,40.732864,-147.367081,,,
729716766.434991,-5.74151,1.565051,101.686538,-0.020584,-0.102966,0.995255,-0.031504,-0.007291,-0.0176,89.584488,40.732864,-147.367081,,,
729716766.435771,-5.741509,1.565054,104.763389,-0.020584,-0.102966,0.995255,-0.031504,-0.007291,-0.0176,89.584488,40.732864,-147.367081,,,
729716766.435929,-5.741509,1.565051,140.299743,-0.020584,-0.102966,0.995255,-0.031504,-0.007291,-0.0176,89.584488,40.732864,-147.367081,,,
729716766.437892,-5.74151,1.565051,101.686538,-0.020584,-0.102966,0.995255,-0.031504,-0.007291,-0.0176,89.584488,40.732864,-147.367081,,,
729716766.438167,-5.741509,1.565054,104.763389,-0.020584,-0.102966,0.995255,-0.031504,-0.007291,-0.0176,89.584488,40.732864,-147.367081,,,
729716766.438865,-5.741509,1.565051,140.299743,-0.020584,-0.102966,0.995255,-0.031504,-0.007291,-0.0176,89.584488,40.732864,-147.367081,,,
729716766.441903,-5.750511,1.560391,101.68086,-0.020584,-0.102966,0.995255,-0.026939,-0.00646,-0.024353,89.584488,40.732864,-147.367081,,,
729716766.44261,-5.750509,1.560394,104.757711,-0.020584,-0.102966,0.995255,-0.026939,-0.00646,-0.024353,89.584488,40.732864,-147.367081,,,
729716766.442745,-5.750509,1.560391,140.294065,-0.020584,-0.102966,0.995255,-0.026939,-0.00646,-0.024353,89.584488,40.732864,-147.367081,,,
729716766.444969,-5.758985,1.556793,101.674531,-0.020172,-0.103043,0.995697,-0.026939,-0.00646,-0.024353,89.584488,40.732864,-147.367081,,,
729716766.445579,-5.758983,1.556796,104.751382,-0.020172,-0.103043,0.995697,-0.026939,-0.00646,-0.024353,89.584488,40.732864,-147.367081,,,
729716766.445734,-5.758983,1.556793,140.287735,-0.020172,-0.103043,0.995697,-0.026939,-0.00646,-0.024353,89.584488,40.732864,-147.367081,,,
729716766.447919,-5.758985,1.556793,101.674531,-0.020172,-0.103043,0.995697,-0.026939,-0.00646,-0.024353,89.584488,40.732864,-147.367081,,,
729716766.448165,-5.758983,1.556796,104.751382,-0.020172,-0.103043,0.995697,-0.026939,-0.00646,-0.024353,89.584488,40.732864,-147.367081,,,
729716766.448872,-5.758983,1.556793,140.287735,-0.020172,-0.103043,0.995697,-0.026939,-0.00646,-0.024353,89.584488,40.732864,-147.367081,,,
729716766.451767,-5.766424,1.551483,101.668729,-0.020172,-0.103043,0.995697,-0.025696,-0.013866,-0.015434,89.584488,40.732864,-147.367081,,,
729716766.452461,-5.766422,1.551486,104.74558,-0.020172,-0.103043,0.995697,-0.025696,-0.013866,-0.015434,89.584488,40.732864,-147.367081,,,
729716766.452614,-5.766422,1.551483,140.281934,-0.020172,-0.103043,0.995697,-0.025696,-0.013866,-0.015434,89.584488,40.732864,-147.367081,,,
729716766.455134,-5.774367,1.546379,101.664344,-0.020996,-0.109482,0.998093,-0.025696,-0.013866,-0.015434,89.584488,40.732864,-147.367081,,,
729716766.455901,-5.774365,1.546383,104.741195,-0.020996,-0.109482,0.998093,-0.025696,-0.013866,-0.015434,89.584488,40.732864,-147.367081,,,
729716766.45614,-5.774365,1.54638,140.277549,-0.020996,-0.109482,0.998093,-0.025696,-0.013866,-0.015434,89.584488,40.732864,-147.367081,,,
729716766.457912,-5.774367,1.546379,101.664344,-0.020996,-0.109482,0.998093,-0.025696,-0.013866,-0.015434,89.584488,40.732864,-147.367081,,,
729716766.458218,-5.774365,1.546383,104.741195,-0.020996,-0.109482,0.998093,-0.025696,-0.013866,-0.015434,89.584488,40.732864,-147.367081,,,
729716766.458907,-5.774365,1.54638,140.277549,-0.020996,-0.109482,0.998093,-0.025696,-0.013866,-0.015434,89.584488,40.732864,-147.367081,,,
729716766.462473,-5.781841,1.539038,101.661515,-0.020996,-0.109482,0.998093,-0.033377,-0.019978,-0.006508,89.584488,40.732864,-147.367081,,,
729716766.46385,-5.781839,1.539041,104.738366,-0.020996,-0.109482,0.998093,-0.033377,-0.019978,-0.006508,89.584488,40.732864,-147.367081,,,
729716766.464068,-5.790849,1.532842,140.27318,-0.021301,-0.112473,0.999252,-0.033377,-0.019978,-0.006508,89.584488,40.732864,-147.367081,,,
729716766.465024,-5.790851,1.532842,101.659974,-0.021301,-0.112473,0.999252,-0.033377,-0.019978,-0.006508,89.584488,40.732864,-147.367081,,,
729716766.466518,-5.790849,1.532845,104.736825,-0.021301,-0.112473,0.999252,-0.033377,-0.019978,-0.006508,89.531937,40.722351,-146.992783,,,
729716766.466758,-5.790849,1.532842,140.27318,-0.021301,-0.112473,0.999252,-0.033377,-0.019978,-0.006508,89.531937,40.722351,-146.992783,,,
729716766.468261,-5.790851,1.532842,101.659974,-0.021301,-0.112473,0.999252,-0.033377,-0.019978,-0.006508,89.531937,40.722351,-146.992783,,,
729716766.468479,-5.790849,1.532845,104.736825,-0.021301,-0.112473,0.999252,-0.033377,-0.019978,-0.006508,89.531937,40.722351,-146.992783,,,
729716766.468791,-5.790849,1.532842,140.27318,-0.021301,-0.112473,0.999252,-0.033377,-0.019978,-0.006508,89.531937,40.722351,-146.992783,,,
729716766.471832,-5.801048,1.526777,101.658973,-0.021301,-0.112473,0.999252,-0.045708,-0.010531,-0.006227,89.531937,40.722351,-146.992783,,,
729716766.472582,-5.801046,1.52678,104.735824,-0.021301,-0.112473,0.999252,-0.045708,-0.010531,-0.006227,89.531937,40.722351,-146.992783,,,
729716766.47274,-5.801047,1.526777,140.272177,-0.021301,-0.112473,0.999252,-0.045708,-0.010531,-0.006227,89.531937,40.722351,-146.992783,,,
729716766.475153,-5.81359,1.522147,101.657937,-0.014221,-0.108994,1.00444,-0.045708,-0.010531,-0.006227,89.531937,40.722351,-146.992783,,,
729716766.476116,-5.813589,1.52215,104.734788,-0.014221,-0.108994,1.00444,-0.045708,-0.010531,-0.006227,89.531937,40.722351,-146.992783,,,
729716766.476276,-5.813589,1.522147,140.271141,-0.014221,-0.108994,1.00444,-0.045708,-0.010531,-0.006227,89.531937,40.722351,-146.992783,,,
729716766.477897,-5.81359,1.522147,101.657937,-0.014221,-0.108994,1.00444,-0.045708,-0.010531,-0.006227,89.531937,40.722351,-146.992783,,,
729716766.478162,-5.813589,1.52215,104.734788,-0.014221,-0.108994,1.00444,-0.045708,-0.010531,-0.006227,89.531937,40.722351,-146.992783,,,
729716766.47888,-5.813589,1.522147,140.271141,-0.014221,-0.108994,1.00444,-0.045708,-0.010531,-0.006227,89.531937,40.722351,-146.992783,,,
729716766.4831,-5.825819,1.518872,101.656186,-0.014221,-0.108994,1.00444,-0.047728,0.000925,-0.011503,89.531937,40.722351,-146.992783,,,
729716766.485206,-5.825817,1.518876,104.733037,-0.014221,-0.108994,1.00444,-0.047728,0.000925,-0.011503,89.531937,40.722351,-146.992783,,,
729716766.485449,-5.839477,1.517061,140.266906,-0.010834,-0.10376,1.007507,-0.047728,0.000925,-0.011503,89.531937,40.722351,-146.992783,,,
729716766.48644,-5.839479,1.517061,101.653704,-0.010834,-0.10376,1.007507,-0.047728,0.000925,-0.011503,89.531937,40.722351,-146.992783,,,
729716766.487828,-5.839479,1.517061,101.653704,-0.010834,-0.10376,1.007507,-0.047728,0.000925,-0.011503,89.531937,40.722351,-146.992783,,,
729716766.488777,-5.839477,1.517064,104.730555,-0.010834,-0.10376,1.007507,-0.047728,0.000925,-0.011503,89.531937,40.722351,-146.992783,,,
729716766.488967,-5.839477,1.517061,140.266906,-0.010834,-0.10376,1.007507,-0.047728,0.000925,-0.011503,89.531937,40.722351,-146.992783,,,
729716766.491822,-5.852095,1.515776,101.650675,-0.010834,-0.10376,1.007507,-0.044638,0.004408,-0.016771,89.531937,40.722351,-146.992783,,,
729716766.492772,-5.852094,1.51578,104.727526,-0.010834,-0.10376,1.007507,-0.044638,0.004408,-0.016771,89.531937,40.722351,-146.992783,,,
729716766.492987,-5.852094,1.515777,140.263878,-0.010834,-0.10376,1.007507,-0.044638,0.004408,-0.016771,89.531937,40.722351,-146.992783,,,
729716766.494967,-5.865355,1.515574,101.646689,-0.012192,-0.103134,1.011169,-0.044638,0.004408,-0.016771,89.531937,40.722351,-146.992783,,,
729716766.4958,-5.865353,1.515578,104.72354,-0.012192,-0.103134,1.011169,-0.044638,0.004408,-0.016771,89.531937,40.722351,-146.992783,,,
729716766.496011,-5.865354,1.515575,140.259891,-0.012192,-0.103134,1.011169,-0.044638,0.004408,-0.016771,89.531937,40.722351,-146.992783,,,
729716766.497952,-5.865355,1.515574,101.646689,-0.012192,-0.103134,1.011169,-0.044638,0.004408,-0.016771,89.531937,40.722351,-146.992783,,,
729716766.498247,-5.865353,1.515578,104.72354,-0.012192,-0.103134,1.011169,-0.044638,0.004408,-0.016771,89.531937,40.722351,-146.992783,,,
729716766.498862,-5.865354,1.515575,140.259891,-0.012192,-0.103134,1.011169,-0.044638,0.004408,-0.016771,89.531937,40.722351,-146.992783,,,
729716766.502291,-5.877932,1.515321,101.641357,-0.012192,-0.103134,1.011169,-0.041153,0.00533,-0.026483,89.531937,40.722351,-146.992783,,,
729716766.503322,-5.87793,1.515325,104.718208,-0.012192,-0.103134,1.011169,-0.041153,0.00533,-0.026483,89.531937,40.722351,-146.992783,,,
729716766.503507,-5.87793,1.515322,140.254559,-0.012192,-0.103134,1.011169,-0.041153,0.00533,-0.026483,89.531937,40.722351,-146.992783,,,
729716766.504998,-5.889618,1.515141,101.635033,-0.01088,-0.106644,1.008972,-0.041153,0.00533,-0.026483,89.531937,40.722351,-146.992783,,,
729716766.506042,-5.889616,1.515144,104.711884,-0.01088,-0.106644,1.008972,-0.041153,0.00533,-0.026483,89.531937,40.722351,-146.992783,,,
729716766.506254,-5.889616,1.515141,140.248234,-0.01088,-0.106644,1.008972,-0.041153,0.00533,-0.026483,89.533508,40.799194,-147.046097,,,
729716766.508338,-5.889618,1.515141,101.635033,-0.01088,-0.106644,1.008972,-0.041153,0.00533,-0.026483,89.533508,40.799194,-147.046097,,,
729716766.50911,-5.889616,1.515144,104.711884,-0.01088,-0.106644,1.008972,-0.041153,0.00533,-0.026483,89.533508,40.799194,-147.046097,,,
729716766.509321,-5.899217,1.513157,140.240881,-0.01088,-0.106644,1.008972,-0.015642,-0.006269,-0.028635,89.533508,40.799194,-147.046097,,,
729716766.51355,-5.899218,1.513157,101.627679,-0.01088,-0.106644,1.008972,-0.015642,-0.006269,-0.028635,89.533508,40.799194,-147.046097,,,
729716766.516035,-5.899216,1.51316,104.70453,-0.008575,-0.108932,1.005295,-0.015642,-0.006269,-0.028635,89.533508,40.799194,-147.046097,,,
729716766.516266,-5.90481,1.510071,140.233355,-0.008575,-0.108932,1.005295,-0.015642,-0.006269,-0.028635,89.533508,40.799194,-147.046097,,,
729716766.516678,-5.904812,1.510071,101.620153,-0.008575,-0.108932,1.005295,-0.015642,-0.006269,-0.028635,89.533508,40.799194,-147.046097,,,
729716766.517774,-5.904812,1.510071,101.620153,-0.008575,-0.108932,1.005295,-0.015642,-0.006269,-0.028635,89.533508,40.799194,-147.046097,,,
729716766.518196,-5.90481,1.510074,104.697004,-0.008575,-0.108932,1.005295,-0.015642,-0.006269,-0.028635,89.533508,40.799194,-147.046097,,,
729716766.518826,-5.90481,1.510071,140.233355,-0.008575,-0.108932,1.005295,-0.015642,-0.006269,-0.028635,89.533508,40.799194,-147.046097,,,
729716766.522821,-5.90626,1.504875,101.612899,-0.008575,-0.108932,1.005295,0.012474,-0.009081,-0.021736,89.533508,40.799194,-147.046097,,,
729716766.524634,-5.906259,1.504878,104.68975,-0.008575,-0.108932,1.005295,0.012474,-0.009081,-0.021736,89.533508,40.799194,-147.046097,,,
729716766.524804,-5.904153,1.500483,140.220013,-0.009827,-0.10939,1.011261,0.012474,-0.009081,-0.021736,89.533508,40.799194,-147.046097,,,
729716766.525264,-5.904155,1.500483,101.606807,-0.009827,-0.10939,1.011261,0.012474,-0.009081,-0.021736,89.533508,40.799194,-147.046097,,,
729716766.525472,-5.904153,1.500483,140.220013,-0.009827,-0.10939,1.011261,0.012474,-0.009081,-0.021736,89.533508,40.799194,-147.046097,,,
729716766.528025,-5.904155,1.500483,101.606807,-0.009827,-0.10939,1.011261,0.012474,-0.009081,-0.021736,89.533508,40.799194,-147.046097,,,
729716766.528637,-5.904153,1.500486,104.683658,-0.009827,-0.10939,1.011261,0.012474,-0.009081,-0.021736,89.533508,40.799194,-147.046097,,,
729716766.528819,-5.904153,1.500483,140.220013,-0.009827,-0.10939,1.011261,0.012474,-0.009081,-0.021736,89.533508,40.799194,-147.046097,,,
729716766.531909,-5.900089,1.496834,101.602071,-0.009827,-0.10939,1.011261,0.026831,-0.001215,-0.008931,89.533508,40.799194,-147.046097,,,
729716766.532586,-5.900087,1.496837,104.678922,-0.009827,-0.10939,1.011261,0.026831,-0.001215,-0.008931,89.533508,40.799194,-147.046097,,,
729716766.532729,-5.900087,1.496834,140.215276,-0.009827,-0.10939,1.011261,0.026831,-0.001215,-0.008931,89.533508,40.799194,-147.046097,,,
729716766.535119,-5.893642,1.49527,101.59896,-0.015533,-0.111542,1.008087,0.026831,-0.001215,-0.008931,89.533508,40.799194,-147.046097,,,
729716766.535942,-5.89364,1.495273,104.675811,-0.015533,-0.111542,1.008087,0.026831,-0.001215,-0.008931,89.533508,40.799194,-147.046097,,,
729716766.536147,-5.89364,1.49527,140.212166,-0.015533,-0.111542,1.008087,0.026831,-0.001215,-0.008931,89.533508,40.799194,-147.046097,,,
729716766.537858,-5.893642,1.49527,101.59896,-0.015533,-0.111542,1.008087,0.026831,-0.001215,-0.008931,89.533508,40.799194,-147.046097,,,
729716766.538184,-5.89364,1.495273,104.675811,-0.015533,-0.111542,1.008087,0.026831,-0.001215,-0.008931,89.533508,40.799194,-147.046097,,,
729716766.538827,-5.89364,1.49527,140.212166,-0.015533,-0.111542,1.008087,0.026831,-0.001215,-0.008931,89.533508,40.799194,-147.046097,,,
729716766.542503,-5.887453,1.494166,101.596753,-0.015533,-0.111542,1.008087,0.022276,0.00958,-0.007559,89.533508,40.799194,-147.046097,,,
729716766.544443,-5.887452,1.494169,104.673604,-0.015533,-0.111542,1.008087,0.022276,0.00958,-0.007559,89.533508,40.799194,-147.046097,,,
729716766.544606,-5.880551,1.495256,140.208193,-0.017899,-0.110764,1.003952,0.022276,0.00958,-0.007559,89.533508,40.799194,-147.046097,,,
729716766.545568,-5.880553,1.495256,101.594989,-0.017899,-0.110764,1.003952,0.022276,0.00958,-0.007559,89.533508,40.799194,-147.046097,,,
