Time (sec),Pitch (deg),Roll (deg),Yaw(deg),X-Acceleration (g),Y-Acceleration (g),Z-Acceleration (g),Pitch Rate (deg/sec),Roll Rate (deg/sec),Yaw Rate (deg/sec),Magnetic Field in X direction (uT),Magnetic Field in Y direction (uT),Magnetic Field in Z Direction (uT),Latitude (deg),Longitude (deg),Altitude (m)
729706749.054786,-0.252012,0.621904,-21.588658,-0.008438,-0.003662,0.995453,0.01852,-0.008044,-0.001777,59.852509,31.455399,-146.433289,,,
729706749.056897,-0.252001,0.621937,122.32153,-0.008438,-0.003662,0.995453,0.01852,-0.008044,-0.001777,59.852509,31.455399,-146.433289,,,
729706749.057688,-0.252012,0.621904,-21.588658,-0.008438,-0.003662,0.995453,0.01852,-0.008044,-0.001777,59.852509,31.455399,-146.433289,,,
729706749.060223,-0.248579,0.620659,122.320043,-0.006897,-0.002823,0.998657,0.010945,0.000639,-0.006685,59.852509,31.455399,-146.433289,,,
729706749.062671,-0.24859,0.620625,-21.590144,-0.006897,-0.002823,0.998657,0.010945,0.000639,-0.006685,59.852509,31.455399,-146.433289,,,
729706749.063597,-0.248579,0.620659,122.320043,-0.006897,-0.002823,0.998657,0.010945,0.000639,-0.006685,59.852509,31.455399,-146.433289,,,
729706749.064469,-0.246823,0.619639,-21.591693,-0.006897,-0.002823,0.998657,0.010945,0.000639,-0.006685,59.852509,31.455399,-146.433289,,,
729706749.066955,-0.246813,0.619672,122.318477,-0.006897,-0.002823,0.998657,0.010945,0.000639,-0.006685,59.852509,31.455399,-146.433289,,,
729706749.068488,-0.246823,0.619639,-21.591693,-0.006897,-0.002823,0.998657,0.010945,0.000639,-0.006685,59.975494,31.469452,-146.414993,,,
729706749.070214,-0.245521,0.619242,122.316869,-0.00853,-0.003906,0.99498,0.003069,0.003042,-0.00716,59.975494,31.469452,-146.414993,,,
729706749.071502,-0.245532,0.619209,-21.593301,-0.00853,-0.003906,0.99498,0.003069,0.003042,-0.00716,59.975494,31.469452,-146.414993,,,
729706749.073544,-0.245521,0.619242,122.316869,-0.00853,-0.003906,0.99498,0.003069,0.003042,-0.00716,59.975494,31.469452,-146.414993,,,
729706749.074798,-0.24488,0.618406,-21.594946,-0.00853,-0.003906,0.99498,0.003069,0.003042,-0.00716,59.975494,31.469452,-146.414993,,,
729706749.076976,-0.244869,0.618439,122.315238,-0.00853,-0.003906,0.99498,0.003069,0.003042,-0.00716,59.975494,31.469452,-146.414993,,,
729706749.077774,-0.24488,0.618406,-21.594946,-0.00853,-0.003906,0.99498,0.003069,0.003042,-0.00716,59.975494,31.469452,-146.414993,,,
729706749.080214,-0.243204,0.617189,122.313558,-0.011551,-0.007874,0.992935,0.007734,-0.001469,-0.007389,59.975494,31.469452,-146.414993,,,
729706749.082916,-0.243214,0.617156,-21.596629,-0.011551,-0.007874,0.992935,0.007734,-0.001469,-0.007389,59.975494,31.469452,-146.414993,,,
729706749.083559,-0.243204,0.617189,122.313558,-0.011551,-0.007874,0.992935,0.007734,-0.001469,-0.007389,59.975494,31.469452,-146.414993,,,
729706749.084856,-0.240812,0.614924,-21.598212,-0.011551,-0.007874,0.992935,0.007734,-0.001469,-0.007389,59.975494,31.469452,-146.414993,,,
729706749.086906,-0.240801,0.614957,122.311975,-0.011551,-0.007874,0.992935,0.007734,-0.001469,-0.007389,59.975494,31.469452,-146.414993,,,
729706749.087695,-0.240812,0.614924,-21.598212,-0.011551,-0.007874,0.992935,0.007734,-0.001469,-0.007389,59.975494,31.469452,-146.414993,,,
729706749.090214,-0.238083,0.612643,122.311058,-0.014572,-0.011734,0.994507,0.010291,-0.006874,-0.002771,59.975494,31.469452,-146.414993,,,
729706749.091542,-0.238093,0.61261,-21.59913,-0.014572,-0.011734,0.994507,0.010291,-0.006874,-0.002771,59.975494,31.469452,-146.414993,,,
729706749.09356,-0.238083,0.612643,122.311058,-0.014572,-0.011734,0.994507,0.010291,-0.006874,-0.002771,59.975494,31.469452,-146.414993,,,
729706749.094392,-0.235395,0.608688,-21.599331,-0.014572,-0.011734,0.994507,0.010291,-0.006874,-0.002771,59.975494,31.469452,-146.414993,,,
729706749.096885,-0.235385,0.608721,122.310854,-0.014572,-0.011734,0.994507,0.010291,-0.006874,-0.002771,59.975494,31.469452,-146.414993,,,
729706749.097689,-0.235395,0.608688,-21.599331,-0.014572,-0.011734,0.994507,0.010291,-0.006874,-0.002771,59.975494,31.469452,-146.414993,,,
729706749.100212,-0.23173,0.604992,122.311,-0.014572,-0.00975,0.993103,0.014218,-0.011206,-0.000359,59.975494,31.469452,-146.414993,,,
729706749.101743,-0.231741,0.604958,-21.599184,-0.014572,-0.00975,0.993103,0.014218,-0.011206,-0.000359,59.975494,31.469452,-146.414993,,,
729706749.103553,-0.23173,0.604992,122.311,-0.014572,-0.00975,0.993103,0.014218,-0.011206,-0.000359,59.975494,31.469452,-146.414993,,,
729706749.1044,-0.228832,0.600637,-21.599192,-0.014572,-0.00975,0.993103,0.014218,-0.011206,-0.000359,59.975494,31.469452,-146.414993,,,
729706749.106877,-0.228821,0.60067,122.310994,-0.014572,-0.00975,0.993103,0.014218,-0.011206,-0.000359,59.975494,31.469452,-146.414993,,,
729706749.107683,-0.228832,0.600637,-21.599192,-0.014572,-0.00975,0.993103,0.014218,-0.011206,-0.000359,59.975494,31.469452,-146.414993,,,
729706749.110309,-0.225786,0.597566,122.311263,-0.010208,-0.0056,0.994476,0.010973,-0.006631,0.00152,59.796646,31.466141,-146.463837,,,
729706749.112744,-0.225796,0.597532,-21.598922,-0.010208,-0.0056,0.994476,0.010973,-0.006631,0.00152,59.796646,31.466141,-146.463837,,,
729706749.113631,-0.225786,0.597566,122.311263,-0.010208,-0.0056,0.994476,0.010973,-0.006631,0.00152,59.796646,31.466141,-146.463837,,,
729706749.11476,-0.223835,0.595821,-21.598582,-0.010208,-0.0056,0.994476,0.010973,-0.006631,0.00152,59.796646,31.466141,-146.463837,,,
729706749.116962,-0.223825,0.595854,122.3116,-0.010208,-0.0056,0.994476,0.010973,-0.006631,0.00152,59.796646,31.466141,-146.463837,,,
729706749.117679,-0.223835,0.595821,-21.598582,-0.010208,-0.0056,0.994476,0.010973,-0.006631,0.00152,59.796646,31.466141,-146.463837,,,
729706749.120212,-0.221709,0.596556,122.310946,-0.007675,-0.003998,0.99118,0.00841,0.006819,-0.005417,59.796646,31.466141,-146.463837,,,
729706749.123352,-0.22172,0.596523,-21.599234,-0.007675,-0.003998,0.99118,0.00841,0.006819,-0.005417,59.796646,31.466141,-146.463837,,,
729706749.123635,-0.221709,0.596556,122.310946,-0.007675,-0.003998,0.99118,0.00841,0.006819,-0.005417,59.796646,31.466141,-146.463837,,,
729706749.124367,-0.219437,0.599031,-21.600663,-0.007675,-0.003998,0.99118,0.00841,0.006819,-0.005417,59.796646,31.466141,-146.463837,,,
729706749.126903,-0.219427,0.599064,122.309514,-0.007675,-0.003998,0.99118,0.00841,0.006819,-0.005417,59.796646,31.466141,-146.463837,,,
729706749.127726,-0.219437,0.599031,-21.600663,-0.007675,-0.003998,0.99118,0.00841,0.006819,-0.005417,59.796646,31.466141,-146.463837,,,
729706749.130228,-0.21661,0.604774,122.308385,-0.008865,-0.006668,0.992065,0.011125,0.027932,-0.003334,59.796646,31.466141,-146.463837,,,
729706749.131759,-0.21662,0.604741,-21.601795,-0.008865,-0.006668,0.992065,0.011125,0.027932,-0.003334,59.796646,31.466141,-146.463837,,,
729706749.133578,-0.21661,0.604774,122.308385,-0.008865,-0.006668,0.992065,0.011125,0.027932,-0.003334,59.796646,31.466141,-146.463837,,,
729706749.135059,-0.213419,0.61123,-21.602025,-0.008865,-0.006668,0.992065,0.011125,0.027932,-0.003334,59.796646,31.466141,-146.463837,,,
729706749.136907,-0.213408,0.611263,122.308155,-0.008865,-0.006668,0.992065,0.011125,0.027932,-0.003334,59.796646,31.466141,-146.463837,,,
729706749.137685,-0.213419,0.61123,-21.602025,-0.008865,-0.006668,0.992065,0.011125,0.027932,-0.003334,59.796646,31.466141,-146.463837,,,
729706749.140214,-0.210105,0.616674,122.308284,-0.011322,-0.010117,0.992416,0.012681,0.017589,-0.000812,59.796646,31.466141,-146.463837,,,
729706749.141613,-0.210116,0.616641,-21.601896,-0.011322,-0.010117,0.992416,0.012681,0.017589,-0.000812,59.796646,31.466141,-146.463837,,,
729706749.143561,-0.210105,0.616674,122.308284,-0.011322,-0.010117,0.992416,0.012681,0.017589,-0.000812,59.796646,31.466141,-146.463837,,,
729706749.144403,-0.207195,0.619262,-21.601176,-0.011322,-0.010117,0.992416,0.012681,0.017589,-0.000812,59.796646,31.466141,-146.463837,,,
729706749.146894,-0.207184,0.619295,122.309003,-0.011322,-0.010117,0.992416,0.012681,0.017589,-0.000812,59.796646,31.466141,-146.463837,,,
729706749.14768,-0.207195,0.619262,-21.601176,-0.011322,-0.010117,0.992416,0.012681,0.017589,-0.000812,59.796646,31.466141,-146.463837,,,
729706749.150213,-0.205248,0.620818,122.310483,-0.013687,-0.009109,0.985001,0.005834,0.006634,0.004407,59.745865,31.204956,-146.231903,,,
729706749.15313,-0.205259,0.620785,-21.599698,-0.013687,-0.009109,0.985001,0.005834,0.006634,0.004407,59.745865,31.204956,-146.231903,,,
729706749.153568,-0.205248,0.620818,122.310483,-0.013687,-0.009109,0.985001,0.005834,0.006634,0.004407,59.745865,31.204956,-146.231903,,,
729706749.154831,-0.204278,0.621222,-21.598363,-0.013687,-0.009109,0.985001,0.005834,0.006634,0.004407,59.745865,31.204956,-146.231903,,,
729706749.156886,-0.204268,0.621255,122.311822,-0.013687,-0.009109,0.985001,0.005834,0.006634,0.004407,59.745865,31.204956,-146.231903,,,
729706749.157692,-0.204278,0.621222,-21.598363,-0.013687,-0.009109,0.985001,0.005834,0.006634,0.004407,59.745865,31.204956,-146.231903,,,
729706749.160222,-0.204699,0.620623,122.31267,-0.010941,-0.003677,0.987457,-0.005149,-0.001957,0.000854,59.745865,31.204956,-146.231903,,,
729706749.163268,-0.20471,0.620589,-21.597514,-0.010941,-0.003677,0.987457,-0.005149,-0.001957,0.000854,59.745865,31.204956,-146.231903,,,
729706749.163589,-0.204699,0.620623,122.31267,-0.010941,-0.003677,0.987457,-0.005149,-0.001957,0.000854,59.745865,31.204956,-146.231903,,,
729706749.16479,-0.207933,0.619482,-21.596499,-0.010941,-0.003677,0.987457,-0.005149,-0.001957,0.000854,59.745865,31.204956,-146.231903,,,
729706749.166978,-0.207922,0.619515,122.313687,-0.010941,-0.003677,0.987457,-0.005149,-0.001957,0.000854,59.745865,31.204956,-146.231903,,,
729706749.167691,-0.207933,0.619482,-21.596499,-0.010941,-0.003677,0.987457,-0.005149,-0.001957,0.000854,59.745865,31.204956,-146.231903,,,
729706749.170209,-0.211033,0.618319,122.314564,-0.008667,-0.001953,0.986053,-0.00942,-0.000129,-0.000182,59.745865,31.204956,-146.231903,,,
729706749.172302,-0.211043,0.618285,-21.595621,-0.008667,-0.001953,0.986053,-0.00942,-0.000129,-0.000182,59.745865,31.204956,-146.231903,,,
729706749.173577,-0.211033,0.618319,122.314564,-0.008667,-0.001953,0.986053,-0.00942,-0.000129,-0.000182,59.745865,31.204956,-146.231903,,,
729706749.174391,-0.211043,0.618285,-21.595621,-0.008667,-0.001953,0.986053,-0.00942,-0.000129,-0.000182,59.745865,31.204956,-146.231903,,,
729706749.176907,-0.215092,0.618136,122.314651,-0.008667,-0.001953,0.986053,-0.00942,-0.000129,-0.000182,59.745865,31.204956,-146.231903,,,
729706749.178113,-0.215102,0.618103,-21.595536,-0.008667,-0.001953,0.986053,-0.00942,-0.000129,-0.000182,59.745865,31.204956,-146.231903,,,
729706749.180218,-0.218563,0.617778,122.313938,-0.006165,-0.005203,0.990128,-0.01189,0.002123,-0.005718,59.745865,31.204956,-146.231903,,,
729706749.182658,-0.218573,0.617745,-21.596246,-0.006165,-0.005203,0.990128,-0.01189,0.002123,-0.005718,59.745865,31.204956,-146.231903,,,
729706749.183564,-0.218563,0.617778,122.313938,-0.006165,-0.005203,0.990128,-0.01189,0.002123,-0.005718,59.745865,31.204956,-146.231903,,,
729706749.18441,-0.218573,0.617488,-21.597276,-0.006165,-0.005203,0.990128,-0.01189,0.002123,-0.005718,59.745865,31.204956,-146.231903,,,
729706749.186889,-0.222839,0.617521,122.312897,-0.006165,-0.005203,0.990128,-0.01189,0.002123,-0.005718,59.745865,31.204956,-146.231903,,,
729706749.187683,-0.22285,0.617488,-21.597276,-0.006165,-0.005203,0.990128,-0.01189,0.002123,-0.005718,59.745865,31.204956,-146.231903,,,
729706749.190205,-0.227754,0.616185,122.311976,-0.007477,-0.004364,0.988678,-0.019272,-0.002935,-0.00501,59.96814,31.325012,-146.440063,,,
729706749.19352,-0.227765,0.616152,-21.598199,-0.007477,-0.004364,0.988678,-0.019272,-0.002935,-0.00501,59.96814,31.325012,-146.440063,,,
729706749.194005,-0.227754,0.616185,122.311976,-0.007477,-0.004364,0.988678,-0.019272,-0.002935,-0.00501,59.96814,31.325012,-146.440063,,,
729706749.194322,-0.227765,0.616152,-21.598199,-0.007477,-0.004364,0.988678,-0.019272,-0.002935,-0.00501,59.96814,31.325012,-146.440063,,,
729706749.196937,-0.23352,0.61428,122.310966,-0.007477,-0.004364,0.988678,-0.019272,-0.002935,-0.00501,59.96814,31.325012,-146.440063,,,
729706749.198047,-0.23353,0.614247,-21.599205,-0.007477,-0.004364,0.988678,-0.019272,-0.002935,-0.00501,59.96814,31.325012,-146.440063,,,
729706749.200218,-0.239625,0.612211,122.309284,-0.006561,-0.002777,0.992126,-0.022088,-0.005129,-0.009732,59.96814,31.325012,-146.440063,,,
729706749.201578,-0.239636,0.612178,-21.600883,-0.006561,-0.002777,0.992126,-0.022088,-0.005129,-0.009732,59.96814,31.325012,-146.440063,,,
729706749.203547,-0.239625,0.612211,122.309284,-0.006561,-0.002777,0.992126,-0.022088,-0.005129,-0.009732,59.96814,31.325012,-146.440063,,,
729706749.204795,-0.246256,0.610443,-21.603449,-0.006561,-0.002777,0.992126,-0.022088,-0.005129,-0.009732,59.96814,31.325012,-146.440063,,,
729706749.206889,-0.246246,0.610477,122.306718,-0.006561,-0.002777,0.992126,-0.022088,-0.005129,-0.009732,59.96814,31.325012,-146.440063,,,
729706749.207686,-0.246256,0.610443,-21.603449,-0.006561,-0.002777,0.992126,-0.022088,-0.005129,-0.009732,59.96814,31.325012,-146.440063,,,
729706749.210227,-0.252687,0.610308,122.303712,-0.002869,-0.001984,0.994751,-0.021488,0.003293,-0.012849,59.96814,31.325012,-146.440063,,,
729706749.212682,-0.252698,0.610275,-21.606458,-0.002869,-0.001984,0.994751,-0.021488,0.003293,-0.012849,59.96814,31.325012,-146.440063,,,
729706749.213596,-0.252687,0.610308,122.303712,-0.002869,-0.001984,0.994751,-0.021488,0.003293,-0.012849,59.96814,31.325012,-146.440063,,,
729706749.214353,-0.252698,0.610275,-21.606458,-0.002869,-0.001984,0.994751,-0.021488,0.003293,-0.012849,59.96814,31.325012,-146.440063,,,
729706749.216876,-0.259301,0.610735,122.299821,-0.002869,-0.001984,0.994751,-0.021488,0.003293,-0.012849,59.96814,31.325012,-146.440063,,,
729706749.218061,-0.259311,0.610701,-21.610356,-0.002869,-0.001984,0.994751,-0.021488,0.003293,-0.012849,59.96814,31.325012,-146.440063,,,
729706749.220223,-0.265108,0.611997,122.295359,-0.001572,-0.005173,0.997787,-0.019843,0.009131,-0.016785,59.96814,31.325012,-146.440063,,,
729706749.222176,-0.265119,0.611964,-21.614822,-0.001572,-0.005173,0.997787,-0.019843,0.009131,-0.016785,59.96814,31.325012,-146.440063,,,
729706749.223568,-0.265108,0.611997,122.295359,-0.001572,-0.005173,0.997787,-0.019843,0.009131,-0.016785,59.96814,31.325012,-146.440063,,,
729706749.2244,-0.265119,0.611964,-21.614822,-0.001572,-0.005173,0.997787,-0.019843,0.009131,-0.016785,59.96814,31.325012,-146.440063,,,
729706749.226886,-0.27088,0.614609,122.291357,-0.001572,-0.005173,0.997787,-0.019843,0.009131,-0.016785,59.96814,31.325012,-146.440063,,,
729706749.227943,-0.27089,0.614575,-21.618821,-0.001572,-0.005173,0.997787,-0.019843,0.009131,-0.016785,59.96814,31.325012,-146.440063,,,
729706749.230212,-0.275043,0.618471,122.287559,-0.003998,-0.006271,0.996368,-0.013148,0.019688,-0.015316,59.96814,31.325012,-146.440063,,,
729706749.232659,-0.275053,0.618438,-21.622619,-0.003998,-0.006271,0.996368,-0.013148,0.019688,-0.015316,59.853958,31.523758,-146.31813,,,
729706749.233568,-0.275043,0.618471,122.287559,-0.003998,-0.006271,0.996368,-0.013148,0.019688,-0.015316,59.853958,31.523758,-146.31813,,,
729706749.234355,-0.275053,0.618438,-21.622619,-0.003998,-0.006271,0.996368,-0.013148,0.019688,-0.015316,59.853958,31.523758,-146.31813,,,
729706749.236895,-0.279101,0.624732,122.283457,-0.003998,-0.006271,0.996368,-0.013148,0.019688,-0.015316,59.853958,31.523758,-146.31813,,,
729706749.237936,-0.279111,0.624699,-21.626726,-0.003998,-0.006271,0.996368,-0.013148,0.019688,-0.015316,59.853958,31.523758,-146.31813,,,
729706749.240214,-0.282608,0.633659,122.279814,-0.005997,-0.004639,0.99765,-0.011161,0.039531,-0.012053,59.853958,31.523758,-146.31813,,,
729706749.24216,-0.282618,0.633626,-21.630368,-0.005997,-0.004639,0.99765,-0.011161,0.039531,-0.012053,59.853958,31.523758,-146.31813,,,
729706749.243558,-0.282608,0.633659,122.279814,-0.005997,-0.004639,0.99765,-0.011161,0.039531,-0.012053,59.853958,31.523758,-146.31813,,,
729706749.244357,-0.282618,0.633626,-21.630368,-0.005997,-0.004639,0.99765,-0.011161,0.039531,-0.012053,59.853958,31.523758,-146.31813,,,
729706749.24691,-0.285677,0.644545,122.276823,-0.005997,-0.004639,0.99765,-0.011161,0.039531,-0.012053,59.853958,31.523758,-146.31813,,,
729706749.24832,-0.285687,0.644512,-21.633357,-0.005997,-0.004639,0.99765,-0.011161,0.039531,-0.012053,59.853958,31.523758,-146.31813,,,
729706749.250215,-0.289474,0.656139,122.274126,-0.009216,-0.001709,0.99353,-0.014004,0.043816,-0.010033,59.853958,31.523758,-146.31813,,,
729706749.251845,-0.289485,0.656106,-21.636051,-0.009216,-0.001709,0.99353,-0.014004,0.043816,-0.010033,59.853958,31.523758,-146.31813,,,
729706749.253643,-0.289474,0.656139,122.274126,-0.009216,-0.001709,0.99353,-0.014004,0.043816,-0.010033,59.853958,31.523758,-146.31813,,,
729706749.254389,-0.289485,0.656106,-21.636051,-0.009216,-0.001709,0.99353,-0.014004,0.043816,-0.010033,59.853958,31.523758,-146.31813,,,
729706749.256937,-0.29421,0.667871,122.271388,-0.009216,-0.001709,0.99353,-0.014004,0.043816,-0.010033,59.853958,31.523758,-146.31813,,,
729706749.25818,-0.294221,0.667838,-21.638789,-0.009216,-0.001709,0.99353,-0.014004,0.043816,-0.010033,59.853958,31.523758,-146.31813,,,
729706749.260271,-0.300911,0.679798,122.268331,-0.014618,0.002655,0.986282,-0.026235,0.042125,-0.012454,59.853958,31.523758,-146.31813,,,
729706749.263424,-0.300921,0.679765,-21.641848,-0.014618,0.002655,0.986282,-0.026235,0.042125,-0.012454,59.853958,31.523758,-146.31813,,,
729706749.263707,-0.300911,0.679798,122.268331,-0.014618,0.002655,0.986282,-0.026235,0.042125,-0.012454,59.853958,31.523758,-146.31813,,,
729706749.264364,-0.300921,0.679765,-21.641848,-0.014618,0.002655,0.986282,-0.026235,0.042125,-0.012454,59.853958,31.523758,-146.31813,,,
729706749.266965,-0.310161,0.689435,122.264825,-0.014618,0.002655,0.986282,-0.026235,0.042125,-0.012454,59.853958,31.523758,-146.31813,,,
729706749.26859,-0.310172,0.689402,-21.645355,-0.014618,0.002655,0.986282,-0.026235,0.042125,-0.012454,59.853958,31.523758,-146.31813,,,
729706749.270243,-0.321749,0.697455,122.261338,-0.020813,0.002823,0.984238,-0.042583,0.026351,-0.012614,59.853958,31.523758,-146.31813,,,
729706749.273107,-0.321759,0.697422,-21.648845,-0.020813,0.002823,0.984238,-0.042583,0.026351,-0.012614,59.810593,31.415634,-146.550858,,,
729706749.273552,-0.321749,0.697455,122.261338,-0.020813,0.002823,0.984238,-0.042583,0.026351,-0.012614,59.810593,31.415634,-146.550858,,,
729706749.27438,-0.321759,0.697422,-21.648845,-0.020813,0.002823,0.984238,-0.042583,0.026351,-0.012614,59.810593,31.415634,-146.550858,,,
729706749.276873,-0.334354,0.702231,122.258143,-0.020813,0.002823,0.984238,-0.042583,0.026351,-0.012614,59.810593,31.415634,-146.550858,,,
729706749.278039,-0.334364,0.702198,-21.652038,-0.020813,0.002823,0.984238,-0.042583,0.026351,-0.012614,59.810593,31.415634,-146.550858,,,
729706749.280214,-0.348045,0.704394,122.254791,-0.022415,-0.000183,0.98378,-0.048776,0.004554,-0.013798,59.810593,31.415634,-146.550858,,,
729706749.283151,-0.348055,0.704361,-21.655389,-0.022415,-0.000183,0.98378,-0.048776,0.004554,-0.013798,59.810593,31.415634,-146.550858,,,
729706749.283593,-0.348045,0.704394,122.254791,-0.022415,-0.000183,0.98378,-0.048776,0.004554,-0.013798,59.810593,31.415634,-146.550858,,,
729706749.284366,-0.348055,0.704361,-21.655389,-0.022415,-0.000183,0.98378,-0.048776,0.004554,-0.013798,59.810593,31.415634,-146.550858,,,
729706749.286875,-0.362016,0.70219,122.251574,-0.022415,-0.000183,0.98378,-0.048776,0.004554,-0.013798,59.810593,31.415634,-146.550858,,,
729706749.288034,-0.362027,0.702157,-21.658608,-0.022415,-0.000183,0.98378,-0.048776,0.004554,-0.013798,59.810593,31.415634,-146.550858,,,
729706749.29021,-0.377332,0.698399,122.248136,-0.024506,-0.001801,0.989746,-0.054417,-0.013156,-0.015422,59.810593,31.415634,-146.550858,,,
729706749.292836,-0.377342,0.698366,-21.662047,-0.024506,-0.001801,0.989746,-0.054417,-0.013156,-0.015422,59.810593,31.415634,-146.550858,,,
729706749.293591,-0.377332,0.698399,122.248136,-0.024506,-0.001801,0.989746,-0.054417,-0.013156,-0.015422,59.810593,31.415634,-146.550858,,,
729706749.294361,-0.377342,0.698366,-21.662047,-0.024506,-0.001801,0.989746,-0.054417,-0.013156,-0.015422,59.810593,31.415634,-146.550858,,,
729706749.296902,-0.392611,0.691383,122.244474,-0.024506,-0.001801,0.989746,-0.054417,-0.013156,-0.015422,59.810593,31.415634,-146.550858,,,
729706749.298572,-0.392621,0.691349,-21.665712,-0.024506,-0.001801,0.989746,-0.054417,-0.013156,-0.015422,59.810593,31.415634,-146.550858,,,
729706749.300212,-0.406645,0.684109,122.240881,-0.024063,-0.0047,0.999878,-0.043288,-0.023607,-0.01485,59.810593,31.415634,-146.550858,,,
729706749.30246,-0.406655,0.684075,-21.669307,-0.024063,-0.0047,0.999878,-0.043288,-0.023607,-0.01485,59.810593,31.415634,-146.550858,,,
729706749.303553,-0.406645,0.684109,122.240881,-0.024063,-0.0047,0.999878,-0.043288,-0.023607,-0.01485,59.810593,31.415634,-146.550858,,,
729706749.304354,-0.406655,0.684075,-21.669307,-0.024063,-0.0047,0.999878,-0.043288,-0.023607,-0.01485,59.810593,31.415634,-146.550858,,,
729706749.306887,-0.418452,0.675387,122.237281,-0.024063,-0.0047,0.999878,-0.043288,-0.023607,-0.01485,59.810593,31.415634,-146.550858,,,
729706749.308021,-0.418463,0.675353,-21.672894,-0.024063,-0.0047,0.999878,-0.043288,-0.023607,-0.01485,59.810593,31.415634,-146.550858,,,
729706749.310231,-0.427868,0.668344,122.233762,-0.020172,-0.010437,1.011292,-0.025533,-0.019557,-0.014171,59.810593,31.415634,-146.550858,,,
729706749.312577,-0.427878,0.668311,-21.676414,-0.020172,-0.010437,1.011292,-0.025533,-0.019557,-0.014171,59.810593,31.415634,-146.550858,,,
729706749.313554,-0.427868,0.668344,122.233762,-0.020172,-0.010437,1.011292,-0.025533,-0.019557,-0.014171,59.728638,31.441895,-146.511673,,,
729706749.315047,-0.427878,0.668311,-21.676414,-0.020172,-0.010437,1.011292,-0.025533,-0.019557,-0.014171,59.728638,31.441895,-146.511673,,,
729706749.316992,-0.434325,0.662098,122.230462,-0.020172,-0.010437,1.011292,-0.025533,-0.019557,-0.014171,59.728638,31.441895,-146.511673,,,
729706749.318129,-0.434335,0.662064,-21.679717,-0.020172,-0.010437,1.011292,-0.025533,-0.019557,-0.014171,59.728638,31.441895,-146.511673,,,
729706749.320229,-0.439053,0.659968,122.227788,-0.018341,-0.014542,1.018524,-0.012154,0.003552,-0.009682,59.728638,31.441895,-146.511673,,,
729706749.323056,-0.439063,0.659935,-21.682394,-0.018341,-0.014542,1.018524,-0.012154,0.003552,-0.009682,59.728638,31.441895,-146.511673,,,
729706749.323601,-0.439053,0.659968,122.227788,-0.018341,-0.014542,1.018524,-0.012154,0.003552,-0.009682,59.728638,31.441895,-146.511673,,,
729706749.324386,-0.439063,0.659935,-21.682394,-0.018341,-0.014542,1.018524,-0.012154,0.003552,-0.009682,59.728638,31.441895,-146.511673,,,
729706749.326915,-0.440602,0.661129,122.226056,-0.018341,-0.014542,1.018524,-0.012154,0.003552,-0.009682,59.728638,31.441895,-146.511673,,,
729706749.327689,-0.440612,0.661096,-21.684126,-0.018341,-0.014542,1.018524,-0.012154,0.003552,-0.009682,59.728638,31.441895,-146.511673,,,
729706749.330233,-0.43999,0.666418,122.225617,-0.019867,-0.019363,1.020874,0.006534,0.028552,-0.000478,59.728638,31.441895,-146.511673,,,
729706749.33308,-0.44,0.666385,-21.684563,-0.019867,-0.019363,1.020874,0.006534,0.028552,-0.000478,59.728638,31.441895,-146.511673,,,
729706749.33359,-0.43999,0.666418,122.225617,-0.019867,-0.019363,1.020874,0.006534,0.028552,-0.000478,59.728638,31.441895,-146.511673,,,
729706749.334363,-0.44,0.666385,-21.684563,-0.019867,-0.019363,1.020874,0.006534,0.028552,-0.000478,59.728638,31.441895,-146.511673,,,
729706749.336908,-0.436934,0.674802,122.227026,-0.019867,-0.019363,1.020874,0.006534,0.028552,-0.000478,59.728638,31.441895,-146.511673,,,
729706749.337687,-0.436945,0.674769,-21.683152,-0.019867,-0.019363,1.020874,0.006534,0.028552,-0.000478,59.728638,31.441895,-146.511673,,,
729706749.340212,-0.433516,0.685005,122.230483,-0.023605,-0.018631,1.016159,0.015182,0.041012,0.013866,59.728638,31.441895,-146.511673,,,
729706749.34318,-0.433527,0.684972,-21.679698,-0.023605,-0.018631,1.016159,0.015182,0.041012,0.013866,59.728638,31.441895,-146.511673,,,
729706749.343696,-0.433516,0.685005,122.230483,-0.023605,-0.018631,1.016159,0.015182,0.041012,0.013866,59.728638,31.441895,-146.511673,,,
729706749.344413,-0.433527,0.684972,-21.679698,-0.023605,-0.018631,1.016159,0.015182,0.041012,0.013866,59.728638,31.441895,-146.511673,,,
729706749.346913,-0.428035,0.69702,122.235652,-0.023605,-0.018631,1.016159,0.015182,0.041012,0.013866,59.728638,31.441895,-146.511673,,,
729706749.348347,-0.428045,0.696986,-21.674518,-0.023605,-0.018631,1.016159,0.015182,0.041012,0.013866,59.728638,31.441895,-146.511673,,,
729706749.3503,-0.423807,0.707941,122.242282,-0.021561,-0.012955,1.011566,0.015271,0.038573,0.024006,59.728638,31.441895,-146.511673,,,
729706749.352262,-0.423817,0.707908,-21.667888,-0.021561,-0.012955,1.011566,0.015271,0.038573,0.024006,59.728638,31.441895,-146.511673,,,
729706749.353623,-0.423807,0.707941,122.242282,-0.021561,-0.012955,1.011566,0.015271,0.038573,0.024006,59.728638,31.441895,-146.511673,,,
729706749.355151,-0.423817,0.707908,-21.667888,-0.021561,-0.012955,1.011566,0.015271,0.038573,0.024006,59.901077,31.353897,-146.176926,,,
729706749.356915,-0.418896,0.718419,122.249773,-0.021561,-0.012955,1.011566,0.015271,0.038573,0.024006,59.901077,31.353897,-146.176926,,,
729706749.358277,-0.418906,0.718385,-21.660399,-0.021561,-0.012955,1.011566,0.015271,0.038573,0.024006,59.901077,31.353897,-146.176926,,,
729706749.360243,-0.415667,0.725951,122.257628,-0.018509,-0.008972,1.006424,0.009838,0.02644,0.026531,59.901077,31.353897,-146.176926,,,
729706749.362212,-0.415677,0.725918,-21.652547,-0.018509,-0.008972,1.006424,0.009838,0.02644,0.026531,59.901077,31.353897,-146.176926,,,
729706749.363575,-0.415667,0.725951,122.257628,-0.018509,-0.008972,1.006424,0.009838,0.02644,0.026531,59.901077,31.353897,-146.176926,,,
729706749.364363,-0.415677,0.725918,-21.652547,-0.018509,-0.008972,1.006424,0.009838,0.02644,0.026531,59.901077,31.353897,-146.176926,,,
729706749.366965,-0.411499,0.733236,122.264827,-0.018509,-0.008972,1.006424,0.009838,0.02644,0.026531,59.901077,31.353897,-146.176926,,,
729706749.368047,-0.41151,0.733203,-21.645349,-0.018509,-0.008972,1.006424,0.009838,0.02644,0.026531,59.901077,31.353897,-146.176926,,,
729706749.370219,-0.407781,0.737185,122.270652,-0.01355,-0.006744,1.000137,0.011621,0.012604,0.0171,59.901077,31.353897,-146.176926,,,
729706749.372389,-0.407792,0.737152,-21.639525,-0.01355,-0.006744,1.000137,0.011621,0.012604,0.0171,59.901077,31.353897,-146.176926,,,
729706749.373569,-0.407781,0.737185,122.270652,-0.01355,-0.006744,1.000137,0.011621,0.012604,0.0171,59.901077,31.353897,-146.176926,,,
729706749.374358,-0.407792,0.737152,-21.639525,-0.01355,-0.006744,1.000137,0.011621,0.012604,0.0171,59.901077,31.353897,-146.176926,,,
729706749.37691,-0.404072,0.739972,122.275418,-0.01355,-0.006744,1.000137,0.011621,0.012604,0.0171,59.901077,31.353897,-146.176926,,,
729706749.378256,-0.404083,0.739939,-21.634761,-0.01355,-0.006744,1.000137,0.011621,0.012604,0.0171,59.901077,31.353897,-146.176926,,,
729706749.380225,-0.400542,0.737677,122.27926,-0.0103,-0.009155,0.998047,0.014328,-0.012982,0.010736,59.901077,31.353897,-146.176926,,,
729706749.382477,-0.400553,0.737644,-21.630924,-0.0103,-0.009155,0.998047,0.014328,-0.012982,0.010736,59.901077,31.353897,-146.176926,,,
729706749.383598,-0.400542,0.737677,122.27926,-0.0103,-0.009155,0.998047,0.014328,-0.012982,0.010736,59.901077,31.353897,-146.176926,,,
729706749.384354,-0.400553,0.737644,-21.630924,-0.0103,-0.009155,0.998047,0.014328,-0.012982,0.010736,59.901077,31.353897,-146.176926,,,
729706749.386897,-0.396752,0.7334,122.28232,-0.0103,-0.009155,0.998047,0.014328,-0.012982,0.010736,59.901077,31.353897,-146.176926,,,
729706749.388067,-0.396762,0.733367,-21.62786,-0.0103,-0.009155,0.998047,0.014328,-0.012982,0.010736,59.901077,31.353897,-146.176926,,,
729706749.390218,-0.393101,0.726405,122.284616,-0.00647,-0.006729,0.999908,0.013504,-0.023815,0.005436,59.901077,31.353897,-146.176926,,,
729706749.391618,-0.393112,0.726372,-21.625563,-0.00647,-0.006729,0.999908,0.013504,-0.023815,0.005436,59.901077,31.353897,-146.176926,,,
729706749.39355,-0.393101,0.726405,122.284616,-0.00647,-0.006729,0.999908,0.013504,-0.023815,0.005436,59.901077,31.353897,-146.176926,,,
729706749.394401,-0.393112,0.726372,-21.625563,-0.00647,-0.006729,0.999908,0.013504,-0.023815,0.005436,59.901077,31.353897,-146.176926,,,
729706749.396894,-0.389232,0.719726,122.28638,-0.00647,-0.006729,0.999908,0.013504,-0.023815,0.005436,59.91861,31.423386,-146.430634,,,
729706749.398872,-0.389242,0.719692,-21.623799,-0.00647,-0.006729,0.999908,0.013504,-0.023815,0.005436,59.91861,31.423386,-146.430634,,,
729706749.400218,-0.383388,0.713248,122.288028,-0.000244,-0.008148,1.005493,0.02243,-0.017965,0.004765,59.91861,31.423386,-146.430634,,,
729706749.402453,-0.383399,0.713214,-21.622149,-0.000244,-0.008148,1.005493,0.02243,-0.017965,0.004765,59.91861,31.423386,-146.430634,,,
729706749.403545,-0.383388,0.713248,122.288028,-0.000244,-0.008148,1.005493,0.02243,-0.017965,0.004765,59.91861,31.423386,-146.430634,,,
729706749.404394,-0.383399,0.713214,-21.622149,-0.000244,-0.008148,1.005493,0.02243,-0.017965,0.004765,59.91861,31.423386,-146.430634,,,
729706749.406884,-0.378297,0.708937,122.28936,-0.000244,-0.008148,1.005493,0.02243,-0.017965,0.004765,59.91861,31.423386,-146.430634,,,
729706749.407684,-0.378307,0.708903,-21.620819,-0.000244,-0.008148,1.005493,0.02243,-0.017965,0.004765,59.91861,31.423386,-146.430634,,,
729706749.410226,-0.372206,0.705438,122.290499,0.005981,-0.006531,1.005569,0.021115,-0.006951,0.003493,59.91861,31.423386,-146.430634,,,
729706749.412825,-0.372217,0.705405,-21.619682,0.005981,-0.006531,1.005569,0.021115,-0.006951,0.003493,59.91861,31.423386,-146.430634,,,
729706749.413612,-0.372206,0.705438,122.290499,0.005981,-0.006531,1.005569,0.021115,-0.006951,0.003493,59.91861,31.423386,-146.430634,,,
729706749.414354,-0.372217,0.705405,-21.619682,0.005981,-0.006531,1.005569,0.021115,-0.006951,0.003493,59.91861,31.423386,-146.430634,,,
729706749.416976,-0.368411,0.704949,122.292009,0.005981,-0.006531,1.005569,0.021115,-0.006951,0.003493,59.91861,31.423386,-146.430634,,,
729706749.418053,-0.368422,0.704915,-21.618174,0.005981,-0.006531,1.005569,0.021115,-0.006951,0.003493,59.91861,31.423386,-146.430634,,,
729706749.420217,-0.364299,0.706031,122.293103,0.007416,-0.004395,1.001602,0.013222,0.012006,0.00055,59.91861,31.423386,-146.430634,,,
729706749.423352,-0.36431,0.705998,-21.617078,0.007416,-0.004395,1.001602,0.013222,0.012006,0.00055,59.91861,31.423386,-146.430634,,,
729706749.423635,-0.364299,0.706031,122.293103,0.007416,-0.004395,1.001602,0.013222,0.012006,0.00055,59.91861,31.423386,-146.430634,,,
729706749.424356,-0.36431,0.705998,-21.617078,0.007416,-0.004395,1.001602,0.013222,0.012006,0.00055,59.91861,31.423386,-146.430634,,,
729706749.426908,-0.362833,0.710835,122.29344,0.007416,-0.004395,1.001602,0.013222,0.012006,0.00055,59.91861,31.423386,-146.430634,,,
729706749.427688,-0.362843,0.710801,-21.616744,0.007416,-0.004395,1.001602,0.013222,0.012006,0.00055,59.91861,31.423386,-146.430634,,,
729706749.430214,-0.361658,0.716705,122.293577,0.01088,-0.001251,0.997406,0.003167,0.027998,-0.000916,59.91861,31.423386,-146.430634,,,
729706749.432838,-0.361669,0.716672,-21.616606,0.01088,-0.001251,0.997406,0.003167,0.027998,-0.000916,59.91861,31.423386,-146.430634,,,
729706749.433593,-0.361658,0.716705,122.293577,0.01088,-0.001251,0.997406,0.003167,0.027998,-0.000916,59.91861,31.423386,-146.430634,,,
729706749.434359,-0.361669,0.716672,-21.616606,0.01088,-0.001251,0.997406,0.003167,0.027998,-0.000916,59.91861,31.423386,-146.430634,,,
729706749.436904,-0.362443,0.725461,122.293437,0.01088,-0.001251,0.997406,0.003167,0.027998,-0.000916,60.17897,31.632446,-146.000458,,,
729706749.438655,-0.362453,0.725428,-21.616744,0.01088,-0.001251,0.997406,0.003167,0.027998,-0.000916,60.17897,31.632446,-146.000458,,,
729706749.440219,-0.364318,0.734126,122.29291,0.006683,-0.002487,0.993317,-0.007611,0.033343,-0.003711,60.17897,31.632446,-146.000458,,,
729706749.442329,-0.364328,0.734092,-21.617271,0.006683,-0.002487,0.993317,-0.007611,0.033343,-0.003711,60.17897,31.632446,-146.000458,,,
729706749.44358,-0.364318,0.734126,122.29291,0.006683,-0.002487,0.993317,-0.007611,0.033343,-0.003711,60.17897,31.632446,-146.000458,,,
729706749.444363,-0.364328,0.734092,-21.617271,0.006683,-0.002487,0.993317,-0.007611,0.033343,-0.003711,60.17897,31.632446,-146.000458,,,
729706749.446911,-0.367127,0.742937,122.291791,0.006683,-0.002487,0.993317,-0.007611,0.033343,-0.003711,60.17897,31.632446,-146.000458,,,
729706749.44838,-0.367137,0.742904,-21.618396,0.006683,-0.002487,0.993317,-0.007611,0.033343,-0.003711,60.17897,31.632446,-146.000458,,,
729706749.450223,-0.369906,0.749813,122.290006,0.00087,-0.002777,0.99115,-0.008525,0.022527,-0.008285,60.17897,31.632446,-146.000458,,,
729706749.451987,-0.369917,0.74978,-21.620179,0.00087,-0.002777,0.99115,-0.008525,0.022527,-0.008285,60.17897,31.632446,-146.000458,,,
729706749.453545,-0.369906,0.749813,122.290006,0.00087,-0.002777,0.99115,-0.008525,0.022527,-0.008285,60.17897,31.632446,-146.000458,,,
729706749.454417,-0.369917,0.74978,-21.620179,0.00087,-0.002777,0.99115,-0.008525,0.022527,-0.008285,60.17897,31.632446,-146.000458,,,
729706749.456892,-0.373173,0.754264,122.287624,0.00087,-0.002777,0.99115,-0.008525,0.022527,-0.008285,60.17897,31.632446,-146.000458,,,
729706749.457689,-0.373184,0.75423,-21.622547,0.00087,-0.002777,0.99115,-0.008525,0.022527,-0.008285,60.17897,31.632446,-146.000458,,,
729706749.460229,-0.377011,0.756533,122.283919,-0.005844,-0.003571,0.989273,-0.013171,0.006765,-0.017633,60.17897,31.632446,-146.000458,,,
729706749.463564,-0.377022,0.756499,-21.626251,-0.005844,-0.003571,0.989273,-0.013171,0.006765,-0.017633,60.17897,31.632446,-146.000458,,,
729706749.463841,-0.377011,0.756533,122.283919,-0.005844,-0.003571,0.989273,-0.013171,0.006765,-0.017633,60.17897,31.632446,-146.000458,,,
729706749.464336,-0.377022,0.756499,-21.626251,-0.005844,-0.003571,0.989273,-0.013171,0.006765,-0.017633,60.17897,31.632446,-146.000458,,,
729706749.466973,-0.381534,0.756404,122.279445,-0.005844,-0.003571,0.989273,-0.013171,0.006765,-0.017633,60.17897,31.632446,-146.000458,,,
729706749.467694,-0.381544,0.756371,-21.630727,-0.005844,-0.003571,0.989273,-0.013171,0.006765,-0.017633,60.17897,31.632446,-146.000458,,,
729706749.470211,-0.385607,0.756329,122.274874,-0.008743,-0.005234,0.991837,-0.010993,0.003426,-0.018286,60.17897,31.632446,-146.000458,,,
729706749.472077,-0.385617,0.756296,-21.635296,-0.008743,-0.005234,0.991837,-0.010993,0.003426,-0.018286,60.17897,31.632446,-146.000458,,,
729706749.473576,-0.385607,0.756329,122.274874,-0.008743,-0.005234,0.991837,-0.010993,0.003426,-0.018286,60.17897,31.632446,-146.000458,,,
729706749.474359,-0.385617,0.756296,-21.635296,-0.008743,-0.005234,0.991837,-0.010993,0.003426,-0.018286,60.17897,31.632446,-146.000458,,,
729706749.47688,-0.389386,0.754527,122.269913,-0.008743,-0.005234,0.991837,-0.010993,0.003426,-0.018286,59.945587,31.523529,-146.271454,,,
729706749.478643,-0.389396,0.754493,-21.640259,-0.008743,-0.005234,0.991837,-0.010993,0.003426,-0.018286,59.945587,31.523529,-146.271454,,,
729706749.480217,-0.393144,0.753582,122.264968,-0.013733,-0.008469,0.996292,-0.011168,0.001542,-0.018232,59.945587,31.523529,-146.271454,,,
729706749.481475,-0.393155,0.753548,-21.645204,-0.013733,-0.008469,0.996292,-0.011168,0.001542,-0.018232,59.945587,31.523529,-146.271454,,,
729706749.483543,-0.393144,0.753582,122.264968,-0.013733,-0.008469,0.996292,-0.011168,0.001542,-0.018232,59.945587,31.523529,-146.271454,,,
729706749.484354,-0.393155,0.753548,-21.645204,-0.013733,-0.008469,0.996292,-0.011168,0.001542,-0.018232,59.945587,31.523529,-146.271454,,,
729706749.486867,-0.396517,0.751335,122.260603,-0.013733,-0.008469,0.996292,-0.011168,0.001542,-0.018232,59.945587,31.523529,-146.271454,,,
729706749.488052,-0.396527,0.751301,-21.649568,-0.013733,-0.008469,0.996292,-0.011168,0.001542,-0.018232,59.945587,31.523529,-146.271454,,,
729706749.490206,-0.399454,0.75108,122.257043,-0.016907,-0.010468,0.999374,-0.008983,0.001721,-0.012714,59.945587,31.523529,-146.271454,,,
729706749.491602,-0.399465,0.751047,-21.65313,-0.016907,-0.010468,0.999374,-0.008983,0.001721,-0.012714,59.945587,31.523529,-146.271454,,,
729706749.493586,-0.399454,0.75108,122.257043,-0.016907,-0.010468,0.999374,-0.008983,0.001721,-0.012714,59.945587,31.523529,-146.271454,,,
729706749.494392,-0.399465,0.751047,-21.65313,-0.016907,-0.010468,0.999374,-0.008983,0.001721,-0.012714,59.945587,31.523529,-146.271454,,,
729706749.49687,-0.401506,0.748705,122.254122,-0.016907,-0.010468,0.999374,-0.008983,0.001721,-0.012714,59.945587,31.523529,-146.271454,,,
729706749.497944,-0.401517,0.748671,-21.656057,-0.016907,-0.010468,0.999374,-0.008983,0.001721,-0.012714,59.945587,31.523529,-146.271454,,,
729706749.500214,-0.403313,0.749764,122.252078,-0.019196,-0.010193,1.003448,-0.005762,0.008661,-0.006633,59.945587,31.523529,-146.271454,,,
729706749.501268,-0.403324,0.74973,-21.658098,-0.019196,-0.010193,1.003448,-0.005762,0.008661,-0.006633,59.945587,31.523529,-146.271454,,,
729706749.503546,-0.403313,0.749764,122.252078,-0.019196,-0.010193,1.003448,-0.005762,0.008661,-0.006633,59.945587,31.523529,-146.271454,,,
729706749.504412,-0.403324,0.74973,-21.658098,-0.019196,-0.010193,1.003448,-0.005762,0.008661,-0.006633,59.945587,31.523529,-146.271454,,,
729706749.506859,-0.403854,0.749423,122.250873,-0.019196,-0.010193,1.003448,-0.005762,0.008661,-0.006633,59.945587,31.523529,-146.271454,,,
729706749.507684,-0.403865,0.749389,-21.659305,-0.019196,-0.010193,1.003448,-0.005762,0.008661,-0.006633,59.945587,31.523529,-146.271454,,,
729706749.510229,-0.403806,0.752708,122.250112,-0.02037,-0.011124,1.002838,0.001457,0.01502,-0.003561,59.945587,31.523529,-146.271454,,,
729706749.512812,-0.403816,0.752675,-21.660066,-0.02037,-0.011124,1.002838,0.001457,0.01502,-0.003561,59.945587,31.523529,-146.271454,,,
729706749.51357,-0.403806,0.752708,122.250112,-0.02037,-0.011124,1.002838,0.001457,0.01502,-0.003561,59.945587,31.523529,-146.271454,,,
729706749.514409,-0.403816,0.752675,-21.660066,-0.02037,-0.011124,1.002838,0.001457,0.01502,-0.003561,59.945587,31.523529,-146.271454,,,
729706749.516877,-0.403647,0.753576,122.249083,-0.02037,-0.011124,1.002838,0.001457,0.01502,-0.003561,59.945587,31.523529,-146.271454,,,
729706749.518483,-0.403657,0.753543,-21.661091,-0.02037,-0.011124,1.002838,0.001457,0.01502,-0.003561,59.978104,31.381104,-145.92514,,,
729706749.520248,-0.404716,0.756989,122.24782,-0.016312,-0.009857,0.999466,-0.002306,0.015104,-0.005398,59.978104,31.381104,-145.92514,,,
729706749.522895,-0.404727,0.756956,-21.662352,-0.016312,-0.009857,0.999466,-0.002306,0.015104,-0.005398,59.978104,31.381104,-145.92514,,,
729706749.523587,-0.404716,0.756989,122.24782,-0.016312,-0.009857,0.999466,-0.002306,0.015104,-0.005398,59.978104,31.381104,-145.92514,,,
729706749.524314,-0.404727,0.756956,-21.662352,-0.016312,-0.009857,0.999466,-0.002306,0.015104,-0.005398,59.978104,31.381104,-145.92514,,,
729706749.526874,-0.40556,0.757864,122.246773,-0.016312,-0.009857,0.999466,-0.002306,0.015104,-0.005398,59.978104,31.381104,-145.92514,,,
729706749.52791,-0.40557,0.757831,-21.6634,-0.016312,-0.009857,0.999466,-0.002306,0.015104,-0.005398,59.978104,31.381104,-145.92514,,,
729706749.530198,-0.407238,0.760626,122.245355,-0.018341,-0.00737,1.000488,-0.005001,0.013185,-0.008126,59.978104,31.381104,-145.92514,,,
729706749.531233,-0.407248,0.760593,-21.664819,-0.018341,-0.00737,1.000488,-0.005001,0.013185,-0.008126,59.978104,31.381104,-145.92514,,,
729706749.533497,-0.407238,0.760626,122.245355,-0.018341,-0.00737,1.000488,-0.005001,0.013185,-0.008126,59.978104,31.381104,-145.92514,,,
729706749.534346,-0.407248,0.760593,-21.664819,-0.018341,-0.00737,1.000488,-0.005001,0.013185,-0.008126,59.978104,31.381104,-145.92514,,,
729706749.536879,-0.408336,0.761987,122.243443,-0.018341,-0.00737,1.000488,-0.005001,0.013185,-0.008126,59.978104,31.381104,-145.92514,,,
729706749.538021,-0.408346,0.761954,-21.666732,-0.018341,-0.00737,1.000488,-0.005001,0.013185,-0.008126,59.978104,31.381104,-145.92514,,,
729706749.540227,-0.409045,0.763848,122.241107,-0.019363,-0.007263,1.004318,0.0003,0.008722,-0.011087,59.978104,31.381104,-145.92514,,,
729706749.542361,-0.409056,0.763815,-21.669069,-0.019363,-0.007263,1.004318,0.0003,0.008722,-0.011087,59.978104,31.381104,-145.92514,,,
729706749.543577,-0.409045,0.763848,122.241107,-0.019363,-0.007263,1.004318,0.0003,0.008722,-0.011087,59.978104,31.381104,-145.92514,,,
729706749.544368,-0.409056,0.763815,-21.669069,-0.019363,-0.007263,1.004318,0.0003,0.008722,-0.011087,59.978104,31.381104,-145.92514,,,
729706749.546881,-0.40798,0.764434,122.239054,-0.019363,-0.007263,1.004318,0.0003,0.008722,-0.011087,59.978104,31.381104,-145.92514,,,
729706749.547686,-0.40799,0.7644,-21.671129,-0.019363,-0.007263,1.004318,0.0003,0.008722,-0.011087,59.978104,31.381104,-145.92514,,,
729706749.550298,-0.406189,0.765071,122.237778,-0.020706,-0.012054,1.006317,0.00732,0.004274,-0.005605,59.978104,31.381104,-145.92514,,,
729706749.552268,-0.4062,0.765038,-21.672409,-0.020706,-0.012054,1.006317,0.00732,0.004274,-0.005605,59.978104,31.381104,-145.92514,,,
729706749.553579,-0.406189,0.765071,122.237778,-0.020706,-0.012054,1.006317,0.00732,0.004274,-0.005605,59.978104,31.381104,-145.92514,,,
729706749.554367,-0.4062,0.765038,-21.672409,-0.020706,-0.012054,1.006317,0.00732,0.004274,-0.005605,59.978104,31.381104,-145.92514,,,
729706749.556955,-0.403388,0.764515,122.237075,-0.020706,-0.012054,1.006317,0.00732,0.004274,-0.005605,59.978104,31.381104,-145.92514,,,
729706749.559033,-0.403398,0.764482,-21.673111,-0.020706,-0.012054,1.006317,0.00732,0.004274,-0.005605,59.959641,31.402435,-146.159088,,,
729706749.560239,-0.399267,0.763003,122.237193,-0.021378,-0.012955,1.005417,0.017389,-0.00474,0.000233,59.959641,31.402435,-146.159088,,,
729706749.563529,-0.399278,0.76297,-21.672992,-0.021378,-0.012955,1.005417,0.017389,-0.00474,0.000233,59.959641,31.402435,-146.159088,,,
729706749.56379,-0.399267,0.763003,122.237193,-0.021378,-0.012955,1.005417,0.017389,-0.00474,0.000233,59.959641,31.402435,-146.159088,,,
729706749.564343,-0.399278,0.76297,-21.672992,-0.021378,-0.012955,1.005417,0.017389,-0.00474,0.000233,59.959641,31.402435,-146.159088,,,
729706749.566928,-0.394444,0.761459,122.237407,-0.021378,-0.012955,1.005417,0.017389,-0.00474,0.000233,59.959641,31.402435,-146.159088,,,
729706749.568078,-0.394454,0.761426,-21.672781,-0.021378,-0.012955,1.005417,0.017389,-0.00474,0.000233,59.959641,31.402435,-146.159088,,,
729706749.570218,-0.389043,0.760211,122.23714,-0.016022,-0.00946,1.006226,0.019235,-0.001145,-0.002961,59.959641,31.402435,-146.159088,,,
729706749.572197,-0.389054,0.760177,-21.673033,-0.016022,-0.00946,1.006226,0.019235,-0.001145,-0.002961,59.959641,31.402435,-146.159088,,,
729706749.573586,-0.389043,0.760211,122.23714,-0.016022,-0.00946,1.006226,0.019235,-0.001145,-0.002961,59.959641,31.402435,-146.159088,,,
729706749.574353,-0.389054,0.760177,-21.673033,-0.016022,-0.00946,1.006226,0.019235,-0.001145,-0.002961,59.959641,31.402435,-146.159088,,,
729706749.57691,-0.383836,0.759607,122.236931,-0.016022,-0.00946,1.006226,0.019235,-0.001145,-0.002961,59.959641,31.402435,-146.159088,,,
729706749.578052,-0.383846,0.759574,-21.673239,-0.016022,-0.00946,1.006226,0.019235,-0.001145,-0.002961,59.959641,31.402435,-146.159088,,,
729706749.580208,-0.377608,0.758544,122.236536,-0.011993,-0.001923,1.004135,0.023662,0.000169,-0.004163,59.959641,31.402435,-146.159088,,,
729706749.582723,-0.377619,0.758511,-21.673634,-0.011993,-0.001923,1.004135,0.023662,0.000169,-0.004163,59.959641,31.402435,-146.159088,,,
729706749.583638,-0.377608,0.758544,122.236536,-0.011993,-0.001923,1.004135,0.023662,0.000169,-0.004163,59.959641,31.402435,-146.159088,,,
729706749.584354,-0.377619,0.758511,-21.673634,-0.011993,-0.001923,1.004135,0.023662,0.000169,-0.004163,59.959641,31.402435,-146.159088,,,
729706749.586908,-0.371176,0.759207,122.235576,-0.011993,-0.001923,1.004135,0.023662,0.000169,-0.004163,59.959641,31.402435,-146.159088,,,
729706749.588078,-0.371187,0.759174,-21.674594,-0.011993,-0.001923,1.004135,0.023662,0.000169,-0.004163,59.959641,31.402435,-146.159088,,,
729706749.590212,-0.363979,0.760349,122.234409,-0.008972,-0.005051,1.002594,0.025164,0.008868,-0.005546,59.959641,31.402435,-146.159088,,,
729706749.592422,-0.363989,0.760315,-21.67576,-0.008972,-0.005051,1.002594,0.025164,0.008868,-0.005546,59.959641,31.402435,-146.159088,,,
729706749.593576,-0.363979,0.760349,122.234409,-0.008972,-0.005051,1.002594,0.025164,0.008868,-0.005546,59.959641,31.402435,-146.159088,,,
729706749.594362,-0.363989,0.760315,-21.67576,-0.008972,-0.005051,1.002594,0.025164,0.008868,-0.005546,59.959641,31.402435,-146.159088,,,
729706749.596882,-0.357317,0.763682,122.23306,-0.008972,-0.005051,1.002594,0.025164,0.008868,-0.005546,59.959641,31.402435,-146.159088,,,
729706749.597687,-0.357327,0.763649,-21.67711,-0.008972,-0.005051,1.002594,0.025164,0.008868,-0.005546,59.959641,31.402435,-146.159088,,,
729706749.600276,-0.350051,0.767349,122.232233,-0.008453,-0.009171,1.00322,0.025736,0.015416,-0.001872,60.096405,31.274307,-146.311798,,,
729706749.602636,-0.350062,0.767316,-21.677937,-0.008453,-0.009171,1.00322,0.025736,0.015416,-0.001872,60.096405,31.274307,-146.311798,,,
729706749.60358,-0.350051,0.767349,122.232233,-0.008453,-0.009171,1.00322,0.025736,0.015416,-0.001872,60.096405,31.274307,-146.311798,,,
729706749.604354,-0.350062,0.767316,-21.677937,-0.008453,-0.009171,1.00322,0.025736,0.015416,-0.001872,60.096405,31.274307,-146.311798,,,
729706749.606878,-0.342622,0.771205,122.232391,-0.008453,-0.009171,1.00322,0.025736,0.015416,-0.001872,60.096405,31.274307,-146.311798,,,
729706749.608163,-0.342633,0.771172,-21.677779,-0.008453,-0.009171,1.00322,0.025736,0.015416,-0.001872,60.096405,31.274307,-146.311798,,,
729706749.610273,-0.334307,0.77493,122.232976,-0.008453,-0.009171,1.00322,0.025736,0.015416,-0.001872,60.096405,31.274307,-146.311798,,,
729706749.612619,-0.334317,0.774896,-21.677198,-0.011047,-0.009094,0.999512,0.029948,0.016607,0.001178,60.096405,31.274307,-146.311798,,,
729706749.613593,-0.334307,0.77493,122.232976,-0.011047,-0.009094,0.999512,0.029948,0.016607,0.001178,60.096405,31.274307,-146.311798,,,
729706749.614363,-0.334317,0.774896,-21.677198,-0.011047,-0.009094,0.999512,0.029948,0.016607,0.001178,60.096405,31.274307,-146.311798,,,
729706749.616872,-0.326033,0.778935,122.234078,-0.011047,-0.009094,0.999512,0.029948,0.016607,0.001178,60.096405,31.274307,-146.311798,,,
729706749.618046,-0.326043,0.778902,-21.676091,-0.011047,-0.009094,0.999512,0.029948,0.016607,0.001178,60.096405,31.274307,-146.311798,,,
729706749.620214,-0.326033,0.782094,122.235952,-0.011047,-0.009094,0.999512,0.029948,0.016607,0.001178,60.096405,31.274307,-146.311798,,,
729706749.621994,-0.31801,0.782061,-21.674231,-0.013535,-0.004959,0.998978,0.027533,0.015758,0.006435,60.096405,31.274307,-146.311798,,,
729706749.623424,-0.317999,0.782094,122.235952,-0.013535,-0.004959,0.998978,0.027533,0.015758,0.006435,60.096405,31.274307,-146.311798,,,
729706749.62441,-0.31801,0.782061,-21.674231,-0.013535,-0.004959,0.998978,0.027533,0.015758,0.006435,60.096405,31.274307,-146.311798,,,
729706749.626888,-0.311727,0.786256,122.238052,-0.013535,-0.004959,0.998978,0.027533,0.015758,0.006435,60.096405,31.274307,-146.311798,,,
729706749.628485,-0.311738,0.786223,-21.672131,-0.013535,-0.004959,0.998978,0.027533,0.015758,0.006435,60.096405,31.274307,-146.311798,,,
729706749.630268,-0.311727,0.786256,122.239934,-0.013535,-0.004959,0.998978,0.027533,0.015758,0.006435,60.096405,31.274307,-146.311798,,,
729706749.631741,-0.305999,0.789073,-21.670247,-0.010941,-0.001938,0.998276,0.020602,0.011127,0.004843,60.096405,31.274307,-146.311798,,,
729706749.633617,-0.305988,0.789106,122.239934,-0.010941,-0.001938,0.998276,0.020602,0.011127,0.004843,60.096405,31.274307,-146.311798,,,
729706749.63435,-0.305999,0.789073,-21.670247,-0.010941,-0.001938,0.998276,0.020602,0.011127,0.004843,60.096405,31.274307,-146.311798,,,
729706749.636882,-0.30198,0.792037,122.241587,-0.010941,-0.001938,0.998276,0.020602,0.011127,0.004843,60.096405,31.274307,-146.311798,,,
729706749.638043,-0.30199,0.792004,-21.668598,-0.010941,-0.001938,0.998276,0.020602,0.011127,0.004843,60.096405,31.274307,-146.311798,,,
729706749.640213,-0.30198,0.792037,122.241587,-0.010941,-0.001938,0.998276,0.020602,0.011127,0.004843,59.952789,31.233444,-146.143402,,,
729706749.643199,-0.298231,0.793235,-21.667375,-0.008972,0.000488,0.995453,0.013003,0.006082,0.001788,59.952789,31.233444,-146.143402,,,
729706749.643693,-0.29822,0.793268,122.24281,-0.008972,0.000488,0.995453,0.013003,0.006082,0.001788,59.952789,31.233444,-146.143402,,,
729706749.644366,-0.298231,0.793235,-21.667375,-0.008972,0.000488,0.995453,0.013003,0.006082,0.001788,59.952789,31.233444,-146.143402,,,
729706749.646879,-0.295618,0.794723,122.243147,-0.008972,0.000488,0.995453,0.013003,0.006082,0.001788,59.952789,31.233444,-146.143402,,,
729706749.647692,-0.295629,0.79469,-21.667033,-0.008972,0.000488,0.995453,0.013003,0.006082,0.001788,59.952789,31.233444,-146.143402,,,
729706749.650272,-0.295618,0.794723,122.243147,-0.008972,0.000488,0.995453,0.013003,0.006082,0.001788,59.952789,31.233444,-146.143402,,,
729706749.653071,-0.292473,0.795162,-21.667524,-0.008789,0.000336,0.997971,0.011123,0.003129,-0.003996,59.952789,31.233444,-146.143402,,,
729706749.653564,-0.292463,0.795195,122.242654,-0.008789,0.000336,0.997971,0.011123,0.003129,-0.003996,59.952789,31.233444,-146.143402,,,
729706749.654363,-0.292473,0.795162,-21.667524,-0.008789,0.000336,0.997971,0.011123,0.003129,-0.003996,59.952789,31.233444,-146.143402,,,
729706749.65687,-0.289335,0.794366,122.241811,-0.008789,0.000336,0.997971,0.011123,0.003129,-0.003996,59.952789,31.233444,-146.143402,,,
729706749.658058,-0.289345,0.794333,-21.668367,-0.008789,0.000336,0.997971,0.011123,0.003129,-0.003996,59.952789,31.233444,-146.143402,,,
729706749.660282,-0.289335,0.794366,122.241811,-0.008789,0.000336,0.997971,0.011123,0.003129,-0.003996,59.952789,31.233444,-146.143402,,,
729706749.66355,-0.286227,0.791923,-21.669416,-0.010956,-0.003433,0.997162,0.011708,-0.008004,-0.005444,59.952789,31.233444,-146.143402,,,
729706749.663822,-0.286217,0.791956,122.240765,-0.010956,-0.003433,0.997162,0.011708,-0.008004,-0.005444,59.952789,31.233444,-146.143402,,,
729706749.664332,-0.286227,0.791923,-21.669416,-0.010956,-0.003433,0.997162,0.011708,-0.008004,-0.005444,59.952789,31.233444,-146.143402,,,
729706749.666878,-0.282534,0.787673,122.239822,-0.010956,-0.003433,0.997162,0.011708,-0.008004,-0.005444,59.952789,31.233444,-146.143402,,,
729706749.668073,-0.282545,0.787639,-21.670363,-0.010956,-0.003433,0.997162,0.011708,-0.008004,-0.005444,59.952789,31.233444,-146.143402,,,
729706749.670304,-0.282534,0.787673,122.239822,-0.010956,-0.003433,0.997162,0.011708,-0.008004,-0.005444,59.952789,31.233444,-146.143402,,,
729706749.671609,-0.27922,0.782904,-21.670665,-0.013367,-0.004333,0.996613,0.011428,-0.014524,-0.000949,59.952789,31.233444,-146.143402,,,
729706749.673552,-0.279209,0.782937,122.239523,-0.013367,-0.004333,0.996613,0.011428,-0.014524,-0.000949,59.952789,31.233444,-146.143402,,,
729706749.674351,-0.27922,0.782904,-21.670665,-0.013367,-0.004333,0.996613,0.011428,-0.014524,-0.000949,59.952789,31.233444,-146.143402,,,
729706749.67689,-0.275757,0.777649,122.239901,-0.013367,-0.004333,0.996613,0.011428,-0.014524,-0.000949,59.952789,31.233444,-146.143402,,,
729706749.677716,-0.275768,0.777615,-21.670273,-0.013367,-0.004333,0.996613,0.011428,-0.014524,-0.000949,59.952789,31.233444,-146.143402,,,
729706749.680291,-0.275757,0.777649,122.239901,-0.013367,-0.004333,0.996613,0.011428,-0.014524,-0.000949,59.952789,31.233444,-146.143402,,,
729706749.684142,-0.27075,0.773699,-21.669317,-0.011871,-0.00528,1.001251,0.019845,-0.009037,0.003085,59.65892,31.494843,-146.30127,,,
729706749.684441,-0.27074,0.773733,122.240858,-0.011871,-0.00528,1.001251,0.019845,-0.009037,0.003085,59.65892,31.494843,-146.30127,,,
729706749.686685,-0.266092,0.770778,122.242207,-0.011871,-0.00528,1.001251,0.019845,-0.009037,0.003085,59.65892,31.494843,-146.30127,,,
729706749.687726,-0.266103,0.770745,-21.667967,-0.011871,-0.00528,1.001251,0.019845,-0.009037,0.003085,59.65892,31.494843,-146.30127,,,
729706749.690274,-0.266092,0.770778,122.242207,-0.011871,-0.00528,1.001251,0.019845,-0.009037,0.003085,59.65892,31.494843,-146.30127,,,
729706749.692992,-0.261505,0.77018,-21.666301,-0.009857,-0.007462,1.005676,0.015732,0.004392,0.005216,59.65892,31.494843,-146.30127,,,
729706749.693557,-0.261495,0.770213,122.243875,-0.009857,-0.007462,1.005676,0.015732,0.004392,0.005216,59.65892,31.494843,-146.30127,,,
729706749.694418,-0.261505,0.77018,-21.666301,-0.009857,-0.007462,1.005676,0.015732,0.004392,0.005216,59.65892,31.494843,-146.30127,,,
729706749.696886,-0.257422,0.771731,122.24591,-0.009857,-0.007462,1.005676,0.015732,0.004392,0.005216,59.65892,31.494843,-146.30127,,,
729706749.698,-0.257432,0.771698,-21.664265,-0.009857,-0.007462,1.005676,0.015732,0.004392,0.005216,59.65892,31.494843,-146.30127,,,
729706749.700289,-0.257422,0.771731,122.24591,-0.009857,-0.007462,1.005676,0.015732,0.004392,0.005216,59.65892,31.494843,-146.30127,,,
729706749.702127,-0.252381,0.775182,-21.661915,-0.013794,-0.006378,1.004913,0.019752,0.017895,0.007471,59.65892,31.494843,-146.30127,,,
729706749.703577,-0.252371,0.775215,122.248262,-0.013794,-0.006378,1.004913,0.019752,0.017895,0.007471,59.65892,31.494843,-146.30127,,,
729706749.704367,-0.252381,0.775182,-21.661915,-0.013794,-0.006378,1.004913,0.019752,0.017895,0.007471,59.65892,31.494843,-146.30127,,,
729706749.706871,-0.246865,0.779974,122.251345,-0.013794,-0.006378,1.004913,0.019752,0.017895,0.007471,59.65892,31.494843,-146.30127,,,
729706749.707691,-0.246875,0.77994,-21.658827,-0.013794,-0.006378,1.004913,0.019752,0.017895,0.007471,59.65892,31.494843,-146.30127,,,
729706749.710301,-0.246865,0.779974,122.251345,-0.013794,-0.006378,1.004913,0.019752,0.017895,0.007471,59.65892,31.494843,-146.30127,,,
729706749.711986,-0.242133,0.785434,-21.655335,-0.014145,-0.00386,1.002457,0.015595,0.021869,0.010235,59.65892,31.494843,-146.30127,,,
729706749.713571,-0.242123,0.785468,122.25484,-0.014145,-0.00386,1.002457,0.015595,0.021869,0.010235,59.65892,31.494843,-146.30127,,,
729706749.714353,-0.242133,0.785434,-21.655335,-0.014145,-0.00386,1.002457,0.015595,0.021869,0.010235,59.65892,31.494843,-146.30127,,,
729706749.716872,-0.237692,0.790319,122.257986,-0.014145,-0.00386,1.002457,0.015595,0.021869,0.010235,59.65892,31.494843,-146.30127,,,
729706749.717944,-0.237702,0.790286,-21.65219,-0.014145,-0.00386,1.002457,0.015595,0.021869,0.010235,59.65892,31.494843,-146.30127,,,
729706749.720379,-0.237692,0.790319,122.257986,-0.014145,-0.00386,1.002457,0.015595,0.021869,0.010235,59.65892,31.494843,-146.30127,,,
729706749.722503,-0.234634,0.794604,-21.64871,-0.015121,-0.001892,0.995636,0.008784,0.015,0.012467,60.065491,31.424713,-146.252472,,,
729706749.723579,-0.234624,0.794637,122.261469,-0.015121,-0.001892,0.995636,0.008784,0.015,0.012467,60.065491,31.424713,-146.252472,,,
729706749.72436,-0.234634,0.794604,-21.64871,-0.015121,-0.001892,0.995636,0.008784,0.015,0.012467,60.065491,31.424713,-146.252472,,,
729706749.726888,-0.232014,0.79602,122.265479,-0.015121,-0.001892,0.995636,0.008784,0.015,0.012467,60.065491,31.424713,-146.252472,,,
729706749.728301,-0.232024,0.795987,-21.644699,-0.015121,-0.001892,0.995636,0.008784,0.015,0.012467,60.065491,31.424713,-146.252472,,,
729706749.730246,-0.232014,0.79602,122.265479,-0.015121,-0.001892,0.995636,0.008784,0.015,0.012467,60.065491,31.424713,-146.252472,,,
729706749.733028,-0.230957,0.794572,-21.640976,-0.016296,-0.002319,0.992874,0.002891,-0.008582,0.010363,60.065491,31.424713,-146.252472,,,
729706749.733634,-0.230946,0.794605,122.269205,-0.016296,-0.002319,0.992874,0.002891,-0.008582,0.010363,60.065491,31.424713,-146.252472,,,
729706749.734437,-0.230957,0.794572,-21.640976,-0.016296,-0.002319,0.992874,0.002891,-0.008582,0.010363,60.065491,31.424713,-146.252472,,,
729706749.736872,-0.229502,0.789881,122.272454,-0.016296,-0.002319,0.992874,0.002891,-0.008582,0.010363,60.065491,31.424713,-146.252472,,,
729706749.737709,-0.229512,0.789847,-21.63773,-0.016296,-0.002319,0.992874,0.002891,-0.008582,0.010363,60.065491,31.424713,-146.252472,,,
729706749.740239,-0.229502,0.789881,122.272454,-0.016296,-0.002319,0.992874,0.002891,-0.008582,0.010363,60.065491,31.424713,-146.252472,,,
729706749.742032,-0.227604,0.783809,-21.635248,-0.015228,-0.004639,0.995667,0.008676,-0.021757,0.005117,60.065491,31.424713,-146.252472,,,
729706749.743556,-0.227594,0.783842,122.274931,-0.015228,-0.004639,0.995667,0.008676,-0.021757,0.005117,60.065491,31.424713,-146.252472,,,
729706749.744355,-0.227604,0.783809,-21.635248,-0.015228,-0.004639,0.995667,0.008676,-0.021757,0.005117,60.065491,31.424713,-146.252472,,,
729706749.746871,-0.224803,0.775585,122.276094,-0.015228,-0.004639,0.995667,0.008676,-0.021757,0.005117,60.065491,31.424713,-146.252472,,,
729706749.748238,-0.224814,0.775552,-21.634083,-0.015228,-0.004639,0.995667,0.008676,-0.021757,0.005117,60.065491,31.424713,-146.252472,,,
729706749.75027,-0.224803,0.775585,122.276094,-0.015228,-0.004639,0.995667,0.008676,-0.021757,0.005117,60.065491,31.424713,-146.252472,,,
729706749.753044,-0.22122,0.765748,-21.633997,-0.011993,-0.007797,0.998154,0.013808,-0.033745,-0.002328,60.065491,31.424713,-146.252472,,,
729706749.753564,-0.22121,0.765782,122.276182,-0.011993,-0.007797,0.998154,0.013808,-0.033745,-0.002328,60.065491,31.424713,-146.252472,,,
729706749.75436,-0.22122,0.765748,-21.633997,-0.011993,-0.007797,0.998154,0.013808,-0.033745,-0.002328,60.065491,31.424713,-146.252472,,,
729706749.756868,-0.216846,0.754748,122.275442,-0.011993,-0.007797,0.998154,0.013808,-0.033745,-0.002328,60.065491,31.424713,-146.252472,,,
729706749.758061,-0.216856,0.754715,-21.634737,-0.011993,-0.007797,0.998154,0.013808,-0.033745,-0.002328,60.065491,31.424713,-146.252472,,,
729706749.760276,-0.216846,0.754748,122.275442,-0.011993,-0.007797,0.998154,0.013808,-0.033745,-0.002328,60.065491,31.424713,-146.252472,,,
729706749.762362,-0.211554,0.743157,-21.635787,-0.012146,-0.00885,1.000092,0.019819,-0.037634,-0.004414,60.065491,31.424713,-146.252472,,,
729706749.763548,-0.211543,0.74319,122.274397,-0.012146,-0.00885,1.000092,0.019819,-0.037634,-0.004414,59.927979,31.540115,-146.586273,,,
729706749.764978,-0.211554,0.743157,-21.635787,-0.012146,-0.00885,1.000092,0.019819,-0.037634,-0.004414,59.927979,31.540115,-146.586273,,,
729706749.766876,-0.206357,0.73227,122.273174,-0.012146,-0.00885,1.000092,0.019819,-0.037634,-0.004414,59.927979,31.540115,-146.586273,,,
729706749.768012,-0.206368,0.732236,-21.637011,-0.012146,-0.00885,1.000092,0.019819,-0.037634,-0.004414,59.927979,31.540115,-146.586273,,,
729706749.770206,-0.206357,0.73227,122.273174,-0.012146,-0.00885,1.000092,0.019819,-0.037634,-0.004414,59.927979,31.540115,-146.586273,,,
729706749.772032,-0.200837,0.723813,-21.638529,-0.010071,-0.007385,1.002258,0.020051,-0.022105,-0.006506,59.927979,31.540115,-146.586273,,,
729706749.77357,-0.200827,0.723846,122.271656,-0.010071,-0.007385,1.002258,0.020051,-0.022105,-0.006506,59.927979,31.540115,-146.586273,,,
729706749.774351,-0.200837,0.723813,-21.638529,-0.010071,-0.007385,1.002258,0.020051,-0.022105,-0.006506,59.927979,31.540115,-146.586273,,,
729706749.776888,-0.195792,0.717432,122.270884,-0.010071,-0.007385,1.002258,0.020051,-0.022105,-0.006506,59.927979,31.540115,-146.586273,,,
