Time (sec),Pitch (deg),Roll (deg),Yaw(deg),X-Acceleration (g),Y-Acceleration (g),Z-Acceleration (g),Pitch Rate (deg/sec),Roll Rate (deg/sec),Yaw Rate (deg/sec),Magnetic Field in X direction (uT),Magnetic Field in Y direction (uT),Magnetic Field in Z Direction (uT),Latitude (deg),Longitude (deg),Altitude (m)
729705508.685616,-2.761528,-1.109135,76.79473,0.011368,-0.070221,1.004486,0.055817,0.005339,-0.02917,86.358887,37.813889,-148.520401,,,
729705508.688915,-2.744258,-1.113226,76.78715,0.011368,-0.070221,1.004486,0.055817,0.005339,-0.02917,86.358887,37.813889,-148.520401,,,
729705508.69227,-2.744258,-1.113226,76.78715,0.011368,-0.070221,1.004486,0.055817,0.005339,-0.02917,86.358887,37.813889,-148.520401,,,
729705508.695575,-2.729968,-1.110852,76.780583,0.01033,-0.066574,1.001404,0.046896,0.015615,-0.023888,86.198059,37.694366,-148.422684,,,
729705508.698772,-2.715643,-1.111643,76.774632,0.01033,-0.066574,1.001404,0.046896,0.015615,-0.023888,86.198059,37.694366,-148.422684,,,
729705508.702272,-2.715643,-1.111643,76.774632,0.01033,-0.066574,1.001404,0.046896,0.015615,-0.023888,86.198059,37.694366,-148.422684,,,
729705508.705592,-2.705206,-1.10869,76.76981,0.006531,-0.058701,0.99118,0.028973,0.013969,-0.01804,86.198059,37.694366,-148.422684,,,
729705508.708904,-2.696997,-1.109395,76.765723,0.006531,-0.058701,0.99118,0.028973,0.013969,-0.01804,86.198059,37.694366,-148.422684,,,
729705508.71231,-2.696997,-1.109395,76.765723,0.006531,-0.058701,0.99118,0.028973,0.013969,-0.01804,86.198059,37.694366,-148.422684,,,
729705508.715599,-2.691112,-1.107693,76.762353,0.008133,-0.047958,0.983978,0.009052,0.004099,-0.014513,86.198059,37.694366,-148.422684,,,
729705508.718934,-2.689579,-1.110198,76.758864,0.008133,-0.047958,0.983978,0.009052,0.004099,-0.014513,86.198059,37.694366,-148.422684,,,
729705508.722275,-2.689579,-1.110198,76.758864,0.008133,-0.047958,0.983978,0.009052,0.004099,-0.014513,86.198059,37.694366,-148.422684,,,
729705508.725671,-2.690115,-1.112415,76.755118,0.01329,-0.040771,0.97728,-0.008276,-0.012998,-0.016959,86.198059,37.694366,-148.422684,,,
729705508.728903,-2.695705,-1.11864,76.750645,0.01329,-0.040771,0.97728,-0.008276,-0.012998,-0.016959,86.198059,37.694366,-148.422684,,,
729705508.7323,-2.695705,-1.11864,76.750645,0.01329,-0.040771,0.97728,-0.008276,-0.012998,-0.016959,86.198059,37.694366,-148.422684,,,
729705508.735596,-2.700548,-1.127816,76.745402,0.019211,-0.034225,0.97551,-0.019715,-0.034858,-0.022446,86.111389,37.775787,-148.593033,,,
729705508.739006,-2.711099,-1.138983,76.738963,0.019211,-0.034225,0.97551,-0.019715,-0.034858,-0.022446,86.111389,37.775787,-148.593033,,,
729705508.742258,-2.711099,-1.138983,76.738963,0.019211,-0.034225,0.97551,-0.019715,-0.034858,-0.022446,86.111389,37.775787,-148.593033,,,
729705508.74559,-2.717117,-1.151311,76.73092,0.026825,-0.02977,0.985382,-0.019799,-0.040454,-0.032315,86.111389,37.775787,-148.593033,,,
729705508.749042,-2.730397,-1.163934,76.721859,0.026825,-0.02977,0.985382,-0.019799,-0.040454,-0.032315,86.111389,37.775787,-148.593033,,,
729705508.752285,-2.730397,-1.163934,76.721859,0.026825,-0.02977,0.985382,-0.019799,-0.040454,-0.032315,86.111389,37.775787,-148.593033,,,
729705508.755608,-2.736016,-1.178038,76.711686,0.028778,-0.028519,0.991135,-0.017039,-0.04562,-0.037584,86.111389,37.775787,-148.593033,,,
729705508.758911,-2.746601,-1.18994,76.700802,0.028778,-0.028519,0.991135,-0.017039,-0.04562,-0.037584,86.111389,37.775787,-148.593033,,,
729705508.762274,-2.746601,-1.18994,76.700802,0.028778,-0.028519,0.991135,-0.017039,-0.04562,-0.037584,86.111389,37.775787,-148.593033,,,
729705508.765583,-2.751242,-1.203226,76.690128,0.026077,-0.031845,0.996597,-0.014859,-0.036341,-0.038133,86.111389,37.775787,-148.593033,,,
729705508.768902,-2.759566,-1.212692,76.679523,0.026077,-0.031845,0.996597,-0.014859,-0.036341,-0.038133,86.111389,37.775787,-148.593033,,,
729705508.772248,-2.759566,-1.212692,76.679523,0.026077,-0.031845,0.996597,-0.014859,-0.036341,-0.038133,86.111389,37.775787,-148.593033,,,
729705508.775645,-2.762557,-1.222179,76.668961,0.023895,-0.035233,1.00032,-0.012326,-0.024557,-0.035367,86.111389,37.775787,-148.593033,,,
729705508.778891,-2.768742,-1.227262,76.659482,0.023895,-0.035233,1.00032,-0.012326,-0.024557,-0.035367,85.786865,37.759705,-148.596542,,,
729705508.782276,-2.768742,-1.227262,76.659482,0.023895,-0.035233,1.00032,-0.012326,-0.024557,-0.035367,85.786865,37.759705,-148.596542,,,
729705508.785579,-2.77162,-1.233721,76.650944,0.021805,-0.036026,0.996078,-0.010472,-0.011989,-0.023948,85.786865,37.759705,-148.596542,,,
729705508.788906,-2.77581,-1.234324,76.644098,0.021805,-0.036026,0.996078,-0.010472,-0.011989,-0.023948,85.786865,37.759705,-148.596542,,,
729705508.79224,-2.77581,-1.234324,76.644098,0.021805,-0.036026,0.996078,-0.010472,-0.011989,-0.023948,85.786865,37.759705,-148.596542,,,
729705508.795589,-2.780145,-1.235788,76.638521,0.020218,-0.035141,0.995041,-0.02104,0.00478,-0.019055,85.786865,37.759705,-148.596542,,,
729705508.798931,-2.785576,-1.232835,76.633439,0.020218,-0.035141,0.995041,-0.02104,0.00478,-0.019055,85.786865,37.759705,-148.596542,,,
729705508.802285,-2.785576,-1.232835,76.633439,0.020218,-0.035141,0.995041,-0.02104,0.00478,-0.019055,85.786865,37.759705,-148.596542,,,
729705508.805569,-2.793716,-1.231671,76.627925,0.018112,-0.034897,0.987457,-0.030278,0.010155,-0.020209,85.786865,37.759705,-148.596542,,,
729705508.808909,-2.800576,-1.228786,76.622299,0.018112,-0.034897,0.987457,-0.030278,0.010155,-0.020209,85.786865,37.759705,-148.596542,,,
729705508.812243,-2.800576,-1.228786,76.622299,0.018112,-0.034897,0.987457,-0.030278,0.010155,-0.020209,85.786865,37.759705,-148.596542,,,
729705508.815611,-2.810432,-1.226137,76.616578,0.016678,-0.038971,0.986572,-0.037461,0.015039,-0.021768,85.786865,37.759705,-148.596542,,,
729705508.818933,-2.817969,-1.223655,76.61044,0.016678,-0.038971,0.986572,-0.037461,0.015039,-0.021768,86.183884,37.854904,-148.428177,,,
729705508.822236,-2.817969,-1.223655,76.61044,0.016678,-0.038971,0.986572,-0.037461,0.015039,-0.021768,86.183884,37.854904,-148.428177,,,
729705508.825595,-2.830207,-1.220599,76.603688,0.01474,-0.044815,0.988144,-0.042478,0.012021,-0.025097,86.183884,37.854904,-148.428177,,,
729705508.828901,-2.837409,-1.220149,76.596731,0.01474,-0.044815,0.988144,-0.042478,0.012021,-0.025097,86.183884,37.854904,-148.428177,,,
729705508.832247,-2.837409,-1.220149,76.596731,0.01474,-0.044815,0.988144,-0.042478,0.012021,-0.025097,86.183884,37.854904,-148.428177,,,
729705508.835616,-2.847714,-1.219894,76.589679,0.012878,-0.049606,0.987198,-0.031958,-0.001614,-0.025459,86.183884,37.854904,-148.428177,,,
729705508.838909,-2.852462,-1.223791,76.582132,0.012878,-0.049606,0.987198,-0.031958,-0.001614,-0.025459,86.183884,37.854904,-148.428177,,,
729705508.842976,-2.852462,-1.223791,76.582132,0.012878,-0.049606,0.987198,-0.031958,-0.001614,-0.025459,86.183884,37.854904,-148.428177,,,
729705508.845514,-2.860799,-1.229269,76.574353,0.010788,-0.054062,0.987183,-0.02868,-0.023525,-0.027982,86.183884,37.854904,-148.428177,,,
729705508.848944,-2.864744,-1.238059,76.566293,0.010788,-0.054062,0.987183,-0.02868,-0.023525,-0.027982,86.183884,37.854904,-148.428177,,,
729705508.852319,-2.864744,-1.238059,76.566293,0.010788,-0.054062,0.987183,-0.02868,-0.023525,-0.027982,86.183884,37.854904,-148.428177,,,
729705508.855597,-2.87075,-1.248025,76.558024,0.00618,-0.057114,0.989792,-0.016672,-0.031868,-0.031304,86.183884,37.854904,-148.428177,,,
729705508.858953,-2.872873,-1.259011,76.549728,0.00618,-0.057114,0.989792,-0.016672,-0.031868,-0.031304,85.906464,38.059448,-148.739868,,,
729705508.862239,-2.872873,-1.259011,76.549728,0.00618,-0.057114,0.989792,-0.016672,-0.031868,-0.031304,85.906464,38.059448,-148.739868,,,
729705508.865504,-2.877821,-1.269434,76.541495,0.008804,-0.055832,0.994659,-0.014017,-0.029781,-0.028522,85.906464,38.059448,-148.739868,,,
729705508.868963,-2.879433,-1.27911,76.533584,0.008804,-0.055832,0.994659,-0.014017,-0.029781,-0.028522,85.906464,38.059448,-148.739868,,,
729705508.872265,-2.879433,-1.27911,76.533584,0.008804,-0.055832,0.994659,-0.014017,-0.029781,-0.028522,85.906464,38.059448,-148.739868,,,
729705508.875594,-2.883856,-1.287865,76.526749,0.013382,-0.057312,0.992447,-0.013236,-0.023464,-0.022233,85.906464,38.059448,-148.739868,,,
729705508.878908,-2.884802,-1.2936,76.521842,0.013382,-0.057312,0.992447,-0.013236,-0.023464,-0.022233,85.906464,38.059448,-148.739868,,,
729705508.882124,-2.884802,-1.2936,76.521842,0.013382,-0.057312,0.992447,-0.013236,-0.023464,-0.022233,85.906464,38.059448,-148.739868,,,
729705508.885645,-2.889568,-1.296866,76.519242,0.013702,-0.059616,0.997528,-0.017736,0.001231,-0.004362,85.906464,38.059448,-148.739868,,,
729705508.888893,-2.892163,-1.29581,76.519022,0.013702,-0.059616,0.997528,-0.017736,0.001231,-0.004362,85.906464,38.059448,-148.739868,,,
729705508.892333,-2.892163,-1.29581,76.519022,0.013702,-0.059616,0.997528,-0.017736,0.001231,-0.004362,85.906464,38.059448,-148.739868,,,
729705508.895588,-2.898631,-1.292616,76.521146,0.013596,-0.059479,0.996964,-0.025287,0.020637,0.01198,85.906464,38.059448,-148.739868,,,
729705508.898942,-2.904818,-1.285014,76.525098,0.013596,-0.059479,0.996964,-0.025287,0.020637,0.01198,85.991608,37.920578,-148.664719,,,
729705508.902252,-2.904818,-1.285014,76.525098,0.013596,-0.059479,0.996964,-0.025287,0.020637,0.01198,85.991608,37.920578,-148.664719,,,
729705508.905619,-2.914097,-1.276502,76.529957,0.016144,-0.056458,0.9944,-0.036293,0.033535,0.016224,85.991608,37.920578,-148.664719,,,
729705508.9089,-2.924123,-1.265328,76.535425,0.016144,-0.056458,0.9944,-0.036293,0.033535,0.016224,85.991608,37.920578,-148.664719,,,
729705508.912255,-2.924123,-1.265328,76.535425,0.016144,-0.056458,0.9944,-0.036293,0.033535,0.016224,85.991608,37.920578,-148.664719,,,
729705508.91531,-2.935659,-1.255726,76.540841,0.019455,-0.049698,0.993637,-0.04022,0.035286,0.016252,85.991608,37.920578,-148.664719,,,
729705508.918954,-2.947666,-1.244502,76.545384,0.019455,-0.049698,0.993637,-0.04022,0.035286,0.016252,85.991608,37.920578,-148.664719,,,
729705508.922256,-2.947666,-1.244502,76.545384,0.019455,-0.049698,0.993637,-0.04022,0.035286,0.016252,85.991608,37.920578,-148.664719,,,
729705508.925576,-2.960082,-1.23749,76.547983,0.02095,-0.044418,0.995651,-0.043033,0.022277,0.002576,85.991608,37.920578,-148.664719,,,
729705508.928903,-2.974271,-1.230849,76.548696,0.02095,-0.044418,0.995651,-0.043033,0.022277,0.002576,85.991608,37.920578,-148.664719,,,
729705508.932254,-2.974271,-1.230849,76.548696,0.02095,-0.044418,0.995651,-0.043033,0.022277,0.002576,85.991608,37.920578,-148.664719,,,
729705508.935589,-2.98743,-1.231297,76.546756,0.021042,-0.043335,0.993881,-0.04498,-0.008788,-0.014365,85.991608,37.920578,-148.664719,,,
729705508.9389,-3.001592,-1.232283,76.542096,0.021042,-0.043335,0.993881,-0.04498,-0.008788,-0.014365,85.991608,37.920578,-148.664719,,,
729705508.942293,-3.001592,-1.232283,76.542096,0.021042,-0.043335,0.993881,-0.04498,-0.008788,-0.014365,85.950699,38.217606,-148.69899,,,
729705508.945567,-3.014906,-1.240205,76.534389,0.023636,-0.042633,0.999557,-0.047636,-0.03341,-0.03358,85.950699,38.217606,-148.69899,,,
729705508.949022,-3.029718,-1.249776,76.52353,0.023636,-0.042633,0.999557,-0.047636,-0.03341,-0.03358,85.950699,38.217606,-148.69899,,,
729705508.952233,-3.029718,-1.249776,76.52353,0.023636,-0.042633,0.999557,-0.047636,-0.03341,-0.03358,85.950699,38.217606,-148.69899,,,
729705508.955676,-3.043738,-1.265318,76.509809,0.024063,-0.046234,1.001907,-0.047496,-0.056655,-0.050882,85.950699,38.217606,-148.69899,,,
729705508.958899,-3.05853,-1.282482,76.494218,0.024063,-0.046234,1.001907,-0.047496,-0.056655,-0.050882,85.950699,38.217606,-148.69899,,,
729705508.962247,-3.05853,-1.282482,76.494218,0.024063,-0.046234,1.001907,-0.047496,-0.056655,-0.050882,85.950699,38.217606,-148.69899,,,
729705508.965598,-3.071329,-1.302778,76.477205,0.025055,-0.051865,1.007187,-0.045706,-0.063678,-0.061383,85.950699,38.217606,-148.69899,,,
729705508.968971,-3.084933,-1.321064,76.459936,0.025055,-0.051865,1.007187,-0.045706,-0.063678,-0.061383,85.950699,38.217606,-148.69899,,,
729705508.972251,-3.084933,-1.321064,76.459936,0.025055,-0.051865,1.007187,-0.045706,-0.063678,-0.061383,85.950699,38.217606,-148.69899,,,
729705508.975578,-3.09678,-1.340801,76.442917,0.020782,-0.055725,1.010468,-0.038582,-0.057419,-0.056915,85.950699,38.217606,-148.69899,,,
729705508.978913,-3.108646,-1.356867,76.42759,0.020782,-0.055725,1.010468,-0.038582,-0.057419,-0.056915,85.950699,38.217606,-148.69899,,,
729705508.982326,-3.108646,-1.356867,76.42759,0.020782,-0.055725,1.010468,-0.038582,-0.057419,-0.056915,85.706329,38.237991,-148.215179,,,
729705508.985653,-3.118023,-1.372817,76.414447,0.02211,-0.064041,1.012573,-0.026612,-0.04538,-0.03989,85.706329,38.237991,-148.215179,,,
729705508.989002,-3.125179,-1.384954,76.403556,0.02211,-0.064041,1.012573,-0.026612,-0.04538,-0.03989,85.706329,38.237991,-148.215179,,,
729705508.99232,-3.125179,-1.384954,76.403556,0.02211,-0.064041,1.012573,-0.026612,-0.04538,-0.03989,85.706329,38.237991,-148.215179,,,
729705508.995587,-3.130804,-1.393855,76.395513,0.021835,-0.065903,1.01828,-0.016347,-0.012052,-0.021494,85.706329,38.237991,-148.215179,,,
729705508.998994,-3.133195,-1.396377,76.390195,0.021835,-0.065903,1.01828,-0.016347,-0.012052,-0.021494,85.706329,38.237991,-148.215179,,,
729705509.002255,-3.133195,-1.396377,76.390195,0.021835,-0.065903,1.01828,-0.016347,-0.012052,-0.021494,85.706329,38.237991,-148.215179,,,
729705509.005573,-3.136077,-1.395362,76.386955,0.020706,-0.063354,1.021576,-0.006005,0.015963,-0.00753,85.706329,38.237991,-148.215179,,,
729705509.008902,-3.135939,-1.390654,76.385538,0.020706,-0.063354,1.021576,-0.006005,0.015963,-0.00753,85.706329,38.237991,-148.215179,,,
729705509.012257,-3.135939,-1.390654,76.385538,0.020706,-0.063354,1.021576,-0.006005,0.015963,-0.00753,85.706329,38.237991,-148.215179,,,
729705509.015682,-3.136727,-1.384875,76.384884,0.021027,-0.061829,1.010605,0.002229,0.027352,-0.002681,85.706329,38.237991,-148.215179,,,
729705509.018899,-3.133099,-1.377444,76.384841,0.021027,-0.061829,1.010605,0.002229,0.027352,-0.002681,85.706329,38.237991,-148.215179,,,
729705509.022234,-3.133099,-1.377444,76.384841,0.021027,-0.061829,1.010605,0.002229,0.027352,-0.002681,85.757355,38.17746,-148.382095,,,
729705509.025593,-3.131286,-1.369715,76.38488,0.017883,-0.062805,1.006195,0.007699,0.028116,0.000796,85.757355,38.17746,-148.382095,,,
729705509.028904,-3.126621,-1.362395,76.385121,0.017883,-0.062805,1.006195,0.007699,0.028116,0.000796,85.757355,38.17746,-148.382095,,,
729705509.03194,-3.126621,-1.362395,76.385121,0.017883,-0.062805,1.006195,0.007699,0.028116,0.000796,85.757355,38.17746,-148.382095,,,
729705509.035712,-3.123637,-1.357004,76.385063,0.014633,-0.056885,1.000656,0.01661,0.014868,-0.003507,85.757355,38.17746,-148.382095,,,
729705509.038878,-3.119583,-1.354624,76.384263,0.014633,-0.056885,1.000656,0.01661,0.014868,-0.003507,85.757355,38.17746,-148.382095,,,
729705509.042242,-3.119583,-1.354624,76.384263,0.014633,-0.056885,1.000656,0.01661,0.014868,-0.003507,85.757355,38.17746,-148.382095,,,
729705509.045568,-3.116721,-1.35546,76.382707,0.016922,-0.054413,0.995026,0.008993,-0.007901,-0.012722,85.757355,38.17746,-148.382095,,,
729705509.048697,-3.114014,-1.359461,76.379701,0.016922,-0.054413,0.995026,0.008993,-0.007901,-0.012722,85.757355,38.17746,-148.382095,,,
729705509.05236,-3.114014,-1.359461,76.379701,0.016922,-0.054413,0.995026,0.008993,-0.007901,-0.012722,85.757355,38.17746,-148.382095,,,
729705509.055669,-3.112952,-1.364927,76.375418,0.020737,-0.053146,0.989822,-0.001614,-0.016772,-0.020324,85.757355,38.17746,-148.382095,,,
729705509.058953,-3.114832,-1.370271,76.369638,0.020737,-0.053146,0.989822,-0.001614,-0.016772,-0.020324,85.757355,38.17746,-148.382095,,,
729705509.062345,-3.114832,-1.370271,76.369638,0.020737,-0.053146,0.989822,-0.001614,-0.016772,-0.020324,85.757355,38.17746,-148.382095,,,
729705509.06537,-3.11756,-1.376874,76.36198,0.025406,-0.049973,0.99057,-0.013406,-0.021146,-0.031142,85.888092,38.174362,-148.453934,,,
729705509.069011,-3.123816,-1.384448,76.352815,0.025406,-0.049973,0.99057,-0.013406,-0.021146,-0.031142,85.888092,38.174362,-148.453934,,,
729705509.072253,-3.123816,-1.384448,76.352815,0.025406,-0.049973,0.99057,-0.013406,-0.021146,-0.031142,85.888092,38.174362,-148.453934,,,
729705509.075587,-3.128933,-1.393983,76.342487,0.0298,-0.049438,0.987991,-0.021487,-0.031818,-0.039615,85.888092,38.174362,-148.453934,,,
729705509.078888,-3.13626,-1.404182,76.331687,0.0298,-0.049438,0.987991,-0.021487,-0.031818,-0.039615,85.888092,38.174362,-148.453934,,,
729705509.081997,-3.13626,-1.404182,76.331687,0.0298,-0.049438,0.987991,-0.021487,-0.031818,-0.039615,85.888092,38.174362,-148.453934,,,
729705509.085631,-3.141493,-1.415652,76.320617,0.030914,-0.054764,0.990814,-0.015796,-0.034991,-0.0367,85.888092,38.174362,-148.453934,,,
729705509.088933,-3.146827,-1.426559,76.310569,0.030914,-0.054764,0.990814,-0.015796,-0.034991,-0.0367,85.888092,38.174362,-148.453934,,,
729705509.09224,-3.146827,-1.426559,76.310569,0.030914,-0.054764,0.990814,-0.015796,-0.034991,-0.0367,85.888092,38.174362,-148.453934,,,
729705509.095571,-3.149188,-1.439319,76.301529,0.030106,-0.060379,0.994537,-0.004594,-0.041827,-0.030117,85.888092,38.174362,-148.453934,,,
729705509.098647,-3.151947,-1.451222,76.292693,0.030106,-0.060379,0.994537,-0.004594,-0.041827,-0.030117,85.888092,38.174362,-148.453934,,,
729705509.102288,-3.151947,-1.451222,76.292693,0.030106,-0.060379,0.994537,-0.004594,-0.041827,-0.030117,85.888092,38.174362,-148.453934,,,
729705509.10562,-3.152714,-1.462575,76.284378,0.031235,-0.057983,0.997131,-0.001317,-0.027972,-0.025077,85.572296,38.270462,-148.336288,,,
729705509.108904,-3.153912,-1.46948,76.276407,0.031235,-0.057983,0.997131,-0.001317,-0.027972,-0.025077,85.572296,38.270462,-148.336288,,,
729705509.112235,-3.153912,-1.46948,76.276407,0.031235,-0.057983,0.997131,-0.001317,-0.027972,-0.025077,85.572296,38.270462,-148.336288,,,
729705509.11527,-3.154668,-1.476226,76.268405,0.032608,-0.054581,0.997345,-0.006568,-0.013998,-0.027468,85.572296,38.270462,-148.336288,,,
729705509.119008,-3.157217,-1.478583,76.26081,0.032608,-0.054581,0.997345,-0.006568,-0.013998,-0.027468,85.572296,38.270462,-148.336288,,,
729705509.122254,-3.157217,-1.478583,76.26081,0.032608,-0.054581,0.997345,-0.006568,-0.013998,-0.027468,85.572296,38.270462,-148.336288,,,
729705509.12559,-3.161012,-1.480778,76.252869,0.031021,-0.058228,0.990494,-0.017971,0.002634,-0.026831,85.572296,38.270462,-148.336288,,,
729705509.128922,-3.166182,-1.479085,76.24528,0.031021,-0.058228,0.990494,-0.017971,0.002634,-0.026831,85.572296,38.270462,-148.336288,,,
729705509.131982,-3.166182,-1.479085,76.24528,0.031021,-0.058228,0.990494,-0.017971,0.002634,-0.026831,85.572296,38.270462,-148.336288,,,
729705509.135619,-3.173776,-1.47681,76.23756,0.027756,-0.057312,0.98851,-0.029636,0.016071,-0.028476,85.572296,38.270462,-148.336288,,,
729705509.138936,-3.182352,-1.472567,76.229859,0.027756,-0.057312,0.98851,-0.029636,0.016071,-0.028476,85.572296,38.270462,-148.336288,,,
729705509.142249,-3.182352,-1.472567,76.229859,0.027756,-0.057312,0.98851,-0.029636,0.016071,-0.028476,85.572296,38.270462,-148.336288,,,
729705509.14557,-3.192894,-1.468863,76.22297,0.027847,-0.058395,0.989426,-0.03905,0.017653,-0.023437,85.799057,37.998322,-148.428558,,,
729705509.148628,-3.192894,-1.468863,76.22297,0.027847,-0.058395,0.989426,-0.03905,0.017653,-0.023437,85.799057,37.998322,-148.428558,,,
729705509.152339,-3.20255,-1.466467,76.215997,0.027847,-0.058395,0.989426,-0.03905,0.017653,-0.023437,85.799057,37.998322,-148.428558,,,
729705509.155653,-3.21294,-1.463723,76.208115,0.032455,-0.058273,0.99263,-0.033727,0.014164,-0.031121,85.799057,37.998322,-148.428558,,,
729705509.158919,-3.221365,-1.461843,76.198692,0.032455,-0.058273,0.99263,-0.033727,0.014164,-0.031121,85.799057,37.998322,-148.428558,,,
729705509.162252,-3.221365,-1.461843,76.198692,0.032455,-0.058273,0.99263,-0.033727,0.014164,-0.031121,85.799057,37.998322,-148.428558,,,
729705509.165255,-3.228832,-1.458863,76.188066,0.028717,-0.058655,0.99411,-0.021906,0.016472,-0.037188,85.799057,37.998322,-148.428558,,,
729705509.169021,-3.23447,-1.457293,76.17709,0.028717,-0.058655,0.99411,-0.021906,0.016472,-0.037188,85.799057,37.998322,-148.428558,,,
729705509.172231,-3.23447,-1.457293,76.17709,0.028717,-0.058655,0.99411,-0.021906,0.016472,-0.037188,85.799057,37.998322,-148.428558,,,
729705509.175573,-3.237569,-1.454805,76.166708,0.020248,-0.062271,0.999603,-0.003372,0.009423,-0.033552,85.799057,37.998322,-148.428558,,,
729705509.178933,-3.238864,-1.4544,76.157891,0.020248,-0.062271,0.999603,-0.003372,0.009423,-0.033552,85.799057,37.998322,-148.428558,,,
729705509.182029,-3.238864,-1.4544,76.157891,0.020248,-0.062271,0.999603,-0.003372,0.009423,-0.033552,85.799057,37.998322,-148.428558,,,
729705509.185611,-3.236866,-1.454641,76.151302,0.016647,-0.065079,0.999405,0.010925,-0.002384,-0.021401,85.732635,38.094086,-148.671844,,,
729705509.188938,-3.232588,-1.458477,76.146736,0.016647,-0.065079,0.999405,0.010925,-0.002384,-0.021401,85.732635,38.094086,-148.671844,,,
729705509.192329,-3.232588,-1.458477,76.146736,0.016647,-0.065079,0.999405,0.010925,-0.002384,-0.021401,85.732635,38.094086,-148.671844,,,
729705509.195591,-3.226989,-1.460837,76.144321,0.017059,-0.065689,1.000107,0.020447,-0.000915,-0.005327,85.732635,38.094086,-148.671844,,,
729705509.198628,-3.226989,-1.460837,76.144321,0.017059,-0.065689,1.000107,0.020447,-0.000915,-0.005327,85.732635,38.094086,-148.671844,,,
729705509.202277,-3.221432,-1.462993,76.143409,0.017059,-0.065689,1.000107,0.020447,-0.000915,-0.005327,85.732635,38.094086,-148.671844,,,
729705509.205658,-3.216592,-1.462115,76.143214,0.021973,-0.061539,1.001511,0.01656,0.012094,-0.002469,85.732635,38.094086,-148.671844,,,
729705509.208946,-3.212787,-1.460353,76.142909,0.021973,-0.061539,1.001511,0.01656,0.012094,-0.002469,85.732635,38.094086,-148.671844,,,
729705509.212245,-3.212787,-1.460353,76.142909,0.021973,-0.061539,1.001511,0.01656,0.012094,-0.002469,85.732635,38.094086,-148.671844,,,
729705509.215264,-3.209281,-1.456036,76.141957,0.028564,-0.052444,0.998978,0.011318,0.022181,-0.008004,85.732635,38.094086,-148.671844,,,
729705509.218997,-3.20749,-1.450596,76.140076,0.028564,-0.052444,0.998978,0.011318,0.022181,-0.008004,85.732635,38.094086,-148.671844,,,
729705509.222245,-3.20749,-1.450596,76.140076,0.028564,-0.052444,0.998978,0.011318,0.022181,-0.008004,85.732635,38.094086,-148.671844,,,
729705509.225588,-3.205985,-1.443348,76.137907,0.02655,-0.053146,0.999069,0.003643,0.02931,-0.007583,85.732635,38.094086,-148.671844,,,
729705509.228941,-3.205985,-1.436805,76.135529,0.02655,-0.053146,0.999069,0.003643,0.02931,-0.007583,85.793777,38.162277,-148.726181,,,
729705509.231972,-3.205965,-1.436805,76.135529,0.02655,-0.053146,0.999069,0.003643,0.02931,-0.007583,85.793777,38.162277,-148.726181,,,
729705509.235612,-3.205577,-1.429766,76.133459,0.021973,-0.05452,0.99501,0.001267,0.023338,-0.007398,85.793777,38.162277,-148.726181,,,
729705509.23891,-3.205787,-1.426333,76.131798,0.021973,-0.05452,0.99501,0.001267,0.023338,-0.007398,85.793777,38.162277,-148.726181,,,
729705509.242238,-3.205787,-1.426333,76.131798,0.021973,-0.05452,0.99501,0.001267,0.023338,-0.007398,85.793777,38.162277,-148.726181,,,
729705509.245569,-3.205116,-1.424103,76.13114,0.02359,-0.054718,0.993423,0.004784,0.003476,-0.004803,85.793777,38.162277,-148.726181,,,
729705509.248633,-3.205116,-1.424103,76.13114,0.02359,-0.054718,0.993423,0.004784,0.003476,-0.004803,85.793777,38.162277,-148.726181,,,
729705509.252292,-3.204359,-1.423603,76.130965,0.02359,-0.054718,0.993423,0.004784,0.003476,-0.004803,85.793777,38.162277,-148.726181,,,
729705509.255564,-3.202143,-1.4251,76.130076,0.024124,-0.054306,0.997375,0.006987,-0.005787,-0.005368,85.793777,38.162277,-148.726181,,,
729705509.259057,-3.201813,-1.426311,76.129118,0.024124,-0.054306,0.997375,0.006987,-0.005787,-0.005368,85.793777,38.162277,-148.726181,,,
729705509.262299,-3.201813,-1.426311,76.129118,0.024124,-0.054306,0.997375,0.006987,-0.005787,-0.005368,85.793777,38.162277,-148.726181,,,
729705509.265302,-3.199201,-1.430035,76.12763,0.029022,-0.053528,0.998001,0.014149,-0.012494,-0.009768,85.793777,38.162277,-148.726181,,,
729705509.268961,-3.199201,-1.430035,76.12763,0.029022,-0.053528,0.998001,0.014149,-0.012494,-0.009768,85.603333,38.399155,-148.502441,,,
729705509.272242,-3.197767,-1.432912,76.124624,0.029022,-0.053528,0.998001,0.014149,-0.012494,-0.009768,85.603333,38.399155,-148.502441,,,
729705509.275574,-3.193198,-1.437665,76.120605,0.034363,-0.053146,1.000885,0.018555,-0.008617,-0.014624,85.603333,38.399155,-148.502441,,,
729705509.278931,-3.193198,-1.440327,76.11702,0.034363,-0.053146,1.000885,0.018555,-0.008617,-0.014624,85.603333,38.399155,-148.502441,,,
729705509.281959,-3.189179,-1.440327,76.11702,0.034363,-0.053146,1.000885,0.018555,-0.008617,-0.014624,85.603333,38.399155,-148.502441,,,
729705509.285615,-3.182385,-1.444065,76.113787,0.033371,-0.055939,1.00473,0.02592,-0.011243,-0.012614,85.603333,38.399155,-148.502441,,,
729705509.288902,-3.182385,-1.444065,76.113787,0.033371,-0.055939,1.00473,0.02592,-0.011243,-0.012614,85.603333,38.399155,-148.502441,,,
729705509.292259,-3.174692,-1.448497,76.1107,0.033371,-0.055939,1.00473,0.02592,-0.011243,-0.012614,85.603333,38.399155,-148.502441,,,
729705509.295578,-3.164738,-1.45264,76.108038,0.033188,-0.056763,1.000061,0.036362,-0.009196,-0.007281,85.603333,38.399155,-148.502441,,,
729705509.298607,-3.164738,-1.45264,76.108038,0.033188,-0.056763,1.000061,0.036362,-0.009196,-0.007281,85.603333,38.399155,-148.502441,,,
729705509.302296,-3.152286,-1.456495,76.106493,0.033188,-0.056763,1.000061,0.036362,-0.009196,-0.007281,85.603333,38.399155,-148.502441,,,
729705509.305579,-3.140224,-1.457758,76.106207,0.033676,-0.056107,1.005936,0.040004,0.003015,-0.001575,85.603333,38.399155,-148.502441,,,
729705509.308895,-3.140224,-1.457758,76.106207,0.033676,-0.056107,1.005936,0.040004,0.003015,-0.001575,85.737213,38.247177,-148.950928,,,
729705509.312236,-3.128257,-1.456987,76.106858,0.033676,-0.056107,1.005936,0.040004,0.003015,-0.001575,85.737213,38.247177,-148.950928,,,
729705509.315333,-3.117113,-1.456351,76.108214,0.029648,-0.057236,1.000671,0.03729,0.005953,0.000717,85.737213,38.247177,-148.950928,,,
729705509.318987,-3.117113,-1.456351,76.108214,0.029648,-0.057236,1.000671,0.03729,0.005953,0.000717,85.737213,38.247177,-148.950928,,,
729705509.32232,-3.1071,-1.455056,76.109383,0.029648,-0.057236,1.000671,0.03729,0.005953,0.000717,85.737213,38.247177,-148.950928,,,
729705509.325563,-3.09696,-1.453764,76.109787,0.03363,-0.052109,0.998199,0.035499,0.008884,-0.004484,85.737213,38.247177,-148.950928,,,
729705509.328966,-3.09696,-1.453764,76.109787,0.03363,-0.052109,0.998199,0.035499,0.008884,-0.004484,85.737213,38.247177,-148.950928,,,
729705509.331971,-3.086931,-1.451646,76.10893,0.03363,-0.052109,0.998199,0.035499,0.008884,-0.004484,85.737213,38.247177,-148.950928,,,
729705509.335604,-3.076575,-1.45014,76.106095,0.037018,-0.047699,0.999054,0.036313,0.008131,-0.01493,85.737213,38.247177,-148.950928,,,
729705509.338914,-3.076575,-1.45014,76.106095,0.037018,-0.047699,0.999054,0.036313,0.008131,-0.01493,85.737213,38.247177,-148.950928,,,
729705509.342252,-3.066525,-1.448684,76.101264,0.037018,-0.047699,0.999054,0.036313,0.008131,-0.01493,85.737213,38.247177,-148.950928,,,
729705509.345568,-3.056336,-1.447202,76.09463,0.035385,-0.04657,0.997543,0.035513,0.006781,-0.028848,85.737213,38.247177,-148.950928,,,
729705509.34868,-3.056336,-1.447202,76.09463,0.035385,-0.04657,0.997543,0.035513,0.006781,-0.028848,85.737213,38.247177,-148.950928,,,
729705509.352362,-3.045554,-1.44833,76.086506,0.035385,-0.04657,0.997543,0.035513,0.006781,-0.028848,85.667877,38.149399,-148.598526,,,
729705509.355563,-3.034107,-1.449624,76.077544,0.037201,-0.041,0.992142,0.04072,-0.000246,-0.036758,85.667877,38.149399,-148.598526,,,
729705509.358981,-3.034107,-1.449624,76.077544,0.037201,-0.041,0.992142,0.04072,-0.000246,-0.036758,85.667877,38.149399,-148.598526,,,
729705509.362225,-3.022154,-1.454197,76.067877,0.037201,-0.041,0.992142,0.04072,-0.000246,-0.036758,85.667877,38.149399,-148.598526,,,
729705509.365273,-3.00916,-1.458288,76.058756,0.037018,-0.039948,0.991516,0.051231,-0.012929,-0.031374,85.667877,38.149399,-148.598526,,,
729705509.36895,-3.00916,-1.458288,76.058756,0.037018,-0.039948,0.991516,0.051231,-0.012929,-0.031374,85.667877,38.149399,-148.598526,,,
729705509.37229,-2.9952,-1.466307,76.050965,0.037018,-0.039948,0.991516,0.051231,-0.012929,-0.031374,85.667877,38.149399,-148.598526,,,
729705509.375563,-2.979024,-1.476085,76.04523,0.037231,-0.041534,0.993301,0.059564,-0.040308,-0.017103,85.667877,38.149399,-148.598526,,,
729705509.378914,-2.979024,-1.476085,76.04523,0.037231,-0.041534,0.993301,0.059564,-0.040308,-0.017103,85.667877,38.149399,-148.598526,,,
729705509.381956,-2.963234,-1.491034,76.041759,0.037231,-0.041534,0.993301,0.059564,-0.040308,-0.017103,85.667877,38.149399,-148.598526,,,
729705509.385719,-2.946748,-1.505818,76.039825,0.029068,-0.040558,0.99263,0.057572,-0.044654,-0.00679,85.667877,38.149399,-148.598526,,,
729705509.388932,-2.946748,-1.505818,76.039825,0.029068,-0.040558,0.99263,0.057572,-0.044654,-0.00679,85.667877,38.149399,-148.598526,,,
729705509.392253,-2.9311,-1.519851,76.038299,0.029068,-0.040558,0.99263,0.057572,-0.044654,-0.00679,85.7043,38.119797,-148.607346,,,
729705509.395559,-2.914027,-1.528817,76.036692,0.031799,-0.035583,1.008072,0.059073,-0.017972,-0.011945,85.7043,38.119797,-148.607346,,,
729705509.398599,-2.914027,-1.528817,76.036692,0.031799,-0.035583,1.008072,0.059073,-0.017972,-0.011945,85.7043,38.119797,-148.607346,,,
729705509.402288,-2.899124,-1.537986,76.034203,0.031799,-0.035583,1.008072,0.059073,-0.017972,-0.011945,85.7043,38.119797,-148.607346,,,
729705509.405559,-2.884776,-1.552321,76.031222,0.034561,-0.031815,0.994827,0.04598,-0.066723,-0.016072,85.7043,38.119797,-148.607346,,,
729705509.408991,-2.884776,-1.552321,76.031222,0.034561,-0.031815,0.994827,0.04598,-0.066723,-0.016072,85.7043,38.119797,-148.607346,,,
729705509.412255,-2.871168,-1.575399,76.027026,0.034561,-0.031815,0.994827,0.04598,-0.066723,-0.016072,85.7043,38.119797,-148.607346,,,
729705509.415281,-2.859846,-1.599391,76.019887,0.031204,-0.031662,0.980804,0.032406,-0.076948,-0.037362,85.7043,38.119797,-148.607346,,,
729705509.418953,-2.859846,-1.599391,76.019887,0.031204,-0.031662,0.980804,0.032406,-0.076948,-0.037362,85.7043,38.119797,-148.607346,,,
729705509.422301,-2.850715,-1.623655,76.00881,0.031204,-0.031662,0.980804,0.032406,-0.076948,-0.037362,85.7043,38.119797,-148.607346,,,
729705509.425554,-2.843616,-1.644577,75.994694,0.039032,-0.024765,1.000046,0.023977,-0.066087,-0.056271,85.7043,38.119797,-148.607346,,,
729705509.428906,-2.843616,-1.644577,75.994694,0.039032,-0.024765,1.000046,0.023977,-0.066087,-0.056271,85.7043,38.119797,-148.607346,,,
729705509.431964,-2.835409,-1.668159,75.978603,0.039032,-0.024765,1.000046,0.023977,-0.066087,-0.056271,85.593536,37.861557,-148.583374,,,
729705509.435594,-2.827664,-1.69266,75.962166,0.039474,-0.035263,0.991943,0.029052,-0.087663,-0.059284,85.593536,37.861557,-148.583374,,,
729705509.438893,-2.827664,-1.69266,75.962166,0.039474,-0.035263,0.991943,0.029052,-0.087663,-0.059284,85.593536,37.861557,-148.583374,,,
729705509.44223,-2.816357,-1.721519,75.946435,0.039474,-0.035263,0.991943,0.029052,-0.087663,-0.059284,85.593536,37.861557,-148.583374,,,
729705509.445568,-2.804836,-1.749695,75.931955,0.033798,-0.048447,0.985443,0.044072,-0.089902,-0.047795,85.593536,37.861557,-148.583374,,,
729705509.448628,-2.804836,-1.749695,75.931955,0.033798,-0.048447,0.985443,0.044072,-0.089902,-0.047795,85.593536,37.861557,-148.583374,,,
729705509.452278,-2.789391,-1.777462,75.91928,0.033798,-0.048447,0.985443,0.044072,-0.089902,-0.047795,85.593536,37.861557,-148.583374,,,
729705509.455557,-2.773396,-1.80048,75.908069,0.03212,-0.053314,0.997726,0.061725,-0.066578,-0.038115,85.593536,37.861557,-148.583374,,,
729705509.458902,-2.773396,-1.80048,75.908069,0.03212,-0.053314,0.997726,0.061725,-0.066578,-0.038115,85.593536,37.861557,-148.583374,,,
729705509.462222,-2.754485,-1.820985,75.897682,0.03212,-0.053314,0.997726,0.061725,-0.066578,-0.038115,85.593536,37.861557,-148.583374,,,
729705509.465208,-2.736554,-1.839339,75.889287,0.027817,-0.053833,0.993546,0.065145,-0.055942,-0.02687,85.593536,37.861557,-148.583374,,,
729705509.468888,-2.736554,-1.839339,75.889287,0.027817,-0.053833,0.993546,0.065145,-0.055942,-0.02687,85.593536,37.861557,-148.583374,,,
729705509.472191,-2.716604,-1.856817,75.883282,0.027817,-0.053833,0.993546,0.065145,-0.055942,-0.02687,85.418152,37.853683,-148.65416,,,
729705509.47558,-2.699207,-1.873569,75.878609,0.022873,-0.052628,0.98027,0.054781,-0.049242,-0.017607,85.418152,37.853683,-148.65416,,,
729705509.478916,-2.699207,-1.873569,75.878609,0.022873,-0.052628,0.98027,0.054781,-0.049242,-0.017607,85.418152,37.853683,-148.65416,,,
729705509.48204,-2.680637,-1.888612,75.874285,0.022873,-0.052628,0.98027,0.054781,-0.049242,-0.017607,85.418152,37.853683,-148.65416,,,
729705509.485661,-2.66743,-1.901053,75.87027,0.023529,-0.046967,0.97757,0.037858,-0.034572,-0.015179,85.418152,37.853683,-148.65416,,,
729705509.488912,-2.66743,-1.901053,75.87027,0.023529,-0.046967,0.97757,0.037858,-0.034572,-0.015179,85.418152,37.853683,-148.65416,,,
729705509.492244,-2.654757,-1.911615,75.866589,0.023529,-0.046967,0.97757,0.037858,-0.034572,-0.015179,85.418152,37.853683,-148.65416,,,
729705509.495562,-2.64782,-1.921775,75.863408,0.02327,-0.04657,0.972534,0.016317,-0.03141,-0.012619,85.418152,37.853683,-148.65416,,,
729705509.498894,-2.64782,-1.921775,75.863408,0.02327,-0.04657,0.972534,0.016317,-0.03141,-0.012619,85.418152,37.853683,-148.65416,,,
729705509.502245,-2.639371,-1.932584,75.861426,0.02327,-0.04657,0.972534,0.016317,-0.03141,-0.012619,85.418152,37.853683,-148.65416,,,
729705509.505588,-2.637803,-1.943778,75.859494,0.022583,-0.045303,0.967804,-0.000897,-0.038199,-0.012986,85.418152,37.853683,-148.65416,,,
729705509.509001,-2.637803,-1.943778,75.859494,0.022583,-0.045303,0.967804,-0.000897,-0.038199,-0.012986,85.418152,37.853683,-148.65416,,,
729705509.51229,-2.635534,-1.957431,75.856395,0.022583,-0.045303,0.967804,-0.000897,-0.038199,-0.012986,85.422867,37.641846,-148.704407,,,
729705509.51558,-2.638644,-1.969949,75.852576,0.021667,-0.045166,0.96965,-0.015963,-0.039612,-0.015267,85.422867,37.641846,-148.704407,,,
729705509.518921,-2.638644,-1.969949,75.852576,0.021667,-0.045166,0.96965,-0.015963,-0.039612,-0.015267,85.422867,37.641846,-148.704407,,,
729705509.522312,-2.642565,-1.983083,75.847734,0.021667,-0.045166,0.96965,-0.015963,-0.039612,-0.015267,85.422867,37.641846,-148.704407,,,
729705509.525554,-2.646322,-1.997383,75.841762,0.017548,-0.046127,0.976395,-0.012107,-0.050769,-0.023595,85.422867,37.641846,-148.704407,,,
729705509.528893,-2.646322,-1.997383,75.841762,0.017548,-0.046127,0.976395,-0.012107,-0.050769,-0.023595,85.422867,37.641846,-148.704407,,,
729705509.532235,-2.649896,-2.013265,75.835068,0.017548,-0.046127,0.976395,-0.012107,-0.050769,-0.023595,85.422867,37.641846,-148.704407,,,
729705509.535558,-2.651659,-2.030302,75.828075,0.021896,-0.046402,0.981644,-0.00518,-0.054362,-0.025584,85.422867,37.641846,-148.704407,,,
729705509.538931,-2.651659,-2.030302,75.828075,0.021896,-0.046402,0.981644,-0.00518,-0.054362,-0.025584,85.422867,37.641846,-148.704407,,,
729705509.542242,-2.653399,-2.045471,75.821312,0.021896,-0.046402,0.981644,-0.00518,-0.054362,-0.025584,85.422867,37.641846,-148.704407,,,
729705509.545588,-2.652837,-2.058998,75.815666,0.023087,-0.048691,0.993774,0.005979,-0.037441,-0.016164,85.422867,37.641846,-148.704407,,,
729705509.548912,-2.652837,-2.058998,75.815666,0.023087,-0.048691,0.993774,0.005979,-0.037441,-0.016164,85.422867,37.641846,-148.704407,,,
729705509.552242,-2.652835,-2.068175,75.811727,0.023087,-0.048691,0.993774,0.005979,-0.037441,-0.016164,85.422867,37.641846,-148.704407,,,
729705509.555566,-2.652116,-2.076855,75.80973,0.023087,-0.052261,0.997543,0.000978,-0.024551,-0.000708,85.096817,37.890152,-148.737137,,,
729705509.558993,-2.652116,-2.076855,75.80973,0.023087,-0.052261,0.997543,0.000978,-0.024551,-0.000708,85.096817,37.890152,-148.737137,,,
729705509.56224,-2.653419,-2.081299,75.810884,0.023087,-0.052261,0.997543,0.000978,-0.024551,-0.000708,85.096817,37.890152,-148.737137,,,
729705509.565599,-2.65493,-2.085571,75.814718,0.023331,-0.052094,0.999084,-0.008066,-0.007775,0.017703,85.096817,37.890152,-148.737137,,,
729705509.568911,-2.65493,-2.085571,75.814718,0.023331,-0.052094,0.999084,-0.008066,-0.007775,0.017703,85.096817,37.890152,-148.737137,,,
729705509.572309,-2.657872,-2.085472,75.820249,0.023331,-0.052094,0.999084,-0.008066,-0.007775,0.017703,85.096817,37.890152,-148.737137,,,
729705509.575559,-2.662045,-2.084652,75.827293,0.024277,-0.050201,1.001938,-0.015857,0.012349,0.025114,85.096817,37.890152,-148.737137,,,
729705509.578882,-2.662045,-2.084652,75.827293,0.024277,-0.050201,1.001938,-0.015857,0.012349,0.025114,85.096817,37.890152,-148.737137,,,
729705509.582253,-2.667525,-2.078721,75.835293,0.024277,-0.050201,1.001938,-0.015857,0.012349,0.025114,85.096817,37.890152,-148.737137,,,
729705509.585565,-2.673109,-2.072961,75.843147,0.026352,-0.049011,1.005463,-0.017022,0.026648,0.027042,85.096817,37.890152,-148.737137,,,
729705509.588905,-2.673109,-2.072961,75.843147,0.026352,-0.049011,1.005463,-0.017022,0.026648,0.027042,85.096817,37.890152,-148.737137,,,
729705509.592253,-2.67872,-2.063817,75.851586,0.026352,-0.049011,1.005463,-0.017022,0.026648,0.027042,85.096817,37.890152,-148.737137,,,
729705509.595564,-2.684333,-2.056623,75.860205,0.025787,-0.048431,1.005096,-0.015507,0.028293,0.028855,85.147537,37.837128,-148.861328,,,
729705509.598901,-2.684333,-2.056623,75.860205,0.025787,-0.048431,1.005096,-0.015507,0.028293,0.028855,85.147537,37.837128,-148.861328,,,
729705509.602262,-2.688939,-2.045901,75.869188,0.025787,-0.048431,1.005096,-0.015507,0.028293,0.028855,85.147537,37.837128,-148.861328,,,
729705509.605564,-2.692216,-2.039358,75.878539,0.026047,-0.052048,1.008926,-0.005812,0.020131,0.03196,85.147537,37.837128,-148.861328,,,
729705509.608963,-2.692216,-2.039358,75.878539,0.026047,-0.052048,1.008926,-0.005812,0.020131,0.03196,85.147537,37.837128,-148.861328,,,
729705509.612228,-2.693796,-2.031052,75.888514,0.026047,-0.052048,1.008926,-0.005812,0.020131,0.03196,85.147537,37.837128,-148.861328,,,
729705509.615575,-2.693965,-2.028066,75.897886,0.030884,-0.052521,1.00946,0.001528,0.007474,0.030301,85.147537,37.837128,-148.861328,,,
729705509.618908,-2.693965,-2.028066,75.897886,0.030884,-0.052521,1.00946,0.001528,0.007474,0.030301,85.147537,37.837128,-148.861328,,,
729705509.622307,-2.693109,-2.02446,75.906301,0.030884,-0.052521,1.00946,0.001528,0.007474,0.030301,85.147537,37.837128,-148.861328,,,
729705509.625552,-2.691688,-2.025907,75.91288,0.03775,-0.049759,1.007156,0.004704,-0.009999,0.011688,85.147537,37.837128,-148.861328,,,
729705509.628912,-2.691688,-2.025907,75.91288,0.03775,-0.049759,1.007156,0.004704,-0.009999,0.011688,85.147537,37.837128,-148.861328,,,
729705509.632272,-2.691282,-2.028025,75.916772,0.03775,-0.049759,1.007156,0.004704,-0.009999,0.011688,85.147537,37.837128,-148.861328,,,
729705509.635562,-2.690227,-2.035069,75.916776,0.042023,-0.044525,1.003082,0.004376,-0.025799,-0.011485,85.144394,37.755966,-148.739517,,,
729705509.638911,-2.690227,-2.035069,75.916776,0.042023,-0.044525,1.003082,0.004376,-0.025799,-0.011485,85.144394,37.755966,-148.739517,,,
729705509.64225,-2.69066,-2.041033,75.913005,0.042023,-0.044525,1.003082,0.004376,-0.025799,-0.011485,85.144394,37.755966,-148.739517,,,
729705509.645564,-2.6908,-2.050971,75.906082,0.039612,-0.0439,0.999191,-0.004223,-0.033434,-0.031277,85.144394,37.755966,-148.739517,,,
729705509.648925,-2.6908,-2.050971,75.906082,0.039612,-0.0439,0.999191,-0.004223,-0.033434,-0.031277,85.144394,37.755966,-148.739517,,,
729705509.652255,-2.692745,-2.058192,75.896967,0.039612,-0.0439,0.999191,-0.004223,-0.033434,-0.031277,85.144394,37.755966,-148.739517,,,
729705509.655562,-2.694608,-2.066503,75.886813,0.042542,-0.04747,1.000244,-0.00767,-0.019437,-0.038575,85.144394,37.755966,-148.739517,,,
729705509.658982,-2.694608,-2.066503,75.886813,0.042542,-0.04747,1.000244,-0.00767,-0.019437,-0.038575,85.144394,37.755966,-148.739517,,,
729705509.662237,-2.697343,-2.070483,75.877097,0.042542,-0.04747,1.000244,-0.00767,-0.019437,-0.038575,85.144394,37.755966,-148.739517,,,
729705509.665562,-2.699628,-2.073757,75.868778,0.037567,-0.05603,1.005234,-0.008674,0.002401,-0.024938,85.144394,37.755966,-148.739517,,,
729705509.668911,-2.699628,-2.073757,75.868778,0.037567,-0.05603,1.005234,-0.008674,0.002401,-0.024938,85.144394,37.755966,-148.739517,,,
729705509.672307,-2.702661,-2.071414,75.862982,0.037567,-0.05603,1.005234,-0.008674,0.002401,-0.024938,85.144394,37.755966,-148.739517,,,
729705509.675645,-2.705105,-2.067584,75.859094,0.033691,-0.057419,1.008926,-0.006465,0.024147,-0.009091,85.261169,37.927124,-148.433868,,,
729705509.678907,-2.705105,-2.067584,75.859094,0.033691,-0.057419,1.008926,-0.006465,0.024147,-0.009091,85.261169,37.927124,-148.433868,,,
729705509.682237,-2.707453,-2.05851,75.856921,0.033691,-0.057419,1.008926,-0.006465,0.024147,-0.009091,85.261169,37.927124,-148.433868,,,
729705509.68556,-2.709935,-2.050559,75.856291,0.029922,-0.054489,1.011353,-0.011559,0.030525,0.001309,85.261169,37.927124,-148.433868,,,
729705509.688922,-2.709935,-2.050559,75.856291,0.029922,-0.054489,1.011353,-0.011559,0.030525,0.001309,85.261169,37.927124,-148.433868,,,
729705509.692233,-2.71456,-2.041942,75.856868,0.029922,-0.054489,1.011353,-0.011559,0.030525,0.001309,85.261169,37.927124,-148.433868,,,
729705509.695563,-2.718992,-2.036114,75.857574,0.028244,-0.050781,1.006836,-0.017321,0.021031,-0.002118,85.261169,37.927124,-148.433868,,,
729705509.698892,-2.718992,-2.036114,75.857574,0.028244,-0.050781,1.006836,-0.017321,0.021031,-0.002118,85.261169,37.927124,-148.433868,,,
729705509.702246,-2.725615,-2.031244,75.856903,0.028244,-0.050781,1.006836,-0.017321,0.021031,-0.002118,85.261169,37.927124,-148.433868,,,
729705509.705562,-2.73303,-2.029651,75.853588,0.030655,-0.050232,1.007751,-0.031731,-0.003677,-0.016646,85.261169,37.927124,-148.433868,,,
729705509.708976,-2.73303,-2.029651,75.853588,0.030655,-0.050232,1.007751,-0.031731,-0.003677,-0.016646,85.261169,37.927124,-148.433868,,,
729705509.712238,-2.742047,-2.033508,75.847642,0.030655,-0.050232,1.007751,-0.031731,-0.003677,-0.016646,85.261169,37.927124,-148.433868,,,
729705509.7156,-2.752401,-2.041335,75.839463,0.030457,-0.052643,1.005356,-0.039595,-0.036882,-0.032792,85.261169,37.927124,-148.433868,,,
729705509.718895,-2.752401,-2.041335,75.839463,0.030457,-0.052643,1.005356,-0.039595,-0.036882,-0.032792,85.135605,37.88884,-148.638123,,,
729705509.722307,-2.762318,-2.054707,75.829324,0.030457,-0.052643,1.005356,-0.039595,-0.036882,-0.032792,85.135605,37.88884,-148.638123,,,
729705509.725552,-2.772858,-2.071357,75.817681,0.032059,-0.056519,1.012451,-0.039248,-0.064333,-0.044138,85.135605,37.88884,-148.638123,,,
729705509.728893,-2.772858,-2.071357,75.817681,0.032059,-0.056519,1.012451,-0.039248,-0.064333,-0.044138,85.135605,37.88884,-148.638123,,,
729705509.732229,-2.781681,-2.093701,75.804958,0.032059,-0.056519,1.012451,-0.039248,-0.064333,-0.044138,85.135605,37.88884,-148.638123,,,
729705509.735558,-2.790291,-2.117392,75.791719,0.03569,-0.058823,1.019363,-0.027493,-0.081205,-0.047111,85.135605,37.88884,-148.638123,,,
729705509.738922,-2.790291,-2.117392,75.791719,0.03569,-0.058823,1.019363,-0.027493,-0.081205,-0.047111,85.135605,37.88884,-148.638123,,,
729705509.74224,-2.798265,-2.1436,75.778027,0.03569,-0.058823,1.019363,-0.027493,-0.081205,-0.047111,85.135605,37.88884,-148.638123,,,
729705509.745563,-2.803684,-2.170499,75.765052,0.036728,-0.062256,1.025589,-0.01729,-0.08941,-0.040486,85.135605,37.88884,-148.638123,,,
729705509.748896,-2.803684,-2.170499,75.765052,0.036728,-0.062256,1.025589,-0.01729,-0.08941,-0.040486,85.135605,37.88884,-148.638123,,,
729705509.752225,-2.808457,-2.197249,75.75372,0.036728,-0.062256,1.025589,-0.01729,-0.08941,-0.040486,85.135605,37.88884,-148.638123,,,
729705509.755565,-2.809536,-2.223532,75.744043,0.039383,-0.067093,1.028336,0.003667,-0.081193,-0.029361,85.135605,37.88884,-148.638123,,,
729705509.758885,-2.809536,-2.223532,75.744043,0.039383,-0.067093,1.028336,0.003667,-0.081193,-0.029361,84.844681,38.02298,-148.841797,,,
729705509.762225,-2.809086,-2.245951,75.736534,0.039383,-0.067093,1.028336,0.003667,-0.081193,-0.029361,84.844681,38.02298,-148.841797,,,
729705509.765564,-2.805787,-2.265205,75.731497,0.043671,-0.067322,1.0298,0.015918,-0.053722,-0.01755,84.844681,38.02298,-148.841797,,,
729705509.768912,-2.805787,-2.265205,75.731497,0.043671,-0.067322,1.0298,0.015918,-0.053722,-0.01755,84.844681,38.02298,-148.841797,,,
729705509.772292,-2.801779,-2.278994,75.728199,0.043671,-0.067322,1.0298,0.015918,-0.053722,-0.01755,84.844681,38.02298,-148.841797,,,
729705509.775555,-2.796173,-2.291687,75.726316,0.049454,-0.064178,1.025192,0.023046,-0.032843,-0.004947,84.844681,38.02298,-148.841797,,,
729705509.778907,-2.796173,-2.291687,75.726316,0.049454,-0.064178,1.025192,0.023046,-0.032843,-0.004947,84.844681,38.02298,-148.841797,,,
729705509.782233,-2.789881,-2.300481,75.726325,0.049454,-0.064178,1.025192,0.023046,-0.032843,-0.004947,84.844681,38.02298,-148.841797,,,
729705509.785558,-2.783022,-2.308259,75.727865,0.047455,-0.062332,1.019318,0.028284,-0.015685,0.006372,84.844681,38.02298,-148.841797,,,
729705509.788905,-2.783022,-2.308259,75.727865,0.047455,-0.062332,1.019318,0.028284,-0.015685,0.006372,84.844681,38.02298,-148.841797,,,
729705509.792232,-2.775772,-2.312271,75.731227,0.047455,-0.062332,1.019318,0.028284,-0.015685,0.006372,84.844681,38.02298,-148.841797,,,
729705509.795561,-2.767574,-2.315008,75.736509,0.043427,-0.058502,1.014465,0.032228,-0.000658,0.019386,84.844681,38.02298,-148.841797,,,
729705509.798891,-2.767574,-2.315008,75.736509,0.043427,-0.058502,1.014465,0.032228,-0.000658,0.019386,84.835953,38.016693,-148.981323,,,
729705509.802228,-2.760368,-2.314426,75.74285,0.043427,-0.058502,1.014465,0.032228,-0.000658,0.019386,84.835953,38.016693,-148.981323,,,
729705509.805557,-2.752278,-2.314263,75.749361,0.037018,-0.055435,1.008209,0.032506,0.002619,0.022903,84.835953,38.016693,-148.981323,,,
729705509.808984,-2.752278,-2.314263,75.749361,0.037018,-0.055435,1.008209,0.032506,0.002619,0.022903,84.835953,38.016693,-148.981323,,,
729705509.812227,-2.744535,-2.313488,75.756424,0.037018,-0.055435,1.008209,0.032506,0.002619,0.022903,84.835953,38.016693,-148.981323,,,
729705509.815566,-2.735027,-2.313709,75.763526,0.034073,-0.047455,1.003403,0.036093,-8.6e-05,0.022819,84.835953,38.016693,-148.981323,,,
729705509.818918,-2.735027,-2.313709,75.763526,0.034073,-0.047455,1.003403,0.036093,-8.6e-05,0.022819,84.835953,38.016693,-148.981323,,,
729705509.822274,-2.72624,-2.314798,75.770524,0.034073,-0.047455,1.003403,0.036093,-8.6e-05,0.022819,84.835953,38.016693,-148.981323,,,
729705509.825558,-2.717035,-2.319025,75.776942,0.031662,-0.041977,0.998917,0.032477,-0.01978,0.018754,84.835953,38.016693,-148.981323,,,
729705509.828918,-2.717035,-2.319025,75.776942,0.031662,-0.041977,0.998917,0.032477,-0.01978,0.018754,84.835953,38.016693,-148.981323,,,
729705509.83223,-2.710714,-2.326741,75.782512,0.031662,-0.041977,0.998917,0.032477,-0.01978,0.018754,84.835953,38.016693,-148.981323,,,
729705509.835561,-2.703401,-2.339218,75.787065,0.0271,-0.038864,0.984283,0.024927,-0.049127,0.010017,84.835953,38.016693,-148.981323,,,
729705509.838908,-2.703401,-2.339218,75.787065,0.0271,-0.038864,0.984283,0.024927,-0.049127,0.010017,84.835953,38.016693,-148.981323,,,
729705509.842245,-2.700229,-2.354242,75.790457,0.0271,-0.038864,0.984283,0.024927,-0.049127,0.010017,84.608536,37.964188,-148.982513,,,
729705509.845557,-2.695821,-2.371522,75.792776,0.030533,-0.038239,0.983566,0.012086,-0.064992,0.004068,84.608536,37.964188,-148.982513,,,
729705509.848916,-2.695821,-2.371522,75.792776,0.030533,-0.038239,0.983566,0.012086,-0.064992,0.004068,84.608536,37.964188,-148.982513,,,
729705509.852225,-2.695706,-2.391705,75.794098,0.030533,-0.038239,0.983566,0.012086,-0.064992,0.004068,84.608536,37.964188,-148.982513,,,
729705509.855559,-2.693825,-2.413049,75.794859,0.033524,-0.037292,0.983215,0.005505,-0.073737,-0.000887,84.608536,37.964188,-148.982513,,,
729705509.858996,-2.693825,-2.413049,75.794859,0.033524,-0.037292,0.983215,0.005505,-0.073737,-0.000887,84.608536,37.964188,-148.982513,,,
729705509.862229,-2.695454,-2.436824,75.795777,0.033524,-0.037292,0.983215,0.005505,-0.073737,-0.000887,84.608536,37.964188,-148.982513,,,
729705509.865593,-2.694383,-2.460042,75.796791,0.03656,-0.040649,0.983154,0.006665,-0.076928,0.002221,84.608536,37.964188,-148.982513,,,
729705509.868909,-2.694383,-2.460042,75.796791,0.03656,-0.040649,0.983154,0.006665,-0.076928,0.002221,84.608536,37.964188,-148.982513,,,
729705509.872301,-2.695019,-2.483019,75.797595,0.03656,-0.040649,0.983154,0.006665,-0.076928,0.002221,84.608536,37.964188,-148.982513,,,
729705509.875558,-2.691783,-2.504484,75.799269,0.045593,-0.041336,0.986618,0.016439,-0.069446,0.005155,84.608536,37.964188,-148.982513,,,
729705509.878913,-2.691783,-2.504484,75.799269,0.045593,-0.041336,0.986618,0.016439,-0.069446,0.005155,84.608536,37.964188,-148.982513,,,
729705509.882242,-2.689543,-2.523937,75.802038,0.045593,-0.041336,0.986618,0.016439,-0.069446,0.005155,84.314545,38.032715,-148.876083,,,
729705509.885563,-2.684845,-2.54266,75.805174,0.049911,-0.041092,0.983551,0.019982,-0.059403,0.009972,84.314545,38.032715,-148.876083,,,
729705509.888916,-2.684845,-2.54266,75.805174,0.049911,-0.041092,0.983551,0.019982,-0.059403,0.009972,84.314545,38.032715,-148.876083,,,
729705509.892249,-2.680682,-2.557581,75.808736,0.049911,-0.041092,0.983551,0.019982,-0.059403,0.009972,84.314545,38.032715,-148.876083,,,
729705509.895561,-2.675519,-2.572832,75.812736,0.055344,-0.036102,0.981232,0.013439,-0.047323,0.012929,84.314545,38.032715,-148.876083,,,
729705509.89892,-2.675519,-2.572832,75.812736,0.055344,-0.036102,0.981232,0.013439,-0.047323,0.012929,84.314545,38.032715,-148.876083,,,
729705509.902231,-2.671044,-2.584251,75.817065,0.055344,-0.036102,0.981232,0.013439,-0.047323,0.012929,84.314545,38.032715,-148.876083,,,
729705509.905566,-2.668383,-2.595704,75.821158,0.059265,-0.030518,0.977951,0.008254,-0.02881,0.012998,84.314545,38.032715,-148.876083,,,
729705509.90897,-2.668383,-2.595704,75.821158,0.059265,-0.030518,0.977951,0.008254,-0.02881,0.012998,84.314545,38.032715,-148.876083,,,
729705509.912229,-2.665377,-2.601255,75.825615,0.059265,-0.030518,0.977951,0.008254,-0.02881,0.012998,84.314545,38.032715,-148.876083,,,
729705509.915571,-2.664104,-2.607862,75.830829,0.057129,-0.032639,0.97435,0.003043,-0.015356,0.017265,84.314545,38.032715,-148.876083,,,
729705509.91891,-2.664104,-2.607862,75.830829,0.057129,-0.032639,0.97435,0.003043,-0.015356,0.017265,84.314545,38.032715,-148.876083,,,
729705509.922223,-2.661583,-2.608934,75.837071,0.057129,-0.032639,0.97435,0.003043,-0.015356,0.017265,84.465866,38.109177,-148.952423,,,
729705509.925561,-2.659682,-2.611264,75.843244,0.056534,-0.035217,0.971161,0.011135,-0.001174,0.020646,84.465866,38.109177,-148.952423,,,
729705509.92892,-2.659682,-2.611264,75.843244,0.056534,-0.035217,0.971161,0.011135,-0.001174,0.020646,84.465866,38.109177,-148.952423,,,
729705509.932245,-2.654216,-2.608975,75.849821,0.056534,-0.035217,0.971161,0.011135,-0.001174,0.020646,84.465866,38.109177,-148.952423,,,
729705509.935555,-2.649847,-2.607829,75.85697,0.060974,-0.03624,0.978683,0.017846,0.007016,0.020588,84.465866,38.109177,-148.952423,,,
729705509.938909,-2.649847,-2.607829,75.85697,0.060974,-0.03624,0.978683,0.017846,0.007016,0.020588,84.465866,38.109177,-148.952423,,,
729705509.942251,-2.643966,-2.604513,75.864109,0.060974,-0.03624,0.978683,0.017846,0.007016,0.020588,84.465866,38.109177,-148.952423,,,
729705509.945555,-2.639136,-2.604619,75.869981,0.060806,-0.035965,0.972855,0.015906,0.000277,0.015424,84.465866,38.109177,-148.952423,,,
729705509.948896,-2.639136,-2.604619,75.869981,0.060806,-0.035965,0.972855,0.015906,0.000277,0.015424,84.465866,38.109177,-148.952423,,,
729705509.952225,-2.634234,-2.60495,75.874694,0.060806,-0.035965,0.972855,0.015906,0.000277,0.015424,84.465866,38.109177,-148.952423,,,
729705509.955574,-2.631426,-2.606841,75.878416,0.056458,-0.036301,0.970352,0.005315,-0.008838,0.009375,84.465866,38.109177,-148.952423,,,
729705509.959001,-2.631426,-2.606841,75.878416,0.056458,-0.036301,0.970352,0.005315,-0.008838,0.009375,84.465866,38.109177,-148.952423,,,
729705509.962221,-2.629721,-2.610447,75.88094,0.056458,-0.036301,0.970352,0.005315,-0.008838,0.009375,84.418411,37.949478,-149.175064,,,
729705509.965563,-2.629535,-2.614645,75.882091,0.057556,-0.034683,0.972183,-0.004287,-0.014688,-0.002863,84.418411,37.949478,-149.175064,,,
729705509.968998,-2.629535,-2.614645,75.882091,0.057556,-0.034683,0.972183,-0.004287,-0.014688,-0.002863,84.418411,37.949478,-149.175064,,,
729705509.972296,-2.629786,-2.62053,75.881374,0.057556,-0.034683,0.972183,-0.004287,-0.014688,-0.002863,84.418411,37.949478,-149.175064,,,
729705509.975551,-2.631464,-2.625382,75.878337,0.062943,-0.036713,0.977066,-0.009104,-0.009255,-0.01581,84.418411,37.949478,-149.175064,,,
729705509.978907,-2.631464,-2.625382,75.878337,0.062943,-0.036713,0.977066,-0.009104,-0.009255,-0.01581,84.418411,37.949478,-149.175064,,,
729705509.982243,-2.632459,-2.630274,75.873082,0.062943,-0.036713,0.977066,-0.009104,-0.009255,-0.01581,84.418411,37.949478,-149.175064,,,
729705509.985559,-2.635425,-2.632443,75.866921,0.060562,-0.036453,0.983902,-0.01542,-0.000151,-0.024941,84.418411,37.949478,-149.175064,,,
729705509.988913,-2.635425,-2.632443,75.866921,0.060562,-0.036453,0.983902,-0.01542,-0.000151,-0.024941,84.418411,37.949478,-149.175064,,,
729705509.99224,-2.638047,-2.634394,75.860698,0.060562,-0.036453,0.983902,-0.01542,-0.000151,-0.024941,84.418411,37.949478,-149.175064,,,
729705509.9956,-2.64264,-2.633603,75.855151,0.05069,-0.040421,0.984879,-0.01461,0.009416,-0.018767,84.418411,37.949478,-149.175064,,,
729705509.998908,-2.64264,-2.633603,75.855151,0.05069,-0.040421,0.984879,-0.01461,0.009416,-0.018767,84.418411,37.949478,-149.175064,,,
729705510.00227,-2.646059,-2.632576,75.85123,0.05069,-0.040421,0.984879,-0.01461,0.009416,-0.018767,84.418411,37.949478,-149.175064,,,
729705510.005568,-2.650387,-2.628756,75.849658,0.05069,-0.040421,0.984879,-0.01461,0.009416,-0.018767,84.619141,37.838959,-148.747116,,,
729705510.008967,-2.650387,-2.628756,75.849658,0.042603,-0.049561,0.986404,-0.012718,0.018379,-0.000511,84.619141,37.838959,-148.747116,,,
729705510.012241,-2.653556,-2.625006,75.85047,0.042603,-0.049561,0.986404,-0.012718,0.018379,-0.000511,84.619141,37.838959,-148.747116,,,
729705510.015582,-2.657975,-2.618991,75.853393,0.041306,-0.054337,0.988617,-0.014231,0.024938,0.015343,84.619141,37.838959,-148.747116,,,
729705510.018899,-2.657975,-2.618991,75.853393,0.041306,-0.054337,0.988617,-0.014231,0.024938,0.015343,84.619141,37.838959,-148.747116,,,
729705510.022238,-2.661911,-2.614303,75.857981,0.041306,-0.054337,0.988617,-0.014231,0.024938,0.015343,84.619141,37.838959,-148.747116,,,
729705510.025612,-2.666908,-2.60738,75.863583,0.04129,-0.050461,0.988037,-0.018756,0.027456,0.020407,84.619141,37.838959,-148.747116,,,
729705510.028901,-2.666908,-2.60738,75.863583,0.04129,-0.050461,0.988037,-0.018756,0.027456,0.020407,84.619141,37.838959,-148.747116,,,
729705510.03235,-2.671438,-2.601646,75.868827,0.04129,-0.050461,0.988037,-0.018756,0.027456,0.020407,84.619141,37.838959,-148.747116,,,
729705510.035597,-2.678306,-2.593221,75.873571,0.04129,-0.050461,0.988037,-0.018756,0.027456,0.020407,84.619141,37.838959,-148.747116,,,
729705510.038866,-2.678306,-2.593221,75.873571,0.040329,-0.045151,0.988052,-0.02609,0.034345,0.013825,84.619141,37.838959,-148.747116,,,
729705510.042238,-2.685375,-2.585137,75.876913,0.040329,-0.045151,0.988052,-0.02609,0.034345,0.013825,84.619141,37.838959,-148.747116,,,
729705510.045563,-2.6941,-2.575844,75.878962,0.040329,-0.045151,0.988052,-0.02609,0.034345,0.013825,84.622971,38.008133,-148.781113,,,
729705510.049013,-2.6941,-2.575844,75.878962,0.04097,-0.045746,0.989532,-0.02993,0.033327,0.008456,84.622971,38.008133,-148.781113,,,
729705510.052227,-2.701807,-2.568823,75.880583,0.04097,-0.045746,0.989532,-0.02993,0.033327,0.008456,84.622971,38.008133,-148.781113,,,
729705510.055651,-2.71136,-2.559586,75.881936,0.040054,-0.046982,0.988831,-0.035237,0.035739,0.002762,84.622971,38.008133,-148.781113,,,
729705510.058942,-2.71136,-2.559586,75.881936,0.040054,-0.046982,0.988831,-0.035237,0.035739,0.002762,84.622971,38.008133,-148.781113,,,
729705510.062224,-2.720244,-2.553111,75.882887,0.040054,-0.046982,0.988831,-0.035237,0.035739,0.002762,84.622971,38.008133,-148.781113,,,
729705510.065687,-2.73061,-2.546046,75.884519,0.035645,-0.046844,0.988434,-0.037681,0.021639,0.006614,84.622971,38.008133,-148.781113,,,
729705510.068882,-2.73061,-2.546046,75.884519,0.035645,-0.046844,0.988434,-0.037681,0.021639,0.006614,84.622971,38.008133,-148.781113,,,
729705510.072275,-2.740151,-2.542731,75.88654,0.035645,-0.046844,0.988434,-0.037681,0.021639,0.006614,84.622971,38.008133,-148.781113,,,
729705510.075553,-2.751286,-2.54037,75.88815,0.035645,-0.046844,0.988434,-0.037681,0.021639,0.006614,84.622971,38.008133,-148.781113,,,
729705510.078891,-2.751286,-2.54037,75.88815,0.037216,-0.043381,0.985764,-0.039485,0.005703,0.005212,84.622971,38.008133,-148.781113,,,
729705510.082241,-2.762109,-2.540459,75.88885,0.037216,-0.043381,0.985764,-0.039485,0.005703,0.005212,84.622971,38.008133,-148.781113,,,
729705510.085559,-2.762109,-2.540459,75.888424,0.037216,-0.043381,0.985764,-0.039485,0.005703,0.005212,84.73671,38.074356,-149.071747,,,
729705510.088898,-2.77248,-2.541488,75.888424,0.040176,-0.043625,0.991577,-0.03269,-0.002998,-0.002781,84.73671,38.074356,-149.071747,,,
729705510.092222,-2.782076,-2.543391,75.886936,0.040176,-0.043625,0.991577,-0.03269,-0.002998,-0.002781,84.73671,38.074356,-149.071747,,,
729705510.095667,-2.788599,-2.547318,75.885333,0.040176,-0.043625,0.991577,-0.03269,-0.002998,-0.002781,84.73671,38.074356,-149.071747,,,
729705510.0989,-2.788599,-2.547318,75.885333,0.040955,-0.047882,1.002213,-0.01382,-0.013711,-0.007703,84.73671,38.074356,-149.071747,,,
729705510.102223,-2.793085,-2.551418,75.884094,0.040955,-0.047882,1.002213,-0.01382,-0.013711,-0.007703,84.73671,38.074356,-149.071747,,,
729705510.105581,-2.793085,-2.551418,75.884094,0.040955,-0.047882,1.002213,-0.01382,-0.013711,-0.007703,84.73671,38.074356,-149.071747,,,
729705510.108981,-2.79392,-2.555611,75.883243,0.03772,-0.053146,1.009308,0.004602,-0.011029,-0.002557,84.73671,38.074356,-149.071747,,,
729705510.112223,-2.792303,-2.557851,75.883279,0.03772,-0.053146,1.009308,0.004602,-0.011029,-0.002557,84.73671,38.074356,-149.071747,,,
729705510.115621,-2.792303,-2.557851,75.883945,0.03772,-0.053146,1.009308,0.004602,-0.011029,-0.002557,84.73671,38.074356,-149.071747,,,
729705510.118891,-2.789235,-2.559187,75.883945,0.033432,-0.058548,1.011841,0.016567,0.003983,0.005741,84.73671,38.074356,-149.071747,,,
729705510.122222,-2.7838,-2.55755,75.886019,0.033432,-0.058548,1.011841,0.016567,0.003983,0.005741,84.73671,38.074356,-149.071747,,,
729705510.125555,-2.7838,-2.55755,75.886019,0.033432,-0.058548,1.011841,0.016567,0.003983,0.005741,84.847549,37.886398,-149.00264,,,
729705510.1289,-2.777785,-2.554054,75.889424,0.033279,-0.059708,1.01123,0.027055,0.021092,0.013427,84.847549,37.886398,-149.00264,,,
