Time (sec),Pitch (deg),Roll (deg),Yaw(deg),X-Acceleration (g),Y-Acceleration (g),Z-Acceleration (g),Pitch Rate (deg/sec),Roll Rate (deg/sec),Yaw Rate (deg/sec),Magnetic Field in X direction (uT),Magnetic Field in Y direction (uT),Magnetic Field in Z Direction (uT),Latitude (deg),Longitude (deg),Altitude (m)
729706854.430073,1.177604,-2.135741,116.400115,0.035355,0.016968,0.995773,0.027165,0.030753,0.018959,56.6595,28.52536,-145.939285,,,
729706854.430868,1.177597,-2.135775,-27.510074,0.035355,0.016968,0.995773,0.027165,0.030753,0.018959,56.6595,28.52536,-145.939285,,,
729706854.433371,1.182927,-2.12831,116.40596,0.034348,0.01947,0.987473,0.016218,0.025013,0.018443,56.6595,28.52536,-145.939285,,,
729706854.43544,1.182921,-2.128344,-27.504227,0.034348,0.01947,0.987473,0.016218,0.025013,0.018443,56.6595,28.52536,-145.939285,,,
729706854.436738,1.182927,-2.12831,116.40596,0.034348,0.01947,0.987473,0.016218,0.025013,0.018443,56.6595,28.52536,-145.939285,,,
729706854.437554,1.182921,-2.128344,-27.504227,0.034348,0.01947,0.987473,0.016218,0.025013,0.018443,56.6595,28.52536,-145.939285,,,
729706854.440035,1.183893,-2.122395,116.411793,0.034348,0.01947,0.987473,0.016218,0.025013,0.018443,56.6595,28.52536,-145.939285,,,
729706854.441196,1.183886,-2.12243,-27.498387,0.034348,0.01947,0.987473,0.016218,0.025013,0.018443,56.6595,28.52536,-145.939285,,,
729706854.443377,1.183134,-2.120321,116.417386,0.033112,0.017899,0.974823,-0.007192,0.006122,0.017502,56.6595,28.52536,-145.939285,,,
729706854.446092,1.183127,-2.120355,-27.492792,0.033112,0.017899,0.974823,-0.007192,0.006122,0.017502,56.6595,28.52536,-145.939285,,,
729706854.446732,1.183134,-2.120321,116.417386,0.033112,0.017899,0.974823,-0.007192,0.006122,0.017502,56.6595,28.52536,-145.939285,,,
729706854.447572,1.178938,-2.119727,-27.487981,0.033112,0.017899,0.974823,-0.007192,0.006122,0.017502,56.6595,28.52536,-145.939285,,,
729706854.450131,1.178945,-2.119692,116.422198,0.033112,0.017899,0.974823,-0.007192,0.006122,0.017502,56.6595,28.52536,-145.939285,,,
729706854.45085,1.178938,-2.119727,-27.487981,0.033112,0.017899,0.974823,-0.007192,0.006122,0.017502,56.6595,28.52536,-145.939285,,,
729706854.453379,1.175034,-2.122503,116.426361,0.039566,0.024536,0.971909,-0.015741,-0.01127,0.013126,56.619461,28.277023,-145.764633,,,
729706854.45678,1.175027,-2.122537,-27.483814,0.039566,0.024536,0.971909,-0.015741,-0.01127,0.013126,56.619461,28.277023,-145.764633,,,
729706854.457068,1.175034,-2.122503,116.426361,0.039566,0.024536,0.971909,-0.015741,-0.01127,0.013126,56.619461,28.277023,-145.764633,,,
729706854.457491,1.175027,-2.122537,-27.483814,0.039566,0.024536,0.971909,-0.015741,-0.01127,0.013126,56.619461,28.277023,-145.764633,,,
729706854.460066,1.167859,-2.126277,116.430184,0.039566,0.024536,0.971909,-0.015741,-0.01127,0.013126,56.619461,28.277023,-145.764633,,,
729706854.461515,1.167852,-2.126311,-27.479989,0.039566,0.024536,0.971909,-0.015741,-0.01127,0.013126,56.619461,28.277023,-145.764633,,,
729706854.463398,1.160616,-2.131657,116.433359,0.041183,0.024216,0.976089,-0.02536,-0.019471,0.008846,56.619461,28.277023,-145.764633,,,
729706854.465227,1.160609,-2.131691,-27.476818,0.041183,0.024216,0.976089,-0.02536,-0.019471,0.008846,56.619461,28.277023,-145.764633,,,
729706854.466711,1.160616,-2.131657,116.433359,0.041183,0.024216,0.976089,-0.02536,-0.019471,0.008846,56.619461,28.277023,-145.764633,,,
729706854.468128,1.160609,-2.139191,-27.473787,0.041183,0.024216,0.976089,-0.02536,-0.019471,0.008846,56.619461,28.277023,-145.764633,,,
729706854.470062,1.151653,-2.139157,116.436395,0.041183,0.024216,0.976089,-0.02536,-0.019471,0.008846,56.619461,28.277023,-145.764633,,,
729706854.471198,1.151646,-2.139191,-27.473787,0.041183,0.024216,0.976089,-0.02536,-0.019471,0.008846,56.619461,28.277023,-145.764633,,,
729706854.473376,1.143082,-2.146757,116.439994,0.044647,0.016174,0.982071,-0.029728,-0.026085,0.013052,56.619461,28.277023,-145.764633,,,
729706854.475024,1.143075,-2.146791,-27.470186,0.044647,0.016174,0.982071,-0.029728,-0.026085,0.013052,56.619461,28.277023,-145.764633,,,
729706854.476785,1.143082,-2.146757,116.439994,0.044647,0.016174,0.982071,-0.029728,-0.026085,0.013052,56.619461,28.277023,-145.764633,,,
729706854.477516,1.143075,-2.146791,-27.470186,0.044647,0.016174,0.982071,-0.029728,-0.026085,0.013052,56.619461,28.277023,-145.764633,,,
729706854.480053,1.133275,-2.154881,116.44367,0.044647,0.016174,0.982071,-0.029728,-0.026085,0.013052,56.619461,28.277023,-145.764633,,,
729706854.481217,1.133268,-2.154916,-27.466513,0.044647,0.016174,0.982071,-0.029728,-0.026085,0.013052,56.619461,28.277023,-145.764633,,,
729706854.483381,1.12508,-2.162896,116.446969,0.049728,0.016205,0.983704,-0.026933,-0.023356,0.010286,56.619461,28.277023,-145.764633,,,
729706854.485243,1.125073,-2.16293,-27.46322,0.049728,0.016205,0.983704,-0.026933,-0.023356,0.010286,56.619461,28.277023,-145.764633,,,
729706854.486723,1.12508,-2.162896,116.446969,0.049728,0.016205,0.983704,-0.026933,-0.023356,0.010286,56.619461,28.277023,-145.764633,,,
729706854.487584,1.125073,-2.16293,-27.460973,0.049728,0.016205,0.983704,-0.026933,-0.023356,0.010286,56.619461,28.277023,-145.764633,,,
729706854.490036,1.115365,-2.167736,116.449213,0.049728,0.016205,0.983704,-0.026933,-0.023356,0.010286,56.619461,28.277023,-145.764633,,,
729706854.49147,1.115358,-2.167771,-27.460973,0.049728,0.016205,0.983704,-0.026933,-0.023356,0.010286,56.619461,28.277023,-145.764633,,,
729706854.493407,1.107159,-2.170345,116.449939,0.057114,0.021133,0.988251,-0.025963,0.001075,-0.00037,56.619461,28.277023,-145.764633,,,
729706854.497905,1.107152,-2.170379,-27.460232,0.057114,0.021133,0.988251,-0.025963,0.001075,-0.00037,56.695969,28.35437,-145.966003,,,
729706854.498467,1.098738,-2.167843,116.449128,0.057114,0.021133,0.988251,-0.025963,0.001075,-0.00037,56.695969,28.35437,-145.966003,,,
729706854.499999,1.098738,-2.167843,116.449128,0.057114,0.021133,0.988251,-0.025963,0.001075,-0.00037,56.695969,28.35437,-145.966003,,,
729706854.501291,1.098732,-2.167878,-27.461041,0.057114,0.021133,0.988251,-0.025963,0.001075,-0.00037,56.695969,28.35437,-145.966003,,,
729706854.503395,1.091471,-2.161003,116.447067,0.062241,0.022308,0.994141,-0.022681,0.035145,-0.009262,56.695969,28.35437,-145.966003,,,
729706854.505495,1.091464,-2.161037,-27.463099,0.062241,0.022308,0.994141,-0.022681,0.035145,-0.009262,56.695969,28.35437,-145.966003,,,
729706854.506717,1.091471,-2.161003,116.447067,0.062241,0.022308,0.994141,-0.022681,0.035145,-0.009262,56.695969,28.35437,-145.966003,,,
729706854.507572,1.091464,-2.161037,-27.463099,0.062241,0.022308,0.994141,-0.022681,0.035145,-0.009262,56.695969,28.35437,-145.966003,,,
729706854.510075,1.08411,-2.149501,116.444662,0.062241,0.022308,0.994141,-0.022681,0.035145,-0.009262,56.695969,28.35437,-145.966003,,,
729706854.511875,1.084103,-2.149535,-27.465524,0.062241,0.022308,0.994141,-0.022681,0.035145,-0.009262,56.695969,28.35437,-145.966003,,,
729706854.513396,1.076943,-2.135535,116.442799,0.057114,0.015976,0.996155,-0.021675,0.05466,-0.005435,56.695969,28.35437,-145.966003,,,
729706854.515042,1.076936,-2.13557,-27.46739,0.057114,0.015976,0.996155,-0.021675,0.05466,-0.005435,56.695969,28.35437,-145.966003,,,
729706854.51671,1.076943,-2.135535,116.442799,0.057114,0.015976,0.996155,-0.021675,0.05466,-0.005435,56.695969,28.35437,-145.966003,,,
729706854.51753,1.076936,-2.13557,-27.46739,0.057114,0.015976,0.996155,-0.021675,0.05466,-0.005435,56.695969,28.35437,-145.966003,,,
729706854.520071,1.070875,-2.118698,116.441699,0.057114,0.015976,0.996155,-0.021675,0.05466,-0.005435,56.695969,28.35437,-145.966003,,,
729706854.52149,1.070868,-2.118732,-27.468473,0.057114,0.015976,0.996155,-0.021675,0.05466,-0.005435,56.695969,28.35437,-145.966003,,,
729706854.523385,1.065127,-2.100853,116.44107,0.053268,0.011063,0.995422,-0.019012,0.066994,-0.002467,56.695969,28.35437,-145.966003,,,
729706854.525367,1.06512,-2.100888,-27.469108,0.053268,0.011063,0.995422,-0.019012,0.066994,-0.002467,56.695969,28.35437,-145.966003,,,
729706854.526711,1.065127,-2.100853,116.44107,0.053268,0.011063,0.995422,-0.019012,0.066994,-0.002467,56.695969,28.35437,-145.966003,,,
729706854.527526,1.06512,-2.100888,-27.469108,0.053268,0.011063,0.995422,-0.019012,0.066994,-0.002467,56.695969,28.35437,-145.966003,,,
729706854.530043,1.060341,-2.082317,116.440302,0.053268,0.011063,0.995422,-0.019012,0.066994,-0.002467,56.695969,28.35437,-145.966003,,,
729706854.531497,1.060334,-2.082351,-27.469883,0.053268,0.011063,0.995422,-0.019012,0.066994,-0.002467,56.695969,28.35437,-145.966003,,,
729706854.533448,1.056019,-2.063465,116.438986,0.052216,0.011765,1.00209,-0.013212,0.069151,-0.00639,56.695969,28.35437,-145.966003,,,
729706854.535548,1.056013,-2.063499,-27.471184,0.052216,0.011765,1.00209,-0.013212,0.069151,-0.00639,56.97229,28.505264,-146.100021,,,
729706854.536793,1.056019,-2.063465,116.438986,0.052216,0.011765,1.00209,-0.013212,0.069151,-0.00639,56.97229,28.505264,-146.100021,,,
729706854.537515,1.056013,-2.063499,-27.471184,0.052216,0.011765,1.00209,-0.013212,0.069151,-0.00639,56.97229,28.505264,-146.100021,,,
729706854.540049,1.054288,-2.046146,116.436608,0.052216,0.011765,1.00209,-0.013212,0.069151,-0.00639,56.97229,28.505264,-146.100021,,,
729706854.541476,1.054281,-2.046181,-27.473569,0.052216,0.011765,1.00209,-0.013212,0.069151,-0.00639,56.97229,28.505264,-146.100021,,,
729706854.54338,1.051609,-2.029179,116.432302,0.050781,0.016449,1.002258,-0.010384,0.059017,-0.019809,56.97229,28.505264,-146.100021,,,
729706854.54534,1.051602,-2.029214,-27.477878,0.050781,0.016449,1.002258,-0.010384,0.059017,-0.019809,56.97229,28.505264,-146.100021,,,
729706854.546717,1.051609,-2.029179,116.432302,0.050781,0.016449,1.002258,-0.010384,0.059017,-0.019809,56.97229,28.505264,-146.100021,,,
729706854.54754,1.051602,-2.029214,-27.477878,0.050781,0.016449,1.002258,-0.010384,0.059017,-0.019809,56.97229,28.505264,-146.100021,,,
729706854.55008,1.049808,-2.015504,116.426183,0.050781,0.016449,1.002258,-0.010384,0.059017,-0.019809,56.97229,28.505264,-146.100021,,,
729706854.551201,1.049801,-2.015538,-27.483997,0.050781,0.016449,1.002258,-0.010384,0.059017,-0.019809,56.97229,28.505264,-146.100021,,,
729706854.553381,1.047788,-2.002562,116.418673,0.047714,0.020569,0.99826,-0.009506,0.044112,-0.029406,56.97229,28.505264,-146.100021,,,
729706854.555137,1.047781,-2.002597,-27.49151,0.047714,0.020569,0.99826,-0.009506,0.044112,-0.029406,56.97229,28.505264,-146.100021,,,
729706854.556711,1.047788,-2.002562,116.418673,0.047714,0.020569,0.99826,-0.009506,0.044112,-0.029406,56.97229,28.505264,-146.100021,,,
729706854.557517,1.047781,-2.002597,-27.49151,0.047714,0.020569,0.99826,-0.009506,0.044112,-0.029406,56.97229,28.505264,-146.100021,,,
729706854.560059,1.044503,-1.99373,116.410442,0.047714,0.020569,0.99826,-0.009506,0.044112,-0.029406,56.97229,28.505264,-146.100021,,,
729706854.56167,1.044496,-1.993765,-27.499746,0.047714,0.020569,0.99826,-0.009506,0.044112,-0.029406,56.97229,28.505264,-146.100021,,,
729706854.563393,1.041244,-1.984317,116.401559,0.043991,0.02121,0.996262,-0.012161,0.032082,-0.033504,56.97229,28.505264,-146.100021,,,
729706854.56513,1.041237,-1.984352,-27.508616,0.043991,0.02121,0.996262,-0.012161,0.032082,-0.033504,56.97229,28.505264,-146.100021,,,
729706854.566733,1.041244,-1.984317,116.401559,0.043991,0.02121,0.996262,-0.012161,0.032082,-0.033504,56.97229,28.505264,-146.100021,,,
729706854.567517,1.041237,-1.984352,-27.508616,0.043991,0.02121,0.996262,-0.012161,0.032082,-0.033504,56.97229,28.505264,-146.100021,,,
729706854.570068,1.038092,-1.979804,116.391602,0.043991,0.02121,0.996262,-0.012161,0.032082,-0.033504,56.97229,28.505264,-146.100021,,,
729706854.571089,1.038085,-1.979839,-27.518576,0.043991,0.02121,0.996262,-0.012161,0.032082,-0.033504,56.97229,28.505264,-146.100021,,,
729706854.573382,1.034609,-1.972648,116.380684,0.041504,0.022781,0.994278,-0.014066,0.026603,-0.0397,56.97229,28.505264,-146.100021,,,
729706854.576037,1.034602,-1.972682,-27.529501,0.041504,0.022781,0.994278,-0.014066,0.026603,-0.0397,57.030045,28.706314,-145.83371,,,
729706854.576715,1.034609,-1.972648,116.380684,0.041504,0.022781,0.994278,-0.014066,0.026603,-0.0397,57.030045,28.706314,-145.83371,,,
729706854.577516,1.034602,-1.972682,-27.529501,0.041504,0.022781,0.994278,-0.014066,0.026603,-0.0397,57.030045,28.706314,-145.83371,,,
729706854.580075,1.031572,-1.971134,116.369455,0.041504,0.022781,0.994278,-0.014066,0.026603,-0.0397,57.030045,28.706314,-145.83371,,,
729706854.581098,1.031565,-1.971168,-27.540734,0.041504,0.022781,0.994278,-0.014066,0.026603,-0.0397,57.030045,28.706314,-145.83371,,,
729706854.583381,1.028176,-1.965407,116.358166,0.040924,0.022568,0.994507,-0.011759,0.022589,-0.039464,57.030045,28.706314,-145.83371,,,
729706854.584642,1.02817,-1.965442,-27.552007,0.040924,0.022568,0.994507,-0.011759,0.022589,-0.039464,57.030045,28.706314,-145.83371,,,
729706854.586806,1.028176,-1.965407,116.358166,0.040924,0.022568,0.994507,-0.011759,0.022589,-0.039464,57.030045,28.706314,-145.83371,,,
729706854.587531,1.02817,-1.965442,-27.552007,0.040924,0.022568,0.994507,-0.011759,0.022589,-0.039464,57.030045,28.706314,-145.83371,,,
729706854.590043,1.025549,-1.963861,116.347319,0.040924,0.022568,0.994507,-0.011759,0.022589,-0.039464,57.030045,28.706314,-145.83371,,,
729706854.591484,1.025542,-1.963895,-27.562855,0.040924,0.022568,0.994507,-0.011759,0.022589,-0.039464,57.030045,28.706314,-145.83371,,,
729706854.593382,1.02304,-1.958364,116.337736,0.035019,0.014526,0.999634,-0.00844,0.018751,-0.030224,57.030045,28.706314,-145.83371,,,
729706854.595388,1.023033,-1.958398,-27.572441,0.035019,0.014526,0.999634,-0.00844,0.018751,-0.030224,57.030045,28.706314,-145.83371,,,
729706854.59672,1.02304,-1.958364,116.337736,0.035019,0.014526,0.999634,-0.00844,0.018751,-0.030224,57.030045,28.706314,-145.83371,,,
729706854.597549,1.023033,-1.958398,-27.572441,0.035019,0.014526,0.999634,-0.00844,0.018751,-0.030224,57.030045,28.706314,-145.83371,,,
729706854.600035,1.020219,-1.95767,116.330447,0.035019,0.014526,0.999634,-0.00844,0.018751,-0.030224,57.030045,28.706314,-145.83371,,,
729706854.601104,1.020212,-1.957705,-27.579725,0.035019,0.014526,0.999634,-0.00844,0.018751,-0.030224,57.030045,28.706314,-145.83371,,,
729706854.603379,1.018993,-1.953309,116.324953,0.031403,0.007309,0.999023,-0.002892,0.018379,-0.01741,57.030045,28.706314,-145.83371,,,
729706854.605336,1.018986,-1.953344,-27.585219,0.031403,0.007309,0.999023,-0.002892,0.018379,-0.01741,57.030045,28.706314,-145.83371,,,
729706854.606712,1.018993,-1.953309,116.324953,0.031403,0.007309,0.999023,-0.002892,0.018379,-0.01741,57.030045,28.706314,-145.83371,,,
729706854.607521,1.018986,-1.953344,-27.585219,0.031403,0.007309,0.999023,-0.002892,0.018379,-0.01741,57.030045,28.706314,-145.83371,,,
729706854.610115,1.01672,-1.951999,116.320784,0.031403,0.007309,0.999023,-0.002892,0.018379,-0.01741,57.030045,28.706314,-145.83371,,,
729706854.610844,1.016713,-1.952034,-27.589382,0.031403,0.007309,0.999023,-0.002892,0.018379,-0.01741,57.030045,28.706314,-145.83371,,,
729706854.613378,1.015456,-1.946347,116.3171,0.031219,0.008621,1.00499,-0.003958,0.026257,-0.013713,57.030045,28.706314,-145.83371,,,
729706854.614663,1.015449,-1.946381,-27.593082,0.031219,0.008621,1.00499,-0.003958,0.026257,-0.013713,57.030045,28.706314,-145.83371,,,
729706854.616713,1.015456,-1.946347,116.3171,0.031219,0.008621,1.00499,-0.003958,0.026257,-0.013713,57.030045,28.706314,-145.83371,,,
729706854.618005,1.015449,-1.946381,-27.593082,0.031219,0.008621,1.00499,-0.003958,0.026257,-0.013713,56.914536,28.70639,-145.837173,,,
729706854.620047,1.013509,-1.942173,116.314009,0.031219,0.008621,1.00499,-0.003958,0.026257,-0.013713,56.914536,28.70639,-145.837173,,,
729706854.621705,1.013502,-1.942207,-27.596177,0.031219,0.008621,1.00499,-0.003958,0.026257,-0.013713,56.914536,28.70639,-145.837173,,,
729706854.623382,1.012469,-1.933481,116.311292,0.032898,0.014069,1.010834,-0.001639,0.035357,-0.010832,56.914536,28.70639,-145.837173,,,
729706854.624932,1.012462,-1.933516,-27.598894,0.032898,0.014069,1.010834,-0.001639,0.035357,-0.010832,56.914536,28.70639,-145.837173,,,
729706854.626796,1.012469,-1.933481,116.311292,0.032898,0.014069,1.010834,-0.001639,0.035357,-0.010832,56.914536,28.70639,-145.837173,,,
729706854.627521,1.012462,-1.933516,-27.598894,0.032898,0.014069,1.010834,-0.001639,0.035357,-0.010832,56.914536,28.70639,-145.837173,,,
729706854.630057,1.011541,-1.926691,116.308739,0.032898,0.014069,1.010834,-0.001639,0.035357,-0.010832,56.914536,28.70639,-145.837173,,,
729706854.630859,1.011534,-1.926726,-27.601437,0.032898,0.014069,1.010834,-0.001639,0.035357,-0.010832,56.914536,28.70639,-145.837173,,,
729706854.633394,1.009607,-1.917604,116.306324,0.029633,0.015778,1.00708,-0.007239,0.032234,-0.009449,56.914536,28.70639,-145.837173,,,
729706854.635286,1.0096,-1.917638,-27.603856,0.029633,0.015778,1.00708,-0.007239,0.032234,-0.009449,56.914536,28.70639,-145.837173,,,
729706854.636749,1.009607,-1.917604,116.306324,0.029633,0.015778,1.00708,-0.007239,0.032234,-0.009449,56.914536,28.70639,-145.837173,,,
729706854.637459,1.0096,-1.917638,-27.603856,0.029633,0.015778,1.00708,-0.007239,0.032234,-0.009449,56.914536,28.70639,-145.837173,,,
729706854.640015,1.008263,-1.911133,116.304509,0.029633,0.015778,1.00708,-0.007239,0.032234,-0.009449,56.914536,28.70639,-145.837173,,,
729706854.641215,1.008256,-1.911167,-27.605671,0.029633,0.015778,1.00708,-0.007239,0.032234,-0.009449,56.914536,28.70639,-145.837173,,,
729706854.643395,1.006512,-1.902651,116.303608,0.026337,0.01474,1.001801,-0.006142,0.032251,-0.002877,56.914536,28.70639,-145.837173,,,
729706854.64488,1.006506,-1.902686,-27.606576,0.026337,0.01474,1.001801,-0.006142,0.032251,-0.002877,56.914536,28.70639,-145.837173,,,
729706854.646702,1.006512,-1.902651,116.303608,0.026337,0.01474,1.001801,-0.006142,0.032251,-0.002877,56.914536,28.70639,-145.837173,,,
729706854.647452,1.006506,-1.902686,-27.606576,0.026337,0.01474,1.001801,-0.006142,0.032251,-0.002877,56.914536,28.70639,-145.837173,,,
729706854.650052,1.005049,-1.896328,116.304026,0.026337,0.01474,1.001801,-0.006142,0.032251,-0.002877,56.914536,28.70639,-145.837173,,,
729706854.650958,1.005042,-1.896363,-27.606157,0.026337,0.01474,1.001801,-0.006142,0.032251,-0.002877,56.914536,28.70639,-145.837173,,,
729706854.653376,1.002485,-1.889819,116.305024,0.023239,0.013062,1.000366,-0.008948,0.021613,0.00142,56.914536,28.70639,-145.837173,,,
729706854.656718,1.002479,-1.889853,-27.605156,0.023239,0.013062,1.000366,-0.008948,0.021613,0.00142,56.914536,28.70639,-145.837173,,,
729706854.657034,1.002485,-1.889819,116.305024,0.023239,0.013062,1.000366,-0.008948,0.021613,0.00142,56.914536,28.70639,-145.837173,,,
729706854.658329,1.002479,-1.889853,-27.605156,0.023239,0.013062,1.000366,-0.008948,0.021613,0.00142,57.125702,28.738663,-145.886307,,,
729706854.660063,1.000524,-1.886698,116.306531,0.023239,0.013062,1.000366,-0.008948,0.021613,0.00142,57.125702,28.738663,-145.886307,,,
729706854.661115,1.000517,-1.886733,-27.60365,0.023239,0.013062,1.000366,-0.008948,0.021613,0.00142,57.125702,28.738663,-145.886307,,,
729706854.663392,0.99738,-1.883845,116.308494,0.02533,0.013626,0.992371,-0.01043,0.009017,0.00483,57.125702,28.738663,-145.886307,,,
729706854.66518,0.997373,-1.88388,-27.601687,0.02533,0.013626,0.992371,-0.01043,0.009017,0.00483,57.125702,28.738663,-145.886307,,,
729706854.66674,0.99738,-1.883845,116.308494,0.02533,0.013626,0.992371,-0.01043,0.009017,0.00483,57.125702,28.738663,-145.886307,,,
729706854.667523,0.997373,-1.88388,-27.601687,0.02533,0.013626,0.992371,-0.01043,0.009017,0.00483,57.125702,28.738663,-145.886307,,,
729706854.670052,0.993675,-1.883873,116.310196,0.02533,0.013626,0.992371,-0.01043,0.009017,0.00483,57.125702,28.738663,-145.886307,,,
729706854.671201,0.993668,-1.883907,-27.599986,0.02533,0.013626,0.992371,-0.01043,0.009017,0.00483,57.125702,28.738663,-145.886307,,,
729706854.673379,0.988307,-1.884964,116.311761,0.026566,0.014771,0.990738,-0.019375,-0.005277,0.004298,57.125702,28.738663,-145.886307,,,
729706854.675601,0.9883,-1.884999,-27.598421,0.026566,0.014771,0.990738,-0.019375,-0.005277,0.004298,57.125702,28.738663,-145.886307,,,
729706854.676803,0.988307,-1.884964,116.311761,0.026566,0.014771,0.990738,-0.019375,-0.005277,0.004298,57.125702,28.738663,-145.886307,,,
729706854.677521,0.9883,-1.884999,-27.598421,0.026566,0.014771,0.990738,-0.019375,-0.005277,0.004298,57.125702,28.738663,-145.886307,,,
729706854.680056,0.981018,-1.888067,116.31322,0.026566,0.014771,0.990738,-0.019375,-0.005277,0.004298,57.125702,28.738663,-145.886307,,,
729706854.681599,0.981012,-1.888102,-27.596969,0.026566,0.014771,0.990738,-0.019375,-0.005277,0.004298,57.125702,28.738663,-145.886307,,,
729706854.683386,0.974349,-1.891653,116.314639,0.031387,0.018158,0.992035,-0.023261,-0.009634,0.004318,57.125702,28.738663,-145.886307,,,
729706854.684775,0.974342,-1.891687,-27.595531,0.031387,0.018158,0.992035,-0.023261,-0.009634,0.004318,57.125702,28.738663,-145.886307,,,
729706854.686733,0.974349,-1.891653,116.314639,0.031387,0.018158,0.992035,-0.023261,-0.009634,0.004318,57.125702,28.738663,-145.886307,,,
729706854.68752,0.974342,-1.891687,-27.595531,0.031387,0.018158,0.992035,-0.023261,-0.009634,0.004318,57.125702,28.738663,-145.886307,,,
729706854.690038,0.966337,-1.894411,116.316331,0.031387,0.018158,0.992035,-0.023261,-0.009634,0.004318,57.125702,28.738663,-145.886307,,,
729706854.691097,0.96633,-1.894445,-27.593844,0.031387,0.018158,0.992035,-0.023261,-0.009634,0.004318,57.125702,28.738663,-145.886307,,,
729706854.693372,0.960742,-1.897247,116.318289,0.034546,0.018326,1.001282,-0.018853,-0.006527,0.006001,57.125702,28.738663,-145.886307,,,
729706854.695236,0.960735,-1.897281,-27.591888,0.034546,0.018326,1.001282,-0.018853,-0.006527,0.006001,57.125702,28.738663,-145.886307,,,
729706854.696718,0.960742,-1.897247,116.318289,0.034546,0.018326,1.001282,-0.018853,-0.006527,0.006001,57.125702,28.738663,-145.886307,,,
729706854.697542,0.960735,-1.897281,-27.591888,0.034546,0.018326,1.001282,-0.018853,-0.006527,0.006001,57.125702,28.738663,-145.886307,,,
729706854.70008,0.954323,-1.898633,116.31953,0.034546,0.018326,1.001282,-0.018853,-0.006527,0.006001,56.882462,28.74823,-145.907043,,,
729706854.701814,0.954316,-1.898668,-27.590653,0.034546,0.018326,1.001282,-0.018853,-0.006527,0.006001,56.882462,28.74823,-145.907043,,,
729706854.703382,0.949612,-1.898623,116.319944,0.039673,0.016922,1.006302,-0.01356,0.005102,5.2e-05,56.882462,28.74823,-145.907043,,,
729706854.706188,0.949605,-1.898657,-27.590242,0.039673,0.016922,1.006302,-0.01356,0.005102,5.2e-05,56.882462,28.74823,-145.907043,,,
729706854.706728,0.949612,-1.898623,116.319944,0.039673,0.016922,1.006302,-0.01356,0.005102,5.2e-05,56.882462,28.74823,-145.907043,,,
729706854.707526,0.949605,-1.898657,-27.590242,0.039673,0.016922,1.006302,-0.01356,0.005102,5.2e-05,56.882462,28.74823,-145.907043,,,
729706854.710037,0.945496,-1.896373,116.319472,0.039673,0.016922,1.006302,-0.01356,0.005102,5.2e-05,56.882462,28.74823,-145.907043,,,
729706854.710848,0.945489,-1.896407,-27.590706,0.039673,0.016922,1.006302,-0.01356,0.005102,5.2e-05,56.882462,28.74823,-145.907043,,,
729706854.713379,0.941958,-1.89141,116.31788,0.04184,0.017792,1.009109,-0.01037,0.024932,-0.00795,56.882462,28.74823,-145.907043,,,
729706854.71614,0.941951,-1.891445,-27.592296,0.04184,0.017792,1.009109,-0.01037,0.024932,-0.00795,56.882462,28.74823,-145.907043,,,
729706854.716758,0.941958,-1.89141,116.31788,0.04184,0.017792,1.009109,-0.01037,0.024932,-0.00795,56.882462,28.74823,-145.907043,,,
729706854.717525,0.941951,-1.891445,-27.592296,0.04184,0.017792,1.009109,-0.01037,0.024932,-0.00795,56.882462,28.74823,-145.907043,,,
729706854.720061,0.939237,-1.882949,116.314975,0.04184,0.017792,1.009109,-0.01037,0.024932,-0.00795,56.882462,28.74823,-145.907043,,,
729706854.721442,0.93923,-1.882984,-27.595193,0.04184,0.017792,1.009109,-0.01037,0.024932,-0.00795,56.882462,28.74823,-145.907043,,,
729706854.72338,0.937465,-1.873265,116.311448,0.041916,0.020126,1.007248,-0.004814,0.039323,-0.012643,56.882462,28.74823,-145.907043,,,
729706854.724944,0.937458,-1.8733,-27.598726,0.041916,0.020126,1.007248,-0.004814,0.039323,-0.012643,56.882462,28.74823,-145.907043,,,
729706854.726813,0.937465,-1.873265,116.311448,0.041916,0.020126,1.007248,-0.004814,0.039323,-0.012643,56.882462,28.74823,-145.907043,,,
729706854.727532,0.937458,-1.8733,-27.598726,0.041916,0.020126,1.007248,-0.004814,0.039323,-0.012643,56.882462,28.74823,-145.907043,,,
729706854.73006,0.935814,-1.860481,116.308229,0.041916,0.020126,1.007248,-0.004814,0.039323,-0.012643,56.882462,28.74823,-145.907043,,,
729706854.731287,0.935808,-1.860515,-27.601943,0.041916,0.020126,1.007248,-0.004814,0.039323,-0.012643,56.882462,28.74823,-145.907043,,,
729706854.733404,0.935275,-1.848134,116.304908,0.039963,0.02269,1.005386,0.000264,0.045937,-0.013658,56.882462,28.74823,-145.907043,,,
729706854.736162,0.935268,-1.848169,-27.605263,0.039963,0.02269,1.005386,0.000264,0.045937,-0.013658,56.882462,28.74823,-145.907043,,,
729706854.736732,0.935275,-1.848134,116.304908,0.039963,0.02269,1.005386,0.000264,0.045937,-0.013658,56.882462,28.74823,-145.907043,,,
729706854.737527,0.935268,-1.848169,-27.605263,0.039963,0.02269,1.005386,0.000264,0.045937,-0.013658,56.882462,28.74823,-145.907043,,,
729706854.740132,0.93574,-1.834344,116.302234,0.039963,0.02269,1.005386,0.000264,0.045937,-0.013658,56.936935,28.635925,-146.12114,,,
729706854.74182,0.935733,-1.834378,-27.607943,0.039963,0.02269,1.005386,0.000264,0.045937,-0.013658,56.936935,28.635925,-146.12114,,,
729706854.743385,0.937862,-1.821686,116.300832,0.03299,0.021606,0.999863,0.008793,0.048402,-0.005221,56.936935,28.635925,-146.12114,,,
729706854.745135,0.937856,-1.82172,-27.609349,0.03299,0.021606,0.999863,0.008793,0.048402,-0.005221,56.936935,28.635925,-146.12114,,,
729706854.746722,0.937862,-1.821686,116.300832,0.03299,0.021606,0.999863,0.008793,0.048402,-0.005221,56.936935,28.635925,-146.12114,,,
729706854.747521,0.937856,-1.82172,-27.609349,0.03299,0.021606,0.999863,0.008793,0.048402,-0.005221,56.936935,28.635925,-146.12114,,,
729706854.750103,0.93912,-1.807239,116.299689,0.03299,0.021606,0.999863,0.008793,0.048402,-0.005221,56.936935,28.635925,-146.12114,,,
729706854.751203,0.939113,-1.807274,-27.610493,0.03299,0.021606,0.999863,0.008793,0.048402,-0.005221,56.936935,28.635925,-146.12114,,,
729706854.753379,0.93972,-1.792915,116.298672,0.029419,0.020111,0.990387,0.002044,0.054036,-0.004265,56.936935,28.635925,-146.12114,,,
729706854.755129,0.939713,-1.79295,-27.611516,0.029419,0.020111,0.990387,0.002044,0.054036,-0.004265,56.936935,28.635925,-146.12114,,,
729706854.756712,0.93972,-1.792915,116.298672,0.029419,0.020111,0.990387,0.002044,0.054036,-0.004265,56.936935,28.635925,-146.12114,,,
729706854.757517,0.939713,-1.79295,-27.611516,0.029419,0.020111,0.990387,0.002044,0.054036,-0.004265,56.936935,28.635925,-146.12114,,,
729706854.760036,0.939862,-1.776678,116.298239,0.029419,0.020111,0.990387,0.002044,0.054036,-0.004265,56.936935,28.635925,-146.12114,,,
729706854.761202,0.939855,-1.776712,-27.611948,0.029419,0.020111,0.990387,0.002044,0.054036,-0.004265,56.936935,28.635925,-146.12114,,,
729706854.763393,0.93886,-1.759128,116.298379,0.021042,0.020416,0.98822,-0.005425,0.06612,-0.000156,56.936935,28.635925,-146.12114,,,
729706854.76619,0.938854,-1.759162,-27.611805,0.021042,0.020416,0.98822,-0.005425,0.06612,-0.000156,56.936935,28.635925,-146.12114,,,
729706854.766805,0.93886,-1.759128,116.298379,0.021042,0.020416,0.98822,-0.005425,0.06612,-0.000156,56.936935,28.635925,-146.12114,,,
729706854.767525,0.938854,-1.759162,-27.611805,0.021042,0.020416,0.98822,-0.005425,0.06612,-0.000156,56.936935,28.635925,-146.12114,,,
729706854.770111,0.936394,-1.739199,116.299186,0.021042,0.020416,0.98822,-0.005425,0.06612,-0.000156,56.936935,28.635925,-146.12114,,,
729706854.771235,0.936387,-1.739233,-27.610999,0.021042,0.020416,0.98822,-0.005425,0.06612,-0.000156,56.936935,28.635925,-146.12114,,,
729706854.773423,0.932093,-1.714917,116.301167,0.008591,0.021301,0.984406,-0.015166,0.094461,0.008501,56.936935,28.635925,-146.12114,,,
729706854.776967,0.932086,-1.714952,-27.609004,0.008591,0.021301,0.984406,-0.015166,0.094461,0.008501,56.936935,28.635925,-146.12114,,,
729706854.777261,0.932093,-1.714917,116.301167,0.008591,0.021301,0.984406,-0.015166,0.094461,0.008501,56.936935,28.635925,-146.12114,,,
729706854.777531,0.932086,-1.714952,-27.609004,0.008591,0.021301,0.984406,-0.015166,0.094461,0.008501,56.936935,28.635925,-146.12114,,,
729706854.780058,0.927332,-1.690228,116.304915,0.008591,0.021301,0.984406,-0.015166,0.094461,0.008501,57.011841,28.682968,-146.184891,,,
729706854.781883,0.927325,-1.690263,-27.605257,0.008591,0.021301,0.984406,-0.015166,0.094461,0.008501,57.011841,28.682968,-146.184891,,,
729706854.783385,0.921476,-1.66614,116.310322,0.003815,0.01796,0.981735,-0.020063,0.082062,0.020292,57.011841,28.682968,-146.184891,,,
729706854.78562,0.921469,-1.666175,-27.599854,0.003815,0.01796,0.981735,-0.020063,0.082062,0.020292,57.011841,28.682968,-146.184891,,,
729706854.786739,0.921476,-1.66614,116.310322,0.003815,0.01796,0.981735,-0.020063,0.082062,0.020292,57.011841,28.682968,-146.184891,,,
729706854.787524,0.921469,-1.666175,-27.599854,0.003815,0.01796,0.981735,-0.020063,0.082062,0.020292,57.011841,28.682968,-146.184891,,,
729706854.790076,0.914882,-1.647569,116.317261,0.003815,0.01796,0.981735,-0.020063,0.082062,0.020292,57.011841,28.682968,-146.184891,,,
729706854.791904,0.914875,-1.647603,-27.592914,0.003815,0.01796,0.981735,-0.020063,0.082062,0.020292,57.011841,28.682968,-146.184891,,,
729706854.79338,0.906953,-1.632066,116.325614,-7.6e-05,0.018753,0.969833,-0.027696,0.046879,0.030591,57.011841,28.682968,-146.184891,,,
729706854.796863,0.906946,-1.6321,-27.584559,-7.6e-05,0.018753,0.969833,-0.027696,0.046879,0.030591,57.011841,28.682968,-146.184891,,,
729706854.797361,0.906953,-1.632066,116.325614,-7.6e-05,0.018753,0.969833,-0.027696,0.046879,0.030591,57.011841,28.682968,-146.184891,,,
729706854.797628,0.906946,-1.6321,-27.584559,-7.6e-05,0.018753,0.969833,-0.027696,0.046879,0.030591,57.011841,28.682968,-146.184891,,,
729706854.80003,0.898043,-1.625196,116.335034,-7.6e-05,0.018753,0.969833,-0.027696,0.046879,0.030591,57.011841,28.682968,-146.184891,,,
729706854.801303,0.898036,-1.625231,-27.575143,-7.6e-05,0.018753,0.969833,-0.027696,0.046879,0.030591,57.011841,28.682968,-146.184891,,,
729706854.803385,0.887137,-1.621845,116.344638,0.000824,0.020462,0.974564,-0.038359,0.005289,0.032457,57.011841,28.682968,-146.184891,,,
729706854.806721,0.88713,-1.621879,-27.565538,0.000824,0.020462,0.974564,-0.038359,0.005289,0.032457,57.011841,28.682968,-146.184891,,,
729706854.806987,0.887137,-1.621845,116.344638,0.000824,0.020462,0.974564,-0.038359,0.005289,0.032457,57.011841,28.682968,-146.184891,,,
729706854.807526,0.88713,-1.621879,-27.565538,0.000824,0.020462,0.974564,-0.038359,0.005289,0.032457,57.011841,28.682968,-146.184891,,,
729706854.810049,0.876313,-1.625932,116.353216,0.000824,0.020462,0.974564,-0.038359,0.005289,0.032457,57.011841,28.682968,-146.184891,,,
729706854.811697,0.876306,-1.625966,-27.556968,0.000824,0.020462,0.974564,-0.038359,0.005289,0.032457,57.011841,28.682968,-146.184891,,,
729706854.813397,0.863875,-1.632564,116.359862,0.01062,0.023529,0.983307,-0.044073,-0.027154,0.019498,57.011841,28.682968,-146.184891,,,
729706854.816572,0.863868,-1.632598,-27.550308,0.01062,0.023529,0.983307,-0.044073,-0.027154,0.019498,57.011841,28.682968,-146.184891,,,
729706854.816857,0.863875,-1.632564,116.359862,0.01062,0.023529,0.983307,-0.044073,-0.027154,0.019498,57.011841,28.682968,-146.184891,,,
729706854.817518,0.863868,-1.632598,-27.550308,0.01062,0.023529,0.983307,-0.044073,-0.027154,0.019498,57.011841,28.682968,-146.184891,,,
729706854.820088,0.853079,-1.6448,116.364805,0.01062,0.023529,0.983307,-0.044073,-0.027154,0.019498,57.011841,28.682968,-146.184891,,,
729706854.82209,0.853072,-1.644835,-27.545374,0.01062,0.023529,0.983307,-0.044073,-0.027154,0.019498,56.943314,28.914154,-146.184448,,,
729706854.82338,0.842514,-1.65819,116.36794,0.018494,0.019272,0.99234,-0.033578,-0.045573,0.006836,56.943314,28.914154,-146.184448,,,
729706854.826022,0.842507,-1.658225,-27.542241,0.018494,0.019272,0.99234,-0.033578,-0.045573,0.006836,56.943314,28.914154,-146.184448,,,
729706854.826716,0.842514,-1.65819,116.36794,0.018494,0.019272,0.99234,-0.033578,-0.045573,0.006836,56.943314,28.914154,-146.184448,,,
729706854.827522,0.842507,-1.658225,-27.542241,0.018494,0.019272,0.99234,-0.033578,-0.045573,0.006836,56.943314,28.914154,-146.184448,,,
729706854.830061,0.834193,-1.671933,116.369876,0.018494,0.019272,0.99234,-0.033578,-0.045573,0.006836,56.943314,28.914154,-146.184448,,,
729706854.831582,0.834186,-1.671967,-27.540303,0.018494,0.019272,0.99234,-0.033578,-0.045573,0.006836,56.943314,28.914154,-146.184448,,,
729706854.833368,0.826804,-1.684025,116.371721,0.023911,0.012131,1.00882,-0.019753,-0.036742,0.005843,56.943314,28.914154,-146.184448,,,
729706854.835339,0.826797,-1.684059,-27.53846,0.023911,0.012131,1.00882,-0.019753,-0.036742,0.005843,56.943314,28.914154,-146.184448,,,
729706854.836743,0.826804,-1.684025,116.371721,0.023911,0.012131,1.00882,-0.019753,-0.036742,0.005843,56.943314,28.914154,-146.184448,,,
729706854.837518,0.826797,-1.684059,-27.53846,0.023911,0.012131,1.00882,-0.019753,-0.036742,0.005843,56.943314,28.914154,-146.184448,,,
729706854.840037,0.823118,-1.693123,116.373827,0.023911,0.012131,1.00882,-0.019753,-0.036742,0.005843,56.943314,28.914154,-146.184448,,,
729706854.841487,0.823111,-1.693158,-27.536356,0.023911,0.012131,1.00882,-0.019753,-0.036742,0.005843,56.943314,28.914154,-146.184448,,,
729706854.843375,0.820941,-1.698369,116.377117,0.027588,0.009277,1.016098,-0.00245,-0.006004,0.013527,56.943314,28.914154,-146.184448,,,
729706854.845536,0.820934,-1.698404,-27.533066,0.027588,0.009277,1.016098,-0.00245,-0.006004,0.013527,56.943314,28.914154,-146.184448,,,
729706854.846724,0.820941,-1.698369,116.377117,0.027588,0.009277,1.016098,-0.00245,-0.006004,0.013527,56.943314,28.914154,-146.184448,,,
729706854.847531,0.820934,-1.698404,-27.533066,0.027588,0.009277,1.016098,-0.00245,-0.006004,0.013527,56.943314,28.914154,-146.184448,,,
729706854.850039,0.822617,-1.696044,116.383128,0.027588,0.009277,1.016098,-0.00245,-0.006004,0.013527,56.943314,28.914154,-146.184448,,,
729706854.850851,0.82261,-1.696079,-27.527053,0.027588,0.009277,1.016098,-0.00245,-0.006004,0.013527,56.943314,28.914154,-146.184448,,,
729706854.853368,0.825759,-1.691258,116.392647,0.032318,0.005249,1.019302,0.017903,0.029373,0.037043,56.943314,28.914154,-146.184448,,,
729706854.857386,0.825752,-1.691293,-27.517532,0.032318,0.005249,1.019302,0.017903,0.029373,0.037043,56.943314,28.914154,-146.184448,,,
729706854.857661,0.825759,-1.691258,116.392647,0.032318,0.005249,1.019302,0.017903,0.029373,0.037043,56.943314,28.914154,-146.184448,,,
729706854.860031,0.831994,-1.677135,116.404716,0.032318,0.005249,1.019302,0.017903,0.029373,0.037043,56.943314,28.914154,-146.184448,,,
729706854.861545,0.831988,-1.677169,-27.505459,0.032318,0.005249,1.019302,0.017903,0.029373,0.037043,56.943314,28.914154,-146.184448,,,
729706854.863392,0.839245,-1.66255,116.419093,0.039505,0.001678,1.018326,0.032088,0.063112,0.052249,56.878891,28.746368,-145.877426,,,
729706854.866672,0.839238,-1.662585,-27.491085,0.039505,0.001678,1.018326,0.032088,0.063112,0.052249,56.878891,28.746368,-145.877426,,,
729706854.866933,0.839245,-1.66255,116.419093,0.039505,0.001678,1.018326,0.032088,0.063112,0.052249,56.878891,28.746368,-145.877426,,,
729706854.867498,0.839238,-1.662585,-27.491085,0.039505,0.001678,1.018326,0.032088,0.063112,0.052249,56.878891,28.746368,-145.877426,,,
729706854.870054,0.848425,-1.638706,116.434699,0.039505,0.001678,1.018326,0.032088,0.063112,0.052249,56.878891,28.746368,-145.877426,,,
729706854.871666,0.848418,-1.638741,-27.475485,0.039505,0.001678,1.018326,0.032088,0.063112,0.052249,56.878891,28.746368,-145.877426,,,
729706854.873383,0.856726,-1.615964,116.450276,0.039505,0.001678,1.018326,0.030352,0.087246,0.051733,56.878891,28.746368,-145.877426,,,
729706854.87561,0.856719,-1.615999,-27.459906,0.039505,0.00647,1.010529,0.030352,0.087246,0.051733,56.878891,28.746368,-145.877426,,,
729706854.876728,0.856726,-1.615964,116.450276,0.039505,0.00647,1.010529,0.030352,0.087246,0.051733,56.878891,28.746368,-145.877426,,,
729706854.877522,0.856719,-1.615999,-27.459906,0.039505,0.00647,1.010529,0.030352,0.087246,0.051733,56.878891,28.746368,-145.877426,,,
729706854.880143,0.865339,-1.585686,116.464865,0.039505,0.00647,1.010529,0.030352,0.087246,0.051733,56.878891,28.746368,-145.877426,,,
729706854.881771,0.865332,-1.58572,-27.44532,0.039505,0.00647,1.010529,0.030352,0.087246,0.051733,56.878891,28.746368,-145.877426,,,
729706854.883412,0.872863,-1.559359,116.477852,0.039581,0.013138,1.001678,0.028919,0.094912,0.040145,56.878891,28.746368,-145.877426,,,
729706854.885146,0.872856,-1.559393,-27.432328,0.039581,0.013138,1.001678,0.028919,0.094912,0.040145,56.878891,28.746368,-145.877426,,,
729706854.886738,0.872863,-1.559359,116.477852,0.039581,0.013138,1.001678,0.028919,0.094912,0.040145,56.878891,28.746368,-145.877426,,,
729706854.88752,0.872856,-1.559393,-27.432328,0.039581,0.013138,1.001678,0.028919,0.094912,0.040145,56.878891,28.746368,-145.877426,,,
729706854.890036,0.880562,-1.529447,116.489323,0.039581,0.013138,1.001678,0.028919,0.094912,0.040145,56.878891,28.746368,-145.877426,,,
729706854.891666,0.880555,-1.529482,-27.420851,0.039581,0.013138,1.001678,0.028919,0.094912,0.040145,56.878891,28.746368,-145.877426,,,
729706854.893407,0.88545,-1.505096,116.49966,0.034698,0.015015,0.992813,0.018711,0.082671,0.032026,56.878891,28.746368,-145.877426,,,
729706854.896321,0.885443,-1.50513,-27.410522,0.034698,0.015015,0.992813,0.018711,0.082671,0.032026,56.878891,28.746368,-145.877426,,,
729706854.896804,0.88545,-1.505096,116.49966,0.034698,0.015015,0.992813,0.018711,0.082671,0.032026,56.878891,28.746368,-145.877426,,,
729706854.897561,0.885443,-1.50513,-27.410522,0.034698,0.015015,0.992813,0.018711,0.082671,0.032026,56.878891,28.746368,-145.877426,,,
729706854.900037,0.891364,-1.48208,116.508183,0.034698,0.015015,0.992813,0.018711,0.082671,0.032026,56.878891,28.746368,-145.877426,,,
729706854.901523,0.891357,-1.482115,-27.401989,0.034698,0.015015,0.992813,0.018711,0.082671,0.032026,56.878891,28.746368,-145.877426,,,
729706854.903412,0.896047,-1.464105,116.515465,0.031754,0.014709,0.991669,0.017783,0.060025,0.023106,56.976685,28.835526,-145.995773,,,
729706854.906305,0.89604,-1.46414,-27.394707,0.031754,0.014709,0.991669,0.017783,0.060025,0.023106,56.976685,28.835526,-145.995773,,,
729706854.906715,0.896047,-1.464105,116.515465,0.031754,0.014709,0.991669,0.017783,0.060025,0.023106,56.976685,28.835526,-145.995773,,,
729706854.907525,0.89604,-1.46414,-27.394707,0.031754,0.014709,0.991669,0.017783,0.060025,0.023106,56.976685,28.835526,-145.995773,,,
729706854.910036,0.900401,-1.448374,116.522297,0.031754,0.014709,0.991669,0.017783,0.060025,0.023106,56.976685,28.835526,-145.995773,,,
729706854.911216,0.900395,-1.448408,-27.387878,0.031754,0.014709,0.991669,0.017783,0.060025,0.023106,56.976685,28.835526,-145.995773,,,
729706854.913416,0.904683,-1.436608,116.528469,0.024704,0.01001,0.994293,0.016728,0.037547,0.018481,56.976685,28.835526,-145.995773,,,
729706854.915144,0.904676,-1.436643,-27.381711,0.024704,0.01001,0.994293,0.016728,0.037547,0.018481,56.976685,28.835526,-145.995773,,,
729706854.91673,0.904683,-1.436608,116.528469,0.024704,0.01001,0.994293,0.016728,0.037547,0.018481,56.976685,28.835526,-145.995773,,,
729706854.917518,0.904676,-1.436643,-27.381711,0.024704,0.01001,0.994293,0.016728,0.037547,0.018481,56.976685,28.835526,-145.995773,,,
729706854.920036,0.907703,-1.428847,116.533887,0.024704,0.01001,0.994293,0.016728,0.037547,0.018481,56.976685,28.835526,-145.995773,,,
729706854.921467,0.907697,-1.428882,-27.376294,0.024704,0.01001,0.994293,0.016728,0.037547,0.018481,56.976685,28.835526,-145.995773,,,
729706854.923378,0.907703,-1.428847,116.533887,0.024704,0.01001,0.994293,0.016728,0.037547,0.018481,56.976685,28.835526,-145.995773,,,
729706854.925052,0.911137,-1.425202,-27.371282,0.026489,0.0112,0.99231,0.012945,0.009464,0.015767,56.976685,28.835526,-145.995773,,,
729706854.926728,0.911144,-1.425167,116.538899,0.026489,0.0112,0.99231,0.012945,0.009464,0.015767,56.976685,28.835526,-145.995773,,,
729706854.927517,0.911137,-1.425202,-27.371282,0.026489,0.0112,0.99231,0.012945,0.009464,0.015767,56.976685,28.835526,-145.995773,,,
729706854.930047,0.913088,-1.425775,116.543686,0.026489,0.0112,0.99231,0.012945,0.009464,0.015767,56.976685,28.835526,-145.995773,,,
729706854.930918,0.913081,-1.425809,-27.366501,0.026489,0.0112,0.99231,0.012945,0.009464,0.015767,56.976685,28.835526,-145.995773,,,
729706854.933368,0.913088,-1.428467,116.548274,0.026489,0.0112,0.99231,0.01289,-0.009285,0.01447,56.976685,28.835526,-145.995773,,,
729706854.936419,0.916333,-1.428501,-27.361913,0.031143,0.012314,0.998703,0.01289,-0.009285,0.01447,56.976685,28.835526,-145.995773,,,
729706854.936747,0.91634,-1.428467,116.548274,0.031143,0.012314,0.998703,0.01289,-0.009285,0.01447,56.976685,28.835526,-145.995773,,,
729706854.937531,0.916333,-1.428501,-27.361913,0.031143,0.012314,0.998703,0.01289,-0.009285,0.01447,56.976685,28.835526,-145.995773,,,
729706854.940041,0.917409,-1.434166,116.552435,0.031143,0.012314,0.998703,0.01289,-0.009285,0.01447,56.976685,28.835526,-145.995773,,,
729706854.940851,0.917402,-1.4342,-27.357755,0.031143,0.012314,0.998703,0.01289,-0.009285,0.01447,56.976685,28.835526,-145.995773,,,
729706854.943456,0.917409,-1.434166,116.552435,0.031143,0.012314,0.998703,0.019497,-0.005197,0.006601,56.976685,28.835526,-145.995773,,,
729706854.945951,0.921735,-1.437337,-27.354729,0.039108,0.012451,1.006012,0.019497,-0.005197,0.006601,57.129257,28.899765,-146.205994,,,
729706854.946721,0.921742,-1.437302,116.555443,0.039108,0.012451,1.006012,0.019497,-0.005197,0.006601,57.129257,28.899765,-146.205994,,,
729706854.947532,0.921735,-1.437337,-27.354729,0.039108,0.012451,1.006012,0.019497,-0.005197,0.006601,57.129257,28.899765,-146.205994,,,
729706854.950046,0.925619,-1.440385,116.556887,0.039108,0.012451,1.006012,0.019497,-0.005197,0.006601,57.129257,28.899765,-146.205994,,,
729706854.951206,0.925612,-1.44042,-27.353288,0.039108,0.012451,1.006012,0.019497,-0.005197,0.006601,57.129257,28.899765,-146.205994,,,
729706854.9534,0.925619,-1.440385,116.556887,0.039108,0.012451,1.006012,0.019497,-0.005197,0.006601,57.129257,28.899765,-146.205994,,,
729706854.956891,0.933442,-1.438154,-27.353807,0.05043,0.013046,1.016479,0.033063,0.01477,-0.007127,57.129257,28.899765,-146.205994,,,
729706854.95719,0.933449,-1.438119,116.556366,0.05043,0.013046,1.016479,0.033063,0.01477,-0.007127,57.129257,28.899765,-146.205994,,,
729706854.957513,0.933442,-1.438154,-27.353807,0.05043,0.013046,1.016479,0.033063,0.01477,-0.007127,57.129257,28.899765,-146.205994,,,
729706854.960043,0.943532,-1.43581,116.554331,0.05043,0.013046,1.016479,0.033063,0.01477,-0.007127,57.129257,28.899765,-146.205994,,,
729706854.961463,0.943525,-1.435844,-27.355845,0.05043,0.013046,1.016479,0.033063,0.01477,-0.007127,57.129257,28.899765,-146.205994,,,
729706854.963404,0.943532,-1.43581,116.554331,0.05043,0.013046,1.016479,0.033063,0.01477,-0.007127,57.129257,28.899765,-146.205994,,,
729706854.965513,0.956359,-1.428116,-27.358767,0.052048,0.014023,1.013184,0.045626,0.035204,-0.013299,57.129257,28.899765,-146.205994,,,
729706854.966815,0.956366,-1.428081,116.55141,0.052048,0.014023,1.013184,0.045626,0.035204,-0.013299,57.129257,28.899765,-146.205994,,,
729706854.967529,0.956359,-1.428116,-27.358767,0.052048,0.014023,1.013184,0.045626,0.035204,-0.013299,57.129257,28.899765,-146.205994,,,
729706854.970051,0.969948,-1.419239,116.548341,0.052048,0.014023,1.013184,0.045626,0.035204,-0.013299,57.129257,28.899765,-146.205994,,,
729706854.971588,0.969941,-1.419273,-27.361835,0.052048,0.014023,1.013184,0.045626,0.035204,-0.013299,57.129257,28.899765,-146.205994,,,
729706854.973408,0.969948,-1.419239,116.548341,0.052048,0.014023,1.013184,0.045626,0.035204,-0.013299,57.129257,28.899765,-146.205994,,,
729706854.975501,0.985122,-1.405314,-27.364654,0.047211,0.015411,1.011322,0.05515,0.056438,-0.01154,57.129257,28.899765,-146.205994,,,
729706854.976721,0.985129,-1.40528,116.545525,0.047211,0.015411,1.011322,0.05515,0.056438,-0.01154,57.129257,28.899765,-146.205994,,,
729706854.977522,0.985122,-1.405314,-27.364654,0.047211,0.015411,1.011322,0.05515,0.056438,-0.01154,57.129257,28.899765,-146.205994,,,
729706854.980053,1.000281,-1.390229,116.542717,0.047211,0.015411,1.011322,0.05515,0.056438,-0.01154,57.129257,28.899765,-146.205994,,,
729706854.981705,1.000274,-1.390263,-27.367465,0.047211,0.015411,1.011322,0.05515,0.056438,-0.01154,57.129257,28.899765,-146.205994,,,
729706854.983498,1.000281,-1.390229,116.542717,0.047211,0.015411,1.011322,0.05515,0.056438,-0.01154,57.129257,28.899765,-146.205994,,,
729706854.986257,1.014464,-1.371163,-27.370861,0.04245,0.018936,1.002197,0.046532,0.073137,-0.015206,57.35759,28.645538,-146.212021,,,
729706854.986729,1.014471,-1.371129,116.539322,0.04245,0.018936,1.002197,0.046532,0.073137,-0.015206,57.35759,28.645538,-146.212021,,,
729706854.987527,1.014464,-1.371163,-27.370861,0.04245,0.018936,1.002197,0.046532,0.073137,-0.015206,57.35759,28.645538,-146.212021,,,
729706854.990034,1.026294,-1.351508,116.535828,0.04245,0.018936,1.002197,0.046532,0.073137,-0.015206,57.35759,28.645538,-146.212021,,,
729706854.991497,1.026287,-1.351542,-27.374362,0.04245,0.018936,1.002197,0.046532,0.073137,-0.015206,57.35759,28.645538,-146.212021,,,
729706854.99344,1.026294,-1.351508,116.535828,0.04245,0.018936,1.002197,0.046532,0.073137,-0.015206,57.35759,28.645538,-146.212021,,,
729706854.995806,1.03686,-1.330938,-27.377726,0.033081,0.021957,0.993317,0.032034,0.074788,-0.013849,57.35759,28.645538,-146.212021,,,
729706854.996715,1.036867,-1.330904,116.532451,0.033081,0.021957,0.993317,0.032034,0.074788,-0.013849,57.35759,28.645538,-146.212021,,,
729706854.99752,1.03686,-1.330938,-27.377726,0.033081,0.021957,0.993317,0.032034,0.074788,-0.013849,57.35759,28.645538,-146.212021,,,
729706855.000063,1.043182,-1.311189,116.529011,0.033081,0.021957,0.993317,0.032034,0.074788,-0.013849,57.35759,28.645538,-146.212021,,,
729706855.001211,1.043175,-1.311223,-27.381166,0.033081,0.021957,0.993317,0.032034,0.074788,-0.013849,57.35759,28.645538,-146.212021,,,
729706855.003457,1.043182,-1.311189,116.529011,0.033081,0.021957,0.993317,0.032034,0.074788,-0.013849,57.35759,28.645538,-146.212021,,,
729706855.005423,1.047856,-1.292492,-27.384992,0.02327,0.023773,0.987793,0.01165,0.065594,-0.016051,57.35759,28.645538,-146.212021,,,
729706855.006711,1.047862,-1.292458,116.525182,0.02327,0.023773,0.987793,0.01165,0.065594,-0.016051,57.35759,28.645538,-146.212021,,,
729706855.007534,1.047856,-1.292492,-27.384992,0.02327,0.023773,0.987793,0.01165,0.065594,-0.016051,57.35759,28.645538,-146.212021,,,
729706855.010032,1.048513,-1.276347,116.520284,0.02327,0.023773,0.987793,0.01165,0.065594,-0.016051,57.35759,28.645538,-146.212021,,,
729706855.011397,1.048506,-1.276382,-27.3899,0.02327,0.023773,0.987793,0.01165,0.065594,-0.016051,57.35759,28.645538,-146.212021,,,
729706855.013399,1.048513,-1.276347,116.520284,0.02327,0.023773,0.987793,0.01165,0.065594,-0.016051,57.35759,28.645538,-146.212021,,,
729706855.016503,1.048408,-1.26125,-27.395559,0.017929,0.024475,0.98381,-0.001682,0.051849,-0.020916,57.35759,28.645538,-146.212021,,,
729706855.016789,1.048415,-1.261216,116.514628,0.017929,0.024475,0.98381,-0.001682,0.051849,-0.020916,57.35759,28.645538,-146.212021,,,
729706855.017532,1.048408,-1.26125,-27.395559,0.017929,0.024475,0.98381,-0.001682,0.051849,-0.020916,57.35759,28.645538,-146.212021,,,
729706855.020051,1.046096,-1.250308,116.508342,0.017929,0.024475,0.98381,-0.001682,0.051849,-0.020916,57.35759,28.645538,-146.212021,,,
729706855.021238,1.046089,-1.250342,-27.401833,0.017929,0.024475,0.98381,-0.001682,0.051849,-0.020916,57.35759,28.645538,-146.212021,,,
729706855.023421,1.046096,-1.250308,116.508342,0.017929,0.024475,0.98381,-0.001682,0.051849,-0.020916,57.35759,28.645538,-146.212021,,,
729706855.02664,1.043966,-1.239546,-27.40899,0.009232,0.02002,0.98967,-0.007287,0.036739,-0.026701,57.385635,28.859619,-146.36821,,,
729706855.026929,1.043973,-1.239511,116.501189,0.009232,0.02002,0.98967,-0.007287,0.036739,-0.026701,57.385635,28.859619,-146.36821,,,
729706855.027528,1.043966,-1.239546,-27.40899,0.009232,0.02002,0.98967,-0.007287,0.036739,-0.026701,57.385635,28.859619,-146.36821,,,
729706855.030089,1.041274,-1.235235,116.493777,0.009232,0.02002,0.98967,-0.007287,0.036739,-0.026701,57.385635,28.859619,-146.36821,,,
729706855.031099,1.041267,-1.235269,-27.416404,0.009232,0.02002,0.98967,-0.007287,0.036739,-0.026701,57.385635,28.859619,-146.36821,,,
729706855.033415,1.041274,-1.235235,116.493777,0.009232,0.02002,0.98967,-0.007287,0.036739,-0.026701,57.385635,28.859619,-146.36821,,,
729706855.035803,1.040664,-1.230465,-27.42389,0.005188,0.016006,0.993851,0.000104,0.012944,-0.02683,57.385635,28.859619,-146.36821,,,
729706855.036751,1.040671,-1.230431,116.486291,0.005188,0.016006,0.993851,0.000104,0.012944,-0.02683,57.385635,28.859619,-146.36821,,,
729706855.037524,1.040664,-1.230465,-27.42389,0.005188,0.016006,0.993851,0.000104,0.012944,-0.02683,57.385635,28.859619,-146.36821,,,
729706855.04005,1.039614,-1.234481,116.479451,0.005188,0.016006,0.993851,0.000104,0.012944,-0.02683,57.385635,28.859619,-146.36821,,,
729706855.041125,1.039607,-1.234515,-27.430734,0.005188,0.016006,0.993851,0.000104,0.012944,-0.02683,57.385635,28.859619,-146.36821,,,
729706855.043457,1.039614,-1.234481,116.479451,0.005188,0.016006,0.993851,0.000104,0.012944,-0.02683,57.385635,28.859619,-146.36821,,,
729706855.046227,1.040047,-1.237229,-27.436925,0.002579,0.015732,0.989456,0.004517,-0.014452,-0.021666,57.385635,28.859619,-146.36821,,,
729706855.046779,1.040053,-1.237194,116.47326,0.002579,0.015732,0.989456,0.004517,-0.014452,-0.021666,57.385635,28.859619,-146.36821,,,
729706855.047546,1.040047,-1.237229,-27.436925,0.002579,0.015732,0.989456,0.004517,-0.014452,-0.021666,57.385635,28.859619,-146.36821,,,
729706855.050047,1.039983,-1.247537,116.468082,0.002579,0.015732,0.989456,0.004517,-0.014452,-0.021666,57.385635,28.859619,-146.36821,,,
729706855.051295,1.039977,-1.247572,-27.442088,0.002579,0.015732,0.989456,0.004517,-0.014452,-0.021666,57.385635,28.859619,-146.36821,,,
729706855.053386,1.039983,-1.247537,116.468082,0.002579,0.015732,0.989456,0.004517,-0.014452,-0.021666,57.385635,28.859619,-146.36821,,,
729706855.054884,1.040472,-1.25479,-27.44641,0.003021,0.014679,0.994553,0.00358,-0.025117,-0.015164,57.385635,28.859619,-146.36821,,,
729706855.056715,1.040478,-1.254755,116.463755,0.003021,0.014679,0.994553,0.00358,-0.025117,-0.015164,57.385635,28.859619,-146.36821,,,
729706855.057515,1.040472,-1.25479,-27.44641,0.003021,0.014679,0.994553,0.00358,-0.025117,-0.015164,57.385635,28.859619,-146.36821,,,
729706855.060033,1.040788,-1.267141,116.460434,0.003021,0.014679,0.994553,0.00358,-0.025117,-0.015164,57.385635,28.859619,-146.36821,,,
729706855.061212,1.040781,-1.267175,-27.449745,0.003021,0.014679,0.994553,0.00358,-0.025117,-0.015164,57.385635,28.859619,-146.36821,,,
729706855.063492,1.040788,-1.267141,116.460434,0.003021,0.014679,0.994553,0.00358,-0.025117,-0.015164,57.385635,28.859619,-146.36821,,,
729706855.065331,1.04104,-1.275621,-27.452839,0.010193,0.014954,1.001404,0.001854,-0.025686,-0.012893,57.385635,28.859619,-146.36821,,,
729706855.066752,1.041046,-1.275587,116.457343,0.010193,0.014954,1.001404,0.001854,-0.025686,-0.012893,57.386063,28.684723,-146.151489,,,
729706855.068173,1.04104,-1.275621,-27.452839,0.010193,0.014954,1.001404,0.001854,-0.025686,-0.012893,57.386063,28.684723,-146.151489,,,
729706855.070058,1.041611,-1.285709,116.453826,0.010193,0.014954,1.001404,0.001854,-0.025686,-0.012893,57.386063,28.684723,-146.151489,,,
729706855.071451,1.041604,-1.285743,-27.456359,0.010193,0.014954,1.001404,0.001854,-0.025686,-0.012893,57.386063,28.684723,-146.151489,,,
729706855.073385,1.041611,-1.285709,116.453826,0.010193,0.014954,1.001404,0.001854,-0.025686,-0.012893,57.386063,28.684723,-146.151489,,,
729706855.075254,1.041786,-1.291053,-27.460647,0.016266,0.017426,1.009949,0.001162,-0.011399,-0.017916,57.386063,28.684723,-146.151489,,,
729706855.076741,1.041792,-1.291018,116.449533,0.016266,0.017426,1.009949,0.001162,-0.011399,-0.017916,57.386063,28.684723,-146.151489,,,
729706855.077518,1.041786,-1.291053,-27.460647,0.016266,0.017426,1.009949,0.001162,-0.011399,-0.017916,57.386063,28.684723,-146.151489,,,
729706855.080055,1.042709,-1.294866,116.444763,0.016266,0.017426,1.009949,0.001162,-0.011399,-0.017916,57.386063,28.684723,-146.151489,,,
729706855.081227,1.042702,-1.294901,-27.46542,0.016266,0.017426,1.009949,0.001162,-0.011399,-0.017916,57.386063,28.684723,-146.151489,,,
729706855.083378,1.042709,-1.294866,116.444763,0.016266,0.017426,1.009949,0.001162,-0.011399,-0.017916,57.386063,28.684723,-146.151489,,,
729706855.085819,1.0427,-1.295476,-27.470409,0.017334,0.015808,1.013046,0.001017,0.004455,-0.019282,57.386063,28.684723,-146.151489,,,
729706855.086834,1.042707,-1.295442,116.439771,0.017334,0.015808,1.013046,0.001017,0.004455,-0.019282,57.386063,28.684723,-146.151489,,,
729706855.087612,1.0427,-1.295476,-27.470409,0.017334,0.015808,1.013046,0.001017,0.004455,-0.019282,57.386063,28.684723,-146.151489,,,
729706855.090059,1.043785,-1.293932,116.435117,0.017334,0.015808,1.013046,0.001017,0.004455,-0.019282,57.386063,28.684723,-146.151489,,,
729706855.091536,1.043778,-1.293967,-27.475062,0.017334,0.015808,1.013046,0.001017,0.004455,-0.019282,57.386063,28.684723,-146.151489,,,
729706855.09347,1.043785,-1.293932,116.435117,0.017334,0.015808,1.013046,0.001017,0.004455,-0.019282,57.386063,28.684723,-146.151489,,,
729706855.094912,1.044104,-1.2912,-27.478811,0.015564,0.01326,1.014496,0.003304,0.016185,-0.013113,57.386063,28.684723,-146.151489,,,
729706855.096742,1.044111,-1.291166,116.431369,0.015564,0.01326,1.014496,0.003304,0.016185,-0.013113,57.386063,28.684723,-146.151489,,,
729706855.097563,1.044104,-1.2912,-27.478811,0.015564,0.01326,1.014496,0.003304,0.016185,-0.013113,57.386063,28.684723,-146.151489,,,
729706855.100041,1.046007,-1.285199,116.428888,0.015564,0.01326,1.014496,0.003304,0.016185,-0.013113,57.386063,28.684723,-146.151489,,,
729706855.10123,1.046,-1.285234,-27.48129,0.015564,0.01326,1.014496,0.003304,0.016185,-0.013113,57.386063,28.684723,-146.151489,,,
729706855.103398,1.046007,-1.285199,116.428888,0.015564,0.01326,1.014496,0.003304,0.016185,-0.013113,57.386063,28.684723,-146.151489,,,
729706855.104974,1.047866,-1.279494,-27.482599,0.016479,0.014755,1.017517,0.008262,0.024602,-0.005228,57.386063,28.684723,-146.151489,,,
729706855.106753,1.047873,-1.27946,116.427583,0.016479,0.014755,1.017517,0.008262,0.024602,-0.005228,57.386063,28.684723,-146.151489,,,
729706855.108153,1.047866,-1.279494,-27.482599,0.016479,0.014755,1.017517,0.008262,0.024602,-0.005228,57.58725,28.480026,-145.915146,,,
729706855.11012,1.050563,-1.270077,116.427125,0.016479,0.014755,1.017517,0.008262,0.024602,-0.005228,57.58725,28.480026,-145.915146,,,
729706855.111193,1.050556,-1.270112,-27.483059,0.016479,0.014755,1.017517,0.008262,0.024602,-0.005228,57.58725,28.480026,-145.915146,,,
729706855.113432,1.050563,-1.270077,116.427125,0.016479,0.014755,1.017517,0.008262,0.024602,-0.005228,57.58725,28.480026,-145.915146,,,
729706855.115215,1.053543,-1.263737,-27.483178,0.01828,0.017044,1.013412,0.0098,0.023454,-0.003252,57.58725,28.480026,-145.915146,,,
729706855.116796,1.05355,-1.263702,116.427007,0.01828,0.017044,1.013412,0.0098,0.023454,-0.003252,57.58725,28.480026,-145.915146,,,
729706855.117517,1.053543,-1.263737,-27.483178,0.01828,0.017044,1.013412,0.0098,0.023454,-0.003252,57.58725,28.480026,-145.915146,,,
729706855.120038,1.056408,-1.255495,116.426329,0.01828,0.017044,1.013412,0.0098,0.023454,-0.003252,57.58725,28.480026,-145.915146,,,
729706855.121218,1.056401,-1.25553,-27.483842,0.01828,0.017044,1.013412,0.0098,0.023454,-0.003252,57.58725,28.480026,-145.915146,,,
729706855.123374,1.056408,-1.255495,116.426329,0.01828,0.017044,1.013412,0.0098,0.023454,-0.003252,57.58725,28.480026,-145.915146,,,
729706855.124542,1.059945,-1.251496,-27.484629,0.020264,0.019806,1.006485,0.011958,0.015497,-0.004492,57.58725,28.480026,-145.915146,,,
729706855.126732,1.059952,-1.251461,116.425543,0.020264,0.019806,1.006485,0.011958,0.015497,-0.004492,57.58725,28.480026,-145.915146,,,
729706855.127516,1.059945,-1.251496,-27.484629,0.020264,0.019806,1.006485,0.011958,0.015497,-0.004492,57.58725,28.480026,-145.915146,,,
729706855.130039,1.062823,-1.244948,116.424918,0.020264,0.019806,1.006485,0.011958,0.015497,-0.004492,57.58725,28.480026,-145.915146,,,
729706855.131436,1.062816,-1.244983,-27.485248,0.020264,0.019806,1.006485,0.011958,0.015497,-0.004492,57.58725,28.480026,-145.915146,,,
729706855.133373,1.062823,-1.244948,116.424918,0.020264,0.019806,1.006485,0.011958,0.015497,-0.004492,57.58725,28.480026,-145.915146,,,
729706855.134945,1.065916,-1.243651,-27.485835,0.016647,0.020142,1.003479,0.009933,0.003512,-0.004608,57.58725,28.480026,-145.915146,,,
729706855.136731,1.065923,-1.243617,116.424348,0.016647,0.020142,1.003479,0.009933,0.003512,-0.004608,57.58725,28.480026,-145.915146,,,
729706855.137518,1.065916,-1.243651,-27.485835,0.016647,0.020142,1.003479,0.009933,0.003512,-0.004608,57.58725,28.480026,-145.915146,,,
729706855.140035,1.068634,-1.24201,116.423477,0.016647,0.020142,1.003479,0.009933,0.003512,-0.004608,57.58725,28.480026,-145.915146,,,
729706855.140846,1.068627,-1.242044,-27.48671,0.016647,0.020142,1.003479,0.009933,0.003512,-0.004608,57.58725,28.480026,-145.915146,,,
729706855.143459,1.068634,-1.24201,116.423477,0.016647,0.020142,1.003479,0.009933,0.003512,-0.004608,57.58725,28.480026,-145.915146,,,
729706855.145793,1.072319,-1.245396,-27.487384,0.017319,0.017044,1.003235,0.012023,-0.013675,-0.003613,57.58725,28.480026,-145.915146,,,
729706855.146724,1.072326,-1.245361,116.422801,0.017319,0.017044,1.003235,0.012023,-0.013675,-0.003613,57.58725,28.480026,-145.915146,,,
729706855.147523,1.072319,-1.245396,-27.487384,0.017319,0.017044,1.003235,0.012023,-0.013675,-0.003613,57.58725,28.480026,-145.915146,,,
729706855.150038,1.07528,-1.24995,116.421975,0.017319,0.017044,1.003235,0.012023,-0.013675,-0.003613,57.609299,28.443085,-146.070572,,,
729706855.15202,1.075273,-1.249985,-27.488212,0.017319,0.017044,1.003235,0.012023,-0.013675,-0.003613,57.609299,28.443085,-146.070572,,,
729706855.153383,1.07528,-1.24995,116.421975,0.017319,0.017044,1.003235,0.012023,-0.013675,-0.003613,57.609299,28.443085,-146.070572,,,
729706855.155066,1.078173,-1.258409,-27.489478,0.020111,0.018143,1.00058,0.008865,-0.031064,-0.006786,57.609299,28.443085,-146.070572,,,
729706855.156718,1.07818,-1.258375,116.420708,0.020111,0.018143,1.00058,0.008865,-0.031064,-0.006786,57.609299,28.443085,-146.070572,,,
729706855.157522,1.078173,-1.258409,-27.489478,0.020111,0.018143,1.00058,0.008865,-0.031064,-0.006786,57.609299,28.443085,-146.070572,,,
729706855.160044,1.080289,-1.268245,116.418803,0.020111,0.018143,1.00058,0.008865,-0.031064,-0.006786,57.609299,28.443085,-146.070572,,,
729706855.161195,1.080283,-1.26828,-27.491387,0.020111,0.018143,1.00058,0.008865,-0.031064,-0.006786,57.609299,28.443085,-146.070572,,,
729706855.1634,1.080289,-1.268245,116.418803,0.020111,0.018143,1.00058,0.008865,-0.031064,-0.006786,57.609299,28.443085,-146.070572,,,
729706855.16503,1.081697,-1.280903,-27.493889,0.023239,0.020706,0.995651,0.002747,-0.04404,-0.010934,57.609299,28.443085,-146.070572,,,
