Time (sec),Pitch (deg),Roll (deg),Yaw(deg),X-Acceleration (g),Y-Acceleration (g),Z-Acceleration (g),Pitch Rate (deg/sec),Roll Rate (deg/sec),Yaw Rate (deg/sec),Magnetic Field in X direction (uT),Magnetic Field in Y direction (uT),Magnetic Field in Z Direction (uT),Latitude (deg),Longitude (deg),Altitude (m)
729705570.125113,2.339514,0.427885,75.278797,-0.021835,0.031677,0.985443,0.079149,-0.028937,-0.031052,88.058701,32.841278,-149.350891,,,
729705570.128524,2.359352,0.42171,75.270873,-0.023331,0.038971,0.985214,0.066111,-0.014638,-0.030805,88.058701,32.841278,-149.350891,,,
729705570.131774,2.37731,0.416052,75.263058,-0.023331,0.038971,0.985214,0.066111,-0.014638,-0.030805,88.058701,32.841278,-149.350891,,,
729705570.135107,2.37731,0.416052,75.263058,-0.023331,0.038971,0.985214,0.066111,-0.014638,-0.030805,88.058701,32.841278,-149.350891,,,
729705570.138433,2.394893,0.413478,75.255241,-0.023376,0.038742,0.981949,0.058355,-0.004513,-0.022907,88.043243,32.70668,-149.789398,,,
729705570.141848,2.408685,0.411819,75.248046,-0.023376,0.038742,0.981949,0.058355,-0.004513,-0.022907,88.043243,32.70668,-149.789398,,,
729705570.145075,2.408685,0.411819,75.248046,-0.023376,0.038742,0.981949,0.058355,-0.004513,-0.022907,88.043243,32.70668,-149.789398,,,
729705570.14843,2.423393,0.410582,75.242505,-0.024887,0.036835,0.977844,0.05048,-0.000444,-0.01529,88.043243,32.70668,-149.789398,,,
729705570.151781,2.434511,0.409431,75.239236,-0.024887,0.036835,0.977844,0.05048,-0.000444,-0.01529,88.043243,32.70668,-149.789398,,,
729705570.155108,2.434511,0.409431,75.239236,-0.024887,0.036835,0.977844,0.05048,-0.000444,-0.01529,88.043243,32.70668,-149.789398,,,
729705570.158472,2.449095,0.408414,75.2374,-0.022446,0.03685,0.975174,0.048345,-0.000294,-0.00576,88.043243,32.70668,-149.789398,,,
729705570.161885,2.45937,0.40924,75.236288,-0.022446,0.03685,0.975174,0.048345,-0.000294,-0.00576,88.043243,32.70668,-149.789398,,,
729705570.165149,2.45937,0.40924,75.236288,-0.022446,0.03685,0.975174,0.048345,-0.000294,-0.00576,88.043243,32.70668,-149.789398,,,
729705570.16851,2.472787,0.407596,75.236689,-0.021744,0.039795,0.973022,0.043459,-0.002844,0.002283,88.043243,32.70668,-149.789398,,,
729705570.171813,2.480382,0.407426,75.237684,-0.021744,0.039795,0.973022,0.043459,-0.002844,0.002283,88.043243,32.70668,-149.789398,,,
729705570.175092,2.480382,0.407426,75.237684,-0.021744,0.039795,0.973022,0.043459,-0.002844,0.002283,88.043243,32.70668,-149.789398,,,
729705570.178434,2.491058,0.403786,75.238803,-0.022018,0.042358,0.972946,0.032438,-0.013809,0.002983,88.171204,32.410995,-149.876129,,,
729705570.181852,2.496632,0.401617,75.24017,-0.022018,0.042358,0.972946,0.032438,-0.013809,0.002983,88.171204,32.410995,-149.876129,,,
729705570.18509,2.496632,0.401617,75.24017,-0.022018,0.042358,0.972946,0.032438,-0.013809,0.002983,88.171204,32.410995,-149.876129,,,
729705570.188439,2.505889,0.396055,75.241335,-0.018143,0.042664,0.97258,0.032679,-0.017278,0.001157,88.171204,32.410995,-149.876129,,,
729705570.191877,2.513034,0.392673,75.242046,-0.018143,0.042664,0.97258,0.032679,-0.017278,0.001157,88.171204,32.410995,-149.876129,,,
729705570.195168,2.513034,0.392673,75.242046,-0.018143,0.042664,0.97258,0.032679,-0.017278,0.001157,88.171204,32.410995,-149.876129,,,
729705570.198439,2.523393,0.385502,75.242607,-0.011383,0.041489,0.977692,0.033456,-0.022006,-0.000958,88.171204,32.410995,-149.876129,,,
729705570.201796,2.532091,0.381088,75.24258,-0.011383,0.041489,0.977692,0.033456,-0.022006,-0.000958,88.171204,32.410995,-149.876129,,,
729705570.205179,2.532091,0.381088,75.24258,-0.011383,0.041489,0.977692,0.033456,-0.022006,-0.000958,88.171204,32.410995,-149.876129,,,
729705570.208423,2.541805,0.37501,75.242441,-0.005447,0.042953,0.979462,0.036604,-0.014423,-0.001845,88.171204,32.410995,-149.876129,,,
729705570.211754,2.541805,0.37501,75.242441,-0.005447,0.042953,0.979462,0.036604,-0.014423,-0.001845,88.171204,32.410995,-149.876129,,,
729705570.215101,2.551108,0.373293,75.242053,-0.005447,0.042953,0.979462,0.036604,-0.014423,-0.001845,88.171204,32.410995,-149.876129,,,
729705570.218421,2.561337,0.371503,75.241915,-0.006989,0.042984,0.985657,0.036579,0.001452,-0.000243,87.978027,32.361176,-149.547409,,,
729705570.221767,2.561337,0.371503,75.242007,-0.006989,0.042984,0.985657,0.036579,0.001452,-0.000243,87.978027,32.361176,-149.547409,,,
729705570.225114,2.569648,0.373945,75.242007,-0.006989,0.042984,0.985657,0.036579,0.001452,-0.000243,87.978027,32.361176,-149.547409,,,
729705570.228508,2.577002,0.374708,75.243031,-0.007629,0.043243,0.983688,0.018275,0.011361,0.004786,87.978027,32.361176,-149.547409,,,
729705570.231826,2.577002,0.374708,75.243031,-0.007629,0.043243,0.983688,0.018275,0.011361,0.004786,87.978027,32.361176,-149.547409,,,
729705570.235158,2.580593,0.379551,75.244788,-0.007629,0.043243,0.983688,0.018275,0.011361,0.004786,87.978027,32.361176,-149.547409,,,
729705570.23842,2.581386,0.384233,75.247243,-0.008148,0.047058,0.983627,-0.008007,0.022028,0.00785,87.978027,32.361176,-149.547409,,,
729705570.241753,2.581386,0.384233,75.247243,-0.008148,0.047058,0.983627,-0.008007,0.022028,0.00785,87.978027,32.361176,-149.547409,,,
729705570.245107,2.577485,0.391835,75.250233,-0.008148,0.047058,0.983627,-0.008007,0.022028,0.00785,87.978027,32.361176,-149.547409,,,
729705570.248498,2.570306,0.398749,75.253603,-0.003937,0.046478,0.985977,-0.033386,0.027506,0.009876,87.978027,32.361176,-149.547409,,,
729705570.25176,2.570306,0.398749,75.253603,-0.003937,0.046478,0.985977,-0.033386,0.027506,0.009876,87.978027,32.361176,-149.547409,,,
729705570.255168,2.559627,0.407942,75.256779,-0.003937,0.046478,0.985977,-0.033386,0.027506,0.009876,87.978027,32.361176,-149.547409,,,
729705570.258458,2.547102,0.414975,75.259302,-0.001755,0.042404,0.993103,-0.045384,0.026003,0.004496,87.978027,32.361176,-149.547409,,,
729705570.26189,2.547102,0.414975,75.259302,-0.001755,0.042404,0.993103,-0.045384,0.026003,0.004496,87.925995,32.583832,-149.574554,,,
729705570.265182,2.53399,0.42293,75.260873,-0.001755,0.042404,0.993103,-0.045384,0.026003,0.004496,87.925995,32.583832,-149.574554,,,
729705570.268453,2.521696,0.428243,75.260986,0.003311,0.039536,1.005295,-0.037955,0.019916,-0.007012,87.925995,32.583832,-149.574554,,,
729705570.271804,2.521696,0.428243,75.260986,0.003311,0.039536,1.005295,-0.037955,0.019916,-0.007012,87.925995,32.583832,-149.574554,,,
729705570.275117,2.511424,0.433841,75.259453,0.003311,0.039536,1.005295,-0.037955,0.019916,-0.007012,87.925995,32.583832,-149.574554,,,
729705570.278428,2.505008,0.438026,75.2568,0.004227,0.037918,1.012268,-0.01204,0.0149,-0.015022,87.925995,32.583832,-149.574554,,,
729705570.281861,2.505008,0.438026,75.2568,0.004227,0.037918,1.012268,-0.01204,0.0149,-0.015022,87.925995,32.583832,-149.574554,,,
729705570.285105,2.502858,0.441362,75.253101,0.004227,0.037918,1.012268,-0.01204,0.0149,-0.015022,87.925995,32.583832,-149.574554,,,
729705570.288435,2.505294,0.443072,75.248812,0.008286,0.033478,1.013031,0.020366,0.004794,-0.016593,87.925995,32.583832,-149.574554,,,
729705570.29186,2.505294,0.443072,75.248812,0.008286,0.033478,1.013031,0.020366,0.004794,-0.016593,87.925995,32.583832,-149.574554,,,
729705570.295085,2.511468,0.44249,75.244417,0.008286,0.033478,1.013031,0.020366,0.004794,-0.016593,87.925995,32.583832,-149.574554,,,
729705570.298439,2.520069,0.44011,75.240207,0.007446,0.030563,1.010269,0.03536,-0.011102,-0.018323,87.925995,32.583832,-149.574554,,,
729705570.301755,2.520069,0.44011,75.240207,0.007446,0.030563,1.010269,0.03536,-0.011102,-0.018323,88.030228,32.335403,-149.614166,,,
729705570.305053,2.529828,0.436013,75.235552,0.007446,0.030563,1.010269,0.03536,-0.011102,-0.018323,88.030228,32.335403,-149.614166,,,
729705570.308433,2.539775,0.430836,75.229494,0.010895,0.039917,1.004089,0.034833,-0.020805,-0.022839,88.030228,32.335403,-149.614166,,,
729705570.311769,2.539775,0.430836,75.229494,0.010895,0.039917,1.004089,0.034833,-0.020805,-0.022839,88.030228,32.335403,-149.614166,,,
729705570.315111,2.549441,0.424444,75.221788,0.010895,0.039917,1.004089,0.034833,-0.020805,-0.022839,88.030228,32.335403,-149.614166,,,
729705570.318423,2.557398,0.416247,75.212856,0.011475,0.043015,1.004028,0.026016,-0.028542,-0.037155,88.030228,32.335403,-149.614166,,,
729705570.321855,2.557398,0.416247,75.212856,0.011475,0.043015,1.004028,0.026016,-0.028542,-0.037155,88.030228,32.335403,-149.614166,,,
729705570.32511,2.56504,0.407405,75.202487,0.011475,0.043015,1.004028,0.026016,-0.028542,-0.037155,88.030228,32.335403,-149.614166,,,
729705570.328513,2.571014,0.398674,75.190654,0.009628,0.042496,1.007187,0.017013,-0.030912,-0.045719,88.030228,32.335403,-149.614166,,,
729705570.331821,2.571014,0.398674,75.190654,0.009628,0.042496,1.007187,0.017013,-0.030912,-0.045719,88.030228,32.335403,-149.614166,,,
729705570.335155,2.575748,0.387281,75.177644,0.009628,0.042496,1.007187,0.017013,-0.030912,-0.045719,88.030228,32.335403,-149.614166,,,
729705570.338415,2.580058,0.373998,75.163812,0.005402,0.04303,0.998947,0.016101,-0.051758,-0.049652,88.030228,32.335403,-149.614166,,,
729705570.341755,2.580058,0.373998,75.163812,0.005402,0.04303,0.998947,0.016101,-0.051758,-0.049652,87.985718,32.360138,-149.570908,,,
729705570.345086,2.583396,0.358123,75.149432,0.005402,0.04303,0.998947,0.016101,-0.051758,-0.049652,87.985718,32.360138,-149.570908,,,
729705570.348431,2.587415,0.345974,75.133852,0.002411,0.044998,1.000259,0.013662,-0.031837,-0.055929,87.985718,32.360138,-149.570908,,,
729705570.351763,2.587415,0.345974,75.133852,0.002411,0.044998,1.000259,0.013662,-0.031837,-0.055929,87.985718,32.360138,-149.570908,,,
729705570.355097,2.59,0.3357,75.117345,0.002411,0.044998,1.000259,0.013662,-0.031837,-0.055929,87.985718,32.360138,-149.570908,,,
729705570.35845,2.594227,0.332404,75.100684,0.004913,0.043869,1.009323,0.014637,0.002522,-0.059075,87.985718,32.360138,-149.570908,,,
729705570.361851,2.594227,0.332404,75.100684,0.004913,0.043869,1.009323,0.014637,0.002522,-0.059075,87.985718,32.360138,-149.570908,,,
729705570.365113,2.596187,0.330912,75.084625,0.004913,0.043869,1.009323,0.014637,0.002522,-0.059075,87.985718,32.360138,-149.570908,,,
729705570.368426,2.599843,0.335884,75.069374,-0.000641,0.037552,1.005783,0.014848,0.027227,-0.048213,87.985718,32.360138,-149.570908,,,
729705570.371752,2.599843,0.335884,75.069374,-0.000641,0.037552,1.005783,0.014848,0.027227,-0.048213,87.985718,32.360138,-149.570908,,,
729705570.375111,2.599865,0.341117,75.055816,-0.000641,0.037552,1.005783,0.014848,0.027227,-0.048213,87.985718,32.360138,-149.570908,,,
729705570.378426,2.603731,0.351816,75.043124,-0.005234,0.034821,1.001434,0.018857,0.04651,-0.044199,87.985718,32.360138,-149.570908,,,
729705570.381757,2.603731,0.351816,75.043124,-0.005234,0.034821,1.001434,0.018857,0.04651,-0.044199,87.950195,32.544296,-149.74826,,,
729705570.385148,2.606456,0.361404,75.031016,-0.005234,0.034821,1.001434,0.018857,0.04651,-0.044199,87.950195,32.544296,-149.74826,,,
729705570.388419,2.614036,0.375107,75.018816,-0.005447,0.034195,0.998398,0.034622,0.047326,-0.045985,87.950195,32.544296,-149.74826,,,
729705570.391783,2.614036,0.375107,75.018816,-0.005447,0.034195,0.998398,0.034622,0.047326,-0.045985,87.950195,32.544296,-149.74826,,,
729705570.395175,2.62354,0.384571,75.006523,-0.005447,0.034195,0.998398,0.034622,0.047326,-0.045985,87.950195,32.544296,-149.74826,,,
729705570.398414,2.63547,0.398638,74.993306,-0.009537,0.035095,0.993927,0.04789,0.051528,-0.049883,87.950195,32.544296,-149.74826,,,
729705570.401775,2.63547,0.398638,74.993306,-0.009537,0.035095,0.993927,0.04789,0.051528,-0.049883,87.950195,32.544296,-149.74826,,,
729705570.405106,2.648723,0.408985,74.979225,-0.009537,0.035095,0.993927,0.04789,0.051528,-0.049883,87.950195,32.544296,-149.74826,,,
729705570.408424,2.665008,0.423796,74.964336,-0.015503,0.038132,0.992157,0.063324,0.054801,-0.051441,87.950195,32.544296,-149.74826,,,
729705570.411756,2.665008,0.423796,74.964336,-0.015503,0.038132,0.992157,0.063324,0.054801,-0.051441,87.950195,32.544296,-149.74826,,,
729705570.415097,2.682155,0.435975,74.949767,-0.015503,0.038132,0.992157,0.063324,0.054801,-0.051441,87.950195,32.544296,-149.74826,,,
729705570.418417,2.700752,0.45106,74.935795,-0.021652,0.04007,0.990005,0.064869,0.049067,-0.04804,87.950195,32.544296,-149.74826,,,
729705570.421763,2.700752,0.45106,74.935795,-0.021652,0.04007,0.990005,0.064869,0.049067,-0.04804,87.950195,32.544296,-149.74826,,,
729705570.425128,2.718,0.461852,74.922844,-0.021652,0.04007,0.990005,0.064869,0.049067,-0.04804,88.08429,32.316223,-149.56633,,,
729705570.428541,2.734165,0.472972,74.910887,-0.028778,0.040298,0.978485,0.0496,0.034001,-0.039138,88.08429,32.316223,-149.56633,,,
729705570.431781,2.734165,0.472972,74.910887,-0.028778,0.040298,0.978485,0.0496,0.034001,-0.039138,88.08429,32.316223,-149.56633,,,
729705570.435177,2.747309,0.479662,74.90016,-0.028778,0.040298,0.978485,0.0496,0.034001,-0.039138,88.08429,32.316223,-149.56633,,,
729705570.438409,2.756752,0.488356,74.889965,-0.030548,0.047531,0.969849,0.022528,0.029921,-0.035648,88.08429,32.316223,-149.56633,,,
729705570.441753,2.756752,0.488356,74.889965,-0.030548,0.047531,0.969849,0.022528,0.029921,-0.035648,88.08429,32.316223,-149.56633,,,
729705570.445086,2.759475,0.494374,74.880213,-0.030548,0.047531,0.969849,0.022528,0.029921,-0.035648,88.08429,32.316223,-149.56633,,,
729705570.448418,2.759222,0.501479,74.870421,-0.028275,0.055328,0.9673,-0.010386,0.020138,-0.033776,88.08429,32.316223,-149.56633,,,
729705570.451776,2.759222,0.501479,74.870421,-0.028275,0.055328,0.9673,-0.010386,0.020138,-0.033776,88.08429,32.316223,-149.56633,,,
729705570.455098,2.751873,0.50574,74.860634,-0.028275,0.055328,0.9673,-0.010386,0.020138,-0.033776,88.08429,32.316223,-149.56633,,,
729705570.458447,2.743296,0.510166,74.850186,-0.023453,0.059692,0.961655,-0.040686,0.01565,-0.037667,88.08429,32.316223,-149.56633,,,
729705570.461752,2.743296,0.510166,74.850186,-0.023453,0.059692,0.961655,-0.040686,0.01565,-0.037667,88.08429,32.316223,-149.56633,,,
729705570.465097,2.727755,0.513548,74.839317,-0.023453,0.059692,0.961655,-0.040686,0.01565,-0.037667,88.134476,32.276352,-149.76503,,,
729705570.468419,2.712238,0.518763,74.82846,-0.020859,0.060104,0.9673,-0.053935,0.021052,-0.035666,88.134476,32.276352,-149.76503,,,
729705570.47178,2.712238,0.518763,74.82846,-0.020859,0.060104,0.9673,-0.053935,0.021052,-0.035666,88.134476,32.276352,-149.76503,,,
729705570.475185,2.693821,0.524954,74.818112,-0.020859,0.060104,0.9673,-0.053935,0.021052,-0.035666,88.134476,32.276352,-149.76503,,,
729705570.478405,2.679909,0.53235,74.808454,-0.012146,0.053925,0.977646,-0.039733,0.031786,-0.034084,88.134476,32.276352,-149.76503,,,
729705570.481781,2.679909,0.53235,74.808454,-0.012146,0.053925,0.977646,-0.039733,0.031786,-0.034084,88.134476,32.276352,-149.76503,,,
729705570.485166,2.667424,0.541393,74.799603,-0.012146,0.053925,0.977646,-0.039733,0.031786,-0.034084,88.134476,32.276352,-149.76503,,,
729705570.488422,2.661432,0.55108,74.79219,-0.008774,0.049911,0.991135,-0.008211,0.03741,-0.022023,88.134476,32.276352,-149.76503,,,
729705570.491843,2.661432,0.55108,74.79219,-0.008774,0.049911,0.991135,-0.008211,0.03741,-0.022023,88.134476,32.276352,-149.76503,,,
729705570.495184,2.659314,0.56386,74.786682,-0.008774,0.049911,0.991135,-0.008211,0.03741,-0.022023,88.134476,32.276352,-149.76503,,,
729705570.498418,2.66286,0.575568,74.783366,-0.011307,0.046204,0.997452,0.021894,0.043244,-0.012293,88.134476,32.276352,-149.76503,,,
729705570.501847,2.66286,0.575568,74.783366,-0.011307,0.046204,0.997452,0.021894,0.043244,-0.012293,88.134476,32.276352,-149.76503,,,
729705570.505087,2.667877,0.590363,74.780706,-0.011307,0.046204,0.997452,0.021894,0.043244,-0.012293,88.226334,32.417648,-149.601074,,,
729705570.508422,2.675071,0.60176,74.778817,-0.01152,0.053543,0.993561,0.024678,0.04222,-0.004827,88.226334,32.417648,-149.601074,,,
729705570.511758,2.675071,0.60176,74.778817,-0.01152,0.053543,0.993561,0.024678,0.04222,-0.004827,88.226334,32.417648,-149.601074,,,
729705570.515161,2.680985,0.617302,74.777883,-0.01152,0.053543,0.993561,0.024678,0.04222,-0.004827,88.226334,32.417648,-149.601074,,,
729705570.518418,2.685061,0.629788,74.778047,-0.013184,0.061691,0.985352,0.007858,0.048461,0.001238,88.226334,32.417648,-149.601074,,,
729705570.521771,2.685061,0.629788,74.778047,-0.013184,0.061691,0.985352,0.007858,0.048461,0.001238,88.226334,32.417648,-149.601074,,,
729705570.525125,2.687199,0.645427,74.778961,-0.013184,0.061691,0.985352,0.007858,0.048461,0.001238,88.226334,32.417648,-149.601074,,,
729705570.528513,2.684742,0.657558,74.780536,-0.010696,0.06337,0.982849,-0.024258,0.042303,0.003901,88.226334,32.417648,-149.601074,,,
729705570.531774,2.684742,0.657558,74.780536,-0.010696,0.06337,0.982849,-0.024258,0.042303,0.003901,88.226334,32.417648,-149.601074,,,
729705570.535106,2.67903,0.670059,74.782144,-0.010696,0.06337,0.982849,-0.024258,0.042303,0.003901,88.226334,32.417648,-149.601074,,,
729705570.538415,2.666293,0.67817,74.784016,-0.016068,0.059082,0.978561,-0.05513,0.023544,0.00369,88.226334,32.417648,-149.601074,,,
729705570.541749,2.666293,0.67817,74.784016,-0.016068,0.059082,0.978561,-0.05513,0.023544,0.00369,88.226334,32.417648,-149.601074,,,
729705570.545112,2.651072,0.685344,74.785322,-0.016068,0.059082,0.978561,-0.05513,0.023544,0.00369,88.228683,32.355591,-149.640533,,,
729705570.548425,2.630517,0.688798,74.785651,-0.019913,0.058563,0.984131,-0.078631,0.007324,-0.003159,88.228683,32.355591,-149.640533,,,
729705570.551755,2.630517,0.688798,74.785651,-0.019913,0.058563,0.984131,-0.078631,0.007324,-0.003159,88.228683,32.355591,-149.640533,,,
729705570.555111,2.609761,0.690901,74.784789,-0.019913,0.058563,0.984131,-0.078631,0.007324,-0.003159,88.228683,32.355591,-149.640533,,,
729705570.558497,2.58661,0.69047,74.78254,-0.016602,0.057465,0.996109,-0.081498,-0.00133,-0.01746,88.228683,32.355591,-149.640533,,,
729705570.561859,2.58661,0.69047,74.78254,-0.016602,0.057465,0.996109,-0.081498,-0.00133,-0.01746,88.228683,32.355591,-149.640533,,,
729705570.565094,2.564818,0.688928,74.779274,-0.016602,0.057465,0.996109,-0.081498,-0.00133,-0.01746,88.228683,32.355591,-149.640533,,,
729705570.568485,2.543505,0.688117,74.775745,-0.017868,0.049515,1.009186,-0.069473,0.00388,-0.012289,88.228683,32.355591,-149.640533,,,
729705570.571851,2.543505,0.688117,74.775745,-0.017868,0.049515,1.009186,-0.069473,0.00388,-0.012289,88.228683,32.355591,-149.640533,,,
729705570.575105,2.524778,0.688234,74.772996,-0.017868,0.049515,1.009186,-0.069473,0.00388,-0.012289,88.228683,32.355591,-149.640533,,,
729705570.578437,2.507972,0.690312,74.771527,-0.014771,0.041275,1.016296,-0.04644,0.017583,-0.003595,88.228683,32.355591,-149.640533,,,
729705570.581771,2.507972,0.690312,74.771527,-0.014771,0.041275,1.016296,-0.04644,0.017583,-0.003595,88.228683,32.355591,-149.640533,,,
729705570.585101,2.49627,0.693352,74.771722,-0.014771,0.041275,1.016296,-0.04644,0.017583,-0.003595,88.228683,32.355591,-149.640533,,,
729705570.588435,2.488589,0.697981,74.773721,-0.011047,0.036636,1.020554,-0.016703,0.020763,0.010482,88.396164,32.439499,-149.766983,,,
729705570.591827,2.488589,0.697981,74.773721,-0.011047,0.036636,1.020554,-0.016703,0.020763,0.010482,88.396164,32.439499,-149.766983,,,
729705570.595174,2.488061,0.703844,74.777646,-0.011047,0.036636,1.020554,-0.016703,0.020763,0.010482,88.396164,32.439499,-149.766983,,,
729705570.598412,2.487042,0.710537,74.783286,-0.010101,0.038635,1.020752,0.00331,0.031012,0.021101,88.396164,32.439499,-149.766983,,,
729705570.601854,2.487042,0.710537,74.783286,-0.010101,0.038635,1.020752,0.00331,0.031012,0.021101,88.396164,32.439499,-149.766983,,,
729705570.605102,2.492534,0.717327,74.789971,-0.010101,0.038635,1.020752,0.00331,0.031012,0.021101,88.396164,32.439499,-149.766983,,,
729705570.608426,2.493998,0.723082,74.797214,-0.012726,0.042404,1.014313,0.001653,0.018621,0.024544,88.396164,32.439499,-149.766983,,,
729705570.611758,2.493998,0.723082,74.797214,-0.012726,0.042404,1.014313,0.001653,0.018621,0.024544,88.396164,32.439499,-149.766983,,,
729705570.615162,2.498276,0.727116,74.804493,-0.012726,0.042404,1.014313,0.001653,0.018621,0.024544,88.396164,32.439499,-149.766983,,,
729705570.618406,2.496758,0.729669,74.810774,-0.010651,0.04924,1.009109,-0.008725,0.011896,0.016959,88.396164,32.439499,-149.766983,,,
729705570.621767,2.496758,0.729669,74.810774,-0.010651,0.04924,1.009109,-0.008725,0.011896,0.016959,88.396164,32.439499,-149.766983,,,
729705570.625114,2.497401,0.732965,74.815273,-0.010651,0.04924,1.009109,-0.008725,0.011896,0.016959,88.396164,32.439499,-149.766983,,,
729705570.628505,2.493679,0.734895,74.818479,-0.004242,0.051712,1.013794,-0.013762,0.008679,0.006296,88.2052,32.416748,-149.688766,,,
729705570.631772,2.493679,0.734895,74.818479,-0.004242,0.051712,1.013794,-0.013762,0.008679,0.006296,88.2052,32.416748,-149.688766,,,
729705570.635102,2.492753,0.737952,74.820503,-0.004242,0.051712,1.013794,-0.013762,0.008679,0.006296,88.2052,32.416748,-149.688766,,,
729705570.638422,2.488312,0.739585,74.821273,-0.003494,0.050064,1.015839,-0.012738,0.009093,-0.002743,88.2052,32.416748,-149.688766,,,
729705570.641748,2.488312,0.739585,74.821273,-0.003494,0.050064,1.015839,-0.012738,0.009093,-0.002743,88.2052,32.416748,-149.688766,,,
729705570.645094,2.486859,0.742319,74.82064,-0.003494,0.050064,1.015839,-0.012738,0.009093,-0.002743,88.2052,32.416748,-149.688766,,,
729705570.648422,2.484674,0.744636,74.819372,-0.002579,0.048294,1.01416,-0.000778,0.012924,-0.008484,88.2052,32.416748,-149.688766,,,
729705570.651819,2.484674,0.744636,74.819372,-0.002579,0.048294,1.01416,-0.000778,0.012924,-0.008484,88.2052,32.416748,-149.688766,,,
729705570.655102,2.485747,0.748597,74.817502,-0.002579,0.048294,1.01416,-0.000778,0.012924,-0.008484,88.2052,32.416748,-149.688766,,,
729705570.658449,2.490038,0.752205,74.814594,0.000961,0.047028,1.014908,0.025525,0.013954,-0.012692,88.2052,32.416748,-149.688766,,,
729705570.661844,2.490038,0.752205,74.814594,0.000961,0.047028,1.014908,0.025525,0.013954,-0.012692,88.2052,32.416748,-149.688766,,,
729705570.66508,2.496795,0.754862,74.811432,0.000961,0.047028,1.014908,0.025525,0.013954,-0.012692,88.2052,32.416748,-149.688766,,,
729705570.668512,2.508158,0.755883,74.807943,0.002258,0.046509,1.009659,0.048771,0.001383,-0.012952,88.2052,32.416748,-149.688766,,,
729705570.671759,2.508158,0.755883,74.807943,0.002258,0.046509,1.009659,0.048771,0.001383,-0.012952,88.221634,32.39151,-149.694794,,,
729705570.675165,2.520486,0.755114,74.803629,0.002258,0.046509,1.009659,0.048771,0.001383,-0.012952,88.221634,32.39151,-149.694794,,,
729705570.678436,2.536045,0.754932,74.799707,-0.005447,0.043549,1.004288,0.053542,0.006563,-0.012773,88.221634,32.39151,-149.694794,,,
729705570.68175,2.536045,0.754932,74.799707,-0.005447,0.043549,1.004288,0.053542,0.006563,-0.012773,88.221634,32.39151,-149.694794,,,
729705570.685092,2.550402,0.755483,74.796487,-0.005447,0.043549,1.004288,0.053542,0.006563,-0.012773,88.221634,32.39151,-149.694794,,,
729705570.688427,2.564947,0.757421,74.793504,-0.015671,0.041962,1.005798,0.047215,0.010239,-0.008706,88.221634,32.39151,-149.694794,,,
729705570.691771,2.564947,0.757421,74.793504,-0.015671,0.041962,1.005798,0.047215,0.010239,-0.008706,88.221634,32.39151,-149.694794,,,
729705570.69518,2.578,0.759498,74.791122,-0.015671,0.041962,1.005798,0.047215,0.010239,-0.008706,88.221634,32.39151,-149.694794,,,
729705570.698406,2.588543,0.761746,74.789433,-0.022171,0.044754,0.998703,0.034031,0.012039,-0.002956,88.221634,32.39151,-149.694794,,,
729705570.701862,2.588543,0.761746,74.789433,-0.022171,0.044754,0.998703,0.034031,0.012039,-0.002956,88.221634,32.39151,-149.694794,,,
729705570.705101,2.597653,0.764387,74.78865,-0.022171,0.044754,0.998703,0.034031,0.012039,-0.002956,88.221634,32.39151,-149.694794,,,
729705570.708468,2.602751,0.771655,74.788317,-0.028809,0.050079,1.000168,0.010731,0.038855,-0.005971,88.221634,32.39151,-149.694794,,,
729705570.711749,2.602751,0.771655,74.788317,-0.028809,0.050079,1.000168,0.010731,0.038855,-0.005971,88.335861,32.406342,-149.528854,,,
729705570.71509,2.605428,0.780303,74.787984,-0.028809,0.050079,1.000168,0.010731,0.038855,-0.005971,88.335861,32.406342,-149.528854,,,
729705570.718436,2.603442,0.792976,74.787601,-0.033401,0.052399,1.001129,-0.015688,0.049366,0.000254,88.335861,32.406342,-149.528854,,,
729705570.721763,2.603442,0.792976,74.787601,-0.033401,0.052399,1.001129,-0.015688,0.049366,0.000254,88.335861,32.406342,-149.528854,,,
729705570.725136,2.598511,0.8037,74.787764,-0.033401,0.052399,1.001129,-0.015688,0.049366,0.000254,88.335861,32.406342,-149.528854,,,
729705570.728509,2.589924,0.814953,74.788655,-0.041565,0.045486,0.991745,-0.037658,0.039791,0.003251,88.335861,32.406342,-149.528854,,,
729705570.731744,2.589924,0.814953,74.788655,-0.041565,0.045486,0.991745,-0.037658,0.039791,0.003251,88.335861,32.406342,-149.528854,,,
729705570.73509,2.579007,0.821066,74.790572,-0.041565,0.045486,0.991745,-0.037658,0.039791,0.003251,88.335861,32.406342,-149.528854,,,
729705570.738422,2.56586,0.82723,74.792548,-0.046982,0.038254,0.992233,-0.042705,0.01369,0.005878,88.335861,32.406342,-149.528854,,,
729705570.741909,2.56586,0.82723,74.792548,-0.046982,0.038254,0.992233,-0.042705,0.01369,0.005878,88.335861,32.406342,-149.528854,,,
729705570.745067,2.553979,0.825935,74.794818,-0.046982,0.038254,0.992233,-0.042705,0.01369,0.005878,88.335861,32.406342,-149.528854,,,
729705570.74842,2.544727,0.823966,74.797583,-0.046112,0.031296,0.996857,-0.021553,-0.014871,0.008426,88.335861,32.406342,-149.528854,,,
729705570.751754,2.544727,0.823966,74.797583,-0.046112,0.031296,0.996857,-0.021553,-0.014871,0.008426,88.398849,32.855759,-149.119568,,,
729705570.755169,2.539388,0.814381,74.801584,-0.046112,0.031296,0.996857,-0.021553,-0.014871,0.008426,88.398849,32.855759,-149.119568,,,
729705570.758419,2.538587,0.80273,74.807246,-0.041748,0.027054,0.998489,0.007596,-0.046867,0.021551,88.398849,32.855759,-149.119568,,,
729705570.76186,2.538587,0.80273,74.807246,-0.041748,0.027054,0.998489,0.007596,-0.046867,0.021551,88.398849,32.855759,-149.119568,,,
729705570.765084,2.542074,0.786732,74.815674,-0.041748,0.027054,0.998489,0.007596,-0.046867,0.021551,88.398849,32.855759,-149.119568,,,
729705570.768422,2.549413,0.769283,74.827192,-0.035599,0.027649,0.999542,0.034372,-0.056221,0.049636,88.398849,32.855759,-149.119568,,,
729705570.771775,2.549413,0.769283,74.827192,-0.035599,0.027649,0.999542,0.034372,-0.056221,0.049636,88.398849,32.855759,-149.119568,,,
729705570.7751,2.559142,0.752703,74.842677,-0.035599,0.027649,0.999542,0.034372,-0.056221,0.049636,88.398849,32.855759,-149.119568,,,
729705570.778467,2.571855,0.736799,74.862158,-0.024216,0.030548,1.003891,0.052061,-0.043215,0.074333,88.398849,32.855759,-149.119568,,,
729705570.781754,2.571855,0.736799,74.862158,-0.024216,0.030548,1.003891,0.052061,-0.043215,0.074333,88.398849,32.855759,-149.119568,,,
729705570.785086,2.586716,0.725822,74.8836,-0.024216,0.030548,1.003891,0.052061,-0.043215,0.074333,88.398849,32.855759,-149.119568,,,
729705570.788417,2.601474,0.713787,74.907097,-0.010147,0.035492,1.00061,0.04803,-0.030642,0.081466,88.398849,32.855759,-149.119568,,,
729705570.79178,2.601474,0.713787,74.907097,-0.010147,0.035492,1.00061,0.04803,-0.030642,0.081466,88.368195,32.449875,-149.356857,,,
729705570.79518,2.616302,0.707695,74.930572,-0.010147,0.035492,1.00061,0.04803,-0.030642,0.081466,88.368195,32.449875,-149.356857,,,
729705570.798422,2.627272,0.699688,74.952035,-0.000854,0.044769,0.993027,0.030397,-0.017115,0.068906,88.368195,32.449875,-149.356857,,,
729705570.801769,2.627272,0.699688,74.952035,-0.000854,0.044769,0.993027,0.030397,-0.017115,0.068906,88.368195,32.449875,-149.356857,,,
729705570.80518,2.636075,0.699041,74.971326,-0.000854,0.044769,0.993027,0.030397,-0.017115,0.068906,88.368195,32.449875,-149.356857,,,
729705570.808412,2.640234,0.694744,74.988671,0.004715,0.055069,0.988708,0.001747,-0.003972,0.053434,88.368195,32.449875,-149.356857,,,
729705570.811758,2.640234,0.694744,74.988671,0.004715,0.055069,0.988708,0.001747,-0.003972,0.053434,88.368195,32.449875,-149.356857,,,
729705570.815083,2.638912,0.699533,75.003425,0.004715,0.055069,0.988708,0.001747,-0.003972,0.053434,88.368195,32.449875,-149.356857,,,
729705570.818422,2.633415,0.69765,75.017129,0.004715,0.056732,0.98497,-0.030399,-0.001459,0.04411,88.368195,32.449875,-149.356857,,,
729705570.82176,2.633415,0.69765,75.017129,0.004715,0.056732,0.98497,-0.030399,-0.001459,0.04411,88.368195,32.449875,-149.356857,,,
729705570.82512,2.621333,0.702486,75.029971,0.004715,0.056732,0.98497,-0.030399,-0.001459,0.04411,88.368195,32.449875,-149.356857,,,
729705570.828504,2.608618,0.699199,75.042734,0.002136,0.05011,0.982819,-0.050425,-0.009453,0.040327,88.368195,32.449875,-149.356857,,,
729705570.831743,2.608618,0.699199,75.042734,0.002136,0.05011,0.982819,-0.050425,-0.009453,0.040327,88.312347,32.340851,-149.618454,,,
729705570.835095,2.589786,0.702242,75.054429,0.002136,0.05011,0.982819,-0.050425,-0.009453,0.040327,88.312347,32.340851,-149.618454,,,
729705570.838424,2.573967,0.697655,75.066505,0.001144,0.046494,0.985962,-0.051351,-0.00865,0.039698,88.312347,32.340851,-149.618454,,,
729705570.841837,2.573967,0.697655,75.066505,0.001144,0.046494,0.985962,-0.051351,-0.00865,0.039698,88.312347,32.340851,-149.618454,,,
729705570.845074,2.555762,0.69957,75.078275,0.001144,0.046494,0.985962,-0.051351,-0.00865,0.039698,88.312347,32.340851,-149.618454,,,
729705570.848414,2.544043,0.696562,75.089793,0.003143,0.043137,0.996124,-0.034459,-0.004907,0.03678,88.312347,32.340851,-149.618454,,,
729705570.851758,2.544043,0.696562,75.089793,0.003143,0.043137,0.996124,-0.034459,-0.004907,0.03678,88.312347,32.340851,-149.618454,,,
729705570.855155,2.531609,0.697839,75.100267,0.003143,0.043137,0.996124,-0.034459,-0.004907,0.03678,88.312347,32.340851,-149.618454,,,
729705570.858429,2.525876,0.693894,75.109951,0.00563,0.039993,0.998978,-0.00569,-0.013177,0.030305,88.312347,32.340851,-149.618454,,,
729705570.86184,2.525876,0.693894,75.109951,0.00563,0.039993,0.998978,-0.00569,-0.013177,0.030305,88.312347,32.340851,-149.618454,,,
729705570.865106,2.521882,0.689069,75.118939,0.00563,0.039993,0.998978,-0.00569,-0.013177,0.030305,88.312347,32.340851,-149.618454,,,
729705570.868421,2.52434,0.681698,75.126964,0.005692,0.036926,0.998627,0.016771,-0.028269,0.023264,88.312347,32.340851,-149.618454,,,
729705570.871757,2.52434,0.681698,75.126964,0.005692,0.036926,0.998627,0.016771,-0.028269,0.023264,88.312347,32.340851,-149.618454,,,
729705570.875105,2.528161,0.671332,75.13388,0.005692,0.036926,0.998627,0.016771,-0.028269,0.023264,88.307159,32.495789,-149.280594,,,
729705570.878417,2.533433,0.661677,75.139031,0.006744,0.038834,0.997543,0.021679,-0.029269,0.014014,88.307159,32.495789,-149.280594,,,
729705570.881836,2.533433,0.661677,75.139031,0.006744,0.038834,0.997543,0.021679,-0.029269,0.014014,88.307159,32.495789,-149.280594,,,
729705570.885087,2.540599,0.649169,75.142397,0.006744,0.038834,0.997543,0.021679,-0.029269,0.014014,88.307159,32.495789,-149.280594,,,
729705570.888414,2.545298,0.639551,75.14466,0.010254,0.044662,0.994308,0.013272,-0.031134,0.003701,88.307159,32.495789,-149.280594,,,
729705570.891779,2.545298,0.639551,75.14466,0.010254,0.044662,0.994308,0.013272,-0.031134,0.003701,88.307159,32.495789,-149.280594,,,
729705570.895175,2.551373,0.626881,75.146116,0.010254,0.044662,0.994308,0.013272,-0.031134,0.003701,88.307159,32.495789,-149.280594,,,
729705570.898405,2.552905,0.619907,75.146397,0.01329,0.047363,0.997162,0.002834,-0.016165,-0.003105,88.307159,32.495789,-149.280594,,,
729705570.901768,2.552905,0.619907,75.146397,0.01329,0.047363,0.997162,0.002834,-0.016165,-0.003105,88.307159,32.495789,-149.280594,,,
729705570.905162,2.554884,0.612681,75.146042,0.01329,0.047363,0.997162,0.002834,-0.016165,-0.003105,88.307159,32.495789,-149.280594,,,
729705570.908408,2.553794,0.610703,75.144677,0.012543,0.049759,0.997025,-0.00734,0.002117,-0.00993,88.307159,32.495789,-149.280594,,,
729705570.911774,2.553794,0.610703,75.144677,0.012543,0.049759,0.997025,-0.00734,0.002117,-0.00993,88.307159,32.495789,-149.280594,,,
729705570.915087,2.552621,0.607843,75.142697,0.012543,0.049759,0.997025,-0.00734,0.002117,-0.00993,88.039749,32.542038,-149.267242,,,
729705570.918412,2.550152,0.60951,75.139744,0.013351,0.051117,0.996796,-0.014233,0.013874,-0.014076,88.039749,32.542038,-149.267242,,,
729705570.921768,2.550152,0.60951,75.139744,0.013351,0.051117,0.996796,-0.014233,0.013874,-0.014076,88.039749,32.542038,-149.267242,,,
729705570.925114,2.546508,0.610768,75.135662,0.013351,0.051117,0.996796,-0.014233,0.013874,-0.014076,88.039749,32.542038,-149.267242,,,
729705570.928439,2.541561,0.617122,75.129945,0.009613,0.048996,0.997696,-0.017392,0.028964,-0.024223,88.039749,32.542038,-149.267242,,,
729705570.931759,2.541561,0.617122,75.129945,0.009613,0.048996,0.997696,-0.017392,0.028964,-0.024223,88.039749,32.542038,-149.267242,,,
729705570.935082,2.535351,0.621273,75.123106,0.009613,0.048996,0.997696,-0.017392,0.028964,-0.024223,88.039749,32.542038,-149.267242,,,
729705570.938456,2.529406,0.62861,75.114564,0.006012,0.048019,0.993454,-0.02198,0.023801,-0.034363,88.039749,32.542038,-149.267242,,,
729705570.941761,2.529406,0.62861,75.114564,0.006012,0.048019,0.993454,-0.02198,0.023801,-0.034363,88.039749,32.542038,-149.267242,,,
729705570.945089,2.52166,0.631267,75.10514,0.006012,0.048019,0.993454,-0.02198,0.023801,-0.034363,88.039749,32.542038,-149.267242,,,
729705570.948454,2.514485,0.635854,75.094827,-0.002274,0.045166,0.98584,-0.022038,0.012606,-0.0382,88.039749,32.542038,-149.267242,,,
729705570.951748,2.514485,0.635854,75.094827,-0.002274,0.045166,0.98584,-0.022038,0.012606,-0.0382,88.039749,32.542038,-149.267242,,,
729705570.955092,2.506147,0.63554,75.084161,-0.002274,0.045166,0.98584,-0.022038,0.012606,-0.0382,88.307434,32.450989,-149.426575,,,
729705570.958549,2.49944,0.637562,75.072945,-0.00412,0.044998,0.986938,-0.024209,0.005303,-0.042276,88.307434,32.450989,-149.426575,,,
729705570.961813,2.49944,0.637562,75.072945,-0.00412,0.044998,0.986938,-0.024209,0.005303,-0.042276,88.307434,32.450989,-149.426575,,,
729705570.965076,2.492075,0.634173,75.0616,-0.00412,0.044998,0.986938,-0.024209,0.005303,-0.042276,88.307434,32.450989,-149.426575,,,
729705570.968417,2.485378,0.633648,75.05067,-0.00412,0.044998,0.986938,-0.024209,0.005303,-0.042276,88.307434,32.450989,-149.426575,,,
729705570.971755,2.485378,0.633648,75.05067,-0.006058,0.040314,0.991272,-0.021531,-0.006267,-0.038943,88.307434,32.450989,-149.426575,,,
729705570.975088,2.479623,0.625928,75.040141,-0.006058,0.040314,0.991272,-0.021531,-0.006267,-0.038943,88.307434,32.450989,-149.426575,,,
729705570.9785,2.473663,0.620834,75.029412,-0.009094,0.039429,0.992691,-0.017926,-0.021267,-0.03929,88.307434,32.450989,-149.426575,,,
729705570.981812,2.473663,0.620834,75.029412,-0.009094,0.039429,0.992691,-0.017926,-0.021267,-0.03929,88.307434,32.450989,-149.426575,,,
729705570.985099,2.469545,0.609068,75.018744,-0.009094,0.039429,0.992691,-0.017926,-0.021267,-0.03929,88.307434,32.450989,-149.426575,,,
729705570.988465,2.465177,0.601821,75.006898,-0.009094,0.040924,0.996979,-0.010919,-0.023568,-0.046116,88.307434,32.450989,-149.426575,,,
729705570.991764,2.465177,0.601821,75.006898,-0.009644,0.040924,0.996979,-0.010919,-0.023568,-0.046116,88.307434,32.450989,-149.426575,,,
729705570.995166,2.462791,0.589059,74.994333,-0.009644,0.040924,0.996979,-0.010919,-0.023568,-0.046116,88.081024,32.738129,-149.687485,,,
729705570.998431,2.459266,0.581949,74.980992,-0.009644,0.040924,0.996979,-0.010919,-0.023568,-0.046116,88.081024,32.738129,-149.687485,,,
729705571.00177,2.459266,0.581949,74.980992,-0.011459,0.037552,1.002319,-0.007601,-0.023607,-0.044532,88.081024,32.738129,-149.687485,,,
729705571.005149,2.457653,0.571129,74.968179,-0.011459,0.037552,1.002319,-0.007601,-0.023607,-0.044532,88.081024,32.738129,-149.687485,,,
729705571.008431,2.457653,0.566855,74.956121,-0.011459,0.037552,1.002319,-0.007601,-0.023607,-0.044532,88.081024,32.738129,-149.687485,,,
729705571.011746,2.45486,0.566855,74.956121,-0.012329,0.036835,1.002548,-0.008899,-0.005939,-0.039968,88.081024,32.738129,-149.687485,,,
729705571.015081,2.453489,0.561868,74.945504,-0.012329,0.036835,1.002548,-0.008899,-0.005939,-0.039968,88.081024,32.738129,-149.687485,,,
729705571.018455,2.449618,0.564741,74.93642,-0.012329,0.036835,1.002548,-0.008899,-0.005939,-0.039968,88.081024,32.738129,-149.687485,,,
729705571.021762,2.449618,0.564741,74.93642,-0.013794,0.036255,1.006622,-0.015613,0.022312,-0.030077,88.081024,32.738129,-149.687485,,,
729705571.025103,2.445339,0.568467,74.928638,-0.013794,0.036255,1.006622,-0.015613,0.022312,-0.030077,88.081024,32.738129,-149.687485,,,
729705571.028501,2.439286,0.577492,74.92145,-0.013794,0.036255,1.006622,-0.015613,0.022312,-0.030077,88.081024,32.738129,-149.687485,,,
729705571.031745,2.439286,0.577492,74.92145,-0.015793,0.039825,1.000061,-0.022965,0.041785,-0.025217,88.081024,32.738129,-149.687485,,,
729705571.035088,2.432964,0.588261,74.915156,-0.015793,0.039825,1.000061,-0.022965,0.041785,-0.025217,88.081024,32.738129,-149.687485,,,
729705571.038487,2.432964,0.588261,74.909736,-0.015793,0.039825,1.000061,-0.022965,0.041785,-0.025217,88.028229,32.70575,-149.38089,,,
729705571.041817,2.424723,0.602938,74.909736,-0.01889,0.044235,0.994019,-0.028983,0.057852,-0.020181,88.028229,32.70575,-149.38089,,,
729705571.045084,2.415634,0.617989,74.905135,-0.01889,0.044235,0.994019,-0.028983,0.057852,-0.020181,88.028229,32.70575,-149.38089,,,
729705571.04848,2.415634,0.63416,74.900787,-0.01889,0.044235,0.994019,-0.028983,0.057852,-0.020181,88.028229,32.70575,-149.38089,,,
729705571.05175,2.405577,0.63416,74.900787,-0.020035,0.043076,0.989105,-0.036611,0.056484,-0.01697,88.028229,32.70575,-149.38089,,,
729705571.05508,2.394682,0.647579,74.896907,-0.020035,0.043076,0.989105,-0.036611,0.056484,-0.01697,88.028229,32.70575,-149.38089,,,
729705571.05845,2.394682,0.647579,74.896907,-0.020035,0.043076,0.989105,-0.036611,0.056484,-0.01697,88.028229,32.70575,-149.38089,,,
729705571.061828,2.384373,0.658607,74.893889,-0.027603,0.042389,0.984695,-0.033075,0.030279,-0.011867,88.028229,32.70575,-149.38089,,,
729705571.065088,2.374372,0.665273,74.890962,-0.027603,0.042389,0.984695,-0.033075,0.030279,-0.011867,88.028229,32.70575,-149.38089,,,
729705571.068529,2.374372,0.667868,74.88782,-0.027603,0.042389,0.984695,-0.033075,0.030279,-0.011867,88.028229,32.70575,-149.38089,,,
729705571.071751,2.364268,0.667868,74.88782,-0.035202,0.044266,0.983536,-0.036913,0.001218,-0.011848,88.028229,32.70575,-149.38089,,,
729705571.075087,2.353785,0.665319,74.885026,-0.035202,0.044266,0.983536,-0.036913,0.001218,-0.011848,88.028229,32.70575,-149.38089,,,
729705571.078557,2.344028,0.659068,74.882612,-0.035202,0.044266,0.983536,-0.036913,0.001218,-0.011848,87.909851,32.94696,-149.584579,,,
729705571.081799,2.344028,0.659068,74.882612,-0.038406,0.043961,0.984802,-0.034717,-0.027881,-0.007474,87.909851,32.94696,-149.584579,,,
729705571.085074,2.333256,0.649913,74.881479,-0.038406,0.043961,0.984802,-0.034717,-0.027881,-0.007474,87.909851,32.94696,-149.584579,,,
729705571.088493,2.333256,0.649913,74.881479,-0.038406,0.043961,0.984802,-0.034717,-0.027881,-0.007474,87.909851,32.94696,-149.584579,,,
729705571.091776,2.323649,0.638817,74.881532,-0.038696,0.040161,0.994522,-0.03248,-0.034286,0.001839,87.909851,32.94696,-149.584579,,,
729705571.09517,2.313599,0.62861,74.883093,-0.038696,0.040161,0.994522,-0.03248,-0.034286,0.001839,87.909851,32.94696,-149.584579,,,
729705571.09851,2.313599,0.62861,74.883093,-0.038696,0.040161,0.994522,-0.03248,-0.034286,0.001839,87.909851,32.94696,-149.584579,,,
729705571.101763,2.305503,0.61931,74.886838,-0.033127,0.038025,1.005569,-0.025029,-0.023831,0.013842,87.909851,32.94696,-149.584579,,,
729705571.105082,2.298187,0.612409,74.89258,-0.033127,0.038025,1.005569,-0.025029,-0.023831,0.013842,87.909851,32.94696,-149.584579,,,
729705571.108458,2.298187,0.612409,74.89258,-0.033127,0.038025,1.005569,-0.025029,-0.023831,0.013842,87.909851,32.94696,-149.584579,,,
729705571.111754,2.292141,0.606241,74.9002,-0.028564,0.036774,1.010025,-0.020092,-0.013827,0.028155,87.909851,32.94696,-149.584579,,,
729705571.11508,2.286392,0.602133,74.909047,-0.028564,0.036774,1.010025,-0.020092,-0.013827,0.028155,87.909851,32.94696,-149.584579,,,
729705571.118585,2.286392,0.602133,74.909047,-0.028564,0.036774,1.010025,-0.020092,-0.013827,0.028155,88.145065,32.656082,-149.618683,,,
729705571.121778,2.279078,0.596712,74.919394,-0.025452,0.035553,1.009048,-0.024946,-0.014257,0.036906,88.145065,32.656082,-149.618683,,,
729705571.1251,2.271879,0.593399,74.930524,-0.025452,0.035553,1.009048,-0.024946,-0.014257,0.036906,88.145065,32.656082,-149.618683,,,
729705571.128529,2.271879,0.593399,74.930524,-0.025452,0.035553,1.009048,-0.024946,-0.014257,0.036906,88.145065,32.656082,-149.618683,,,
729705571.131748,2.263452,0.587504,74.941603,-0.014191,0.036362,1.009476,-0.031475,-0.016214,0.036652,88.145065,32.656082,-149.618683,,,
729705571.135096,2.256094,0.584417,74.951905,-0.014191,0.036362,1.009476,-0.031475,-0.016214,0.036652,88.145065,32.656082,-149.618683,,,
729705571.138492,2.256094,0.584417,74.951905,-0.014191,0.036362,1.009476,-0.031475,-0.016214,0.036652,88.145065,32.656082,-149.618683,,,
729705571.141833,2.248599,0.578343,74.961408,-0.005661,0.039581,1.013489,-0.021918,-0.016604,0.029229,88.145065,32.656082,-149.618683,,,
729705571.145077,2.24339,0.576684,74.970115,-0.005661,0.039581,1.013489,-0.021918,-0.016604,0.029229,88.145065,32.656082,-149.618683,,,
729705571.148446,2.24339,0.576684,74.970115,-0.005661,0.039581,1.013489,-0.021918,-0.016604,0.029229,88.145065,32.656082,-149.618683,,,
729705571.151744,2.239481,0.568805,74.978354,-0.004272,0.039108,1.016403,-0.007849,-0.028504,0.023795,88.145065,32.656082,-149.618683,,,
729705571.15508,2.23947,0.565157,74.985766,-0.004272,0.039108,1.016403,-0.007849,-0.028504,0.023795,88.145065,32.656082,-149.618683,,,
729705571.158488,2.23947,0.565157,74.985766,-0.004272,0.039108,1.016403,-0.007849,-0.028504,0.023795,87.987595,32.865173,-149.687943,,,
729705571.161837,2.240405,0.554768,74.993669,-0.002213,0.03479,1.016907,0.007437,-0.031847,0.025862,87.987595,32.865173,-149.687943,,,
729705571.165078,2.243909,0.55095,75.001963,-0.002213,0.03479,1.016907,0.007437,-0.031847,0.025862,87.987595,32.865173,-149.687943,,,
729705571.168527,2.243909,0.55095,75.001963,-0.002213,0.03479,1.016907,0.007437,-0.031847,0.025862,87.987595,32.865173,-149.687943,,,
729705571.171746,2.248071,0.540516,75.010648,0.001236,0.037003,1.016678,0.017986,-0.028246,0.02904,87.987595,32.865173,-149.687943,,,
729705571.175086,2.252971,0.535725,75.018647,0.001236,0.037003,1.016678,0.017986,-0.028246,0.02904,87.987595,32.865173,-149.687943,,,
729705571.178444,2.252971,0.535725,75.018647,0.001236,0.037003,1.016678,0.017986,-0.028246,0.02904,87.987595,32.865173,-149.687943,,,
729705571.181825,2.258716,0.525604,75.026595,0.00473,0.042099,1.011322,0.024093,-0.033022,0.026094,87.987595,32.865173,-149.687943,,,
729705571.185082,2.264658,0.520853,75.033576,0.00473,0.042099,1.011322,0.024093,-0.033022,0.026094,87.987595,32.865173,-149.687943,,,
729705571.188424,2.264658,0.520853,75.033576,0.00473,0.042099,1.011322,0.024093,-0.033022,0.026094,87.987595,32.865173,-149.687943,,,
729705571.19183,2.270905,0.512772,75.040155,0.008926,0.045547,1.008591,0.020825,-0.023518,0.02137,87.987595,32.865173,-149.687943,,,
729705571.195161,2.275267,0.508991,75.045979,0.008926,0.045547,1.008591,0.020825,-0.023518,0.02137,87.987595,32.865173,-149.687943,,,
729705571.198428,2.275267,0.508991,75.045979,0.008926,0.045547,1.008591,0.020825,-0.023518,0.02137,87.987595,32.865173,-149.687943,,,
729705571.201753,2.27967,0.501411,75.050463,0.010803,0.046707,1.004425,0.015526,-0.025817,0.011838,87.981049,32.696884,-149.385513,,,
729705571.205091,2.282361,0.496124,75.053644,0.010803,0.046707,1.004425,0.015526,-0.025817,0.011838,87.981049,32.696884,-149.385513,,,
729705571.208515,2.282361,0.496124,75.053644,0.010803,0.046707,1.004425,0.015526,-0.025817,0.011838,87.981049,32.696884,-149.385513,,,
729705571.211737,2.285735,0.48854,75.055359,0.013275,0.045059,1.002731,0.010554,-0.021608,0.000836,87.981049,32.696884,-149.385513,,,
729705571.215092,2.288056,0.482088,75.055627,0.013275,0.045059,1.002731,0.010554,-0.021608,0.000836,87.981049,32.696884,-149.385513,,,
729705571.218419,2.288056,0.482088,75.055627,0.013275,0.045059,1.002731,0.010554,-0.021608,0.000836,87.981049,32.696884,-149.385513,,,
729705571.221838,2.290102,0.477322,75.055705,0.012314,0.042465,1.001358,0.007421,-0.010362,-0.004286,87.981049,32.696884,-149.385513,,,
729705571.225104,2.292236,0.472579,75.055489,0.012314,0.042465,1.001358,0.007421,-0.010362,-0.004286,87.981049,32.696884,-149.385513,,,
729705571.228495,2.292236,0.472579,75.055489,0.012314,0.042465,1.001358,0.007421,-0.010362,-0.004286,87.981049,32.696884,-149.385513,,,
729705571.231737,2.294814,0.4688,75.054661,0.012421,0.038162,0.99823,0.009634,-0.008564,-0.00347,87.981049,32.696884,-149.385513,,,
729705571.235088,2.296654,0.464082,75.054216,0.012421,0.038162,0.99823,0.009634,-0.008564,-0.00347,87.981049,32.696884,-149.385513,,,
729705571.238428,2.296654,0.464082,75.054216,0.012421,0.038162,0.99823,0.009634,-0.008564,-0.00347,87.981049,32.696884,-149.385513,,,
729705571.241766,2.299571,0.460321,75.053869,0.012314,0.038193,0.993942,0.012919,-0.009934,-0.006021,88.025085,32.704559,-149.799042,,,
729705571.245126,2.301933,0.455385,75.052517,0.012314,0.038193,0.993942,0.012919,-0.009934,-0.006021,88.025085,32.704559,-149.799042,,,
729705571.248474,2.301933,0.455385,75.052517,0.012314,0.038193,0.993942,0.012919,-0.009934,-0.006021,88.025085,32.704559,-149.799042,,,
729705571.251754,2.306619,0.453398,75.049939,0.01265,0.040619,0.991959,0.014692,-0.002433,-0.014496,88.025085,32.704559,-149.799042,,,
729705571.255083,2.311847,0.449318,75.046077,0.01265,0.040619,0.991959,0.014692,-0.002433,-0.014496,88.025085,32.704559,-149.799042,,,
729705571.258425,2.311847,0.449318,75.046077,0.01265,0.040619,0.991959,0.014692,-0.002433,-0.014496,88.025085,32.704559,-149.799042,,,
729705571.261747,2.316943,0.446307,75.040623,0.009552,0.042282,0.984772,0.012017,-0.012486,-0.023298,88.025085,32.704559,-149.799042,,,
729705571.265076,2.321545,0.43846,75.034242,0.009552,0.042282,0.984772,0.012017,-0.012486,-0.023298,88.025085,32.704559,-149.799042,,,
729705571.268432,2.321545,0.43846,75.034242,0.009552,0.042282,0.984772,0.012017,-0.012486,-0.023298,88.025085,32.704559,-149.799042,,,
729705571.271763,2.324521,0.432818,75.026874,0.005981,0.040665,0.980576,0.004847,-0.019972,-0.029199,88.025085,32.704559,-149.799042,,,
729705571.275077,2.326529,0.423293,75.018842,0.005981,0.040665,0.980576,0.004847,-0.019972,-0.029199,88.025085,32.704559,-149.799042,,,
729705571.27841,2.326529,0.423293,75.018842,0.005981,0.040665,0.980576,0.004847,-0.019972,-0.029199,88.025085,32.704559,-149.799042,,,
729705571.281741,2.324902,0.417144,75.009727,0.002914,0.042007,0.981781,-0.009341,-0.021102,-0.034629,87.878662,32.931824,-149.488663,,,
729705571.285072,2.322573,0.406245,75.000114,0.002914,0.042007,0.981781,-0.009341,-0.021102,-0.034629,87.878662,32.931824,-149.488663,,,
729705571.288475,2.322573,0.406245,75.000114,0.002914,0.042007,0.981781,-0.009341,-0.021102,-0.034629,87.878662,32.931824,-149.488663,,,
729705571.291766,2.317636,0.399293,74.990172,0.00032,0.040588,0.981354,-0.016263,-0.021176,-0.037234,87.878662,32.931824,-149.488663,,,
729705571.295194,2.312253,0.389143,74.98036,0.00032,0.040588,0.981354,-0.016263,-0.021176,-0.037234,87.878662,32.931824,-149.488663,,,
729705571.298442,2.312253,0.389143,74.98036,0.00032,0.040588,0.981354,-0.016263,-0.021176,-0.037234,87.878662,32.931824,-149.488663,,,
729705571.301753,2.305401,0.384977,74.970548,-0.00087,0.035446,0.985764,-0.025485,-0.007282,-0.036641,87.878662,32.931824,-149.488663,,,
729705571.305124,2.29783,0.37791,74.961068,-0.00087,0.035446,0.985764,-0.025485,-0.007282,-0.036641,87.878662,32.931824,-149.488663,,,
729705571.308422,2.29783,0.37791,74.961068,-0.00087,0.035446,0.985764,-0.025485,-0.007282,-0.036641,87.878662,32.931824,-149.488663,,,
729705571.311774,2.289962,0.376864,74.950779,-0.00174,0.033295,0.991043,-0.029086,0.004323,-0.038445,87.878662,32.931824,-149.488663,,,
729705571.315084,2.281132,0.373413,74.940442,-0.00174,0.033295,0.991043,-0.029086,0.004323,-0.038445,87.878662,32.931824,-149.488663,,,
729705571.318432,2.281132,0.373413,74.940442,-0.00174,0.033295,0.991043,-0.029086,0.004323,-0.038445,87.878662,32.931824,-149.488663,,,
729705571.321819,2.272935,0.375091,74.930139,-0.009048,0.03241,0.989578,-0.025614,0.009799,-0.036048,87.878662,32.931824,-149.488663,,,
729705571.325102,2.266121,0.373532,74.920407,-0.009048,0.03241,0.989578,-0.025614,0.009799,-0.036048,87.754715,32.916565,-149.572266,,,
729705571.328454,2.266121,0.373532,74.920407,-0.009048,0.03241,0.989578,-0.025614,0.009799,-0.036048,87.754715,32.916565,-149.572266,,,
729705571.331771,2.262301,0.376175,74.911325,-0.01329,0.02565,0.997833,-0.004209,0.006126,-0.029552,87.754715,32.916565,-149.572266,,,
729705571.335094,2.262516,0.374139,74.903243,-0.01329,0.02565,0.997833,-0.004209,0.006126,-0.029552,87.754715,32.916565,-149.572266,,,
729705571.338413,2.262516,0.374139,74.903243,-0.01329,0.02565,0.997833,-0.004209,0.006126,-0.029552,87.754715,32.916565,-149.572266,,,
729705571.341772,2.264672,0.373847,74.896206,-0.01767,0.023193,1.00029,0.018178,-0.006682,-0.020985,87.754715,32.916565,-149.572266,,,
729705571.345108,2.270026,0.368211,74.890178,-0.01767,0.023193,1.00029,0.018178,-0.006682,-0.020985,87.754715,32.916565,-149.572266,,,
729705571.34844,2.270026,0.368211,74.890178,-0.01767,0.023193,1.00029,0.018178,-0.006682,-0.020985,87.754715,32.916565,-149.572266,,,
729705571.35181,2.276372,0.364164,74.884193,-0.019302,0.026871,0.99881,0.021036,-0.014088,-0.021658,87.754715,32.916565,-149.572266,,,
729705571.355092,2.283037,0.357132,74.878024,-0.019302,0.026871,0.99881,0.021036,-0.014088,-0.021658,87.754715,32.916565,-149.572266,,,
729705571.358446,2.283037,0.357132,74.878024,-0.019302,0.026871,0.99881,0.021036,-0.014088,-0.021658,87.754715,32.916565,-149.572266,,,
729705571.361824,2.288667,0.351932,74.871833,-0.016815,0.035461,0.997055,0.018144,-0.017326,-0.02412,87.754715,32.916565,-149.572266,,,
729705571.365184,2.294138,0.345152,74.865323,-0.016815,0.035461,0.997055,0.018144,-0.017326,-0.02412,88.008453,32.736145,-149.578735,,,
729705571.368407,2.294138,0.345152,74.865323,-0.016815,0.035461,0.997055,0.018144,-0.017326,-0.02412,88.008453,32.736145,-149.578735,,,
729705571.371755,2.298653,0.341329,74.858035,-0.008057,0.038422,0.998169,0.016774,-0.007668,-0.026665,88.008453,32.736145,-149.578735,,,
729705571.375099,2.302839,0.338504,74.850666,-0.008057,0.038422,0.998169,0.016774,-0.007668,-0.026665,88.008453,32.736145,-149.578735,,,
729705571.378421,2.302839,0.338504,74.850666,-0.008057,0.038422,0.998169,0.016774,-0.007668,-0.026665,88.008453,32.736145,-149.578735,,,
729705571.381743,2.307134,0.338665,74.843092,-0.004776,0.037323,1.004456,0.013211,0.007487,-0.028107,88.008453,32.736145,-149.578735,,,
729705571.385076,2.309728,0.338894,74.835653,-0.004776,0.037323,1.004456,0.013211,0.007487,-0.028107,88.008453,32.736145,-149.578735,,,
729705571.388407,2.309728,0.338894,74.835653,-0.004776,0.037323,1.004456,0.013211,0.007487,-0.028107,88.008453,32.736145,-149.578735,,,
729705571.391773,2.312607,0.342473,74.828411,-0.002441,0.04039,1.001358,0.006527,0.022316,-0.028203,88.008453,32.736145,-149.578735,,,
729705571.395182,2.312795,0.348411,74.821438,-0.002441,0.04039,1.001358,0.006527,0.022316,-0.028203,88.008453,32.736145,-149.578735,,,
729705571.398416,2.312795,0.348411,74.821438,-0.002441,0.04039,1.001358,0.006527,0.022316,-0.028203,88.008453,32.736145,-149.578735,,,
729705571.401775,2.31337,0.356497,74.814724,-0.005066,0.044556,1.001434,-0.001071,0.033295,-0.026159,88.008453,32.736145,-149.578735,,,
729705571.405077,2.309442,0.367065,74.807858,-0.005066,0.044556,1.001434,-0.001071,0.033295,-0.026159,87.86264,32.884079,-149.5336,,,
729705571.408414,2.309442,0.367065,74.807858,-0.005066,0.044556,1.001434,-0.001071,0.033295,-0.026159,87.86264,32.884079,-149.5336,,,
729705571.411753,2.306301,0.376915,74.801174,-0.00592,0.045654,0.994476,-0.011055,0.038814,-0.023081,87.86264,32.884079,-149.5336,,,
729705571.415135,2.298437,0.389822,74.794976,-0.00592,0.045654,0.994476,-0.011055,0.038814,-0.023081,87.86264,32.884079,-149.5336,,,
729705571.418418,2.298437,0.389822,74.794976,-0.00592,0.045654,0.994476,-0.011055,0.038814,-0.023081,87.86264,32.884079,-149.5336,,,
729705571.421759,2.292993,0.401326,74.789664,-0.00824,0.045105,0.993347,-0.017406,0.041473,-0.01881,87.86264,32.884079,-149.5336,,,
729705571.425103,2.28413,0.414701,74.785119,-0.00824,0.045105,0.993347,-0.017406,0.041473,-0.01881,87.86264,32.884079,-149.5336,,,
729705571.428524,2.28413,0.414701,74.785119,-0.00824,0.045105,0.993347,-0.017406,0.041473,-0.01881,87.86264,32.884079,-149.5336,,,
729705571.431762,2.27964,0.425503,74.781048,-0.010742,0.045197,0.998001,-0.012701,0.039442,-0.01586,87.86264,32.884079,-149.5336,,,
729705571.435088,2.274691,0.438706,74.776658,-0.010742,0.045197,0.998001,-0.012701,0.039442,-0.01586,87.86264,32.884079,-149.5336,,,
729705571.438514,2.274691,0.438706,74.776658,-0.010742,0.045197,0.998001,-0.012701,0.039442,-0.01586,87.86264,32.884079,-149.5336,,,
729705571.441762,2.274335,0.449895,74.772802,-0.012375,0.042511,1.006561,0.006769,0.04491,-0.013854,87.86264,32.884079,-149.5336,,,
729705571.445095,2.276376,0.462777,74.769628,-0.012375,0.042511,1.006561,0.006769,0.04491,-0.013854,88.050781,32.773193,-149.421265,,,
729705571.448424,2.276376,0.462777,74.769628,-0.012375,0.042511,1.006561,0.006769,0.04491,-0.013854,88.050781,32.773193,-149.421265,,,
729705571.451816,2.281081,0.475101,74.76678,-0.013351,0.041031,1.0121,0.021082,0.043641,-0.009864,88.050781,32.773193,-149.421265,,,
729705571.455074,2.28733,0.486567,74.76455,-0.013351,0.041031,1.0121,0.021082,0.043641,-0.009864,88.050781,32.773193,-149.421265,,,
729705571.458447,2.28733,0.486567,74.76455,-0.013351,0.041031,1.0121,0.021082,0.043641,-0.009864,88.050781,32.773193,-149.421265,,,
729705571.461833,2.295747,0.497672,74.762561,-0.013824,0.039398,1.005936,0.034115,0.042188,-0.007612,88.050781,32.773193,-149.421265,,,
729705571.465069,2.30497,0.507943,74.76065,-0.013824,0.039398,1.005936,0.034115,0.042188,-0.007612,88.050781,32.773193,-149.421265,,,
729705571.468438,2.30497,0.507943,74.76065,-0.013824,0.039398,1.005936,0.034115,0.042188,-0.007612,88.050781,32.773193,-149.421265,,,
729705571.47176,2.314724,0.520086,74.759387,-0.01474,0.042221,1.006119,0.035788,0.04524,-0.002059,88.050781,32.773193,-149.421265,,,
729705571.475084,2.324662,0.531561,74.759116,-0.01474,0.042221,1.006119,0.035788,0.04524,-0.002059,88.050781,32.773193,-149.421265,,,
729705571.478409,2.324662,0.531561,74.759116,-0.01474,0.042221,1.006119,0.035788,0.04524,-0.002059,88.050781,32.773193,-149.421265,,,
729705571.481762,2.333835,0.544223,74.759462,-0.018265,0.043274,1.001724,0.033271,0.047017,0.004625,88.050781,32.773193,-149.421265,,,
729705571.485075,2.343971,0.555686,74.761075,-0.018265,0.043274,1.001724,0.033271,0.047017,0.004625,88.050781,32.773193,-149.421265,,,
729705571.488427,2.343971,0.555686,74.761075,-0.018265,0.043274,1.001724,0.033271,0.047017,0.004625,88.139755,32.831909,-149.757935,,,
729705571.491765,2.353078,0.567867,74.764214,-0.018219,0.044281,0.996933,0.033565,0.042792,0.014107,88.139755,32.831909,-149.757935,,,
729705571.495083,2.363414,0.578695,74.768718,-0.018219,0.044281,0.996933,0.033565,0.042792,0.014107,88.139755,32.831909,-149.757935,,,
729705571.498409,2.363414,0.578695,74.768718,-0.018219,0.044281,0.996933,0.033565,0.042792,0.014107,88.139755,32.831909,-149.757935,,,
729705571.501786,2.372998,0.589758,74.77457,-0.020447,0.046387,0.994705,0.037232,0.039613,0.024031,88.139755,32.831909,-149.757935,,,
729705571.505069,2.384049,0.600099,74.781866,-0.020447,0.046387,0.994705,0.037232,0.039613,0.024031,88.139755,32.831909,-149.757935,,,
729705571.508428,2.384049,0.600099,74.781866,-0.020447,0.046387,0.994705,0.037232,0.039613,0.024031,88.139755,32.831909,-149.757935,,,
729705571.511744,2.394598,0.609255,74.790063,-0.018875,0.05191,0.994995,0.032655,0.036157,0.02636,88.139755,32.831909,-149.757935,,,
729705571.515075,2.404545,0.617735,74.797955,-0.018875,0.05191,0.994995,0.032655,0.036157,0.02636,88.139755,32.831909,-149.757935,,,
729705571.518419,2.404545,0.617735,74.797955,-0.018875,0.05191,0.994995,0.032655,0.036157,0.02636,88.139755,32.831909,-149.757935,,,
729705571.521741,2.412201,0.624864,74.804259,-0.012466,0.05864,0.986053,0.021362,0.025613,0.014448,88.139755,32.831909,-149.757935,,,
729705571.525108,2.41735,0.630593,74.808832,-0.012466,0.05864,0.986053,0.021362,0.025613,0.014448,88.139755,32.831909,-149.757935,,,
729705571.528519,2.41735,0.630593,74.808832,-0.012466,0.05864,0.986053,0.021362,0.025613,0.014448,88.198669,32.973022,-149.620712,,,
729705571.531743,2.421245,0.634367,74.812187,-0.008835,0.061691,0.979019,0.010248,0.013452,0.004103,88.198669,32.973022,-149.620712,,,
729705571.535089,2.423227,0.637447,74.813922,-0.008835,0.061691,0.979019,0.010248,0.013452,0.004103,88.198669,32.973022,-149.620712,,,
729705571.538495,2.423227,0.637447,74.813922,-0.008835,0.061691,0.979019,0.010248,0.013452,0.004103,88.198669,32.973022,-149.620712,,,
729705571.54176,2.424211,0.638455,74.814241,-0.009308,0.061264,0.978928,0.000324,0.003717,6e-06,88.198669,32.973022,-149.620712,,,
729705571.545089,2.423321,0.638817,74.814411,-0.009308,0.061264,0.978928,0.000324,0.003717,6e-06,88.198669,32.973022,-149.620712,,,
729705571.548428,2.423321,0.638817,74.814411,-0.009308,0.061264,0.978928,0.000324,0.003717,6e-06,88.198669,32.973022,-149.620712,,,
729705571.551842,2.421446,0.637921,74.815812,-0.016571,0.050659,0.981979,-0.007552,0.000687,0.009961,88.198669,32.973022,-149.620712,,,
729705571.555073,2.418162,0.638163,74.81905,-0.016571,0.050659,0.981979,-0.007552,0.000687,0.009961,88.198669,32.973022,-149.620712,,,
729705571.558456,2.418162,0.638163,74.81905,-0.016571,0.050659,0.981979,-0.007552,0.000687,0.009961,88.198669,32.973022,-149.620712,,,
729705571.561816,2.413103,0.63774,74.824628,-0.020096,0.04245,0.981644,-0.020058,0.004379,0.022837,88.198669,32.973022,-149.620712,,,
729705571.565078,2.406793,0.639574,74.832694,-0.020096,0.04245,0.981644,-0.020058,0.004379,0.022837,88.198669,32.973022,-149.620712,,,
729705571.568409,2.406793,0.639574,74.832694,-0.020096,0.04245,0.981644,-0.020058,0.004379,0.022837,88.100021,32.791168,-149.442139,,,
729705571.571761,2.398645,0.640575,74.842797,-0.021072,0.037506,0.984833,-0.030646,0.011397,0.03432,88.100021,32.791168,-149.442139,,,
729705571.575076,2.390068,0.644178,74.853516,-0.021072,0.037506,0.984833,-0.030646,0.011397,0.03432,88.100021,32.791168,-149.442139,,,
729705571.578406,2.390068,0.644178,74.853516,-0.021072,0.037506,0.984833,-0.030646,0.011397,0.03432,88.100021,32.791168,-149.442139,,,
729705571.581754,2.379832,0.647553,74.864452,-0.021362,0.035629,0.987717,-0.036143,0.017793,0.03664,88.100021,32.791168,-149.442139,,,
729705571.585074,2.370719,0.653591,74.875692,-0.021362,0.035629,0.987717,-0.036143,0.017793,0.03664,88.100021,32.791168,-149.442139,,,
729705571.588416,2.370719,0.653591,74.875692,-0.021362,0.035629,0.987717,-0.036143,0.017793,0.03664,88.100021,32.791168,-149.442139,,,
729705571.591776,2.360409,0.65708,74.887439,-0.017303,0.033325,0.98912,-0.033452,0.015242,0.035639,88.100021,32.791168,-149.442139,,,
729705571.595178,2.35385,0.660212,74.898796,-0.017303,0.033325,0.98912,-0.033452,0.015242,0.035639,88.100021,32.791168,-149.442139,,,
