Time (sec),Pitch (deg),Roll (deg),Yaw(deg),X-Acceleration (g),Y-Acceleration (g),Z-Acceleration (g),Pitch Rate (deg/sec),Roll Rate (deg/sec),Yaw Rate (deg/sec),Magnetic Field in X direction (uT),Magnetic Field in Y direction (uT),Magnetic Field in Z Direction (uT),Latitude (deg),Longitude (deg),Altitude (m)
729715891.958684,0.789242,-2.619041,-81.714083,0.047546,-0.001373,1.045441,0.179613,-0.050658,-0.002367,63.246704,11.122513,-149.592758,,,
729715891.962951,0.839686,-2.634184,-84.78918,0.044403,-0.00148,1.022873,0.179613,-0.050658,-0.002367,63.246704,11.122513,-149.592758,,,
729715891.963179,0.839686,-2.634187,-81.712301,0.044403,-0.00148,1.022873,0.179613,-0.050658,-0.002367,63.246704,11.122513,-149.592758,,,
729715891.967381,0.886414,-2.65287,-84.783139,0.044403,-0.00148,1.022873,0.150659,-0.067357,0.02691,63.246704,11.122513,-149.592758,,,
729715891.967641,0.886414,-2.652873,-81.70626,0.044403,-0.00148,1.022873,0.150659,-0.067357,0.02691,63.246704,11.122513,-149.592758,,,
729715891.968253,0.886414,-2.65287,-84.783139,0.044403,-0.00148,1.022873,0.150659,-0.067357,0.02691,63.246704,11.122513,-149.592758,,,
729715891.96866,0.886414,-2.652873,-81.70626,0.044403,-0.00148,1.022873,0.150659,-0.067357,0.02691,63.246704,11.122513,-149.592758,,,
729715891.974092,0.928839,-2.671743,-84.77378,0.041718,0.00853,0.999359,0.150659,-0.067357,0.02691,63.246704,11.122513,-149.592758,,,
729715891.974359,0.967595,-2.687459,-81.68672,0.041718,0.00853,0.999359,0.121994,-0.029403,0.022446,63.246704,11.122513,-149.592758,,,
729715891.97641,0.967595,-2.687456,-84.763599,0.041718,0.00853,0.999359,0.121994,-0.029403,0.022446,63.246704,11.122513,-149.592758,,,
729715891.976653,0.967595,-2.687459,-81.68672,0.041718,0.00853,0.999359,0.121994,-0.029403,0.022446,63.246704,11.122513,-149.592758,,,
729715891.97904,0.967595,-2.687456,-84.763599,0.041718,0.00853,0.999359,0.121994,-0.029403,0.022446,63.181671,10.521957,-149.48938,,,
729715891.979265,0.967595,-2.687459,-81.677832,0.051163,0.025375,1.00061,0.121994,-0.029403,0.022446,63.181671,10.521957,-149.48938,,,
729715891.983062,1.001031,-2.695761,-84.754711,0.051163,0.025375,1.00061,0.121994,-0.029403,0.022446,63.181671,10.521957,-149.48938,,,
729715891.983291,1.00103,-2.695764,-81.677832,0.051163,0.025375,1.00061,0.121994,-0.029403,0.022446,63.181671,10.521957,-149.48938,,,
729715891.986872,1.029059,-2.696005,-84.747625,0.051163,0.025375,1.00061,0.070647,0.036151,0.010765,63.181671,10.521957,-149.48938,,,
729715891.987135,1.029059,-2.696008,-81.670747,0.051163,0.025375,1.00061,0.070647,0.036151,0.010765,63.181671,10.521957,-149.48938,,,
729715891.988353,1.029059,-2.696005,-84.747625,0.051163,0.025375,1.00061,0.070647,0.036151,0.010765,63.181671,10.521957,-149.48938,,,
729715891.988627,1.029059,-2.696008,-81.670747,0.051163,0.025375,1.00061,0.070647,0.036151,0.010765,63.181671,10.521957,-149.48938,,,
729715891.992941,1.048227,-2.686757,-84.742636,0.059036,0.034195,1.00116,0.070647,0.036151,0.010765,63.181671,10.521957,-149.48938,,,
729715891.993164,1.048226,-2.68676,-81.665758,0.059036,0.034195,1.00116,0.070647,0.036151,0.010765,63.181671,10.521957,-149.48938,,,
729715891.996296,1.060557,-2.671933,-84.739923,0.059036,0.034195,1.00116,0.017991,0.06985,0.003294,63.181671,10.521957,-149.48938,,,
729715891.996526,1.060557,-2.671936,-81.663044,0.059036,0.034195,1.00116,0.017991,0.06985,0.003294,63.181671,10.521957,-149.48938,,,
729715891.998394,1.060557,-2.671933,-84.739923,0.059036,0.034195,1.00116,0.017991,0.06985,0.003294,63.181671,10.521957,-149.48938,,,
729715891.998623,1.060557,-2.671936,-81.663044,0.059036,0.034195,1.00116,0.017991,0.06985,0.003294,63.181671,10.521957,-149.48938,,,
729715892.00268,1.06479,-2.652773,-84.738465,0.059586,0.040939,0.98558,0.017991,0.06985,0.003294,63.181671,10.521957,-149.48938,,,
729715892.002904,1.064789,-2.652776,-81.661586,0.059586,0.040939,0.98558,0.017991,0.06985,0.003294,63.181671,10.521957,-149.48938,,,
729715892.00679,1.064167,-2.632892,-84.736618,0.059586,0.040939,0.98558,-0.014987,0.072625,0.009265,63.181671,10.521957,-149.48938,,,
729715892.007043,1.064167,-2.632895,-81.659739,0.059586,0.040939,0.98558,-0.014987,0.072625,0.009265,63.181671,10.521957,-149.48938,,,
729715892.008365,1.064167,-2.632892,-84.736618,0.059586,0.040939,0.98558,-0.014987,0.072625,0.009265,63.181671,10.521957,-149.48938,,,
729715892.008621,1.064167,-2.632895,-81.659739,0.059586,0.040939,0.98558,-0.014987,0.072625,0.009265,63.181671,10.521957,-149.48938,,,
729715892.013098,1.05798,-2.612844,-84.733962,0.051773,0.033859,0.971893,-0.014987,0.072625,0.009265,63.181671,10.521957,-149.48938,,,
729715892.013338,1.05798,-2.612847,-81.657083,0.051773,0.033859,0.971893,-0.014987,0.072625,0.009265,63.181671,10.521957,-149.48938,,,
729715892.016136,1.049377,-2.594129,-84.730494,0.051773,0.033859,0.971893,-0.04169,0.069479,0.015732,63.181671,10.521957,-149.48938,,,
729715892.016367,1.049377,-2.594132,-81.653615,0.051773,0.033859,0.971893,-0.04169,0.069479,0.015732,63.181671,10.521957,-149.48938,,,
729715892.018422,1.049377,-2.594129,-84.730494,0.051773,0.033859,0.971893,-0.04169,0.069479,0.015732,63.181671,10.521957,-149.48938,,,
729715892.018639,1.049377,-2.594132,-81.653615,0.051773,0.033859,0.971893,-0.04169,0.069479,0.015732,63.181671,10.521957,-149.48938,,,
729715892.023143,1.035498,-2.575912,-84.725904,0.046112,0.025986,0.97226,-0.04169,0.069479,0.015732,63.381546,10.614868,-149.751251,,,
729715892.023401,1.035498,-2.575915,-81.649025,0.046112,0.025986,0.97226,-0.04169,0.069479,0.015732,63.381546,10.614868,-149.751251,,,
729715892.026452,1.020813,-2.558673,-84.719785,0.046112,0.025986,0.97226,-0.050938,0.05287,0.029554,63.381546,10.614868,-149.751251,,,
729715892.026692,1.020813,-2.558676,-81.642906,0.046112,0.025986,0.97226,-0.050938,0.05287,0.029554,63.381546,10.614868,-149.751251,,,
729715892.028447,1.020813,-2.558673,-84.719785,0.046112,0.025986,0.97226,-0.050938,0.05287,0.029554,63.381546,10.614868,-149.751251,,,
729715892.028657,1.020813,-2.558676,-81.642906,0.046112,0.025986,0.97226,-0.050938,0.05287,0.029554,63.381546,10.614868,-149.751251,,,
729715892.033124,1.004267,-2.544172,-84.711772,0.033661,0.01828,0.971375,-0.050938,0.05287,0.029554,63.381546,10.614868,-149.751251,,,
729715892.033354,1.004267,-2.544175,-81.634893,0.033661,0.01828,0.971375,-0.050938,0.05287,0.029554,63.381546,10.614868,-149.751251,,,
729715892.036316,0.990632,-2.534631,-84.70212,0.033661,0.01828,0.971375,-0.04061,0.024024,0.03161,63.381546,10.614868,-149.751251,,,
729715892.03656,0.990632,-2.534634,-81.625241,0.033661,0.01828,0.971375,-0.04061,0.024024,0.03161,63.381546,10.614868,-149.751251,,,
729715892.038414,0.990632,-2.534631,-84.70212,0.033661,0.01828,0.971375,-0.04061,0.024024,0.03161,63.381546,10.614868,-149.751251,,,
729715892.038648,0.990632,-2.534634,-81.625241,0.033661,0.01828,0.971375,-0.04061,0.024024,0.03161,63.381546,10.614868,-149.751251,,,
729715892.042697,0.978306,-2.529038,-84.692295,0.030167,0.008453,0.974487,-0.04061,0.024024,0.03161,63.381546,10.614868,-149.751251,,,
729715892.042921,0.978306,-2.529041,-81.615417,0.030167,0.008453,0.974487,-0.04061,0.024024,0.03161,63.381546,10.614868,-149.751251,,,
729715892.046059,0.97202,-2.526445,-84.682541,0.030167,0.008453,0.974487,-0.002423,0.00216,0.032402,63.381546,10.614868,-149.751251,,,
729715892.046304,0.97202,-2.526448,-81.605662,0.030167,0.008453,0.974487,-0.002423,0.00216,0.032402,63.381546,10.614868,-149.751251,,,
729715892.048457,0.97202,-2.526445,-84.682541,0.030167,0.008453,0.974487,-0.002423,0.00216,0.032402,63.381546,10.614868,-149.751251,,,
729715892.048679,0.97202,-2.526448,-81.605662,0.030167,0.008453,0.974487,-0.002423,0.00216,0.032402,63.381546,10.614868,-149.751251,,,
729715892.052755,0.970458,-2.527025,-84.672991,0.03627,0.004898,0.988998,-0.002423,0.00216,0.032402,63.381546,10.614868,-149.751251,,,
729715892.052996,0.970458,-2.527028,-81.596112,0.03627,0.004898,0.988998,-0.002423,0.00216,0.032402,63.381546,10.614868,-149.751251,,,
729715892.057607,0.973399,-2.531346,-84.664746,0.03627,0.004898,0.988998,0.023039,-0.026665,0.02256,63.381546,10.614868,-149.751251,,,
729715892.057879,0.973399,-2.531349,-81.587868,0.03627,0.004898,0.988998,0.023039,-0.026665,0.02256,63.381546,10.614868,-149.751251,,,
729715892.058295,0.973399,-2.531346,-84.664746,0.03627,0.004898,0.988998,0.023039,-0.026665,0.02256,63.381546,10.614868,-149.751251,,,
729715892.058655,0.973399,-2.531349,-81.587868,0.03627,0.004898,0.988998,0.023039,-0.026665,0.02256,63.381546,10.614868,-149.751251,,,
729715892.063245,0.980162,-2.540304,-84.658043,0.03653,0.003403,0.993851,0.023039,-0.026665,0.02256,63.579544,10.587723,-149.493042,,,
729715892.063487,0.980162,-2.540306,-81.581164,0.03653,0.003403,0.993851,0.023039,-0.026665,0.02256,63.579544,10.587723,-149.493042,,,
729715892.066294,0.987905,-2.550187,-84.653125,0.03653,0.003403,0.993851,0.033942,-0.030389,0.008209,63.579544,10.587723,-149.493042,,,
729715892.066528,0.987905,-2.55019,-81.576247,0.03653,0.003403,0.993851,0.033942,-0.030389,0.008209,63.579544,10.587723,-149.493042,,,
729715892.068507,0.987905,-2.550187,-84.653125,0.03653,0.003403,0.993851,0.033942,-0.030389,0.008209,63.579544,10.587723,-149.493042,,,
729715892.068725,0.987905,-2.55019,-81.576247,0.03653,0.003403,0.993851,0.033942,-0.030389,0.008209,63.579544,10.587723,-149.493042,,,
729715892.073009,0.998208,-2.56122,-84.65019,0.039383,0.009766,0.990814,0.033942,-0.030389,0.008209,63.579544,10.587723,-149.493042,,,
729715892.073273,0.998208,-2.561223,-81.573311,0.039383,0.009766,0.990814,0.033942,-0.030389,0.008209,63.579544,10.587723,-149.493042,,,
729715892.077424,1.006447,-2.570248,-84.649764,0.039383,0.009766,0.990814,0.023906,-0.029966,-0.007583,63.579544,10.587723,-149.493042,,,
729715892.077718,1.006447,-2.570251,-81.572886,0.039383,0.009766,0.990814,0.023906,-0.029966,-0.007583,63.579544,10.587723,-149.493042,,,
729715892.078293,1.006447,-2.570248,-84.649764,0.039383,0.009766,0.990814,0.023906,-0.029966,-0.007583,63.579544,10.587723,-149.493042,,,
729715892.078684,1.006447,-2.570251,-81.572886,0.039383,0.009766,0.990814,0.023906,-0.029966,-0.007583,63.579544,10.587723,-149.493042,,,
729715892.08284,1.014648,-2.581327,-84.650986,0.050232,0.0186,0.989487,0.023906,-0.029966,-0.007583,63.579544,10.587723,-149.493042,,,
729715892.083148,1.014648,-2.58133,-81.574107,0.050232,0.0186,0.989487,0.023906,-0.029966,-0.007583,63.579544,10.587723,-149.493042,,,
729715892.087302,1.017433,-2.590885,-84.652953,0.050232,0.0186,0.989487,-0.008873,-0.021829,-0.00977,63.579544,10.587723,-149.493042,,,
729715892.087619,1.017433,-2.590888,-81.576074,0.050232,0.0186,0.989487,-0.008873,-0.021829,-0.00977,63.579544,10.587723,-149.493042,,,
729715892.088306,1.017433,-2.590885,-84.652953,0.050232,0.0186,0.989487,-0.008873,-0.021829,-0.00977,63.579544,10.587723,-149.493042,,,
729715892.088675,1.017433,-2.590888,-81.576074,0.050232,0.0186,0.989487,-0.008873,-0.021829,-0.00977,63.579544,10.587723,-149.493042,,,
729715892.092787,1.016118,-2.598965,-84.655411,0.047485,0.022858,0.976212,-0.008873,-0.021829,-0.00977,63.579544,10.587723,-149.493042,,,
729715892.093045,1.016117,-2.598968,-81.578532,0.047485,0.022858,0.976212,-0.008873,-0.021829,-0.00977,63.579544,10.587723,-149.493042,,,
729715892.097131,1.007212,-2.60182,-84.657584,0.047485,0.022858,0.976212,-0.052319,0.013491,-0.003846,63.579544,10.587723,-149.493042,,,
729715892.097398,1.007212,-2.601823,-81.580705,0.047485,0.022858,0.976212,-0.052319,0.013491,-0.003846,63.579544,10.587723,-149.493042,,,
729715892.098347,1.007212,-2.60182,-84.657584,0.047485,0.022858,0.976212,-0.052319,0.013491,-0.003846,63.579544,10.587723,-149.493042,,,
729715892.098651,1.007212,-2.601823,-81.580705,0.047485,0.022858,0.976212,-0.052319,0.013491,-0.003846,63.579544,10.587723,-149.493042,,,
729715892.103473,0.993002,-2.599186,-84.659469,0.049194,0.027313,0.974335,-0.052319,0.013491,-0.003846,63.353806,10.60585,-150.065842,,,
729715892.103766,0.993002,-2.599189,-81.58259,0.049194,0.027313,0.974335,-0.052319,0.013491,-0.003846,63.353806,10.60585,-150.065842,,,
729715892.10613,0.971498,-2.592893,-84.660637,0.049194,0.027313,0.974335,-0.09204,0.028619,-0.001671,63.353806,10.60585,-150.065842,,,
729715892.106315,0.971497,-2.592896,-81.583758,0.049194,0.027313,0.974335,-0.09204,0.028619,-0.001671,63.353806,10.60585,-150.065842,,,
729715892.108502,0.971498,-2.592893,-84.660637,0.049194,0.027313,0.974335,-0.09204,0.028619,-0.001671,63.353806,10.60585,-150.065842,,,
729715892.108719,0.971497,-2.592896,-81.583758,0.049194,0.027313,0.974335,-0.09204,0.028619,-0.001671,63.353806,10.60585,-150.065842,,,
729715892.112744,0.944871,-2.58459,-84.660933,0.051025,0.029739,0.968948,-0.09204,0.028619,-0.001671,63.353806,10.60585,-150.065842,,,
729715892.113012,0.944871,-2.584593,-81.584054,0.051025,0.029739,0.968948,-0.09204,0.028619,-0.001671,63.353806,10.60585,-150.065842,,,
729715892.117441,0.914608,-2.579063,-84.660795,0.051025,0.029739,0.968948,-0.118415,0.016158,0.002872,63.353806,10.60585,-150.065842,,,
729715892.117747,0.914607,-2.579066,-81.583916,0.051025,0.029739,0.968948,-0.118415,0.016158,0.002872,63.353806,10.60585,-150.065842,,,
729715892.118293,0.914608,-2.579063,-84.660795,0.051025,0.029739,0.968948,-0.118415,0.016158,0.002872,63.353806,10.60585,-150.065842,,,
729715892.118691,0.914607,-2.579066,-81.583916,0.051025,0.029739,0.968948,-0.118415,0.016158,0.002872,63.353806,10.60585,-150.065842,,,
729715892.122916,0.88048,-2.573973,-84.6605,0.051773,0.02684,0.959152,-0.118415,0.016158,0.002872,63.353806,10.60585,-150.065842,,,
729715892.123164,0.88048,-2.573976,-81.583621,0.051773,0.02684,0.959152,-0.118415,0.016158,0.002872,63.353806,10.60585,-150.065842,,,
729715892.126986,0.844532,-2.570998,-84.660644,0.051773,0.02684,0.959152,-0.126189,0.0087,-0.001223,63.353806,10.60585,-150.065842,,,
729715892.127242,0.844532,-2.571001,-81.583765,0.051773,0.02684,0.959152,-0.126189,0.0087,-0.001223,63.353806,10.60585,-150.065842,,,
729715892.128407,0.844532,-2.570998,-84.660644,0.051773,0.02684,0.959152,-0.126189,0.0087,-0.001223,63.353806,10.60585,-150.065842,,,
729715892.128642,0.844532,-2.571001,-81.583765,0.051773,0.02684,0.959152,-0.126189,0.0087,-0.001223,63.353806,10.60585,-150.065842,,,
729715892.132775,0.807698,-2.56896,-84.662433,0.050232,0.020065,0.969772,-0.126189,0.0087,-0.001223,63.353806,10.60585,-150.065842,,,
729715892.133001,0.807698,-2.568963,-81.585554,0.050232,0.020065,0.969772,-0.126189,0.0087,-0.001223,63.353806,10.60585,-150.065842,,,
729715892.137177,0.772035,-2.569491,-84.666752,0.050232,0.020065,0.969772,-0.113221,-0.01135,-0.0216,63.353806,10.60585,-150.065842,,,
729715892.13744,0.772034,-2.569494,-81.589873,0.050232,0.020065,0.969772,-0.113221,-0.01135,-0.0216,63.353806,10.60585,-150.065842,,,
729715892.138344,0.772035,-2.569491,-84.666752,0.050232,0.020065,0.969772,-0.113221,-0.01135,-0.0216,63.353806,10.60585,-150.065842,,,
729715892.138631,0.772034,-2.569494,-81.589873,0.050232,0.020065,0.969772,-0.113221,-0.01135,-0.0216,63.353806,10.60585,-150.065842,,,
729715892.143441,0.737911,-2.572824,-84.674108,0.055298,0.016907,0.980484,-0.113221,-0.01135,-0.0216,63.290466,10.767517,-150.001526,,,
729715892.143699,0.737911,-2.572827,-81.597229,0.055298,0.016907,0.980484,-0.113221,-0.01135,-0.0216,63.290466,10.767517,-150.001526,,,
729715892.14644,0.708087,-2.579276,-84.683928,0.055298,0.016907,0.980484,-0.090576,-0.020453,-0.038848,63.290466,10.767517,-150.001526,,,
729715892.146682,0.708087,-2.579279,-81.607049,0.055298,0.016907,0.980484,-0.090576,-0.020453,-0.038848,63.290466,10.767517,-150.001526,,,
729715892.148407,0.708087,-2.579276,-84.683928,0.055298,0.016907,0.980484,-0.090576,-0.020453,-0.038848,63.290466,10.767517,-150.001526,,,
729715892.148629,0.708087,-2.579279,-81.607049,0.055298,0.016907,0.980484,-0.090576,-0.020453,-0.038848,63.290466,10.767517,-150.001526,,,
729715892.153346,0.682071,-2.58533,-84.695308,0.051086,0.009628,0.988083,-0.090576,-0.020453,-0.038848,63.290466,10.767517,-150.001526,,,
729715892.153597,0.682071,-2.585333,-81.61843,0.051086,0.009628,0.988083,-0.090576,-0.020453,-0.038848,63.290466,10.767517,-150.001526,,,
729715892.155952,0.659882,-2.589348,-84.707502,0.051086,0.009628,0.988083,-0.059994,-0.002732,-0.042609,63.290466,10.767517,-150.001526,,,
729715892.156183,0.659882,-2.589351,-81.630623,0.051086,0.009628,0.988083,-0.059994,-0.002732,-0.042609,63.290466,10.767517,-150.001526,,,
729715892.158461,0.659882,-2.589348,-84.707502,0.051086,0.009628,0.988083,-0.059994,-0.002732,-0.042609,63.290466,10.767517,-150.001526,,,
729715892.158696,0.659882,-2.589351,-81.630623,0.051086,0.009628,0.988083,-0.059994,-0.002732,-0.042609,63.290466,10.767517,-150.001526,,,
729715892.162836,0.642974,-2.59149,-84.718802,0.046051,0.002762,1.002975,-0.059994,-0.002732,-0.042609,63.290466,10.767517,-150.001526,,,
729715892.163062,0.642974,-2.591493,-81.641924,0.046051,0.002762,1.002975,-0.059994,-0.002732,-0.042609,63.290466,10.767517,-150.001526,,,
729715892.167195,0.630194,-2.591132,-84.728215,0.046051,0.002762,1.002975,-0.028166,0.010789,-0.024749,63.290466,10.767517,-150.001526,,,
729715892.16746,0.630194,-2.591135,-81.651337,0.046051,0.002762,1.002975,-0.028166,0.010789,-0.024749,63.290466,10.767517,-150.001526,,,
729715892.168301,0.630194,-2.591132,-84.728215,0.046051,0.002762,1.002975,-0.028166,0.010789,-0.024749,63.290466,10.767517,-150.001526,,,
729715892.168647,0.630194,-2.591135,-81.651337,0.046051,0.002762,1.002975,-0.028166,0.010789,-0.024749,63.290466,10.767517,-150.001526,,,
729715892.173982,0.622131,-2.589275,-84.735099,0.042923,-0.008163,1.00737,-0.028166,0.010789,-0.024749,63.290466,10.767517,-150.001526,,,
729715892.174255,0.622131,-2.589278,-81.65822,0.042923,-0.008163,1.00737,-0.028166,0.010789,-0.024749,63.290466,10.767517,-150.001526,,,
729715892.175451,0.616523,-2.586463,-84.738961,0.042923,-0.008163,1.00737,-0.008943,0.01271,-0.006906,63.290466,10.767517,-150.001526,,,
729715892.175685,0.616523,-2.586466,-81.662082,0.042923,-0.008163,1.00737,-0.008943,0.01271,-0.006906,63.290466,10.767517,-150.001526,,,
729715892.178538,0.616523,-2.586463,-84.738961,0.042923,-0.008163,1.00737,-0.008943,0.01271,-0.006906,63.290466,10.767517,-150.001526,,,
729715892.178731,0.616523,-2.586466,-81.662082,0.042923,-0.008163,1.00737,-0.008943,0.01271,-0.006906,63.290466,10.767517,-150.001526,,,
729715892.18263,0.615585,-2.584541,-84.740838,0.041061,-0.012222,1.003326,-0.008943,0.01271,-0.006906,63.290466,10.767517,-150.001526,,,
729715892.182856,0.615585,-2.584544,-81.663959,0.041061,-0.012222,1.003326,-0.008943,0.01271,-0.006906,63.290466,10.767517,-150.001526,,,
729715892.187152,0.616229,-2.581649,-84.741807,0.041061,-0.012222,1.003326,0.009873,0.020442,-0.005432,63.369843,10.875854,-150.079926,,,
729715892.187418,0.616229,-2.581652,-81.664928,0.041061,-0.012222,1.003326,0.009873,0.020442,-0.005432,63.369843,10.875854,-150.079926,,,
729715892.188301,0.616229,-2.581649,-84.741807,0.041061,-0.012222,1.003326,0.009873,0.020442,-0.005432,63.369843,10.875854,-150.079926,,,
729715892.188651,0.616229,-2.581652,-81.664928,0.041061,-0.012222,1.003326,0.009873,0.020442,-0.005432,63.369843,10.875854,-150.079926,,,
729715892.192168,0.620318,-2.577293,-84.742696,0.041153,-0.004745,1.003662,0.009873,0.020442,-0.005432,63.369843,10.875854,-150.079926,,,
729715892.19238,0.620318,-2.577296,-81.665817,0.041153,-0.004745,1.003662,0.009873,0.020442,-0.005432,63.369843,10.875854,-150.079926,,,
729715892.19595,0.623836,-2.569153,-84.744005,0.041153,-0.004745,1.003662,0.015235,0.03745,-0.006092,63.369843,10.875854,-150.079926,,,
729715892.196183,0.623836,-2.569156,-81.667126,0.041153,-0.004745,1.003662,0.015235,0.03745,-0.006092,63.369843,10.875854,-150.079926,,,
729715892.19846,0.623836,-2.569153,-84.744005,0.041153,-0.004745,1.003662,0.015235,0.03745,-0.006092,63.369843,10.875854,-150.079926,,,
729715892.198678,0.623836,-2.569156,-81.667126,0.041153,-0.004745,1.003662,0.015235,0.03745,-0.006092,63.369843,10.875854,-150.079926,,,
729715892.204017,0.629447,-2.560833,-84.745503,0.039825,0.000458,1.008865,0.015235,0.03745,-0.006092,63.369843,10.875854,-150.079926,,,
729715892.20428,0.629447,-2.560836,-81.668625,0.039825,0.000458,1.008865,0.015235,0.03745,-0.006092,63.369843,10.875854,-150.079926,,,
729715892.205997,0.632146,-2.552164,-84.746202,0.039825,0.000458,1.008865,0.002701,0.023123,-0.001063,63.369843,10.875854,-150.079926,,,
729715892.206245,0.632146,-2.552167,-81.669323,0.039825,0.000458,1.008865,0.002701,0.023123,-0.001063,63.369843,10.875854,-150.079926,,,
729715892.208464,0.632146,-2.552164,-84.746202,0.039825,0.000458,1.008865,0.002701,0.023123,-0.001063,63.369843,10.875854,-150.079926,,,
729715892.20869,0.632146,-2.552167,-81.669323,0.039825,0.000458,1.008865,0.002701,0.023123,-0.001063,63.369843,10.875854,-150.079926,,,
729715892.212334,0.633994,-2.546306,-84.745932,0.037979,0.006393,0.995331,0.002701,0.023123,-0.001063,63.369843,10.875854,-150.079926,,,
729715892.212548,0.633994,-2.546309,-81.669054,0.037979,0.006393,0.995331,0.002701,0.023123,-0.001063,63.369843,10.875854,-150.079926,,,
729715892.21776,0.632301,-2.541637,-84.745222,0.037979,0.006393,0.995331,-0.012236,0.013398,0.004818,63.369843,10.875854,-150.079926,,,
729715892.218044,0.632301,-2.54164,-81.668343,0.037979,0.006393,0.995331,-0.012236,0.013398,0.004818,63.369843,10.875854,-150.079926,,,
729715892.218591,0.632301,-2.541637,-84.745222,0.037979,0.006393,0.995331,-0.012236,0.013398,0.004818,63.369843,10.875854,-150.079926,,,
729715892.21878,0.632301,-2.54164,-81.668343,0.037979,0.006393,0.995331,-0.012236,0.013398,0.004818,63.369843,10.875854,-150.079926,,,
729715892.222445,0.62863,-2.539475,-84.743997,0.039169,0.012878,0.990051,-0.012236,0.013398,0.004818,63.369843,10.875854,-150.079926,,,
729715892.22267,0.62863,-2.539478,-81.667118,0.039169,0.012878,0.990051,-0.012236,0.013398,0.004818,63.369843,10.875854,-150.079926,,,
729715892.226818,0.621679,-2.534988,-84.742672,0.039169,0.012878,0.990051,-0.035234,0.023308,0.00286,63.507446,10.994171,-149.371796,,,
729715892.227087,0.621679,-2.534991,-81.665794,0.039169,0.012878,0.990051,-0.035234,0.023308,0.00286,63.507446,10.994171,-149.371796,,,
729715892.228328,0.621679,-2.534988,-84.742672,0.039169,0.012878,0.990051,-0.035234,0.023308,0.00286,63.507446,10.994171,-149.371796,,,
729715892.228643,0.621679,-2.534991,-81.665794,0.039169,0.012878,0.990051,-0.035234,0.023308,0.00286,63.507446,10.994171,-149.371796,,,
729715892.232574,0.610784,-2.530025,-84.742103,0.044266,0.019501,0.993362,-0.035234,0.023308,0.00286,63.507446,10.994171,-149.371796,,,
729715892.2328,0.610784,-2.530028,-81.665224,0.044266,0.019501,0.993362,-0.035234,0.023308,0.00286,63.507446,10.994171,-149.371796,,,
729715892.237145,0.596848,-2.524011,-84.742615,0.044266,0.019501,0.993362,-0.060387,0.022541,-0.003814,63.507446,10.994171,-149.371796,,,
729715892.237406,0.596848,-2.524014,-81.665736,0.044266,0.019501,0.993362,-0.060387,0.022541,-0.003814,63.507446,10.994171,-149.371796,,,
729715892.238327,0.596848,-2.524011,-84.742615,0.044266,0.019501,0.993362,-0.060387,0.022541,-0.003814,63.507446,10.994171,-149.371796,,,
729715892.238649,0.596848,-2.524014,-81.665736,0.044266,0.019501,0.993362,-0.060387,0.022541,-0.003814,63.507446,10.994171,-149.371796,,,
729715892.242722,0.578602,-2.518564,-84.743965,0.051102,0.026077,0.988907,-0.060387,0.022541,-0.003814,63.507446,10.994171,-149.371796,,,
729715892.242945,0.578602,-2.518567,-81.667086,0.051102,0.026077,0.988907,-0.060387,0.022541,-0.003814,63.507446,10.994171,-149.371796,,,
729715892.247029,0.55975,-2.51283,-84.744562,0.051102,0.026077,0.988907,-0.060557,0.027917,0.007092,63.507446,10.994171,-149.371796,,,
729715892.247337,0.55975,-2.512833,-81.667683,0.051102,0.026077,0.988907,-0.060557,0.027917,0.007092,63.507446,10.994171,-149.371796,,,
729715892.248369,0.55975,-2.51283,-84.744562,0.051102,0.026077,0.988907,-0.060557,0.027917,0.007092,63.507446,10.994171,-149.371796,,,
729715892.248644,0.55975,-2.512833,-81.667683,0.051102,0.026077,0.988907,-0.060557,0.027917,0.007092,63.507446,10.994171,-149.371796,,,
729715892.252597,0.539652,-2.505767,-84.743507,0.049652,0.021942,0.989777,-0.060557,0.027917,0.007092,63.507446,10.994171,-149.371796,,,
729715892.252836,0.539651,-2.50577,-81.666629,0.049652,0.021942,0.989777,-0.060557,0.027917,0.007092,63.507446,10.994171,-149.371796,,,
729715892.256354,0.524323,-2.497052,-84.74154,0.049652,0.021942,0.989777,-0.043754,0.039054,0.00794,63.507446,10.994171,-149.371796,,,
729715892.25661,0.524323,-2.497055,-81.664661,0.049652,0.021942,0.989777,-0.043754,0.039054,0.00794,63.507446,10.994171,-149.371796,,,
729715892.258481,0.524323,-2.497052,-84.74154,0.049652,0.021942,0.989777,-0.043754,0.039054,0.00794,63.507446,10.994171,-149.371796,,,
729715892.258699,0.524323,-2.497055,-81.664661,0.049652,0.021942,0.989777,-0.043754,0.039054,0.00794,63.507446,10.994171,-149.371796,,,
729715892.26299,0.508996,-2.486662,-84.739504,0.052841,0.011124,1.006226,-0.043754,0.039054,0.00794,63.507446,10.994171,-149.371796,,,
729715892.263224,0.508996,-2.486665,-81.662625,0.052841,0.011124,1.006226,-0.043754,0.039054,0.00794,63.507446,10.994171,-149.371796,,,
729715892.266714,0.499196,-2.477129,-84.737773,0.052841,0.011124,1.006226,-0.022703,0.03319,0.006668,63.479355,11.213287,-149.879395,,,
729715892.266972,0.499196,-2.477132,-81.660894,0.052841,0.011124,1.006226,-0.022703,0.03319,0.006668,63.479355,11.213287,-149.879395,,,
729715892.268347,0.499196,-2.477129,-84.737773,0.052841,0.011124,1.006226,-0.022703,0.03319,0.006668,63.479355,11.213287,-149.879395,,,
729715892.268625,0.499196,-2.477132,-81.660894,0.052841,0.011124,1.006226,-0.022703,0.03319,0.006668,63.479355,11.213287,-149.879395,,,
729715892.272756,0.49104,-2.468795,-84.735372,0.050247,0.01001,1.002289,-0.022703,0.03319,0.006668,63.479355,11.213287,-149.879395,,,
729715892.272977,0.49104,-2.468798,-81.658493,0.050247,0.01001,1.002289,-0.022703,0.03319,0.006668,63.479355,11.213287,-149.879395,,,
729715892.276105,0.486351,-2.461852,-84.732174,0.050247,0.01001,1.002289,-0.007883,0.021879,0.010282,63.479355,11.213287,-149.879395,,,
729715892.276359,0.486351,-2.461855,-81.655295,0.050247,0.01001,1.002289,-0.007883,0.021879,0.010282,63.479355,11.213287,-149.879395,,,
729715892.278425,0.486351,-2.461852,-84.732174,0.050247,0.01001,1.002289,-0.007883,0.021879,0.010282,63.479355,11.213287,-149.879395,,,
729715892.27866,0.486351,-2.461855,-81.655295,0.050247,0.01001,1.002289,-0.007883,0.021879,0.010282,63.479355,11.213287,-149.879395,,,
729715892.282512,0.482111,-2.455583,-84.729144,0.041092,0.00766,1.001038,-0.007883,0.021879,0.010282,63.479355,11.213287,-149.879395,,,
729715892.282726,0.482111,-2.455586,-81.652265,0.041092,0.00766,1.001038,-0.007883,0.021879,0.010282,63.479355,11.213287,-149.879395,,,
729715892.285947,0.478603,-2.45169,-84.727118,0.041092,0.00766,1.001038,-0.013992,0.010803,0.000695,63.479355,11.213287,-149.879395,,,
729715892.286182,0.478603,-2.451693,-81.650239,0.041092,0.00766,1.001038,-0.013992,0.010803,0.000695,63.479355,11.213287,-149.879395,,,
729715892.288522,0.478603,-2.45169,-84.727118,0.041092,0.00766,1.001038,-0.013992,0.010803,0.000695,63.479355,11.213287,-149.879395,,,
729715892.288713,0.478603,-2.451693,-81.650239,0.041092,0.00766,1.001038,-0.013992,0.010803,0.000695,63.479355,11.213287,-149.879395,,,
729715892.292661,0.474259,-2.448365,-84.725928,0.047226,0.015732,0.99971,-0.013992,0.010803,0.000695,63.479355,11.213287,-149.879395,,,
729715892.292893,0.474258,-2.448368,-81.649049,0.047226,0.015732,0.99971,-0.013992,0.010803,0.000695,63.479355,11.213287,-149.879395,,,
729715892.296608,0.469347,-2.44661,-84.725402,0.047226,0.015732,0.99971,-0.019499,0.005618,-0.001127,63.479355,11.213287,-149.879395,,,
729715892.296865,0.469347,-2.446613,-81.648523,0.047226,0.015732,0.99971,-0.019499,0.005618,-0.001127,63.479355,11.213287,-149.879395,,,
729715892.298398,0.469347,-2.44661,-84.725402,0.047226,0.015732,0.99971,-0.019499,0.005618,-0.001127,63.479355,11.213287,-149.879395,,,
729715892.298622,0.469347,-2.446613,-81.648523,0.047226,0.015732,0.99971,-0.019499,0.005618,-0.001127,63.479355,11.213287,-149.879395,,,
729715892.302533,0.464609,-2.445335,-84.725613,0.044235,0.015778,0.997742,-0.019499,0.005618,-0.001127,63.479355,11.213287,-149.879395,,,
729715892.302755,0.464609,-2.445338,-81.648734,0.044235,0.015778,0.997742,-0.019499,0.005618,-0.001127,63.479355,11.213287,-149.879395,,,
729715892.306117,0.458524,-2.444761,-84.725676,0.044235,0.015778,0.997742,-0.021208,0.003818,-0.002349,63.218781,11.211288,-150.01503,,,
729715892.306348,0.458524,-2.444764,-81.648797,0.044235,0.015778,0.997742,-0.021208,0.003818,-0.002349,63.218781,11.211288,-150.01503,,,
729715892.308516,0.458524,-2.444761,-84.725676,0.044235,0.015778,0.997742,-0.021208,0.003818,-0.002349,63.218781,11.211288,-150.01503,,,
729715892.308709,0.458524,-2.444764,-81.648797,0.044235,0.015778,0.997742,-0.021208,0.003818,-0.002349,63.218781,11.211288,-150.01503,,,
729715892.312786,0.45302,-2.445367,-84.725826,0.044144,0.010025,1.004761,-0.021208,0.003818,-0.002349,63.218781,11.211288,-150.01503,,,
729715892.313009,0.45302,-2.44537,-81.648948,0.044144,0.010025,1.004761,-0.021208,0.003818,-0.002349,63.218781,11.211288,-150.01503,,,
729715892.316761,0.443874,-2.446629,-84.726278,0.044144,0.010025,1.004761,-0.038842,-0.003266,-0.000891,63.218781,11.211288,-150.01503,,,
729715892.317027,0.443874,-2.446632,-81.649399,0.044144,0.010025,1.004761,-0.038842,-0.003266,-0.000891,63.218781,11.211288,-150.01503,,,
729715892.318347,0.443874,-2.446629,-84.726278,0.044144,0.010025,1.004761,-0.038842,-0.003266,-0.000891,63.218781,11.211288,-150.01503,,,
729715892.318629,0.443874,-2.446632,-81.649399,0.044144,0.010025,1.004761,-0.038842,-0.003266,-0.000891,63.218781,11.211288,-150.01503,,,
729715892.322472,0.434156,-2.449486,-84.726741,0.050262,0.014099,1.00029,-0.038842,-0.003266,-0.000891,63.218781,11.211288,-150.01503,,,
729715892.32271,0.434156,-2.449489,-81.649862,0.050262,0.014099,1.00029,-0.038842,-0.003266,-0.000891,63.218781,11.211288,-150.01503,,,
729715892.326754,0.419195,-2.449861,-84.727301,0.050262,0.014099,1.00029,-0.06219,0.005792,-0.001201,63.218781,11.211288,-150.01503,,,
729715892.326995,0.419195,-2.449864,-81.650423,0.050262,0.014099,1.00029,-0.06219,0.005792,-0.001201,63.218781,11.211288,-150.01503,,,
729715892.328368,0.419195,-2.449861,-84.727301,0.050262,0.014099,1.00029,-0.06219,0.005792,-0.001201,63.218781,11.211288,-150.01503,,,
729715892.328623,0.419195,-2.449864,-81.650423,0.050262,0.014099,1.00029,-0.06219,0.005792,-0.001201,63.218781,11.211288,-150.01503,,,
729715892.332587,0.402464,-2.449909,-84.727696,0.053741,0.021774,0.998795,-0.06219,0.005792,-0.001201,63.218781,11.211288,-150.01503,,,
729715892.332843,0.402463,-2.449912,-81.650817,0.053741,0.021774,0.998795,-0.06219,0.005792,-0.001201,63.218781,11.211288,-150.01503,,,
729715892.337004,0.381755,-2.447688,-84.728115,0.053741,0.021774,0.998795,-0.077455,0.017003,0.001607,63.218781,11.211288,-150.01503,,,
729715892.337272,0.381754,-2.447691,-81.651237,0.053741,0.021774,0.998795,-0.077455,0.017003,0.001607,63.218781,11.211288,-150.01503,,,
729715892.33835,0.381755,-2.447688,-84.728115,0.053741,0.021774,0.998795,-0.077455,0.017003,0.001607,63.218781,11.211288,-150.01503,,,
729715892.338628,0.381754,-2.447691,-81.651237,0.053741,0.021774,0.998795,-0.077455,0.017003,0.001607,63.218781,11.211288,-150.01503,,,
729715892.342482,0.359451,-2.445152,-84.727771,0.056595,0.020538,1.000122,-0.077455,0.017003,0.001607,63.218781,11.211288,-150.01503,,,
729715892.342706,0.359451,-2.445155,-81.650893,0.056595,0.020538,1.000122,-0.077455,0.017003,0.001607,63.218781,11.211288,-150.01503,,,
729715892.346873,0.334758,-2.439833,-84.726146,0.056595,0.020538,1.000122,-0.087383,0.023506,0.013576,63.373978,11.279816,-150.132828,,,
729715892.347134,0.334758,-2.439836,-81.649268,0.056595,0.020538,1.000122,-0.087383,0.023506,0.013576,63.373978,11.279816,-150.132828,,,
729715892.348341,0.334758,-2.439833,-84.726146,0.056595,0.020538,1.000122,-0.087383,0.023506,0.013576,63.373978,11.279816,-150.132828,,,
729715892.348643,0.334758,-2.439836,-81.649268,0.056595,0.020538,1.000122,-0.087383,0.023506,0.013576,63.373978,11.279816,-150.132828,,,
729715892.352953,0.309739,-2.434308,-84.723669,0.05278,0.015594,1.002029,-0.087383,0.023506,0.013576,63.373978,11.279816,-150.132828,,,
729715892.353181,0.309739,-2.434311,-81.64679,0.05278,0.015594,1.002029,-0.087383,0.023506,0.013576,63.373978,11.279816,-150.132828,,,
729715892.355948,0.285858,-2.427557,-84.720689,0.05278,0.015594,1.002029,-0.073456,0.028096,0.009686,63.373978,11.279816,-150.132828,,,
729715892.356213,0.285858,-2.42756,-81.643811,0.05278,0.015594,1.002029,-0.073456,0.028096,0.009686,63.373978,11.279816,-150.132828,,,
729715892.358526,0.285858,-2.427557,-84.720689,0.05278,0.015594,1.002029,-0.073456,0.028096,0.009686,63.373978,11.279816,-150.132828,,,
729715892.358717,0.285858,-2.42756,-81.643811,0.05278,0.015594,1.002029,-0.073456,0.028096,0.009686,63.373978,11.279816,-150.132828,,,
729715892.362916,0.26584,-2.420912,-84.717842,0.05188,0.011292,1.00708,-0.073456,0.028096,0.009686,63.373978,11.279816,-150.132828,,,
729715892.363141,0.26584,-2.420915,-81.640963,0.05188,0.011292,1.00708,-0.073456,0.028096,0.009686,63.373978,11.279816,-150.132828,,,
729715892.36623,0.250345,-2.41493,-84.715735,0.05188,0.011292,1.00708,-0.031813,0.026716,0.00253,63.373978,11.279816,-150.132828,,,
729715892.366461,0.250345,-2.414933,-81.638856,0.05188,0.011292,1.00708,-0.031813,0.026716,0.00253,63.373978,11.279816,-150.132828,,,
729715892.368428,0.250345,-2.41493,-84.715735,0.05188,0.011292,1.00708,-0.031813,0.026716,0.00253,63.373978,11.279816,-150.132828,,,
729715892.36866,0.250345,-2.414933,-81.638856,0.05188,0.011292,1.00708,-0.031813,0.026716,0.00253,63.373978,11.279816,-150.132828,,,
729715892.372528,0.242464,-2.40913,-84.715153,0.047592,0.006241,1.017761,-0.031813,0.026716,0.00253,63.373978,11.279816,-150.132828,,,
729715892.372744,0.242464,-2.409133,-81.638275,0.047592,0.006241,1.017761,-0.031813,0.026716,0.00253,63.373978,11.279816,-150.132828,,,
729715892.376819,0.23833,-2.401304,-84.715792,0.047592,0.006241,1.017761,-0.002415,0.032133,-0.007054,63.373978,11.279816,-150.132828,,,
729715892.377065,0.23833,-2.401307,-81.638914,0.047592,0.006241,1.017761,-0.002415,0.032133,-0.007054,63.373978,11.279816,-150.132828,,,
729715892.378351,0.23833,-2.401304,-84.715792,0.047592,0.006241,1.017761,-0.002415,0.032133,-0.007054,63.373978,11.279816,-150.132828,,,
729715892.378625,0.23833,-2.401307,-81.638914,0.047592,0.006241,1.017761,-0.002415,0.032133,-0.007054,63.373978,11.279816,-150.132828,,,
729715892.382475,0.238378,-2.39373,-84.717297,0.041016,0.005661,1.023026,-0.002415,0.032133,-0.007054,63.373978,11.279816,-150.132828,,,
729715892.382694,0.238378,-2.393733,-81.640418,0.041016,0.005661,1.023026,-0.002415,0.032133,-0.007054,63.373978,11.279816,-150.132828,,,
729715892.385641,0.238511,-2.388463,-84.718994,0.041016,0.005661,1.023026,-0.003507,0.007672,-0.004477,63.373978,11.279816,-150.132828,,,
729715892.38587,0.238511,-2.388466,-81.642116,0.041016,0.005661,1.023026,-0.003507,0.007672,-0.004477,63.373978,11.279816,-150.132828,,,
729715892.389123,0.238511,-2.388463,-84.718994,0.041016,0.005661,1.023026,-0.003507,0.007672,-0.004477,63.442886,11.414246,-149.771591,,,
729715892.389353,0.238511,-2.388466,-81.642116,0.041016,0.005661,1.023026,-0.003507,0.007672,-0.004477,63.442886,11.414246,-149.771591,,,
729715892.392247,0.238681,-2.388041,-84.719619,0.034546,0.006683,1.007248,-0.003507,0.007672,-0.004477,63.442886,11.414246,-149.771591,,,
729715892.392457,0.238681,-2.388044,-81.64274,0.034546,0.006683,1.007248,-0.003507,0.007672,-0.004477,63.442886,11.414246,-149.771591,,,
729715892.397518,0.236539,-2.390676,-84.718835,0.034546,0.006683,1.007248,-0.016381,-0.016452,0.005625,63.442886,11.414246,-149.771591,,,
729715892.397801,0.236539,-2.390679,-81.641956,0.034546,0.006683,1.007248,-0.016381,-0.016452,0.005625,63.442886,11.414246,-149.771591,,,
729715892.398325,0.236539,-2.390676,-84.718835,0.034546,0.006683,1.007248,-0.016381,-0.016452,0.005625,63.442886,11.414246,-149.771591,,,
729715892.398642,0.236539,-2.390679,-81.641956,0.034546,0.006683,1.007248,-0.016381,-0.016452,0.005625,63.442886,11.414246,-149.771591,,,
729715892.402807,0.233625,-2.397856,-84.716885,0.029388,0.008987,0.996078,-0.016381,-0.016452,0.005625,63.442886,11.414246,-149.771591,,,
729715892.403045,0.233625,-2.397859,-81.640006,0.029388,0.008987,0.996078,-0.016381,-0.016452,0.005625,63.442886,11.414246,-149.771591,,,
729715892.405094,0.233625,-2.397856,-84.716885,0.029388,0.008987,0.996078,-0.016381,-0.016452,0.005625,63.442886,11.414246,-149.771591,,,
729715892.405363,0.227089,-2.406204,-81.637722,0.029388,0.008987,0.996078,-0.025322,-0.031253,0.004711,63.442886,11.414246,-149.771591,,,
729715892.40983,0.227089,-2.406201,-84.7146,0.029388,0.008987,0.996078,-0.025322,-0.031253,0.004711,63.442886,11.414246,-149.771591,,,
729715892.410121,0.227089,-2.406204,-81.637722,0.029388,0.008987,0.996078,-0.025322,-0.031253,0.004711,63.442886,11.414246,-149.771591,,,
729715892.412452,0.22234,-2.418761,-84.712604,0.034622,0.011215,1.002914,-0.025322,-0.031253,0.004711,63.442886,11.414246,-149.771591,,,
729715892.412691,0.22234,-2.418764,-81.635725,0.034622,0.011215,1.002914,-0.025322,-0.031253,0.004711,63.442886,11.414246,-149.771591,,,
729715892.415957,0.22234,-2.431983,-84.710912,0.034622,0.011215,1.002914,-0.017885,-0.048636,0.001119,63.442886,11.414246,-149.771591,,,
729715892.4162,0.216077,-2.431986,-81.634034,0.034622,0.011215,1.002914,-0.017885,-0.048636,0.001119,63.442886,11.414246,-149.771591,,,
729715892.418475,0.216077,-2.431983,-84.710912,0.034622,0.011215,1.002914,-0.017885,-0.048636,0.001119,63.442886,11.414246,-149.771591,,,
729715892.418681,0.216077,-2.431986,-81.634034,0.034622,0.011215,1.002914,-0.017885,-0.048636,0.001119,63.442886,11.414246,-149.771591,,,
729715892.422947,0.213099,-2.448388,-84.709714,0.035248,0.005539,1.011597,-0.017885,-0.048636,0.001119,63.442886,11.414246,-149.771591,,,
729715892.423176,0.213099,-2.448391,-81.632835,0.035248,0.005539,1.011597,-0.017885,-0.048636,0.001119,63.442886,11.414246,-149.771591,,,
729715892.425185,0.213099,-2.448388,-84.709816,0.035248,0.005539,1.011597,-0.017885,-0.048636,0.001119,63.442886,11.414246,-149.771591,,,
729715892.425396,0.210768,-2.461867,-81.632938,0.035248,0.005539,1.011597,-0.002442,-0.028722,-0.007112,63.442886,11.414246,-149.771591,,,
729715892.431179,0.210768,-2.461864,-84.709816,0.035248,0.005539,1.011597,-0.002442,-0.028722,-0.007112,63.488632,11.549316,-149.562973,,,
729715892.431477,0.211824,-2.472698,-81.634052,0.040512,0.004501,1.023697,-0.002442,-0.028722,-0.007112,63.488632,11.549316,-149.562973,,,
729715892.432506,0.211824,-2.472695,-84.71093,0.040512,0.004501,1.023697,-0.002442,-0.028722,-0.007112,63.488632,11.549316,-149.562973,,,
729715892.432729,0.211824,-2.472698,-81.634052,0.040512,0.004501,1.023697,-0.002442,-0.028722,-0.007112,63.488632,11.549316,-149.562973,,,
729715892.435196,0.211824,-2.472695,-84.71093,0.040512,0.004501,1.023697,-0.002442,-0.028722,-0.007112,63.488632,11.549316,-149.562973,,,
729715892.435389,0.213511,-2.477321,-81.634804,0.040512,0.004501,1.023697,0.012866,0.002804,-0.000711,63.488632,11.549316,-149.562973,,,
729715892.441292,0.213511,-2.477318,-84.711683,0.040512,0.004501,1.023697,0.012866,0.002804,-0.000711,63.488632,11.549316,-149.562973,,,
729715892.441569,0.217964,-2.47963,-81.634491,0.043304,0.001526,1.036407,0.012866,0.002804,-0.000711,63.488632,11.549316,-149.562973,,,
729715892.441987,0.217964,-2.47963,-81.634491,0.043304,0.001526,1.036407,0.012866,0.002804,-0.000711,63.488632,11.549316,-149.562973,,,
729715892.447284,0.217964,-2.479627,-84.711369,0.043304,0.001526,1.036407,0.022797,0.007548,0.008732,63.488632,11.549316,-149.562973,,,
729715892.447541,0.223134,-2.479544,-81.63272,0.043304,0.001526,1.036407,0.022797,0.007548,0.008732,63.488632,11.549316,-149.562973,,,
729715892.448302,0.223134,-2.479541,-84.709599,0.043304,0.001526,1.036407,0.022797,0.007548,0.008732,63.488632,11.549316,-149.562973,,,
729715892.448645,0.223134,-2.479544,-81.63272,0.043304,0.001526,1.036407,0.022797,0.007548,0.008732,63.488632,11.549316,-149.562973,,,
729715892.453561,0.229266,-2.479385,-84.705662,0.041199,-0.002106,1.024673,0.022797,0.007548,0.008732,63.488632,11.549316,-149.562973,,,
729715892.453818,0.229266,-2.479388,-81.628783,0.041199,-0.002106,1.024673,0.022797,0.007548,0.008732,63.488632,11.549316,-149.562973,,,
729715892.45506,0.229266,-2.479385,-84.705662,0.041199,-0.002106,1.024673,0.022797,0.007548,0.008732,63.488632,11.549316,-149.562973,,,
729715892.455318,0.235838,-2.478124,-81.623625,0.041199,-0.002106,1.024673,0.022521,0.017455,0.015333,63.488632,11.549316,-149.562973,,,
729715892.459612,0.235838,-2.478121,-84.700504,0.041199,-0.002106,1.024673,0.022521,0.017455,0.015333,63.488632,11.549316,-149.562973,,,
729715892.459836,0.235838,-2.478124,-81.623625,0.041199,-0.002106,1.024673,0.022521,0.017455,0.015333,63.488632,11.549316,-149.562973,,,
729715892.463691,0.242373,-2.473293,-84.695588,0.047928,0.001221,1.014359,0.022521,0.017455,0.015333,63.488632,11.549316,-149.562973,,,
729715892.46399,0.242373,-2.473296,-81.61871,0.047928,0.001221,1.014359,0.022521,0.017455,0.015333,63.488632,11.549316,-149.562973,,,
729715892.465001,0.242373,-2.473293,-84.695588,0.047928,0.001221,1.014359,0.022521,0.017455,0.015333,63.488632,11.549316,-149.562973,,,
729715892.465334,0.248277,-2.465148,-81.614569,0.047928,0.001221,1.014359,0.022521,0.017455,0.015333,63.488632,11.549316,-149.562973,,,
729715892.470229,0.248277,-2.465145,-84.691448,0.047928,0.001221,1.014359,0.021356,0.045366,0.00554,63.197189,11.62262,-149.729477,,,
729715892.47052,0.254871,-2.453117,-81.611766,0.051315,0.008148,1.010605,0.021356,0.045366,0.00554,63.197189,11.62262,-149.729477,,,
729715892.472217,0.254871,-2.453114,-84.688644,0.051315,0.008148,1.010605,0.021356,0.045366,0.00554,63.197189,11.62262,-149.729477,,,
729715892.472446,0.254871,-2.453117,-81.611766,0.051315,0.008148,1.010605,0.021356,0.045366,0.00554,63.197189,11.62262,-149.729477,,,
729715892.475297,0.254871,-2.453114,-84.688644,0.051315,0.008148,1.010605,0.021356,0.045366,0.00554,63.197189,11.62262,-149.729477,,,
729715892.475496,0.262526,-2.441735,-81.610651,0.051315,0.008148,1.010605,0.031225,0.033551,-0.001423,63.197189,11.62262,-149.729477,,,
729715892.480763,0.262526,-2.441732,-84.68753,0.051315,0.008148,1.010605,0.031225,0.033551,-0.001423,63.197189,11.62262,-149.729477,,,
729715892.481026,0.271623,-2.431398,-81.610917,0.049622,0.00795,1.00415,0.031225,0.033551,-0.001423,63.197189,11.62262,-149.729477,,,
729715892.482597,0.271623,-2.431395,-84.687796,0.049622,0.00795,1.00415,0.031225,0.033551,-0.001423,63.197189,11.62262,-149.729477,,,
729715892.482827,0.271623,-2.431398,-81.610917,0.049622,0.00795,1.00415,0.031225,0.033551,-0.001423,63.197189,11.62262,-149.729477,,,
729715892.485152,0.271623,-2.431395,-84.687796,0.049622,0.00795,1.00415,0.031225,0.033551,-0.001423,63.197189,11.62262,-149.729477,,,
729715892.485393,0.280766,-2.425276,-81.611487,0.049622,0.00795,1.00415,0.033524,0.0175,-0.00402,63.197189,11.62262,-149.729477,,,
729715892.489204,0.280767,-2.425273,-84.688366,0.049622,0.00795,1.00415,0.033524,0.0175,-0.00402,63.197189,11.62262,-149.729477,,,
729715892.489425,0.280766,-2.425276,-81.611487,0.049622,0.00795,1.00415,0.033524,0.0175,-0.00402,63.197189,11.62262,-149.729477,,,
729715892.493043,0.290332,-2.419743,-84.688996,0.043869,0.004593,0.990311,0.033524,0.0175,-0.00402,63.197189,11.62262,-149.729477,,,
729715892.493271,0.290331,-2.419746,-81.612118,0.043869,0.004593,0.990311,0.033524,0.0175,-0.00402,63.197189,11.62262,-149.729477,,,
729715892.495066,0.290332,-2.419743,-84.688996,0.043869,0.004593,0.990311,0.033524,0.0175,-0.00402,63.197189,11.62262,-149.729477,,,
729715892.495326,0.298396,-2.415782,-81.612843,0.043869,0.004593,0.990311,0.033524,0.0175,-0.00402,63.197189,11.62262,-149.729477,,,
729715892.499368,0.298396,-2.415779,-84.689721,0.043869,0.004593,0.990311,0.024684,0.01437,-0.001851,63.197189,11.62262,-149.729477,,,
729715892.499623,0.298396,-2.415782,-81.612843,0.043869,0.004593,0.990311,0.024684,0.01437,-0.001851,63.197189,11.62262,-149.729477,,,
729715892.502335,0.304831,-2.411753,-84.689728,0.038879,0.006454,0.986481,0.024684,0.01437,-0.001851,63.197189,11.62262,-149.729477,,,
729715892.502553,0.304831,-2.411756,-81.612849,0.038879,0.006454,0.986481,0.024684,0.01437,-0.001851,63.197189,11.62262,-149.729477,,,
729715892.5052,0.304831,-2.411753,-84.689728,0.038879,0.006454,0.986481,0.024684,0.01437,-0.001851,63.197189,11.62262,-149.729477,,,
729715892.505424,0.30885,-2.410445,-81.611767,0.038879,0.006454,0.986481,0.024684,0.01437,-0.001851,63.197189,11.62262,-149.729477,,,
729715892.511959,0.30885,-2.410442,-84.688646,0.038879,0.006454,0.986481,0.006635,-0.002198,0.003787,63.296661,11.454117,-150.019135,,,
729715892.512271,0.310613,-2.411444,-81.609914,0.040451,0.005341,0.978561,0.006635,-0.002198,0.003787,63.296661,11.454117,-150.019135,,,
729715892.516903,0.310613,-2.411441,-84.686793,0.040451,0.005341,0.978561,-0.001429,-0.010684,0.003623,63.296661,11.454117,-150.019135,,,
729715892.517163,0.31127,-2.414833,-81.607838,0.040451,0.005341,0.978561,-0.001429,-0.010684,0.003623,63.296661,11.454117,-150.019135,,,
729715892.518626,0.31127,-2.41483,-84.684717,0.040451,0.005341,0.978561,-0.001429,-0.010684,0.003623,63.296661,11.454117,-150.019135,,,
729715892.518837,0.31127,-2.414833,-81.607838,0.040451,0.005341,0.978561,-0.001429,-0.010684,0.003623,63.296661,11.454117,-150.019135,,,
729715892.522217,0.310163,-2.418248,-84.683528,0.044067,0.006378,0.978439,-0.001429,-0.010684,0.003623,63.296661,11.454117,-150.019135,,,
729715892.522446,0.310163,-2.418251,-81.606649,0.044067,0.006378,0.978439,-0.001429,-0.010684,0.003623,63.296661,11.454117,-150.019135,,,
729715892.525191,0.310163,-2.418248,-84.683528,0.044067,0.006378,0.978439,-0.001429,-0.010684,0.003623,63.296661,11.454117,-150.019135,,,
729715892.525375,0.308901,-2.421564,-81.607172,0.044067,0.006378,0.978439,-0.001429,-0.010684,0.003623,63.296661,11.454117,-150.019135,,,
729715892.529638,0.308901,-2.421561,-84.68405,0.044067,0.006378,0.978439,-0.002659,-0.005584,-0.009723,63.296661,11.454117,-150.019135,,,
729715892.529875,0.308901,-2.421564,-81.607172,0.044067,0.006378,0.978439,-0.002659,-0.005584,-0.009723,63.296661,11.454117,-150.019135,,,
729715892.532629,0.307362,-2.423782,-84.686549,0.045792,0.00296,0.985992,-0.002659,-0.005584,-0.009723,63.296661,11.454117,-150.019135,,,
729715892.53286,0.307362,-2.423785,-81.609671,0.045792,0.00296,0.985992,-0.002659,-0.005584,-0.009723,63.296661,11.454117,-150.019135,,,
729715892.535171,0.307362,-2.423782,-84.686549,0.045792,0.00296,0.985992,-0.002659,-0.005584,-0.009723,63.296661,11.454117,-150.019135,,,
729715892.535364,0.308594,-2.425156,-81.614199,0.045792,0.00296,0.985992,-0.002659,-0.005584,-0.009723,63.296661,11.454117,-150.019135,,,
729715892.541259,0.308594,-2.425153,-84.691078,0.045792,0.00296,0.985992,0.009809,0.001204,-0.025136,63.296661,11.454117,-150.019135,,,
729715892.541548,0.310843,-2.426725,-81.620236,0.047668,-0.002487,0.991028,0.009809,0.001204,-0.025136,63.296661,11.454117,-150.019135,,,
729715892.541966,0.310843,-2.426725,-81.620236,0.047668,-0.002487,0.991028,0.009809,0.001204,-0.025136,63.296661,11.454117,-150.019135,,,
729715892.546854,0.310844,-2.426722,-84.697115,0.047668,-0.002487,0.991028,0.005108,0.015348,-0.025203,63.296661,11.454117,-150.019135,,,
729715892.54711,0.31384,-2.42573,-81.626824,0.047668,-0.002487,0.991028,0.005108,0.015348,-0.025203,63.296661,11.454117,-150.019135,,,
729715892.548351,0.31384,-2.425727,-84.703703,0.047668,-0.002487,0.991028,0.005108,0.015348,-0.025203,63.296661,11.454117,-150.019135,,,
729715892.548624,0.31384,-2.42573,-81.626824,0.047668,-0.002487,0.991028,0.005108,0.015348,-0.025203,63.296661,11.454117,-150.019135,,,
729715892.553404,0.31628,-2.423345,-84.709728,0.051361,-7.6e-05,0.98764,0.005108,0.015348,-0.025203,63.404388,11.486832,-149.65126,,,
729715892.553646,0.31628,-2.423348,-81.632849,0.051361,-7.6e-05,0.98764,0.005108,0.015348,-0.025203,63.404388,11.486832,-149.65126,,,
729715892.555093,0.31628,-2.423345,-84.709728,0.051361,-7.6e-05,0.98764,0.005108,0.015348,-0.025203,63.404388,11.486832,-149.65126,,,
729715892.55533,0.315785,-2.417239,-81.63827,0.051361,-7.6e-05,0.98764,0.005108,0.015348,-0.025203,63.404388,11.486832,-149.65126,,,
729715892.560346,0.315785,-2.417236,-84.715149,0.051361,-7.6e-05,0.98764,-0.012245,0.030192,-0.015915,63.404388,11.486832,-149.65126,,,
729715892.560599,0.312443,-2.409992,-81.643148,0.049591,0.002045,0.97905,-0.012245,0.030192,-0.015915,63.404388,11.486832,-149.65126,,,
729715892.563562,0.312443,-2.409989,-84.720027,0.049591,0.002045,0.97905,-0.012245,0.030192,-0.015915,63.404388,11.486832,-149.65126,,,
729715892.563809,0.312443,-2.409992,-81.643148,0.049591,0.002045,0.97905,-0.012245,0.030192,-0.015915,63.404388,11.486832,-149.65126,,,
729715892.565025,0.312443,-2.409989,-84.720027,0.049591,0.002045,0.97905,-0.012245,0.030192,-0.015915,63.404388,11.486832,-149.65126,,,
729715892.56532,0.312443,-2.409992,-81.643148,0.049591,0.002045,0.97905,-0.012245,0.030192,-0.015915,63.404388,11.486832,-149.65126,,,
729715892.569718,0.305771,-2.401108,-84.723648,0.049591,0.002045,0.97905,-0.032811,0.036381,-0.009934,63.404388,11.486832,-149.65126,,,
729715892.569976,0.305771,-2.401111,-81.64677,0.049591,0.002045,0.97905,-0.032811,0.036381,-0.009934,63.404388,11.486832,-149.65126,,,
729715892.572794,0.296029,-2.392274,-84.726294,0.047073,0.003082,0.970856,-0.032811,0.036381,-0.009934,63.404388,11.486832,-149.65126,,,
729715892.573027,0.296029,-2.392277,-81.649416,0.047073,0.003082,0.970856,-0.032811,0.036381,-0.009934,63.404388,11.486832,-149.65126,,,
729715892.575115,0.296029,-2.392274,-84.726294,0.047073,0.003082,0.970856,-0.032811,0.036381,-0.009934,63.404388,11.486832,-149.65126,,,
729715892.575363,0.296029,-2.392277,-81.649416,0.047073,0.003082,0.970856,-0.032811,0.036381,-0.009934,63.404388,11.486832,-149.65126,,,
729715892.579778,0.284007,-2.38361,-84.729398,0.047073,0.003082,0.970856,-0.047583,0.031021,-0.015302,63.404388,11.486832,-149.65126,,,
729715892.58001,0.284007,-2.383613,-81.65252,0.047073,0.003082,0.970856,-0.047583,0.031021,-0.015302,63.404388,11.486832,-149.65126,,,
729715892.582064,0.271403,-2.375339,-84.734149,0.048401,0.003189,0.968582,-0.047583,0.031021,-0.015302,63.404388,11.486832,-149.65126,,,
729715892.582286,0.271403,-2.375342,-81.65727,0.048401,0.003189,0.968582,-0.047583,0.031021,-0.015302,63.404388,11.486832,-149.65126,,,
729715892.585187,0.271403,-2.375339,-84.734149,0.048401,0.003189,0.968582,-0.047583,0.031021,-0.015302,63.404388,11.486832,-149.65126,,,
729715892.585431,0.271403,-2.375342,-81.663935,0.048401,0.003189,0.968582,-0.047583,0.031021,-0.015302,63.404388,11.486832,-149.65126,,,
729715892.589781,0.258964,-2.367513,-84.740814,0.048401,0.003189,0.968582,-0.037698,0.029247,-0.03191,63.404388,11.486832,-149.65126,,,
729715892.590009,0.258964,-2.367516,-81.663935,0.048401,0.003189,0.968582,-0.037698,0.029247,-0.03191,63.404388,11.486832,-149.65126,,,
729715892.59353,0.248459,-2.360329,-84.749576,0.043747,0.001816,0.975891,-0.037698,0.029247,-0.03191,63.484894,11.433792,-149.618973,,,
729715892.593788,0.248459,-2.360332,-81.672697,0.043747,0.001816,0.975891,-0.037698,0.029247,-0.03191,63.484894,11.433792,-149.618973,,,
729715892.595061,0.248459,-2.360329,-84.749576,0.043747,0.001816,0.975891,-0.037698,0.029247,-0.03191,63.484894,11.433792,-149.618973,,,
729715892.595323,0.248459,-2.360332,-81.672697,0.043747,0.001816,0.975891,-0.037698,0.029247,-0.03191,63.484894,11.433792,-149.618973,,,
729715892.599694,0.241427,-2.355032,-84.759904,0.043747,0.001816,0.975891,-0.016353,0.014487,-0.04004,63.484894,11.433792,-149.618973,,,
729715892.599918,0.241427,-2.355035,-81.683025,0.043747,0.001816,0.975891,-0.016353,0.014487,-0.04004,63.484894,11.433792,-149.618973,,,
729715892.603611,0.237809,-2.352998,-84.771064,0.038055,-0.002365,0.986191,-0.016353,0.014487,-0.04004,63.484894,11.433792,-149.618973,,,
729715892.603884,0.237809,-2.353001,-81.694185,0.038055,-0.002365,0.986191,-0.016353,0.014487,-0.04004,63.484894,11.433792,-149.618973,,,
729715892.60501,0.237809,-2.352998,-84.771064,0.038055,-0.002365,0.986191,-0.016353,0.014487,-0.04004,63.484894,11.433792,-149.618973,,,
729715892.605334,0.237809,-2.353001,-81.694185,0.038055,-0.002365,0.986191,-0.016353,0.014487,-0.04004,63.484894,11.433792,-149.618973,,,
729715892.610335,0.235377,-2.353488,-84.782562,0.038055,-0.002365,0.986191,-0.006926,-0.010926,-0.040589,63.484894,11.433792,-149.618973,,,
729715892.610603,0.235377,-2.353491,-81.705683,0.034042,-0.006256,0.985001,-0.006926,-0.010926,-0.040589,63.484894,11.433792,-149.618973,,,
729715892.612936,0.233143,-2.357605,-84.79381,0.034042,-0.006256,0.985001,-0.006926,-0.010926,-0.040589,63.484894,11.433792,-149.618973,,,
729715892.613185,0.233143,-2.357608,-81.716931,0.034042,-0.006256,0.985001,-0.006926,-0.010926,-0.040589,63.484894,11.433792,-149.618973,,,
729715892.615097,0.233143,-2.357605,-84.79381,0.034042,-0.006256,0.985001,-0.006926,-0.010926,-0.040589,63.484894,11.433792,-149.618973,,,
729715892.615311,0.233143,-2.357608,-81.716931,0.034042,-0.006256,0.985001,-0.006926,-0.010926,-0.040589,63.484894,11.433792,-149.618973,,,
729715892.619082,0.230297,-2.362181,-84.804007,0.034042,-0.006256,0.985001,-0.013709,-0.013386,-0.032475,63.484894,11.433792,-149.618973,,,
729715892.619307,0.230297,-2.362184,-81.727128,0.034042,-0.006256,0.985001,-0.013709,-0.013386,-0.032475,63.484894,11.433792,-149.618973,,,
729715892.622771,0.225482,-2.367782,-84.812597,0.034317,-0.000427,0.982147,-0.013709,-0.013386,-0.032475,63.484894,11.433792,-149.618973,,,
729715892.623008,0.225482,-2.367785,-81.735719,0.034317,-0.000427,0.982147,-0.013709,-0.013386,-0.032475,63.484894,11.433792,-149.618973,,,
729715892.625082,0.225482,-2.367782,-84.812597,0.034317,-0.000427,0.982147,-0.013709,-0.013386,-0.032475,63.484894,11.433792,-149.618973,,,
729715892.625309,0.225482,-2.367785,-81.735719,0.034317,-0.000427,0.982147,-0.013709,-0.013386,-0.032475,63.484894,11.433792,-149.618973,,,
729715892.629715,0.219267,-2.371984,-84.819974,0.034317,-0.000427,0.982147,-0.030356,-0.004531,-0.020017,63.484894,11.433792,-149.618973,,,
729715892.629943,0.219267,-2.371987,-81.743096,0.034317,-0.000427,0.982147,-0.030356,-0.004531,-0.020017,63.484894,11.433792,-149.618973,,,
729715892.634339,0.21025,-2.375153,-84.825944,0.032928,0.00705,0.982788,-0.030356,-0.004531,-0.020017,63.564697,11.508423,-149.639648,,,
729715892.634628,0.21025,-2.375156,-81.749065,0.032928,0.00705,0.982788,-0.030356,-0.004531,-0.020017,63.564697,11.508423,-149.639648,,,
729715892.635079,0.21025,-2.375153,-84.825944,0.032928,0.00705,0.982788,-0.030356,-0.004531,-0.020017,63.564697,11.508423,-149.639648,,,
729715892.635317,0.21025,-2.375156,-81.749065,0.032928,0.00705,0.982788,-0.030356,-0.004531,-0.020017,63.564697,11.508423,-149.639648,,,
729715892.640549,0.199767,-2.374512,-84.831129,0.032928,0.00705,0.982788,-0.038141,0.016475,-0.015928,63.564697,11.508423,-149.639648,,,
729715892.640849,0.199767,-2.374515,-81.75878,0.03656,0.010269,0.989288,-0.038141,0.016475,-0.015928,63.564697,11.508423,-149.639648,,,
729715892.642603,0.188191,-2.371448,-84.835659,0.03656,0.010269,0.989288,-0.038141,0.016475,-0.015928,63.564697,11.508423,-149.639648,,,
729715892.642831,0.188192,-2.371451,-81.75878,0.03656,0.010269,0.989288,-0.038141,0.016475,-0.015928,63.564697,11.508423,-149.639648,,,
729715892.645191,0.188191,-2.371448,-84.835659,0.03656,0.010269,0.989288,-0.038141,0.016475,-0.015928,63.564697,11.508423,-149.639648,,,
729715892.645418,0.188192,-2.371451,-81.75878,0.03656,0.010269,0.989288,-0.038141,0.016475,-0.015928,63.564697,11.508423,-149.639648,,,
729715892.64951,0.174772,-2.365149,-84.838848,0.03656,0.010269,0.989288,-0.053341,0.028711,-0.005589,63.564697,11.508423,-149.639648,,,
729715892.649732,0.174772,-2.365152,-81.761969,0.03656,0.010269,0.989288,-0.053341,0.028711,-0.005589,63.564697,11.508423,-149.639648,,,
729715892.652621,0.15927,-2.358744,-84.840801,0.039856,0.011124,0.983185,-0.053341,0.028711,-0.005589,63.564697,11.508423,-149.639648,,,
729715892.652864,0.15927,-2.358747,-81.763922,0.039856,0.011124,0.983185,-0.053341,0.028711,-0.005589,63.564697,11.508423,-149.639648,,,
729715892.655119,0.15927,-2.358744,-84.840801,0.039856,0.011124,0.983185,-0.053341,0.028711,-0.005589,63.564697,11.508423,-149.639648,,,
729715892.655329,0.15927,-2.358747,-81.763922,0.039856,0.011124,0.983185,-0.053341,0.028711,-0.005589,63.564697,11.508423,-149.639648,,,
729715892.659771,0.141914,-2.351643,-84.841657,0.039856,0.011124,0.983185,-0.068667,0.032436,-0.000414,63.564697,11.508423,-149.639648,,,
729715892.660006,0.141914,-2.351646,-81.764779,0.039856,0.011124,0.983185,-0.068667,0.032436,-0.000414,63.564697,11.508423,-149.639648,,,
729715892.662365,0.122326,-2.344021,-84.841872,0.039978,0.012634,0.978317,-0.068667,0.032436,-0.000414,63.564697,11.508423,-149.639648,,,
729715892.662578,0.122326,-2.344024,-81.764993,0.039978,0.012634,0.978317,-0.068667,0.032436,-0.000414,63.564697,11.508423,-149.639648,,,
729715892.665164,0.122326,-2.344021,-84.841872,0.039978,0.012634,0.978317,-0.068667,0.032436,-0.000414,63.564697,11.508423,-149.639648,,,
729715892.665357,0.122326,-2.344024,-81.764993,0.039978,0.012634,0.978317,-0.068667,0.032436,-0.000414,63.564697,11.508423,-149.639648,,,
729715892.670292,0.100584,-2.335289,-84.842094,0.039978,0.012634,0.978317,-0.085057,0.032253,0.002608,63.564697,11.508423,-149.639648,,,
729715892.670607,0.100584,-2.335292,-81.765215,0.039978,0.012634,0.978317,-0.085057,0.032253,0.002608,63.564697,11.508423,-149.639648,,,
729715892.672294,0.077127,-2.32734,-84.842518,0.040878,0.014435,0.980591,-0.085057,0.032253,0.002608,63.564697,11.508423,-149.639648,,,
729715892.672521,0.077127,-2.327343,-81.765639,0.040878,0.014435,0.980591,-0.085057,0.032253,0.002608,63.564697,11.508423,-149.639648,,,
729715892.675837,0.077127,-2.32734,-84.842518,0.040878,0.014435,0.980591,-0.085057,0.032253,0.002608,63.63475,11.67244,-149.91391,,,
729715892.676062,0.051945,-2.321253,-81.766175,0.040878,0.014435,0.980591,-0.089677,0.014913,-0.003668,63.63475,11.67244,-149.91391,,,
729715892.680347,0.051945,-2.32125,-84.843054,0.040878,0.014435,0.980591,-0.089677,0.014913,-0.003668,63.63475,11.67244,-149.91391,,,
729715892.680654,0.051945,-2.321253,-81.766175,0.040878,0.014435,0.980591,-0.089677,0.014913,-0.003668,63.63475,11.67244,-149.91391,,,
729715892.682006,0.025705,-2.317826,-84.844295,0.041611,0.012268,0.979263,-0.089677,0.014913,-0.003668,63.63475,11.67244,-149.91391,,,
729715892.682211,0.025705,-2.317829,-81.767416,0.041611,0.012268,0.979263,-0.089677,0.014913,-0.003668,63.63475,11.67244,-149.91391,,,
729715892.685197,0.025705,-2.317826,-84.844295,0.041611,0.012268,0.979263,-0.089677,0.014913,-0.003668,63.63475,11.67244,-149.91391,,,
729715892.685394,0.025705,-2.317829,-81.767416,0.041611,0.012268,0.979263,-0.089677,0.014913,-0.003668,63.63475,11.67244,-149.91391,,,
729715892.690629,0.000987,-2.317511,-84.847314,0.041611,0.012268,0.979263,-0.079869,-0.004792,-0.015956,63.63475,11.67244,-149.91391,,,
729715892.690887,-0.022249,-2.319166,-81.775629,0.041992,0.007034,0.98558,-0.079869,-0.004792,-0.015956,63.63475,11.67244,-149.91391,,,
729715892.692194,-0.022249,-2.319163,-84.852508,0.041992,0.007034,0.98558,-0.079869,-0.004792,-0.015956,63.63475,11.67244,-149.91391,,,
729715892.692412,-0.022249,-2.319166,-81.775629,0.041992,0.007034,0.98558,-0.079869,-0.004792,-0.015956,63.63475,11.67244,-149.91391,,,
729715892.695214,-0.022249,-2.319163,-84.852508,0.041992,0.007034,0.98558,-0.079869,-0.004792,-0.015956,63.63475,11.67244,-149.91391,,,
