Time (sec),Pitch (deg),Roll (deg),Yaw(deg),X-Acceleration (g),Y-Acceleration (g),Z-Acceleration (g),Pitch Rate (deg/sec),Roll Rate (deg/sec),Yaw Rate (deg/sec),Magnetic Field in X direction (uT),Magnetic Field in Y direction (uT),Magnetic Field in Z Direction (uT),Latitude (deg),Longitude (deg),Altitude (m)
729706166.462119,-6.126281,1.366253,165.4814,-0.020523,-0.105453,0.990051,-0.069157,0.011473,-0.017099,87.685196,17.513596,-146.890793,,,
729706166.46552,-6.126281,1.366253,165.4814,-0.020523,-0.105453,0.990051,-0.069157,0.011473,-0.017099,87.685196,17.513596,-146.890793,,,
729706166.468793,-6.145414,1.366205,165.477587,-0.020523,-0.105453,0.990051,-0.069157,0.011473,-0.017099,87.685196,17.513596,-146.890793,,,
729706166.472118,-6.166353,1.365838,165.47413,-0.020355,-0.108521,0.988007,-0.073142,0.000826,-0.015571,87.685196,17.513596,-146.890793,,,
729706166.475465,-6.166353,1.365838,165.47413,-0.020355,-0.108521,0.988007,-0.073142,0.000826,-0.015571,87.685196,17.513596,-146.890793,,,
729706166.478854,-6.186872,1.363465,165.470451,-0.020355,-0.108521,0.988007,-0.073142,0.000826,-0.015571,87.685196,17.513596,-146.890793,,,
729706166.482104,-6.210345,1.360483,165.466955,-0.022339,-0.1082,0.982864,-0.08373,-0.010649,-0.015346,87.685196,17.513596,-146.890793,,,
729706166.485461,-6.210345,1.360483,165.466955,-0.022339,-0.1082,0.982864,-0.08373,-0.010649,-0.015346,87.685196,17.513596,-146.890793,,,
729706166.488794,-6.234234,1.353372,165.463487,-0.022339,-0.1082,0.982864,-0.08373,-0.010649,-0.015346,87.685196,17.513596,-146.890793,,,
729706166.49211,-6.262685,1.341529,165.459337,-0.021713,-0.102264,0.971741,-0.104996,-0.04862,-0.021078,87.685196,17.513596,-146.890793,,,
729706166.495456,-6.262685,1.341529,165.459337,-0.021713,-0.102264,0.971741,-0.104996,-0.04862,-0.021078,87.685196,17.513596,-146.890793,,,
729706166.498809,-6.294006,1.322841,165.454142,-0.021713,-0.102264,0.971741,-0.104996,-0.04862,-0.021078,87.795715,17.729263,-146.805832,,,
729706166.502108,-6.331099,1.301132,165.44853,-0.024139,-0.100006,0.963226,-0.137246,-0.073337,-0.025098,87.795715,17.729263,-146.805832,,,
729706166.505531,-6.331099,1.301132,165.44853,-0.024139,-0.100006,0.963226,-0.137246,-0.073337,-0.025098,87.795715,17.729263,-146.805832,,,
729706166.508792,-6.372863,1.278214,165.441509,-0.024139,-0.100006,0.963226,-0.137246,-0.073337,-0.025098,87.795715,17.729263,-146.805832,,,
729706166.512116,-6.420132,1.255537,165.433146,-0.021317,-0.101746,0.97197,-0.170852,-0.072449,-0.035193,87.795715,17.729263,-146.805832,,,
729706166.515539,-6.420132,1.255537,165.433146,-0.021317,-0.101746,0.97197,-0.170852,-0.072449,-0.035193,87.795715,17.729263,-146.805832,,,
729706166.518856,-6.469949,1.233215,165.424464,-0.021317,-0.101746,0.97197,-0.170852,-0.072449,-0.035193,87.795715,17.729263,-146.805832,,,
729706166.522117,-6.521395,1.213851,165.415958,-0.016541,-0.10878,0.982742,-0.177207,-0.053348,-0.034159,87.795715,17.729263,-146.805832,,,
729706166.525465,-6.521395,1.213851,165.415958,-0.016541,-0.10878,0.982742,-0.177207,-0.053348,-0.034159,87.795715,17.729263,-146.805832,,,
729706166.528803,-6.571802,1.199722,165.4074,-0.016541,-0.10878,0.982742,-0.177207,-0.053348,-0.034159,87.795715,17.729263,-146.805832,,,
729706166.532114,-6.623804,1.191659,165.399399,-0.014099,-0.116211,0.998138,-0.180866,-0.011805,-0.030364,87.795715,17.729263,-146.805832,,,
729706166.535441,-6.623804,1.191659,165.399399,-0.014099,-0.116211,0.998138,-0.180866,-0.011805,-0.030364,87.795715,17.729263,-146.805832,,,
729706166.53879,-6.674492,1.189017,165.392534,-0.014099,-0.116211,0.998138,-0.180866,-0.011805,-0.030364,87.79689,18.049591,-146.907059,,,
729706166.542117,-6.726952,1.191214,165.386985,-0.012817,-0.115845,0.999817,-0.185647,0.020192,-0.021422,87.79689,18.049591,-146.907059,,,
729706166.545513,-6.726952,1.191214,165.386985,-0.012817,-0.115845,0.999817,-0.185647,0.020192,-0.021422,87.79689,18.049591,-146.907059,,,
729706166.548792,-6.780894,1.195791,165.382849,-0.012817,-0.115845,0.999817,-0.185647,0.020192,-0.021422,87.79689,18.049591,-146.907059,,,
729706166.552214,-6.839732,1.199498,165.379448,-0.017365,-0.117401,0.977264,-0.210882,0.013585,-0.016917,87.79689,18.049591,-146.907059,,,
729706166.555462,-6.839732,1.199498,165.379448,-0.017365,-0.117401,0.977264,-0.210882,0.013585,-0.016917,87.79689,18.049591,-146.907059,,,
729706166.558841,-6.901072,1.201614,165.376947,-0.017365,-0.117401,0.977264,-0.210882,0.013585,-0.016917,87.79689,18.049591,-146.907059,,,
729706166.562107,-6.966507,1.202152,165.375341,-0.021133,-0.116913,0.972977,-0.232464,0.001892,-0.011212,87.79689,18.049591,-146.907059,,,
729706166.565471,-6.966507,1.202152,165.375341,-0.021133,-0.116913,0.972977,-0.232464,0.001892,-0.011212,87.79689,18.049591,-146.907059,,,
729706166.568797,-7.032493,1.200002,165.373897,-0.021133,-0.116913,0.972977,-0.232464,0.001892,-0.011212,87.79689,18.049591,-146.907059,,,
729706166.572111,-7.102582,1.194201,165.371794,-0.021957,-0.118637,0.969452,-0.249385,-0.022298,-0.015972,87.79689,18.049591,-146.907059,,,
729706166.575471,-7.102582,1.194201,165.371794,-0.021957,-0.118637,0.969452,-0.249385,-0.022298,-0.015972,87.79689,18.049591,-146.907059,,,
729706166.578777,-7.172857,1.185425,165.368874,-0.021957,-0.118637,0.969452,-0.249385,-0.022298,-0.015972,87.79689,18.049591,-146.907059,,,
729706166.582115,-7.245671,1.172949,165.365469,-0.01857,-0.125488,0.971695,-0.252174,-0.044812,-0.018938,87.802094,18.261795,-146.843445,,,
729706166.58544,-7.245671,1.172949,165.365469,-0.01857,-0.125488,0.971695,-0.252174,-0.044812,-0.018938,87.802094,18.261795,-146.843445,,,
729706166.588796,-7.313843,1.158208,165.361254,-0.01857,-0.125488,0.971695,-0.252174,-0.044812,-0.018938,87.802094,18.261795,-146.843445,,,
729706166.592111,-7.380411,1.142436,165.356375,-0.019867,-0.134766,0.987183,-0.22405,-0.047829,-0.022374,87.802094,18.261795,-146.843445,,,
729706166.595469,-7.380411,1.142436,165.356375,-0.019867,-0.134766,0.987183,-0.22405,-0.047829,-0.022374,87.802094,18.261795,-146.843445,,,
729706166.598775,-7.439367,1.12886,165.351589,-0.019867,-0.134766,0.987183,-0.22405,-0.047829,-0.022374,87.802094,18.261795,-146.843445,,,
729706166.60211,-7.494035,1.119541,165.347143,-0.016541,-0.14093,1.010178,-0.176433,-0.01942,-0.019134,87.802094,18.261795,-146.843445,,,
729706166.605451,-7.494035,1.119541,165.347143,-0.016541,-0.14093,1.010178,-0.176433,-0.01942,-0.019134,87.802094,18.261795,-146.843445,,,
729706166.608815,-7.539369,1.114102,165.34333,-0.016541,-0.14093,1.010178,-0.176433,-0.01942,-0.019134,87.802094,18.261795,-146.843445,,,
729706166.612116,-7.58086,1.112861,165.340627,-0.01358,-0.145309,1.018021,-0.134515,0.004844,-0.011133,87.802094,18.261795,-146.843445,,,
729706166.615463,-7.58086,1.112861,165.340627,-0.01358,-0.145309,1.018021,-0.134515,0.004844,-0.011133,87.802094,18.261795,-146.843445,,,
729706166.618789,-7.615177,1.114928,165.339204,-0.01358,-0.145309,1.018021,-0.134515,0.004844,-0.011133,87.802094,18.261795,-146.843445,,,
729706166.622121,-7.647953,1.122143,165.338975,-0.011978,-0.143951,1.018143,-0.108475,0.032705,-0.003316,87.583755,18.512024,-146.753357,,,
729706166.625462,-7.647953,1.122143,165.338975,-0.011978,-0.143951,1.018143,-0.108475,0.032705,-0.003316,87.583755,18.512024,-146.753357,,,
729706166.628786,-7.675405,1.132065,165.339175,-0.011978,-0.143951,1.018143,-0.108475,0.032705,-0.003316,87.583755,18.512024,-146.753357,,,
729706166.632115,-7.702861,1.145314,165.339979,-0.016006,-0.142685,1.013382,-0.093006,0.051501,0.0006,87.583755,18.512024,-146.753357,,,
729706166.635509,-7.702861,1.145314,165.339979,-0.016006,-0.142685,1.013382,-0.093006,0.051501,0.0006,87.583755,18.512024,-146.753357,,,
729706166.638785,-7.727246,1.159979,165.341283,-0.016006,-0.142685,1.013382,-0.093006,0.051501,0.0006,87.583755,18.512024,-146.753357,,,
729706166.642116,-7.752637,1.17484,165.343092,-0.023453,-0.143219,1.005203,-0.087786,0.052163,0.004082,87.583755,18.512024,-146.753357,,,
729706166.645456,-7.752637,1.17484,165.343092,-0.023453,-0.143219,1.005203,-0.087786,0.052163,0.004082,87.583755,18.512024,-146.753357,,,
729706166.648874,-7.775278,1.188658,165.345657,-0.023453,-0.143219,1.005203,-0.087786,0.052163,0.004082,87.583755,18.512024,-146.753357,,,
729706166.65211,-7.799847,1.199722,165.348772,-0.029099,-0.146408,0.996002,-0.086487,0.035089,0.008217,87.583755,18.512024,-146.753357,,,
729706166.655457,-7.799847,1.199722,165.348772,-0.029099,-0.146408,0.996002,-0.086487,0.035089,0.008217,87.583755,18.512024,-146.753357,,,
729706166.658811,-7.822443,1.207883,165.352234,-0.029099,-0.146408,0.996002,-0.086487,0.035089,0.008217,87.583755,18.512024,-146.753357,,,
729706166.662121,-7.846195,1.212974,165.355959,-0.03064,-0.143799,0.990692,-0.084368,0.01333,0.01009,87.720093,18.966507,-146.846497,,,
729706166.665477,-7.846195,1.212974,165.355959,-0.03064,-0.143799,0.990692,-0.084368,0.01333,0.01009,87.720093,18.966507,-146.846497,,,
729706166.668807,-7.870148,1.214393,165.360039,-0.03064,-0.143799,0.990692,-0.084368,0.01333,0.01009,87.720093,18.966507,-146.846497,,,
729706166.672116,-7.895655,1.212637,165.36414,-0.028412,-0.140686,0.984634,-0.091126,-0.00989,0.00989,87.720093,18.966507,-146.846497,,,
729706166.675513,-7.895655,1.212637,165.36414,-0.028412,-0.140686,0.984634,-0.091126,-0.00989,0.00989,87.720093,18.966507,-146.846497,,,
729706166.678782,-7.922815,1.207622,165.368023,-0.028412,-0.140686,0.984634,-0.091126,-0.00989,0.00989,87.720093,18.966507,-146.846497,,,
729706166.682118,-7.952631,1.200594,165.371919,-0.031082,-0.1371,0.979828,-0.108932,-0.026671,0.009236,87.720093,18.966507,-146.846497,,,
729706166.685445,-7.952631,1.200594,165.371919,-0.031082,-0.1371,0.979828,-0.108932,-0.026671,0.009236,87.720093,18.966507,-146.846497,,,
729706166.688863,-7.985603,1.190446,165.375363,-0.031082,-0.1371,0.979828,-0.108932,-0.026671,0.009236,87.720093,18.966507,-146.846497,,,
729706166.692106,-8.02171,1.17907,165.379037,-0.030441,-0.138107,0.974457,-0.132771,-0.04082,0.009617,87.720093,18.966507,-146.846497,,,
729706166.695468,-8.02171,1.17907,165.379037,-0.030441,-0.138107,0.974457,-0.132771,-0.04082,0.009617,87.720093,18.966507,-146.846497,,,
729706166.698797,-8.062004,1.165886,165.383277,-0.030441,-0.138107,0.974457,-0.132771,-0.04082,0.009617,87.720093,18.966507,-146.846497,,,
729706166.702114,-8.106119,1.15351,165.38855,-0.032135,-0.141006,0.972595,-0.161266,-0.044218,0.015136,87.627716,19.272446,-146.435471,,,
729706166.705466,-8.106119,1.15351,165.38855,-0.032135,-0.141006,0.972595,-0.161266,-0.044218,0.015136,87.627716,19.272446,-146.435471,,,
729706166.708794,-8.154576,1.139648,165.394586,-0.032135,-0.141006,0.972595,-0.161266,-0.044218,0.015136,87.627716,19.272446,-146.435471,,,
729706166.71211,-8.206908,1.125695,165.401249,-0.031265,-0.143707,0.967148,-0.187454,-0.051981,0.01813,87.627716,19.272446,-146.435471,,,
729706166.715509,-8.206908,1.125695,165.401249,-0.031265,-0.143707,0.967148,-0.187454,-0.051981,0.01813,87.627716,19.272446,-146.435471,,,
729706166.718785,-8.261014,1.110762,165.408906,-0.031265,-0.143707,0.967148,-0.187454,-0.051981,0.01813,87.627716,19.272446,-146.435471,,,
729706166.722127,-8.31688,1.095629,165.417374,-0.028702,-0.147568,0.971817,-0.197008,-0.054472,0.023637,87.627716,19.272446,-146.435471,,,
729706166.725444,-8.31688,1.095629,165.417374,-0.028702,-0.147568,0.971817,-0.197008,-0.054472,0.023637,87.627716,19.272446,-146.435471,,,
729706166.728848,-8.3741,1.0812,165.426293,-0.028702,-0.147568,0.971817,-0.197008,-0.054472,0.023637,87.627716,19.272446,-146.435471,,,
729706166.732105,-8.432114,1.065658,165.435173,-0.024155,-0.147324,0.975342,-0.20244,-0.055159,0.024422,87.627716,19.272446,-146.435471,,,
729706166.735469,-8.432114,1.065658,165.435173,-0.024155,-0.147324,0.975342,-0.20244,-0.055159,0.024422,87.627716,19.272446,-146.435471,,,
729706166.738793,-8.489313,1.051488,165.444124,-0.024155,-0.147324,0.975342,-0.20244,-0.055159,0.024422,87.627716,19.272446,-146.435471,,,
729706166.742112,-8.545643,1.035618,165.452478,-0.021439,-0.150742,0.976028,-0.195382,-0.055991,0.022064,87.677917,19.364685,-146.688797,,,
729706166.745456,-8.545643,1.035618,165.452478,-0.021439,-0.150742,0.976028,-0.195382,-0.055991,0.022064,87.677917,19.364685,-146.688797,,,
729706166.748799,-8.601318,1.021629,165.460387,-0.021439,-0.150742,0.976028,-0.195382,-0.055991,0.022064,87.677917,19.364685,-146.688797,,,
729706166.752116,-8.658773,1.00659,165.467645,-0.019821,-0.15065,0.974243,-0.201864,-0.051272,0.019295,87.677917,19.364685,-146.688797,,,
729706166.755497,-8.658773,1.00659,165.467645,-0.019821,-0.15065,0.974243,-0.201864,-0.051272,0.019295,87.677917,19.364685,-146.688797,,,
729706166.758777,-8.716172,0.993505,165.47471,-0.019821,-0.15065,0.974243,-0.201864,-0.051272,0.019295,87.677917,19.364685,-146.688797,,,
729706166.762115,-8.777198,0.978576,165.480635,-0.018158,-0.147583,0.967468,-0.217423,-0.051711,0.012994,87.677917,19.364685,-146.688797,,,
729706166.765456,-8.777198,0.978576,165.480635,-0.018158,-0.147583,0.967468,-0.217423,-0.051711,0.012994,87.677917,19.364685,-146.688797,,,
729706166.768865,-8.840506,0.965466,165.486442,-0.018158,-0.147583,0.967468,-0.217423,-0.051711,0.012994,87.677917,19.364685,-146.688797,,,
729706166.772107,-8.9111,0.949921,165.49211,-0.023956,-0.147049,0.959274,-0.255563,-0.054373,0.013707,87.677917,19.364685,-146.688797,,,
729706166.775459,-8.9111,0.949921,165.49211,-0.023956,-0.147049,0.959274,-0.255563,-0.054373,0.013707,87.677917,19.364685,-146.688797,,,
729706166.778796,-8.986698,0.935665,165.498032,-0.023956,-0.147049,0.959274,-0.255563,-0.054373,0.013707,87.677917,19.364685,-146.688797,,,
729706166.782115,-9.071658,0.918523,165.503932,-0.022919,-0.145767,0.95105,-0.308632,-0.060124,0.015101,87.677917,19.364685,-146.688797,,,
729706166.785474,-9.071658,0.918523,165.503932,-0.022919,-0.145767,0.95105,-0.308632,-0.060124,0.015101,87.49263,20.020386,-147.155624,,,
729706166.78881,-9.162559,0.903105,165.510905,-0.022919,-0.145767,0.95105,-0.308632,-0.060124,0.015101,87.49263,20.020386,-147.155624,,,
729706166.792122,-9.261409,0.885679,165.51793,-0.0271,-0.148926,0.949997,-0.354342,-0.062109,0.016829,87.49263,20.020386,-147.155624,,,
729706166.795518,-9.261409,0.885679,165.51793,-0.0271,-0.148926,0.949997,-0.354342,-0.062109,0.016829,87.49263,20.020386,-147.155624,,,
729706166.798798,-9.36646,0.869913,165.525799,-0.0271,-0.148926,0.949997,-0.354342,-0.062109,0.016829,87.49263,20.020386,-147.155624,,,
729706166.802161,-9.480582,0.853765,165.534572,-0.027847,-0.1539,0.949982,-0.411101,-0.057457,0.023809,87.49263,20.020386,-147.155624,,,
729706166.80546,-9.480582,0.853765,165.534572,-0.027847,-0.1539,0.949982,-0.411101,-0.057457,0.023809,87.49263,20.020386,-147.155624,,,
729706166.808888,-9.602765,0.837968,165.544448,-0.027847,-0.1539,0.949982,-0.411101,-0.057457,0.023809,87.49263,20.020386,-147.155624,,,
729706166.812112,-9.735085,0.819789,165.555235,-0.027695,-0.157898,0.941605,-0.475141,-0.070035,0.030251,87.49263,20.020386,-147.155624,,,
729706166.815472,-9.735085,0.819789,165.555235,-0.027695,-0.157898,0.941605,-0.475141,-0.070035,0.030251,87.49263,20.020386,-147.155624,,,
729706166.818806,-9.874717,0.799842,165.567186,-0.027695,-0.157898,0.941605,-0.475141,-0.070035,0.030251,87.49263,20.020386,-147.155624,,,
729706166.822121,-10.023771,0.776904,165.580307,-0.027161,-0.161224,0.936172,-0.534142,-0.089496,0.038281,87.49263,20.020386,-147.155624,,,
729706166.825453,-10.023771,0.776904,165.580307,-0.027161,-0.161224,0.936172,-0.534142,-0.089496,0.038281,87.025787,21.049667,-146.848358,,,
729706166.828803,-10.179945,0.751778,165.594769,-0.027161,-0.161224,0.936172,-0.534142,-0.089496,0.038281,87.025787,21.049667,-146.848358,,,
729706166.832119,-10.343824,0.723938,165.610468,-0.024948,-0.167313,0.933823,-0.581731,-0.107784,0.047033,87.025787,21.049667,-146.848358,,,
729706166.835519,-10.343824,0.723938,165.610468,-0.024948,-0.167313,0.933823,-0.581731,-0.107784,0.047033,87.025787,21.049667,-146.848358,,,
729706166.83885,-10.511786,0.69334,165.627417,-0.024948,-0.167313,0.933823,-0.581731,-0.107784,0.047033,87.025787,21.049667,-146.848358,,,
729706166.842104,-10.680313,0.660209,165.645215,-0.023468,-0.181046,0.944504,-0.585438,-0.126816,0.053344,87.025787,21.049667,-146.848358,,,
729706166.845457,-10.680313,0.660209,165.645215,-0.023468,-0.181046,0.944504,-0.585438,-0.126816,0.053344,87.025787,21.049667,-146.848358,,,
729706166.848834,-10.845613,0.626126,165.663428,-0.023468,-0.181046,0.944504,-0.585438,-0.126816,0.053344,87.025787,21.049667,-146.848358,,,
729706166.852108,-11.004878,0.592817,165.682199,-0.017441,-0.196014,0.972031,-0.54314,-0.122477,0.05822,87.025787,21.049667,-146.848358,,,
729706166.855445,-11.004878,0.592817,165.682199,-0.017441,-0.196014,0.972031,-0.54314,-0.122477,0.05822,87.025787,21.049667,-146.848358,,,
729706166.858782,-11.156289,0.560934,165.701785,-0.017441,-0.196014,0.972031,-0.54314,-0.122477,0.05822,87.025787,21.049667,-146.848358,,,
729706166.862117,-11.297261,0.530685,165.721968,-0.012054,-0.207138,0.990295,-0.470196,-0.11221,0.0635,87.025787,21.049667,-146.848358,,,
729706166.865444,-11.297261,0.530685,165.721968,-0.012054,-0.207138,0.990295,-0.470196,-0.11221,0.0635,87.11763,21.984802,-147.202682,,,
729706166.86879,-11.42529,0.502793,165.742945,-0.012054,-0.207138,0.990295,-0.470196,-0.11221,0.0635,87.11763,21.984802,-147.202682,,,
729706166.872197,-11.540974,0.477788,165.764249,-0.003052,-0.212021,1.006653,-0.383972,-0.092808,0.066789,87.11763,21.984802,-147.202682,,,
729706166.875438,-11.540974,0.477788,165.764249,-0.003052,-0.212021,1.006653,-0.383972,-0.092808,0.066789,87.11763,21.984802,-147.202682,,,
729706166.878804,-11.645683,0.456495,165.784726,-0.003052,-0.212021,1.006653,-0.383972,-0.092808,0.066789,87.11763,21.984802,-147.202682,,,
729706166.882118,-11.740712,0.4396,165.80395,0.00563,-0.208984,1.014511,-0.316291,-0.060614,0.058931,87.11763,21.984802,-147.202682,,,
729706166.885538,-11.740712,0.4396,165.80395,0.00563,-0.208984,1.014511,-0.316291,-0.060614,0.058931,87.11763,21.984802,-147.202682,,,
729706166.888794,-11.827522,0.427052,165.82135,0.00563,-0.208984,1.014511,-0.316291,-0.060614,0.058931,87.11763,21.984802,-147.202682,,,
729706166.892118,-11.907441,0.418274,165.836899,0.00473,-0.206894,1.009171,-0.268069,-0.031869,0.046757,87.11763,21.984802,-147.202682,,,
729706166.895471,-11.907441,0.418274,165.836899,0.00473,-0.206894,1.009171,-0.268069,-0.031869,0.046757,87.11763,21.984802,-147.202682,,,
729706166.89882,-11.98256,0.413013,165.850813,0.00473,-0.206894,1.009171,-0.268069,-0.031869,0.046757,87.11763,21.984802,-147.202682,,,
729706166.902134,-12.055325,0.410784,165.863647,-0.002319,-0.21254,0.999237,-0.251534,-0.009295,0.039523,87.11763,21.984802,-147.202682,,,
729706166.905463,-12.055325,0.410784,165.863647,-0.002319,-0.21254,0.999237,-0.251534,-0.009295,0.039523,87.11763,21.984802,-147.202682,,,
729706166.908784,-12.12716,0.409866,165.875682,-0.002319,-0.21254,0.999237,-0.251534,-0.009295,0.039523,86.916519,22.514252,-147.170013,,,
729706166.912171,-12.198685,0.409278,165.887075,-0.006134,-0.215134,0.984161,-0.24925,-0.006159,0.03516,86.916519,22.514252,-147.170013,,,
729706166.915502,-12.198685,0.409278,165.887075,-0.006134,-0.215134,0.984161,-0.24925,-0.006159,0.03516,86.916519,22.514252,-147.170013,,,
729706166.918813,-12.271518,0.408686,165.89851,-0.006134,-0.215134,0.984161,-0.24925,-0.006159,0.03516,86.916519,22.514252,-147.170013,,,
729706166.922117,-12.347115,0.407354,165.910269,-0.010406,-0.213028,0.977966,-0.268435,-0.011927,0.037252,86.916519,22.514252,-147.170013,,,
729706166.92547,-12.347115,0.407354,165.910269,-0.010406,-0.213028,0.977966,-0.268435,-0.011927,0.037252,86.916519,22.514252,-147.170013,,,
729706166.928799,-12.426288,0.404722,165.922656,-0.010406,-0.213028,0.977966,-0.268435,-0.011927,0.037252,86.916519,22.514252,-147.170013,,,
729706166.932112,-12.509738,0.399898,165.936501,-0.016098,-0.214661,0.963821,-0.298193,-0.029522,0.046939,86.916519,22.514252,-147.170013,,,
729706166.935505,-12.509738,0.399898,165.936501,-0.016098,-0.214661,0.963821,-0.298193,-0.029522,0.046939,86.916519,22.514252,-147.170013,,,
729706166.938808,-12.597711,0.392492,165.951476,-0.016098,-0.214661,0.963821,-0.298193,-0.029522,0.046939,86.916519,22.514252,-147.170013,,,
729706166.942123,-12.689979,0.382285,165.966446,-0.01619,-0.214966,0.957809,-0.328231,-0.049213,0.046801,86.916519,22.514252,-147.170013,,,
729706166.94545,-12.689979,0.382285,165.966446,-0.01619,-0.214966,0.957809,-0.328231,-0.049213,0.046801,86.916519,22.514252,-147.170013,,,
729706166.94889,-12.786828,0.369403,165.981419,-0.01619,-0.214966,0.957809,-0.328231,-0.049213,0.046801,86.764999,23.447769,-147.056976,,,
729706166.952117,-12.888285,0.354438,165.996317,-0.013458,-0.221329,0.952911,-0.360433,-0.063817,0.046228,86.764999,23.447769,-147.056976,,,
729706166.955467,-12.888285,0.354438,165.996317,-0.013458,-0.221329,0.952911,-0.360433,-0.063817,0.046228,86.764999,23.447769,-147.056976,,,
729706166.95879,-12.991836,0.337139,166.010599,-0.013458,-0.221329,0.952911,-0.360433,-0.063817,0.046228,86.764999,23.447769,-147.056976,,,
729706166.962123,-13.093436,0.317292,166.023952,-0.008728,-0.229828,0.96199,-0.346918,-0.080329,0.040196,86.764999,23.447769,-147.056976,,,
729706166.965458,-13.093436,0.317292,166.023952,-0.008728,-0.229828,0.96199,-0.346918,-0.080329,0.040196,86.764999,23.447769,-147.056976,,,
729706166.968798,-13.18999,0.295608,166.036037,-0.008728,-0.229828,0.96199,-0.346918,-0.080329,0.040196,86.764999,23.447769,-147.056976,,,
729706166.972121,-13.279994,0.273892,166.046769,-0.002563,-0.236526,0.99115,-0.30136,-0.078572,0.03148,86.764999,23.447769,-147.056976,,,
729706166.975515,-13.279994,0.273892,166.046769,-0.002563,-0.236526,0.99115,-0.30136,-0.078572,0.03148,86.764999,23.447769,-147.056976,,,
729706166.978789,-13.363985,0.252712,166.056419,-0.002563,-0.236526,0.99115,-0.30136,-0.078572,0.03148,86.764999,23.447769,-147.056976,,,
729706166.982121,-13.442073,0.230391,166.065145,0.002701,-0.23877,0.992126,-0.260305,-0.085164,0.025619,86.764999,23.447769,-147.056976,,,
729706166.985461,-13.442073,0.230391,166.065145,0.002701,-0.23877,0.992126,-0.260305,-0.085164,0.025619,86.764999,23.447769,-147.056976,,,
729706166.988793,-13.514109,0.206033,166.07326,0.002701,-0.23877,0.992126,-0.260305,-0.085164,0.025619,86.564514,23.851852,-147.092575,,,
729706166.992117,-13.581085,0.179815,166.081103,0.003815,-0.24118,0.983368,-0.225123,-0.097792,0.024106,86.564514,23.851852,-147.092575,,,
729706166.995467,-13.581085,0.179815,166.081103,0.003815,-0.24118,0.983368,-0.225123,-0.097792,0.024106,86.564514,23.851852,-147.092575,,,
729706166.998799,-13.643956,0.152271,166.088344,0.003815,-0.24118,0.983368,-0.225123,-0.097792,0.024106,86.564514,23.851852,-147.092575,,,
729706167.002121,-13.703991,0.124714,166.094985,0.002029,-0.242203,0.984146,-0.205463,-0.097013,0.020327,86.564514,23.851852,-147.092575,,,
729706167.005463,-13.703991,0.124714,166.094985,0.002029,-0.242203,0.984146,-0.205463,-0.097013,0.020327,86.564514,23.851852,-147.092575,,,
729706167.008803,-13.762193,0.098305,166.101517,0.002029,-0.242203,0.984146,-0.205463,-0.097013,0.020327,86.564514,23.851852,-147.092575,,,
729706167.012117,-13.819192,0.073803,166.107831,-0.001999,-0.241852,0.98526,-0.197151,-0.083455,0.019035,86.564514,23.851852,-147.092575,,,
729706167.015537,-13.819192,0.073803,166.107831,-0.001999,-0.241852,0.98526,-0.197151,-0.083455,0.019035,86.564514,23.851852,-147.092575,,,
729706167.018793,-13.875495,0.051242,166.113872,-0.001999,-0.241852,0.98526,-0.197151,-0.083455,0.019035,86.564514,23.851852,-147.092575,,,
729706167.022114,-13.931769,0.030582,166.120246,-0.005249,-0.245331,0.984863,-0.197026,-0.070855,0.021426,86.564514,23.851852,-147.092575,,,
729706167.025499,-13.931769,0.030582,166.120246,-0.005249,-0.245331,0.984863,-0.197026,-0.070855,0.021426,86.564514,23.851852,-147.092575,,,
729706167.028779,-13.988947,0.0121,166.127712,-0.005249,-0.245331,0.984863,-0.197026,-0.070855,0.021426,86.256104,24.121628,-147.27623,,,
729706167.032118,-14.048029,-0.004968,166.13676,-0.008789,-0.247498,0.975143,-0.210318,-0.063756,0.032186,86.256104,24.121628,-147.27623,,,
729706167.035459,-14.048029,-0.004968,166.13676,-0.008789,-0.247498,0.975143,-0.210318,-0.063756,0.032186,86.256104,24.121628,-147.27623,,,
729706167.038782,-14.109573,-0.021734,166.147611,-0.008789,-0.247498,0.975143,-0.210318,-0.063756,0.032186,86.256104,24.121628,-147.27623,,,
729706167.042113,-14.173486,-0.039619,166.159957,-0.007477,-0.243546,0.963638,-0.226894,-0.074217,0.042413,86.256104,24.121628,-147.27623,,,
729706167.045481,-14.173486,-0.039619,166.159957,-0.007477,-0.243546,0.963638,-0.226894,-0.074217,0.042413,86.256104,24.121628,-147.27623,,,
729706167.0488,-14.241248,-0.059401,166.172876,-0.007477,-0.243546,0.963638,-0.226894,-0.074217,0.042413,86.256104,24.121628,-147.27623,,,
729706167.052113,-14.314115,-0.08043,166.18544,-0.003464,-0.239868,0.953781,-0.262518,-0.082448,0.040225,86.256104,24.121628,-147.27623,,,
729706167.055506,-14.314115,-0.08043,166.18544,-0.003464,-0.239868,0.953781,-0.262518,-0.082448,0.040225,86.256104,24.121628,-147.27623,,,
729706167.058788,-14.392384,-0.10361,166.197133,-0.003464,-0.239868,0.953781,-0.262518,-0.082448,0.040225,86.256104,24.121628,-147.27623,,,
729706167.062115,-14.476526,-0.129216,166.206972,-0.001007,-0.238037,0.947388,-0.303552,-0.096292,0.028029,86.256104,24.121628,-147.27623,,,
729706167.065452,-14.476526,-0.129216,166.206972,-0.001007,-0.238037,0.947388,-0.303552,-0.096292,0.028029,86.256104,24.121628,-147.27623,,,
729706167.06889,-14.566978,-0.156794,166.214342,-0.001007,-0.238037,0.947388,-0.303552,-0.096292,0.028029,86.256104,24.121628,-147.27623,,,
729706167.072112,-14.664202,-0.187554,166.219227,0.000595,-0.235428,0.942291,-0.350898,-0.114225,0.011722,86.081635,24.658524,-147.257141,,,
729706167.075459,-14.664202,-0.187554,166.219227,0.000595,-0.235428,0.942291,-0.350898,-0.114225,0.011722,86.081635,24.658524,-147.257141,,,
729706167.078807,-14.767783,-0.221932,166.222117,0.000595,-0.235428,0.942291,-0.350898,-0.114225,0.011722,86.081635,24.658524,-147.257141,,,
729706167.082113,-14.875244,-0.258748,166.22393,0.000122,-0.24556,0.941895,-0.378148,-0.129396,0.005055,86.081635,24.658524,-147.257141,,,
729706167.085466,-14.875244,-0.258748,166.22393,0.000122,-0.24556,0.941895,-0.378148,-0.129396,0.005055,86.081635,24.658524,-147.257141,,,
729706167.088806,-14.984652,-0.29765,166.224736,0.000122,-0.24556,0.941895,-0.378148,-0.129396,0.005055,86.081635,24.658524,-147.257141,,,
729706167.092108,-15.095654,-0.3389,166.224678,-9.2e-05,-0.257935,0.956177,-0.389457,-0.144271,-0.000159,86.081635,24.658524,-147.257141,,,
729706167.095525,-15.095654,-0.3389,166.224678,-9.2e-05,-0.257935,0.956177,-0.389457,-0.144271,-0.000159,86.081635,24.658524,-147.257141,,,
729706167.098791,-15.207812,-0.381496,166.224241,-9.2e-05,-0.257935,0.956177,-0.389457,-0.144271,-0.000159,86.081635,24.658524,-147.257141,,,
729706167.102147,-15.319002,-0.424451,166.224118,0.007309,-0.269257,0.961853,-0.38286,-0.147417,0.002508,86.081635,24.658524,-147.257141,,,
729706167.105443,-15.319002,-0.424451,166.224118,0.007309,-0.269257,0.961853,-0.38286,-0.147417,0.002508,86.081635,24.658524,-147.257141,,,
729706167.10878,-15.427258,-0.466917,166.225728,0.007309,-0.269257,0.961853,-0.38286,-0.147417,0.002508,86.081635,24.658524,-147.257141,,,
729706167.112122,-15.530827,-0.507646,166.229959,0.007126,-0.281128,0.973984,-0.350196,-0.140274,0.020358,85.800247,25.268326,-147.411087,,,
729706167.115467,-15.530827,-0.507646,166.229959,0.007126,-0.281128,0.973984,-0.350196,-0.140274,0.020358,85.800247,25.268326,-147.411087,,,
729706167.11886,-15.627891,-0.54622,166.237048,0.007126,-0.281128,0.973984,-0.350196,-0.140274,0.020358,85.800247,25.268326,-147.411087,,,
729706167.12214,-15.717848,-0.581579,166.247087,0.008804,-0.286774,0.99118,-0.300458,-0.12352,0.040062,85.800247,25.268326,-147.411087,,,
729706167.125468,-15.717848,-0.581579,166.247087,0.008804,-0.286774,0.99118,-0.300458,-0.12352,0.040062,85.800247,25.268326,-147.411087,,,
729706167.128803,-15.801759,-0.611814,166.259311,0.008804,-0.286774,0.99118,-0.300458,-0.12352,0.040062,85.800247,25.268326,-147.411087,,,
729706167.132157,-15.881881,-0.636525,166.272989,0.008804,-0.285492,0.992004,-0.273834,-0.087897,0.049778,85.800247,25.268326,-147.411087,,,
729706167.13547,-15.881881,-0.636525,166.272989,0.0168,-0.285492,0.992004,-0.273834,-0.087897,0.049778,85.800247,25.268326,-147.411087,,,
729706167.1388,-15.959555,-0.655856,166.288107,0.0168,-0.285492,0.992004,-0.273834,-0.087897,0.049778,85.800247,25.268326,-147.411087,,,
729706167.142113,-16.03558,-0.66928,166.304607,0.0168,-0.285492,0.992004,-0.273834,-0.087897,0.049778,85.800247,25.268326,-147.411087,,,
729706167.145516,-16.03558,-0.66928,166.304607,0.021973,-0.283554,0.986374,-0.262137,-0.049515,0.059027,85.800247,25.268326,-147.411087,,,
729706167.148789,-16.111845,-0.676732,166.321464,0.021973,-0.283554,0.986374,-0.262137,-0.049515,0.059027,85.800247,25.268326,-147.411087,,,
729706167.152116,-16.190318,-0.677676,166.337539,0.025909,-0.280304,0.981613,-0.277458,-0.002807,0.053969,85.816833,26.068649,-147.041397,,,
729706167.155468,-16.190318,-0.677676,166.337539,0.025909,-0.280304,0.981613,-0.277458,-0.002807,0.053969,85.816833,26.068649,-147.041397,,,
729706167.158863,-16.273309,-0.67195,166.352478,0.025909,-0.280304,0.981613,-0.277458,-0.002807,0.053969,85.816833,26.068649,-147.041397,,,
729706167.162154,-16.361633,-0.661123,166.366394,0.021622,-0.28212,0.974365,-0.314605,0.034559,0.047418,85.816833,26.068649,-147.041397,,,
729706167.165459,-16.361633,-0.661123,166.366394,0.021622,-0.28212,0.974365,-0.314605,0.034559,0.047418,85.816833,26.068649,-147.041397,,,
729706167.168789,-16.454226,-0.647116,166.379785,0.021622,-0.28212,0.974365,-0.314605,0.034559,0.047418,85.816833,26.068649,-147.041397,,,
729706167.172123,-16.454226,-0.630942,166.392426,0.021622,-0.28212,0.974365,-0.347449,0.050973,0.042536,85.816833,26.068649,-147.041397,,,
729706167.175462,-16.551544,-0.630942,166.392426,0.016373,-0.285324,0.966309,-0.347449,0.050973,0.042536,85.816833,26.068649,-147.041397,,,
729706167.178781,-16.653955,-0.612706,166.404578,0.016373,-0.285324,0.966309,-0.347449,0.050973,0.042536,85.816833,26.068649,-147.041397,,,
729706167.182189,-16.760674,-0.593636,166.416089,0.014999,-0.289062,0.963562,-0.377387,0.057897,0.038286,85.816833,26.068649,-147.041397,,,
729706167.185125,-16.760674,-0.593636,166.416089,0.014999,-0.289062,0.963562,-0.377387,0.057897,0.038286,85.816833,26.068649,-147.041397,,,
729706167.188827,-16.87113,-0.575897,166.426498,0.014999,-0.289062,0.963562,-0.377387,0.057897,0.038286,85.816833,26.068649,-147.041397,,,
729706167.192111,-16.984814,-0.560468,166.435903,0.014999,-0.289062,0.963562,-0.377387,0.057897,0.038286,85.746399,26.608704,-147.102783,,,
729706167.195474,-16.984814,-0.560468,166.435903,0.010132,-0.291809,0.960983,-0.399797,0.043681,0.031541,85.746399,26.608704,-147.102783,,,
729706167.198792,-17.10005,-0.546606,166.445288,0.010132,-0.291809,0.960983,-0.399797,0.043681,0.031541,85.746399,26.608704,-147.102783,,,
729706167.202064,-17.10005,-0.546606,166.445288,0.010132,-0.291809,0.960983,-0.399797,0.043681,0.031541,85.746399,26.608704,-147.102783,,,
729706167.205317,-17.214726,-0.534819,166.455908,0.002243,-0.301483,0.958176,-0.395694,0.026531,0.039494,85.746399,26.608704,-147.102783,,,
729706167.208929,-17.327395,-0.527283,166.467642,0.002243,-0.301483,0.958176,-0.395694,0.026531,0.039494,85.746399,26.608704,-147.102783,,,
729706167.21216,-17.327395,-0.527283,166.467642,0.002243,-0.301483,0.958176,-0.395694,0.026531,0.039494,85.746399,26.608704,-147.102783,,,
729706167.215481,-17.43697,-0.52484,166.480855,-0.006851,-0.308456,0.960861,-0.373885,-0.012173,0.048971,85.746399,26.608704,-147.102783,,,
729706167.218793,-17.542753,-0.528308,166.49532,-0.006851,-0.308456,0.960861,-0.373885,-0.012173,0.048971,85.746399,26.608704,-147.102783,,,
729706167.222222,-17.542753,-0.528308,166.49532,-0.006851,-0.308456,0.960861,-0.373885,-0.012173,0.048971,85.746399,26.608704,-147.102783,,,
729706167.225468,-17.645818,-0.537655,166.510626,-0.004227,-0.307312,0.956512,-0.354731,-0.055053,0.054352,85.746399,26.608704,-147.102783,,,
729706167.22879,-17.747729,-0.552104,166.52697,-0.004227,-0.307312,0.956512,-0.354731,-0.055053,0.054352,85.746399,26.608704,-147.102783,,,
729706167.232204,-17.747729,-0.552104,166.52697,-0.004227,-0.307312,0.956512,-0.354731,-0.055053,0.054352,85.746399,26.608704,-147.102783,,,
729706167.235516,-17.849812,-0.572233,166.544506,-0.003967,-0.307449,0.943314,-0.355713,-0.097329,0.062425,85.659241,27.577988,-147.120514,,,
729706167.238782,-17.953225,-0.598602,166.562442,-0.003967,-0.307449,0.943314,-0.355713,-0.097329,0.062425,85.659241,27.577988,-147.120514,,,
729706167.242167,-17.953225,-0.598602,166.562442,-0.003967,-0.307449,0.943314,-0.355713,-0.097329,0.062425,85.659241,27.577988,-147.120514,,,
729706167.245455,-18.058993,-0.630983,166.579985,-0.001389,-0.306976,0.934326,-0.371913,-0.138546,0.06026,85.659241,27.577988,-147.120514,,,
729706167.248793,-18.168959,-0.668076,166.596626,-0.001389,-0.306976,0.934326,-0.371913,-0.138546,0.06026,85.659241,27.577988,-147.120514,,,
729706167.25216,-18.168959,-0.668076,166.596626,-0.001389,-0.306976,0.934326,-0.371913,-0.138546,0.06026,85.659241,27.577988,-147.120514,,,
729706167.255473,-18.284801,-0.708091,166.611625,0.006058,-0.301926,0.929092,-0.412733,-0.155483,0.050297,85.659241,27.577988,-147.120514,,,
729706167.258786,-18.407382,-0.749156,166.624971,0.006058,-0.301926,0.929092,-0.412733,-0.155483,0.050297,85.659241,27.577988,-147.120514,,,
729706167.262205,-18.407382,-0.749156,166.624971,0.006058,-0.301926,0.929092,-0.412733,-0.155483,0.050297,85.659241,27.577988,-147.120514,,,
729706167.265453,-18.537985,-0.79071,166.636683,0.00827,-0.29953,0.925308,-0.468512,-0.155426,0.040789,85.659241,27.577988,-147.120514,,,
729706167.268792,-18.676822,-0.832476,166.646728,0.00827,-0.29953,0.925308,-0.468512,-0.155426,0.040789,85.659241,27.577988,-147.120514,,,
729706167.272208,-18.676822,-0.832476,166.646728,0.00827,-0.29953,0.925308,-0.468512,-0.155426,0.040789,85.659241,27.577988,-147.120514,,,
729706167.275513,-18.822772,-0.873716,166.655222,0.012589,-0.305298,0.920105,-0.517922,-0.148391,0.031882,85.368988,28.414062,-146.902893,,,
729706167.278781,-18.974104,-0.914492,166.661972,0.012589,-0.305298,0.920105,-0.517922,-0.148391,0.031882,85.368988,28.414062,-146.902893,,,
729706167.282197,-18.974104,-0.914492,166.661972,0.012589,-0.305298,0.920105,-0.517922,-0.148391,0.031882,85.368988,28.414062,-146.902893,,,
729706167.285452,-19.129499,-0.954754,166.666631,0.021103,-0.307785,0.926636,-0.546184,-0.140119,0.019276,85.368988,28.414062,-146.902893,,,
729706167.288786,-19.288189,-0.993949,166.669433,0.021103,-0.307785,0.926636,-0.546184,-0.140119,0.019276,85.368988,28.414062,-146.902893,,,
729706167.292162,-19.288189,-0.993949,166.669433,0.021103,-0.307785,0.926636,-0.546184,-0.140119,0.019276,85.368988,28.414062,-146.902893,,,
729706167.29545,-19.450166,-1.032018,166.670539,0.023285,-0.312332,0.925919,-0.569042,-0.128346,0.009242,85.368988,28.414062,-146.902893,,,
729706167.298798,-19.614839,-1.069293,166.670095,0.023285,-0.312332,0.925919,-0.569042,-0.128346,0.009242,85.368988,28.414062,-146.902893,,,
729706167.302265,-19.614839,-1.069293,166.670095,0.023285,-0.312332,0.925919,-0.569042,-0.128346,0.009242,85.368988,28.414062,-146.902893,,,
729706167.305452,-19.78102,-1.106667,166.669021,0.02478,-0.323166,0.916321,-0.57939,-0.127508,0.006055,85.368988,28.414062,-146.902893,,,
729706167.308786,-19.946446,-1.145975,166.668203,0.02478,-0.323166,0.916321,-0.57939,-0.127508,0.006055,85.368988,28.414062,-146.902893,,,
729706167.312148,-19.946446,-1.145975,166.668203,0.02478,-0.323166,0.916321,-0.57939,-0.127508,0.006055,85.368988,28.414062,-146.902893,,,
729706167.315447,-20.107848,-1.188243,166.668581,0.023163,-0.341278,0.915405,-0.550969,-0.150913,0.014125,85.069244,29.67778,-147.096252,,,
729706167.318784,-20.263249,-1.233829,166.670789,0.023163,-0.341278,0.915405,-0.550969,-0.150913,0.014125,85.069244,29.67778,-147.096252,,,
729706167.322129,-20.263249,-1.233829,166.670789,0.023163,-0.341278,0.915405,-0.550969,-0.150913,0.014125,85.069244,29.67778,-147.096252,,,
729706167.32546,-20.412747,-1.282032,166.674606,0.022614,-0.349762,0.926422,-0.509788,-0.173142,0.024623,85.069244,29.67778,-147.096252,,,
729706167.328791,-20.557203,-1.331768,166.678965,0.022614,-0.349762,0.926422,-0.509788,-0.173142,0.024623,85.069244,29.67778,-147.096252,,,
729706167.332131,-20.557203,-1.331768,166.678965,0.022614,-0.349762,0.926422,-0.509788,-0.173142,0.024623,85.069244,29.67778,-147.096252,,,
729706167.335464,-20.697694,-1.382593,166.682834,0.032745,-0.345779,0.929352,-0.481998,-0.17953,0.021611,85.069244,29.67778,-147.096252,,,
729706167.338793,-20.83405,-1.433789,166.685505,0.032745,-0.345779,0.929352,-0.481998,-0.17953,0.021611,85.069244,29.67778,-147.096252,,,
729706167.342235,-20.83405,-1.433789,166.685505,0.032745,-0.345779,0.929352,-0.481998,-0.17953,0.021611,85.069244,29.67778,-147.096252,,,
729706167.345453,-20.966753,-1.484818,166.686325,0.043167,-0.345276,0.934433,-0.457009,-0.173897,0.009749,85.069244,29.67778,-147.096252,,,
729706167.348792,-21.097088,-1.534729,166.685263,0.043167,-0.345276,0.934433,-0.457009,-0.173897,0.009749,85.069244,29.67778,-147.096252,,,
729706167.351889,-21.097088,-1.534729,166.685263,0.043167,-0.345276,0.934433,-0.457009,-0.173897,0.009749,85.069244,29.67778,-147.096252,,,
729706167.355478,-21.225271,-1.581353,166.682111,0.041992,-0.350281,0.939636,-0.442563,-0.1458,-0.003479,84.682449,30.500031,-147.172745,,,
729706167.358819,-21.352184,-1.623374,166.676802,0.041992,-0.350281,0.939636,-0.442563,-0.1458,-0.003479,84.682449,30.500031,-147.172745,,,
729706167.362177,-21.352184,-1.623374,166.676802,0.041992,-0.350281,0.939636,-0.442563,-0.1458,-0.003479,84.682449,30.500031,-147.172745,,,
729706167.365495,-21.478385,-1.661,166.669837,0.042297,-0.357086,0.937958,-0.4381,-0.110948,-0.013726,84.682449,30.500031,-147.172745,,,
729706167.368792,-21.605173,-1.694321,166.661655,0.042297,-0.357086,0.937958,-0.4381,-0.110948,-0.013726,84.682449,30.500031,-147.172745,,,
729706167.37216,-21.605173,-1.694321,166.661655,0.042297,-0.357086,0.937958,-0.4381,-0.110948,-0.013726,84.682449,30.500031,-147.172745,,,
729706167.375488,-21.734288,-1.722926,166.653522,0.044052,-0.362579,0.93309,-0.454471,-0.078138,-0.012425,84.682449,30.500031,-147.172745,,,
729706167.378793,-21.867546,-1.747226,166.645902,0.044052,-0.362579,0.93309,-0.454471,-0.078138,-0.012425,84.682449,30.500031,-147.172745,,,
729706167.382227,-21.867546,-1.747226,166.645902,0.044052,-0.362579,0.93309,-0.454471,-0.078138,-0.012425,84.682449,30.500031,-147.172745,,,
729706167.385445,-22.006225,-1.768087,166.639398,0.038818,-0.367874,0.920975,-0.492205,-0.057011,-0.003649,84.682449,30.500031,-147.172745,,,
729706167.388798,-22.149778,-1.786636,166.63449,0.038818,-0.367874,0.920975,-0.492205,-0.057011,-0.003649,84.682449,30.500031,-147.172745,,,
729706167.392136,-22.149778,-1.786636,166.63449,0.038818,-0.367874,0.920975,-0.492205,-0.057011,-0.003649,84.682449,30.500031,-147.172745,,,
729706167.395536,-22.297178,-1.803764,166.631125,0.035995,-0.379715,0.904739,-0.518898,-0.051124,0.007458,84.682449,30.500031,-147.172745,,,
729706167.398774,-22.445331,-1.821058,166.629286,0.035995,-0.379715,0.904739,-0.518898,-0.051124,0.007458,84.484497,31.292068,-147.068283,,,
729706167.402137,-22.445331,-1.821058,166.629286,0.035995,-0.379715,0.904739,-0.518898,-0.051124,0.007458,84.484497,31.292068,-147.068283,,,
729706167.405454,-22.591035,-1.839395,166.628319,0.035385,-0.388641,0.915024,-0.501816,-0.0607,0.012843,84.484497,31.292068,-147.068283,,,
729706167.408788,-22.732514,-1.857502,166.628814,0.035385,-0.388641,0.915024,-0.501816,-0.0607,0.012843,84.484497,31.292068,-147.068283,,,
729706167.412126,-22.732514,-1.857502,166.628814,0.035385,-0.388641,0.915024,-0.501816,-0.0607,0.012843,84.484497,31.292068,-147.068283,,,
729706167.415457,-22.869086,-1.876394,166.630231,0.03154,-0.391159,0.929871,-0.467628,-0.068709,0.017963,84.484497,31.292068,-147.068283,,,
729706167.418782,-23.000186,-1.897474,166.632783,0.03154,-0.391159,0.929871,-0.467628,-0.068709,0.017963,84.484497,31.292068,-147.068283,,,
729706167.422185,-23.000186,-1.897474,166.632783,0.03154,-0.391159,0.929871,-0.467628,-0.068709,0.017963,84.484497,31.292068,-147.068283,,,
729706167.425448,-23.124817,-1.9202,166.63703,0.029678,-0.393707,0.928314,-0.422385,-0.084892,0.027689,84.484497,31.292068,-147.068283,,,
729706167.428783,-23.242372,-1.945568,166.641955,0.029678,-0.393707,0.928314,-0.422385,-0.084892,0.027689,84.484497,31.292068,-147.068283,,,
729706167.432014,-23.242372,-1.945568,166.641955,0.029678,-0.393707,0.928314,-0.422385,-0.084892,0.027689,84.484497,31.292068,-147.068283,,,
729706167.435533,-23.35205,-1.973865,166.647815,0.027328,-0.393204,0.929733,-0.367408,-0.107979,0.032153,84.484497,31.292068,-147.068283,,,
729706167.438795,-23.454833,-2.003233,166.65427,0.027328,-0.393204,0.929733,-0.367408,-0.107979,0.032153,84.290421,32.169693,-146.906189,,,
729706167.442124,-23.454833,-2.003233,166.65427,0.027328,-0.393204,0.929733,-0.367408,-0.107979,0.032153,84.290421,32.169693,-146.906189,,,
729706167.445453,-23.551159,-2.03282,166.660319,0.029419,-0.39296,0.932739,-0.322647,-0.108503,0.02833,84.290421,32.169693,-146.906189,,,
729706167.448785,-23.642023,-2.060906,166.666047,0.029419,-0.39296,0.932739,-0.322647,-0.108503,0.02833,84.290421,32.169693,-146.906189,,,
729706167.452124,-23.642023,-2.060906,166.666047,0.029419,-0.39296,0.932739,-0.322647,-0.108503,0.02833,84.290421,32.169693,-146.906189,,,
729706167.455443,-23.729381,-2.085972,166.67115,0.03299,-0.393295,0.934494,-0.298451,-0.085813,0.023735,84.290421,32.169693,-146.906189,,,
729706167.458791,-23.815249,-2.107571,166.675346,0.03299,-0.393295,0.934494,-0.298451,-0.085813,0.023735,84.290421,32.169693,-146.906189,,,
729706167.462167,-23.815249,-2.107571,166.675346,0.03299,-0.393295,0.934494,-0.298451,-0.085813,0.023735,84.290421,32.169693,-146.906189,,,
729706167.465449,-23.901192,-2.125479,166.67904,0.036041,-0.397079,0.929108,-0.299179,-0.058769,0.020737,84.290421,32.169693,-146.906189,,,
729706167.468791,-23.988312,-2.140122,166.683076,0.036041,-0.397079,0.929108,-0.299179,-0.058769,0.020737,84.290421,32.169693,-146.906189,,,
729706167.472126,-23.988312,-2.140122,166.683076,0.036041,-0.397079,0.929108,-0.299179,-0.058769,0.020737,84.290421,32.169693,-146.906189,,,
729706167.475486,-24.077215,-2.151485,166.688105,0.035065,-0.404114,0.920059,-0.311505,-0.038832,0.027666,84.290421,32.169693,-146.906189,,,
729706167.478786,-24.16905,-2.159996,166.69373,0.035065,-0.404114,0.920059,-0.311505,-0.038832,0.027666,84.050278,32.794159,-146.424957,,,
729706167.482113,-24.16905,-2.159996,166.69373,0.035065,-0.404114,0.920059,-0.311505,-0.038832,0.027666,84.050278,32.794159,-146.424957,,,
729706167.485454,-24.266722,-2.165574,166.700097,0.037415,-0.405411,0.909286,-0.352066,-0.020588,0.033944,84.050278,32.794159,-146.424957,,,
729706167.488784,-24.371794,-2.168875,166.708202,0.037415,-0.405411,0.909286,-0.352066,-0.020588,0.033944,84.050278,32.794159,-146.424957,,,
729706167.492115,-24.371794,-2.168875,166.708202,0.037415,-0.405411,0.909286,-0.352066,-0.020588,0.033944,84.050278,32.794159,-146.424957,,,
729706167.495456,-24.484079,-2.171514,166.7189,0.030746,-0.406281,0.889862,-0.401796,-0.023563,0.052298,84.050278,32.794159,-146.424957,,,
729706167.498788,-24.602617,-2.175238,166.732188,0.030746,-0.406281,0.889862,-0.401796,-0.023563,0.052298,84.050278,32.794159,-146.424957,,,
729706167.502171,-24.602617,-2.175238,166.732188,0.030746,-0.406281,0.889862,-0.401796,-0.023563,0.052298,84.050278,32.794159,-146.424957,,,
729706167.505452,-24.726504,-2.181368,166.747468,0.022873,-0.412216,0.882736,-0.438705,-0.046322,0.066337,84.050278,32.794159,-146.424957,,,
729706167.508786,-24.856022,-2.189824,166.763759,0.022873,-0.412216,0.882736,-0.438705,-0.046322,0.066337,84.050278,32.794159,-146.424957,,,
729706167.512116,-24.856022,-2.189824,166.763759,0.022873,-0.412216,0.882736,-0.438705,-0.046322,0.066337,84.050278,32.794159,-146.424957,,,
729706167.515547,-24.991036,-2.200345,166.780422,0.025497,-0.411987,0.881409,-0.477013,-0.062069,0.070204,84.050278,32.794159,-146.424957,,,
729706167.518855,-25.131312,-2.213833,166.796917,0.025497,-0.411987,0.881409,-0.477013,-0.062069,0.070204,84.050278,32.794159,-146.424957,,,
729706167.522105,-25.131312,-2.213833,166.796917,0.025497,-0.411987,0.881409,-0.477013,-0.062069,0.070204,84.107742,33.63089,-146.366455,,,
729706167.525455,-25.275557,-2.231508,166.812041,0.029037,-0.412094,0.879211,-0.504912,-0.087436,0.062752,84.107742,33.63089,-146.366455,,,
729706167.528783,-25.423608,-2.253666,166.825639,0.029037,-0.412094,0.879211,-0.504912,-0.087436,0.062752,84.107742,33.63089,-146.366455,,,
729706167.532127,-25.423608,-2.253666,166.825639,0.029037,-0.412094,0.879211,-0.504912,-0.087436,0.062752,84.107742,33.63089,-146.366455,,,
729706167.535457,-25.576392,-2.280977,166.837678,0.032043,-0.414627,0.874619,-0.537984,-0.118854,0.05457,84.107742,33.63089,-146.366455,,,
729706167.538783,-25.733173,-2.314203,166.846678,0.032043,-0.414627,0.874619,-0.537984,-0.118854,0.05457,84.107742,33.63089,-146.366455,,,
729706167.542206,-25.733173,-2.314203,166.846678,0.032043,-0.414627,0.874619,-0.537984,-0.118854,0.05457,84.107742,33.63089,-146.366455,,,
729706167.545459,-25.892966,-2.353144,166.852436,0.038605,-0.419678,0.869751,-0.559505,-0.148959,0.035692,84.107742,33.63089,-146.366455,,,
729706167.548791,-26.054129,-2.397297,166.855443,0.038605,-0.419678,0.869751,-0.559505,-0.148959,0.035692,84.107742,33.63089,-146.366455,,,
729706167.552155,-26.054129,-2.397297,166.855443,0.038605,-0.419678,0.869751,-0.559505,-0.148959,0.035692,84.107742,33.63089,-146.366455,,,
729706167.555497,-26.21508,-2.445878,166.854871,0.04126,-0.430222,0.879608,-0.558684,-0.168829,0.014154,84.107742,33.63089,-146.366455,,,
729706167.558805,-26.374436,-2.498427,166.85048,0.04126,-0.430222,0.879608,-0.558684,-0.168829,0.014154,84.107742,33.63089,-146.366455,,,
729706167.562146,-26.374436,-2.498427,166.85048,0.04126,-0.430222,0.879608,-0.558684,-0.168829,0.014154,83.684799,34.609436,-146.222824,,,
729706167.56547,-26.531843,-2.554761,166.842022,0.044754,-0.435165,0.892822,-0.545975,-0.182431,-0.010702,83.684799,34.609436,-146.222824,,,
729706167.568793,-26.687746,-2.614284,166.828738,0.044754,-0.435165,0.892822,-0.545975,-0.182431,-0.010702,83.684799,34.609436,-146.222824,,,
729706167.572148,-26.687746,-2.614284,166.828738,0.044754,-0.435165,0.892822,-0.545975,-0.182431,-0.010702,83.684799,34.609436,-146.222824,,,
729706167.575458,-26.842759,-2.676047,166.810785,0.052887,-0.43898,0.890579,-0.540902,-0.183103,-0.038746,83.684799,34.609436,-146.222824,,,
729706167.578789,-26.996733,-2.739605,166.788974,0.052887,-0.43898,0.890579,-0.540902,-0.183103,-0.038746,83.684799,34.609436,-146.222824,,,
729706167.58219,-26.996733,-2.739605,166.788974,0.052887,-0.43898,0.890579,-0.540902,-0.183103,-0.038746,83.684799,34.609436,-146.222824,,,
729706167.585214,-27.148748,-2.80602,166.763903,0.054504,-0.446045,0.886581,-0.528108,-0.192239,-0.058164,83.684799,34.609436,-146.222824,,,
729706167.588821,-27.299496,-2.873852,166.736609,0.054504,-0.446045,0.886581,-0.528108,-0.192239,-0.058164,83.684799,34.609436,-146.222824,,,
729706167.592135,-27.299496,-2.873852,166.736609,0.054504,-0.446045,0.886581,-0.528108,-0.192239,-0.058164,83.684799,34.609436,-146.222824,,,
729706167.595538,-27.450028,-2.941676,166.707839,0.050156,-0.451874,0.884583,-0.526952,-0.18693,-0.065869,83.684799,34.609436,-146.222824,,,
729706167.598772,-27.601252,-3.009462,166.678559,0.050156,-0.451874,0.884583,-0.526952,-0.18693,-0.065869,83.684799,34.609436,-146.222824,,,
729706167.602154,-27.601252,-3.009462,166.678559,0.050156,-0.451874,0.884583,-0.526952,-0.18693,-0.065869,83.494583,35.445435,-146.118469,,,
729706167.605462,-27.75441,-3.07708,166.649456,0.049271,-0.460007,0.880524,-0.540295,-0.185811,-0.062507,83.494583,35.445435,-146.118469,,,
729706167.608784,-27.909371,-3.145083,166.620947,0.049271,-0.460007,0.880524,-0.540295,-0.185811,-0.062507,83.494583,35.445435,-146.118469,,,
729706167.612112,-27.909371,-3.145083,166.620947,0.049271,-0.460007,0.880524,-0.540295,-0.185811,-0.062507,83.494583,35.445435,-146.118469,,,
729706167.615471,-28.067811,-3.213768,166.594231,0.045105,-0.466614,0.871124,-0.563759,-0.195888,-0.048573,83.494583,35.445435,-146.118469,,,
729706167.618789,-28.231424,-3.283743,166.569755,0.045105,-0.466614,0.871124,-0.563759,-0.195888,-0.048573,83.494583,35.445435,-146.118469,,,
729706167.622168,-28.231424,-3.283743,166.569755,0.045105,-0.466614,0.871124,-0.563759,-0.195888,-0.048573,83.494583,35.445435,-146.118469,,,
729706167.62547,-28.39961,-3.355642,166.547178,0.045654,-0.477631,0.859055,-0.594721,-0.215053,-0.033438,83.494583,35.445435,-146.118469,,,
729706167.628783,-28.570453,-3.429219,166.526557,0.045654,-0.477631,0.859055,-0.594721,-0.215053,-0.033438,83.494583,35.445435,-146.118469,,,
729706167.632137,-28.570453,-3.429219,166.526557,0.045654,-0.477631,0.859055,-0.594721,-0.215053,-0.033438,83.494583,35.445435,-146.118469,,,
729706167.635545,-28.74193,-3.503935,166.507628,0.044403,-0.48764,0.863144,-0.598319,-0.22819,-0.021073,83.494583,35.445435,-146.118469,,,
729706167.638783,-28.911821,-3.578737,166.489636,0.044403,-0.48764,0.863144,-0.598319,-0.22819,-0.021073,83.494583,35.445435,-146.118469,,,
729706167.642124,-28.911821,-3.578737,166.489636,0.044403,-0.48764,0.863144,-0.598319,-0.22819,-0.021073,82.755356,36.668152,-145.373962,,,
729706167.645471,-29.07822,-3.651666,166.472527,0.048157,-0.494598,0.883896,-0.573505,-0.217726,-0.0155,82.755356,36.668152,-145.373962,,,
729706167.648788,-29.24147,-3.721647,166.456488,0.048157,-0.494598,0.883896,-0.573505,-0.217726,-0.0155,82.755356,36.668152,-145.373962,,,
729706167.652136,-29.24147,-3.721647,166.456488,0.048157,-0.494598,0.883896,-0.573505,-0.217726,-0.0155,82.755356,36.668152,-145.373962,,,
729706167.655452,-29.402557,-3.788424,166.441392,0.053818,-0.495636,0.893814,-0.557879,-0.198278,-0.00924,82.755356,36.668152,-145.373962,,,
729706167.658789,-29.561194,-3.851908,166.427248,0.053818,-0.495636,0.893814,-0.557879,-0.198278,-0.00924,82.755356,36.668152,-145.373962,,,
729706167.662203,-29.561194,-3.851908,166.427248,0.053818,-0.495636,0.893814,-0.557879,-0.198278,-0.00924,82.755356,36.668152,-145.373962,,,
729706167.665459,-29.717349,-3.913314,166.41466,0.055496,-0.498886,0.886078,-0.539788,-0.188876,0.00035,82.755356,36.668152,-145.373962,,,
729706167.668801,-29.870385,-3.97345,166.404622,0.055496,-0.498886,0.886078,-0.539788,-0.188876,0.00035,82.755356,36.668152,-145.373962,,,
729706167.672131,-29.870385,-3.97345,166.404622,0.055496,-0.498886,0.886078,-0.539788,-0.188876,0.00035,82.755356,36.668152,-145.373962,,,
729706167.675535,-30.020346,-4.032819,166.397367,0.051392,-0.505768,0.877075,-0.51699,-0.192959,0.016777,82.755356,36.668152,-145.373962,,,
729706167.678781,-30.167291,-4.091201,166.392922,0.051392,-0.505768,0.877075,-0.51699,-0.192959,0.016777,82.755356,36.668152,-145.373962,,,
729706167.682175,-30.167291,-4.091201,166.392922,0.051392,-0.505768,0.877075,-0.51699,-0.192959,0.016777,82.755356,36.668152,-145.373962,,,
729706167.685498,-30.311648,-4.148061,166.390999,0.050247,-0.509003,0.870941,-0.497631,-0.191051,0.031671,82.610947,37.840118,-145.080841,,,
729706167.688784,-30.45369,-4.203451,166.390733,0.050247,-0.509003,0.870941,-0.497631,-0.191051,0.031671,82.610947,37.840118,-145.080841,,,
729706167.69214,-30.45369,-4.203451,166.390733,0.050247,-0.509003,0.870941,-0.497631,-0.191051,0.031671,82.610947,37.840118,-145.080841,,,
729706167.695454,-30.593304,-4.257977,166.391346,0.057159,-0.50766,0.865219,-0.480089,-0.18806,0.036593,82.610947,37.840118,-145.080841,,,
729706167.698785,-30.729456,-4.311819,166.391944,0.057159,-0.50766,0.865219,-0.480089,-0.18806,0.036593,82.610947,37.840118,-145.080841,,,
729706167.702217,-30.729456,-4.311819,166.391944,0.057159,-0.50766,0.865219,-0.480089,-0.18806,0.036593,82.610947,37.840118,-145.080841,,,
729706167.705454,-30.860417,-4.364586,166.391356,0.066833,-0.50914,0.863998,-0.444331,-0.176315,0.027657,82.610947,37.840118,-145.080841,,,
729706167.708792,-30.98481,-4.41654,166.388291,0.066833,-0.50914,0.863998,-0.444331,-0.176315,0.027657,82.610947,37.840118,-145.080841,,,
729706167.712138,-30.98481,-4.41654,166.388291,0.066833,-0.50914,0.863998,-0.444331,-0.176315,0.027657,82.610947,37.840118,-145.080841,,,
729706167.715517,-31.100935,-4.468441,166.382453,0.072159,-0.51506,0.872101,-0.388313,-0.166021,0.007509,82.610947,37.840118,-145.080841,,,
729706167.718783,-31.206467,-4.520011,166.374138,0.072159,-0.51506,0.872101,-0.388313,-0.166021,0.007509,82.610947,37.840118,-145.080841,,,
729706167.722131,-31.206467,-4.520011,166.374138,0.072159,-0.51506,0.872101,-0.388313,-0.166021,0.007509,82.610947,37.840118,-145.080841,,,
729706167.725467,-31.300687,-4.570644,166.362992,0.077347,-0.515503,0.88237,-0.311157,-0.149213,-0.014847,82.343674,38.362717,-144.940216,,,
729706167.728791,-31.384936,-4.620176,166.349221,0.077347,-0.515503,0.88237,-0.311157,-0.149213,-0.014847,82.343674,38.362717,-144.940216,,,
729706167.732116,-31.384936,-4.620176,166.349221,0.077347,-0.515503,0.88237,-0.311157,-0.149213,-0.014847,82.343674,38.362717,-144.940216,,,
729706167.735467,-31.460369,-4.668104,166.333981,0.080963,-0.515228,0.878647,-0.250764,-0.132652,-0.02797,82.343674,38.362717,-144.940216,,,
729706167.738791,-31.528169,-4.715059,166.317878,0.080963,-0.515228,0.878647,-0.250764,-0.132652,-0.02797,82.343674,38.362717,-144.940216,,,
729706167.742189,-31.528169,-4.715059,166.317878,0.080963,-0.515228,0.878647,-0.250764,-0.132652,-0.02797,82.343674,38.362717,-144.940216,,,
729706167.745457,-31.589549,-4.761574,166.302174,0.079056,-0.516281,0.867691,-0.206104,-0.130989,-0.028877,82.343674,38.362717,-144.940216,,,
729706167.748785,-31.64529,-4.807658,166.286853,0.079056,-0.516281,0.867691,-0.206104,-0.130989,-0.028877,82.343674,38.362717,-144.940216,,,
729706167.752115,-31.64529,-4.807658,166.286853,0.079056,-0.516281,0.867691,-0.206104,-0.130989,-0.028877,82.343674,38.362717,-144.940216,,,
729706167.755189,-31.6964,-4.853234,166.271969,0.073486,-0.515625,0.858444,-0.17382,-0.129005,-0.028673,82.343674,38.362717,-144.940216,,,
729706167.758816,-31.744269,-4.898271,166.258349,0.073486,-0.515625,0.858444,-0.17382,-0.129005,-0.028673,82.343674,38.362717,-144.940216,,,
729706167.762132,-31.744269,-4.898271,166.258349,0.073486,-0.515625,0.858444,-0.17382,-0.129005,-0.028673,82.343674,38.362717,-144.940216,,,
729706167.765453,-31.791097,-4.942385,166.245399,0.073822,-0.516708,0.849609,-0.166352,-0.125019,-0.025075,81.811127,38.957855,-144.804321,,,
729706167.768783,-31.839086,-4.984787,166.233329,0.073822,-0.516708,0.849609,-0.166352,-0.125019,-0.025075,81.811127,38.957855,-144.804321,,,
729706167.772142,-31.839086,-4.984787,166.233329,0.073822,-0.516708,0.849609,-0.166352,-0.125019,-0.025075,81.811127,38.957855,-144.804321,,,
729706167.775458,-31.89049,-5.025044,166.222532,0.074127,-0.522644,0.837021,-0.189474,-0.114757,-0.015238,81.811127,38.957855,-144.804321,,,
729706167.778784,-31.946523,-5.064032,166.21276,0.074127,-0.522644,0.837021,-0.189474,-0.114757,-0.015238,81.811127,38.957855,-144.804321,,,
729706167.782183,-31.946523,-5.064032,166.21276,0.074127,-0.522644,0.837021,-0.189474,-0.114757,-0.015238,81.811127,38.957855,-144.804321,,,
729706167.785454,-32.007282,-5.10271,166.204305,0.076279,-0.523346,0.827652,-0.221652,-0.117448,-0.00429,81.811127,38.957855,-144.804321,,,
729706167.788847,-32.074006,-5.140719,166.196573,0.076279,-0.523346,0.827652,-0.221652,-0.117448,-0.00429,81.811127,38.957855,-144.804321,,,
729706167.79224,-32.074006,-5.140719,166.196573,0.076279,-0.523346,0.827652,-0.221652,-0.117448,-0.00429,81.811127,38.957855,-144.804321,,,
729706167.795491,-32.149028,-5.176478,166.18933,0.078613,-0.524597,0.825012,-0.279039,-0.103578,0.004118,81.811127,38.957855,-144.804321,,,
729706167.800025,-32.233852,-5.209092,166.182398,0.078613,-0.524597,0.825012,-0.279039,-0.103578,0.004118,81.811127,38.957855,-144.804321,,,
729706167.801997,-32.233852,-5.209092,166.182398,0.078613,-0.524597,0.825012,-0.279039,-0.103578,0.004118,81.811127,38.957855,-144.804321,,,
729706167.805569,-32.328984,-5.238969,166.17496,0.080109,-0.530609,0.821304,-0.350917,-0.082604,0.008053,81.677673,39.367966,-144.950775,,,
729706167.808832,-32.434181,-5.266259,166.167487,0.080109,-0.530609,0.821304,-0.350917,-0.082604,0.008053,81.677673,39.367966,-144.950775,,,
729706167.812144,-32.434181,-5.266259,166.167487,0.080109,-0.530609,0.821304,-0.350917,-0.082604,0.008053,81.677673,39.367966,-144.950775,,,
729706167.815498,-32.547451,-5.291542,166.160768,0.081345,-0.542053,0.820236,-0.406628,-0.071389,0.018022,81.677673,39.367966,-144.950775,,,
729706167.818861,-32.666819,-5.315123,166.155108,0.081345,-0.542053,0.820236,-0.406628,-0.071389,0.018022,81.677673,39.367966,-144.950775,,,
729706167.822124,-32.666819,-5.315123,166.155108,0.081345,-0.542053,0.820236,-0.406628,-0.071389,0.018022,81.677673,39.367966,-144.950775,,,
729706167.825459,-32.789573,-5.33613,166.15135,0.080322,-0.553207,0.834747,-0.429202,-0.060585,0.031666,81.677673,39.367966,-144.950775,,,
729706167.828833,-32.914015,-5.35385,166.150368,0.080322,-0.553207,0.834747,-0.429202,-0.060585,0.031666,81.677673,39.367966,-144.950775,,,
729706167.832121,-32.914015,-5.35385,166.150368,0.080322,-0.553207,0.834747,-0.429202,-0.060585,0.031666,81.677673,39.367966,-144.950775,,,
729706167.835464,-33.039618,-5.368529,166.152574,0.078644,-0.556442,0.846619,-0.435653,-0.0515,0.051229,81.677673,39.367966,-144.950775,,,
729706167.838594,-33.166147,-5.381498,166.156979,0.078644,-0.556442,0.846619,-0.435653,-0.0515,0.051229,81.677673,39.367966,-144.950775,,,
729706167.842182,-33.166147,-5.381498,166.156979,0.078644,-0.556442,0.846619,-0.435653,-0.0515,0.051229,81.677673,39.367966,-144.950775,,,
729706167.845448,-33.29324,-5.393174,166.163112,0.078613,-0.55603,0.842117,-0.438732,-0.04917,0.061802,81.677673,39.367966,-144.950775,,,
729706167.848791,-33.42075,-5.403983,166.171371,0.078613,-0.55603,0.842117,-0.438732,-0.04917,0.061802,81.554153,40.216492,-144.423569,,,
729706167.852132,-33.42075,-5.403983,166.171371,0.078613,-0.55603,0.842117,-0.438732,-0.04917,0.061802,81.554153,40.216492,-144.423569,,,
729706167.855464,-33.548041,-5.414433,166.181517,0.077652,-0.553604,0.838364,-0.436312,-0.054056,0.072709,81.554153,40.216492,-144.423569,,,
729706167.858852,-33.675331,-5.424353,166.193336,0.077652,-0.553604,0.838364,-0.436312,-0.054056,0.072709,81.554153,40.216492,-144.423569,,,
729706167.862127,-33.675331,-5.424353,166.193336,0.077652,-0.553604,0.838364,-0.436312,-0.054056,0.072709,81.554153,40.216492,-144.423569,,,
729706167.865496,-33.803063,-5.434666,166.205737,0.074387,-0.553406,0.836105,-0.439232,-0.059251,0.076457,81.554153,40.216492,-144.423569,,,
729706167.868798,-33.930258,-5.446109,166.218411,0.074387,-0.553406,0.836105,-0.439232,-0.059251,0.076457,81.554153,40.216492,-144.423569,,,
729706167.872124,-33.930258,-5.446109,166.218411,0.074387,-0.553406,0.836105,-0.439232,-0.059251,0.076457,81.554153,40.216492,-144.423569,,,
729706167.875261,-34.057832,-5.459086,166.229823,0.077896,-0.555344,0.830582,-0.442678,-0.065209,0.069554,81.554153,40.216492,-144.423569,,,
729706167.878861,-34.18712,-5.473468,166.239186,0.077896,-0.555344,0.830582,-0.442678,-0.065209,0.069554,81.554153,40.216492,-144.423569,,,
729706167.882194,-34.18712,-5.473468,166.239186,0.077896,-0.555344,0.830582,-0.442678,-0.065209,0.069554,81.554153,40.216492,-144.423569,,,
