Time (sec),Pitch (deg),Roll (deg),Yaw(deg),X-Acceleration (g),Y-Acceleration (g),Z-Acceleration (g),Pitch Rate (deg/sec),Roll Rate (deg/sec),Yaw Rate (deg/sec),Magnetic Field in X direction (uT),Magnetic Field in Y direction (uT),Magnetic Field in Z Direction (uT),Latitude (deg),Longitude (deg),Altitude (m)
729716796.529306,-17.41101,0.662329,103.866055,-0.008057,-0.303268,0.952423,-0.147621,-0.036485,0.053102,89.30899,50.245438,-142.353119,,,
729716796.52947,-17.411013,0.662325,139.402409,-0.008057,-0.303268,0.952423,-0.147621,-0.036485,0.053102,89.30899,50.245438,-142.353119,,,
729716796.530979,-17.411015,0.662325,100.789204,-0.008057,-0.303268,0.952423,-0.147621,-0.036485,0.053102,89.30899,50.245438,-142.353119,,,
729716796.531325,-17.41101,0.662329,103.866055,-0.008057,-0.303268,0.952423,-0.147621,-0.036485,0.053102,89.30899,50.245438,-142.353119,,,
729716796.531969,-17.411013,0.662325,139.402409,-0.008057,-0.303268,0.952423,-0.147621,-0.036485,0.053102,89.30899,50.245438,-142.353119,,,
729716796.53513,-17.449896,0.658657,100.806283,-0.008057,-0.303268,0.952423,-0.13171,-0.008036,0.052612,89.30899,50.245438,-142.353119,,,
729716796.536046,-17.449891,0.658661,103.883135,-0.008057,-0.303268,0.952423,-0.13171,-0.008036,0.052612,89.30899,50.245438,-142.353119,,,
729716796.536191,-17.449894,0.658658,139.419488,-0.008057,-0.303268,0.952423,-0.13171,-0.008036,0.052612,89.30899,50.245438,-142.353119,,,
729716796.538029,-17.488242,0.65983,100.823732,-0.00708,-0.301498,0.953506,-0.13171,-0.008036,0.052612,89.30899,50.245438,-142.353119,,,
729716796.538648,-17.488238,0.659834,103.900584,-0.00708,-0.301498,0.953506,-0.13171,-0.008036,0.052612,89.30899,50.245438,-142.353119,,,
729716796.538817,-17.48824,0.659831,139.436937,-0.00708,-0.301498,0.953506,-0.13171,-0.008036,0.052612,89.30899,50.245438,-142.353119,,,
729716796.541062,-17.488242,0.65983,100.823732,-0.00708,-0.301498,0.953506,-0.13171,-0.008036,0.052612,89.30899,50.245438,-142.353119,,,
729716796.541305,-17.488238,0.659834,103.900584,-0.00708,-0.301498,0.953506,-0.13171,-0.008036,0.052612,89.30899,50.245438,-142.353119,,,
729716796.541971,-17.48824,0.659831,139.436937,-0.00708,-0.301498,0.953506,-0.13171,-0.008036,0.052612,89.30899,50.245438,-142.353119,,,
729716796.545869,-17.523187,0.662332,100.840289,-0.00708,-0.301498,0.953506,-0.110433,0.004219,0.054306,89.30899,50.245438,-142.353119,,,
729716796.547487,-17.523182,0.662335,103.91714,-0.00708,-0.301498,0.953506,-0.110433,0.004219,0.054306,89.30899,50.245438,-142.353119,,,
729716796.54765,-17.556024,0.667253,139.470467,-0.015457,-0.30751,0.952316,-0.110433,0.004219,0.054306,89.30899,50.245438,-142.353119,,,
729716796.548788,-17.556027,0.667252,100.857263,-0.015457,-0.30751,0.952316,-0.110433,0.004219,0.054306,89.30899,50.245438,-142.353119,,,
729716796.549911,-17.556022,0.667256,103.934114,-0.015457,-0.30751,0.952316,-0.110433,0.004219,0.054306,89.30899,50.245438,-142.353119,,,
729716796.550057,-17.556024,0.667253,139.470467,-0.015457,-0.30751,0.952316,-0.110433,0.004219,0.054306,89.30899,50.245438,-142.353119,,,
729716796.550885,-17.556027,0.667252,100.857263,-0.015457,-0.30751,0.952316,-0.110433,0.004219,0.054306,89.30899,50.245438,-142.353119,,,
729716796.551387,-17.556022,0.667256,103.934114,-0.015457,-0.30751,0.952316,-0.110433,0.004219,0.054306,89.30899,50.245438,-142.353119,,,
729716796.551971,-17.556024,0.667253,139.470467,-0.015457,-0.30751,0.952316,-0.110433,0.004219,0.054306,89.30899,50.245438,-142.353119,,,
729716796.556075,-17.584757,0.672689,100.87475,-0.015457,-0.30751,0.952316,-0.097153,-0.00026,0.056874,89.30899,50.245438,-142.353119,,,
729716796.557736,-17.584752,0.672692,103.951601,-0.015457,-0.30751,0.952316,-0.097153,-0.00026,0.056874,89.30899,50.245438,-142.353119,,,
729716796.557868,-17.612464,0.676956,139.505943,-0.01889,-0.308685,0.953232,-0.097153,-0.00026,0.056874,89.30899,50.245438,-142.353119,,,
729716796.558784,-17.612466,0.676956,100.892737,-0.01889,-0.308685,0.953232,-0.097153,-0.00026,0.056874,89.317032,50.555328,-142.272171,,,
729716796.559662,-17.612461,0.67696,103.969588,-0.01889,-0.308685,0.953232,-0.097153,-0.00026,0.056874,89.317032,50.555328,-142.272171,,,
729716796.559919,-17.612464,0.676956,139.505943,-0.01889,-0.308685,0.953232,-0.097153,-0.00026,0.056874,89.317032,50.555328,-142.272171,,,
729716796.560913,-17.612466,0.676956,100.892737,-0.01889,-0.308685,0.953232,-0.097153,-0.00026,0.056874,89.317032,50.555328,-142.272171,,,
729716796.561284,-17.612461,0.67696,103.969588,-0.01889,-0.308685,0.953232,-0.097153,-0.00026,0.056874,89.317032,50.555328,-142.272171,,,
729716796.56194,-17.612464,0.676956,139.505943,-0.01889,-0.308685,0.953232,-0.097153,-0.00026,0.056874,89.317032,50.555328,-142.272171,,,
729716796.564884,-17.638972,0.681422,100.911322,-0.01889,-0.308685,0.953232,-0.094225,-0.011755,0.056877,89.317032,50.555328,-142.272171,,,
729716796.565513,-17.638967,0.681426,103.988174,-0.01889,-0.308685,0.953232,-0.094225,-0.011755,0.056877,89.317032,50.555328,-142.272171,,,
729716796.565626,-17.63897,0.681422,139.524528,-0.01889,-0.308685,0.953232,-0.094225,-0.011755,0.056877,89.317032,50.555328,-142.272171,,,
729716796.568121,-17.665787,0.683227,100.929052,-0.013443,-0.305054,0.942627,-0.094225,-0.011755,0.056877,89.317032,50.555328,-142.272171,,,
729716796.568735,-17.665782,0.683231,104.005903,-0.013443,-0.305054,0.942627,-0.094225,-0.011755,0.056877,89.317032,50.555328,-142.272171,,,
729716796.568847,-17.665785,0.683227,139.54226,-0.013443,-0.305054,0.942627,-0.094225,-0.011755,0.056877,89.317032,50.555328,-142.272171,,,
729716796.57108,-17.665787,0.683227,100.929052,-0.013443,-0.305054,0.942627,-0.094225,-0.011755,0.056877,89.317032,50.555328,-142.272171,,,
729716796.571302,-17.665782,0.683231,104.005903,-0.013443,-0.305054,0.942627,-0.094225,-0.011755,0.056877,89.317032,50.555328,-142.272171,,,
729716796.571974,-17.665785,0.683227,139.54226,-0.013443,-0.305054,0.942627,-0.094225,-0.011755,0.056877,89.317032,50.555328,-142.272171,,,
729716796.575162,-17.692983,0.684808,100.946836,-0.013443,-0.305054,0.942627,-0.100125,-0.010805,0.051427,89.317032,50.555328,-142.272171,,,
729716796.576081,-17.692978,0.684811,104.023687,-0.013443,-0.305054,0.942627,-0.100125,-0.010805,0.051427,89.317032,50.555328,-142.272171,,,
729716796.576225,-17.692981,0.684808,139.560039,-0.013443,-0.305054,0.942627,-0.100125,-0.010805,0.051427,89.317032,50.555328,-142.272171,,,
729716796.578384,-17.721274,0.685515,100.963375,-0.011749,-0.300629,0.944794,-0.100125,-0.010805,0.051427,89.317032,50.555328,-142.272171,,,
729716796.579366,-17.721269,0.685519,104.040226,-0.011749,-0.300629,0.944794,-0.100125,-0.010805,0.051427,89.317032,50.555328,-142.272171,,,
729716796.579508,-17.721272,0.685516,139.576577,-0.011749,-0.300629,0.944794,-0.100125,-0.010805,0.051427,89.317032,50.555328,-142.272171,,,
729716796.580956,-17.721274,0.685515,100.963375,-0.011749,-0.300629,0.944794,-0.100125,-0.010805,0.051427,89.317032,50.555328,-142.272171,,,
729716796.581323,-17.721269,0.685519,104.040226,-0.011749,-0.300629,0.944794,-0.100125,-0.010805,0.051427,89.317032,50.555328,-142.272171,,,
729716796.581964,-17.721272,0.685516,139.576577,-0.011749,-0.300629,0.944794,-0.100125,-0.010805,0.051427,89.317032,50.555328,-142.272171,,,
729716796.586046,-17.750824,0.68786,100.978901,-0.011749,-0.300629,0.944794,-0.108703,0.00107,0.039961,89.317032,50.555328,-142.272171,,,
729716796.587796,-17.750819,0.687864,104.055752,-0.011749,-0.300629,0.944794,-0.108703,0.00107,0.039961,89.317032,50.555328,-142.272171,,,
729716796.587962,-17.781319,0.690334,139.605681,-0.013229,-0.303299,0.947693,-0.108703,0.00107,0.039961,89.317032,50.555328,-142.272171,,,
729716796.588729,-17.781321,0.690333,100.992478,-0.013229,-0.303299,0.947693,-0.108703,0.00107,0.039961,89.317032,50.555328,-142.272171,,,
729716796.588891,-17.781319,0.690334,139.605681,-0.013229,-0.303299,0.947693,-0.108703,0.00107,0.039961,89.317032,50.555328,-142.272171,,,
729716796.591061,-17.781321,0.690333,100.992478,-0.013229,-0.303299,0.947693,-0.108703,0.00107,0.039961,89.317032,50.555328,-142.272171,,,
729716796.591882,-17.781316,0.690337,104.069329,-0.013229,-0.303299,0.947693,-0.108703,0.00107,0.039961,89.317032,50.555328,-142.272171,,,
729716796.592048,-17.781319,0.690334,139.605681,-0.013229,-0.303299,0.947693,-0.108703,0.00107,0.039961,89.317032,50.555328,-142.272171,,,
729716796.595872,-17.81324,0.693032,101.003487,-0.013229,-0.303299,0.947693,-0.115384,-0.001884,0.023628,89.317032,50.555328,-142.272171,,,
729716796.597252,-17.813235,0.693036,104.080339,-0.013229,-0.303299,0.947693,-0.115384,-0.001884,0.023628,89.317032,50.555328,-142.272171,,,
729716796.597378,-17.845582,0.694451,139.625305,-0.013229,-0.303299,0.947693,-0.115384,-0.001884,0.023628,89.317032,50.555328,-142.272171,,,
729716796.597899,-17.845585,0.69445,101.012101,-0.006866,-0.303543,0.944595,-0.115384,-0.001884,0.023628,89.317032,50.555328,-142.272171,,,
729716796.598415,-17.84558,0.694454,104.088952,-0.006866,-0.303543,0.944595,-0.115384,-0.001884,0.023628,89.317032,50.555328,-142.272171,,,
729716796.598592,-17.845582,0.694451,139.625305,-0.006866,-0.303543,0.944595,-0.115384,-0.001884,0.023628,89.317032,50.555328,-142.272171,,,
729716796.60138,-17.845585,0.69445,101.012101,-0.006866,-0.303543,0.944595,-0.115384,-0.001884,0.023628,89.16478,50.804276,-141.896881,,,
729716796.601851,-17.84558,0.694454,104.088952,-0.006866,-0.303543,0.944595,-0.115384,-0.001884,0.023628,89.16478,50.804276,-141.896881,,,
729716796.60197,-17.845582,0.694451,139.625305,-0.006866,-0.303543,0.944595,-0.115384,-0.001884,0.023628,89.16478,50.804276,-141.896881,,,
729716796.605559,-17.879844,0.696112,101.018169,-0.006866,-0.303543,0.944595,-0.13037,0.008944,0.009854,89.16478,50.804276,-141.896881,,,
729716796.606887,-17.879839,0.696115,104.09502,-0.006866,-0.303543,0.944595,-0.13037,0.008944,0.009854,89.16478,50.804276,-141.896881,,,
729716796.607003,-17.879842,0.696112,139.631372,-0.006866,-0.303543,0.944595,-0.13037,0.008944,0.009854,89.16478,50.804276,-141.896881,,,
729716796.607791,-17.917023,0.698829,101.022371,-0.009552,-0.304108,0.946564,-0.13037,0.008944,0.009854,89.16478,50.804276,-141.896881,,,
729716796.608242,-17.917018,0.698832,104.099222,-0.009552,-0.304108,0.946564,-0.13037,0.008944,0.009854,89.16478,50.804276,-141.896881,,,
729716796.608608,-17.917021,0.698829,139.635573,-0.009552,-0.304108,0.946564,-0.13037,0.008944,0.009854,89.16478,50.804276,-141.896881,,,
729716796.611048,-17.917023,0.698829,101.022371,-0.009552,-0.304108,0.946564,-0.13037,0.008944,0.009854,89.16478,50.804276,-141.896881,,,
729716796.61126,-17.917018,0.698832,104.099222,-0.009552,-0.304108,0.946564,-0.13037,0.008944,0.009854,89.16478,50.804276,-141.896881,,,
729716796.611939,-17.917021,0.698829,139.635573,-0.009552,-0.304108,0.946564,-0.13037,0.008944,0.009854,89.16478,50.804276,-141.896881,,,
729716796.615312,-17.955623,0.70027,101.026155,-0.009552,-0.304108,0.946564,-0.147414,-6.7e-05,0.013955,89.16478,50.804276,-141.896881,,,
729716796.616249,-17.955618,0.700274,104.103006,-0.009552,-0.304108,0.946564,-0.147414,-6.7e-05,0.013955,89.16478,50.804276,-141.896881,,,
729716796.616355,-17.955621,0.70027,139.639358,-0.009552,-0.304108,0.946564,-0.147414,-6.7e-05,0.013955,89.16478,50.804276,-141.896881,,,
729716796.617932,-17.997885,0.701132,101.03091,-0.011124,-0.305862,0.944199,-0.147414,-6.7e-05,0.013955,89.16478,50.804276,-141.896881,,,
729716796.618553,-17.99788,0.701136,104.107761,-0.011124,-0.305862,0.944199,-0.147414,-6.7e-05,0.013955,89.16478,50.804276,-141.896881,,,
729716796.618663,-17.997883,0.701133,139.644112,-0.011124,-0.305862,0.944199,-0.147414,-6.7e-05,0.013955,89.16478,50.804276,-141.896881,,,
729716796.621045,-17.997885,0.701132,101.03091,-0.011124,-0.305862,0.944199,-0.147414,-6.7e-05,0.013955,89.16478,50.804276,-141.896881,,,
729716796.621267,-17.99788,0.701136,104.107761,-0.011124,-0.305862,0.944199,-0.147414,-6.7e-05,0.013955,89.16478,50.804276,-141.896881,,,
729716796.621938,-17.997883,0.701133,139.644112,-0.011124,-0.305862,0.944199,-0.147414,-6.7e-05,0.013955,89.16478,50.804276,-141.896881,,,
729716796.625315,-18.042376,0.700474,101.036773,-0.011124,-0.305862,0.944199,-0.167712,-0.017545,0.021881,89.16478,50.804276,-141.896881,,,
729716796.626237,-18.042371,0.700478,104.113624,-0.011124,-0.305862,0.944199,-0.167712,-0.017545,0.021881,89.16478,50.804276,-141.896881,,,
729716796.626392,-18.042373,0.700475,139.649974,-0.011124,-0.305862,0.944199,-0.167712,-0.017545,0.021881,89.16478,50.804276,-141.896881,,,
729716796.627891,-18.090262,0.697925,101.044468,-0.012054,-0.308899,0.941193,-0.167712,-0.017545,0.021881,89.16478,50.804276,-141.896881,,,
729716796.628494,-18.090257,0.697929,104.121319,-0.012054,-0.308899,0.941193,-0.167712,-0.017545,0.021881,89.16478,50.804276,-141.896881,,,
729716796.628677,-18.09026,0.697926,139.657669,-0.012054,-0.308899,0.941193,-0.167712,-0.017545,0.021881,89.16478,50.804276,-141.896881,,,
729716796.63108,-18.090262,0.697925,101.044468,-0.012054,-0.308899,0.941193,-0.167712,-0.017545,0.021881,89.16478,50.804276,-141.896881,,,
729716796.631312,-18.090257,0.697929,104.121319,-0.012054,-0.308899,0.941193,-0.167712,-0.017545,0.021881,89.16478,50.804276,-141.896881,,,
729716796.631967,-18.09026,0.697926,139.657669,-0.012054,-0.308899,0.941193,-0.167712,-0.017545,0.021881,89.16478,50.804276,-141.896881,,,
729716796.635254,-18.141405,0.696203,101.05474,-0.012054,-0.308899,0.941193,-0.192106,-0.010997,0.035349,89.16478,50.804276,-141.896881,,,
729716796.636304,-18.1414,0.696207,104.131591,-0.012054,-0.308899,0.941193,-0.192106,-0.010997,0.035349,89.16478,50.804276,-141.896881,,,
729716796.636449,-18.141403,0.696204,139.667941,-0.012054,-0.308899,0.941193,-0.192106,-0.010997,0.035349,89.16478,50.804276,-141.896881,,,
729716796.6381,-18.196371,0.695195,101.065818,-0.012466,-0.31163,0.941422,-0.192106,-0.010997,0.035349,89.16478,50.804276,-141.896881,,,
729716796.638782,-18.196366,0.695198,104.142669,-0.012466,-0.31163,0.941422,-0.192106,-0.010997,0.035349,89.16478,50.804276,-141.896881,,,
729716796.638946,-18.196369,0.695195,139.679019,-0.012466,-0.31163,0.941422,-0.192106,-0.010997,0.035349,89.16478,50.804276,-141.896881,,,
729716796.641586,-18.196371,0.695195,101.065818,-0.012466,-0.31163,0.941422,-0.192106,-0.010997,0.035349,89.341568,50.849777,-141.521439,,,
729716796.642297,-18.196366,0.695198,104.142669,-0.012466,-0.31163,0.941422,-0.192106,-0.010997,0.035349,89.341568,50.849777,-141.521439,,,
729716796.642494,-18.196369,0.695195,139.679019,-0.012466,-0.31163,0.941422,-0.192106,-0.010997,0.035349,89.341568,50.849777,-141.521439,,,
729716796.645801,-18.252167,0.699227,101.078022,-0.012466,-0.31163,0.941422,-0.193697,0.029907,0.034053,89.341568,50.849777,-141.521439,,,
729716796.647416,-18.252162,0.699231,104.154873,-0.012466,-0.31163,0.941422,-0.193697,0.029907,0.034053,89.341568,50.849777,-141.521439,,,
729716796.647604,-18.307321,0.708491,139.70319,-0.007355,-0.312714,0.950516,-0.193697,0.029907,0.034053,89.341568,50.849777,-141.521439,,,
729716796.648589,-18.307323,0.70849,101.089984,-0.007355,-0.312714,0.950516,-0.193697,0.029907,0.034053,89.341568,50.849777,-141.521439,,,
729716796.649559,-18.307318,0.708494,104.166835,-0.007355,-0.312714,0.950516,-0.193697,0.029907,0.034053,89.341568,50.849777,-141.521439,,,
729716796.649705,-18.307321,0.708491,139.70319,-0.007355,-0.312714,0.950516,-0.193697,0.029907,0.034053,89.341568,50.849777,-141.521439,,,
729716796.650935,-18.307323,0.70849,101.089984,-0.007355,-0.312714,0.950516,-0.193697,0.029907,0.034053,89.341568,50.849777,-141.521439,,,
729716796.651337,-18.307318,0.708494,104.166835,-0.007355,-0.312714,0.950516,-0.193697,0.029907,0.034053,89.341568,50.849777,-141.521439,,,
729716796.652006,-18.307321,0.708491,139.70319,-0.007355,-0.312714,0.950516,-0.193697,0.029907,0.034053,89.341568,50.849777,-141.521439,,,
729716796.655325,-18.359452,0.722813,101.100777,-0.007355,-0.312714,0.950516,-0.17536,0.052799,0.02953,89.341568,50.849777,-141.521439,,,
729716796.656433,-18.359447,0.722817,104.177628,-0.007355,-0.312714,0.950516,-0.17536,0.052799,0.02953,89.341568,50.849777,-141.521439,,,
729716796.65658,-18.35945,0.722814,139.713983,-0.007355,-0.312714,0.950516,-0.17536,0.052799,0.02953,89.341568,50.849777,-141.521439,,,
729716796.658367,-18.410753,0.739813,101.110775,-0.000748,-0.31517,0.957352,-0.17536,0.052799,0.02953,89.341568,50.849777,-141.521439,,,
729716796.659246,-18.410748,0.739816,104.187626,-0.000748,-0.31517,0.957352,-0.17536,0.052799,0.02953,89.341568,50.849777,-141.521439,,,
729716796.659379,-18.410751,0.739813,139.723981,-0.000748,-0.31517,0.957352,-0.17536,0.052799,0.02953,89.341568,50.849777,-141.521439,,,
729716796.660928,-18.410753,0.739813,101.110775,-0.000748,-0.31517,0.957352,-0.17536,0.052799,0.02953,89.341568,50.849777,-141.521439,,,
729716796.661332,-18.410748,0.739816,104.187626,-0.000748,-0.31517,0.957352,-0.17536,0.052799,0.02953,89.341568,50.849777,-141.521439,,,
729716796.661981,-18.410751,0.739813,139.723981,-0.000748,-0.31517,0.957352,-0.17536,0.052799,0.02953,89.341568,50.849777,-141.521439,,,
729716796.665609,-18.45803,0.756823,101.121215,-0.000748,-0.31517,0.957352,-0.163066,0.043661,0.036978,89.341568,50.849777,-141.521439,,,
729716796.666949,-18.458025,0.756826,104.198066,-0.000748,-0.31517,0.957352,-0.163066,0.043661,0.036978,89.341568,50.849777,-141.521439,,,
729716796.667051,-18.458028,0.756823,139.734422,-0.000748,-0.31517,0.957352,-0.163066,0.043661,0.036978,89.341568,50.849777,-141.521439,,,
729716796.667453,-18.45803,0.756823,101.121215,-0.000748,-0.31517,0.957352,-0.163066,0.043661,0.036978,89.341568,50.849777,-141.521439,,,
729716796.668596,-18.505829,0.772711,104.209875,-0.007462,-0.322311,0.947098,-0.163066,0.043661,0.036978,89.341568,50.849777,-141.521439,,,
729716796.668711,-18.505832,0.772708,139.746231,-0.007462,-0.322311,0.947098,-0.163066,0.043661,0.036978,89.341568,50.849777,-141.521439,,,
729716796.671969,-18.505834,0.772707,101.133023,-0.007462,-0.322311,0.947098,-0.163066,0.043661,0.036978,89.341568,50.849777,-141.521439,,,
729716796.672194,-18.505829,0.772711,104.209875,-0.007462,-0.322311,0.947098,-0.163066,0.043661,0.036978,89.341568,50.849777,-141.521439,,,
729716796.672308,-18.505832,0.772708,139.746231,-0.007462,-0.322311,0.947098,-0.163066,0.043661,0.036978,89.341568,50.849777,-141.521439,,,
729716796.675263,-18.551269,0.786638,101.1465,-0.007462,-0.322311,0.947098,-0.158288,0.031011,0.048371,89.341568,50.849777,-141.521439,,,
729716796.67638,-18.551264,0.786641,104.223351,-0.007462,-0.322311,0.947098,-0.158288,0.031011,0.048371,89.341568,50.849777,-141.521439,,,
729716796.676526,-18.551267,0.786638,139.759703,-0.007462,-0.322311,0.947098,-0.158288,0.031011,0.048371,89.341568,50.849777,-141.521439,,,
729716796.677568,-18.551269,0.786638,101.1465,-0.007462,-0.322311,0.947098,-0.158288,0.031011,0.048371,89.341568,50.849777,-141.521439,,,
729716796.678665,-18.597668,0.800085,104.238781,-0.016281,-0.32634,0.937698,-0.158288,0.031011,0.048371,89.341568,50.849777,-141.521439,,,
729716796.678784,-18.597671,0.800081,139.775133,-0.016281,-0.32634,0.937698,-0.158288,0.031011,0.048371,89.341568,50.849777,-141.521439,,,
729716796.681994,-18.597673,0.800081,101.16193,-0.016281,-0.32634,0.937698,-0.158288,0.031011,0.048371,89.414932,51.315598,-141.35994,,,
729716796.682636,-18.597668,0.800085,104.238781,-0.016281,-0.32634,0.937698,-0.158288,0.031011,0.048371,89.414932,51.315598,-141.35994,,,
729716796.682772,-18.641927,0.812414,139.791517,-0.016281,-0.32634,0.937698,-0.166454,0.027029,0.056855,89.414932,51.315598,-141.35994,,,
729716796.685325,-18.641929,0.812413,101.178312,-0.016281,-0.32634,0.937698,-0.166454,0.027029,0.056855,89.414932,51.315598,-141.35994,,,
729716796.68645,-18.641924,0.812417,104.255163,-0.016281,-0.32634,0.937698,-0.166454,0.027029,0.056855,89.414932,51.315598,-141.35994,,,
729716796.686595,-18.641927,0.812414,139.791517,-0.016281,-0.32634,0.937698,-0.166454,0.027029,0.056855,89.414932,51.315598,-141.35994,,,
729716796.687597,-18.641929,0.812413,101.178312,-0.016281,-0.32634,0.937698,-0.166454,0.027029,0.056855,89.414932,51.315598,-141.35994,,,
729716796.688473,-18.6896,0.825286,104.272832,-0.012421,-0.327606,0.938934,-0.166454,0.027029,0.056855,89.414932,51.315598,-141.35994,,,
729716796.688602,-18.689603,0.825283,139.809187,-0.012421,-0.327606,0.938934,-0.166454,0.027029,0.056855,89.414932,51.315598,-141.35994,,,
729716796.691855,-18.689605,0.825282,101.195981,-0.012421,-0.327606,0.938934,-0.166454,0.027029,0.056855,89.414932,51.315598,-141.35994,,,
729716796.692076,-18.6896,0.825286,104.272832,-0.012421,-0.327606,0.938934,-0.166454,0.027029,0.056855,89.414932,51.315598,-141.35994,,,
729716796.692198,-18.689603,0.825283,139.809187,-0.012421,-0.327606,0.938934,-0.166454,0.027029,0.056855,89.414932,51.315598,-141.35994,,,
729716796.695134,-18.738027,0.837667,101.214107,-0.012421,-0.327606,0.938934,-0.189781,0.029261,0.057759,89.414932,51.315598,-141.35994,,,
729716796.69609,-18.738022,0.83767,104.290958,-0.012421,-0.327606,0.938934,-0.189781,0.029261,0.057759,89.414932,51.315598,-141.35994,,,
729716796.696234,-18.738025,0.837667,139.82731,-0.012421,-0.327606,0.938934,-0.189781,0.029261,0.057759,89.414932,51.315598,-141.35994,,,
729716796.697609,-18.738027,0.837667,101.214107,-0.012421,-0.327606,0.938934,-0.189781,0.029261,0.057759,89.414932,51.315598,-141.35994,,,
729716796.698361,-18.791407,0.850779,104.30933,-0.006607,-0.327911,0.936615,-0.189781,0.029261,0.057759,89.414932,51.315598,-141.35994,,,
729716796.698608,-18.79141,0.850776,139.845682,-0.006607,-0.327911,0.936615,-0.189781,0.029261,0.057759,89.414932,51.315598,-141.35994,,,
729716796.701687,-18.791412,0.850776,101.232479,-0.006607,-0.327911,0.936615,-0.189781,0.029261,0.057759,89.414932,51.315598,-141.35994,,,
729716796.701907,-18.791407,0.850779,104.30933,-0.006607,-0.327911,0.936615,-0.189781,0.029261,0.057759,89.414932,51.315598,-141.35994,,,
729716796.702044,-18.79141,0.850776,139.845682,-0.006607,-0.327911,0.936615,-0.189781,0.029261,0.057759,89.414932,51.315598,-141.35994,,,
729716796.705311,-18.847444,0.863619,101.250367,-0.006607,-0.327911,0.936615,-0.217312,0.02978,0.049013,89.414932,51.315598,-141.35994,,,
729716796.706426,-18.847439,0.863623,104.327218,-0.006607,-0.327911,0.936615,-0.217312,0.02978,0.049013,89.414932,51.315598,-141.35994,,,
729716796.706551,-18.847442,0.863619,139.863568,-0.006607,-0.327911,0.936615,-0.217312,0.02978,0.049013,89.414932,51.315598,-141.35994,,,
729716796.707565,-18.847444,0.863619,101.250367,-0.006607,-0.327911,0.936615,-0.217312,0.02978,0.049013,89.414932,51.315598,-141.35994,,,
729716796.708368,-18.90895,0.876533,104.343459,-0.011078,-0.327347,0.935211,-0.217312,0.02978,0.049013,89.414932,51.315598,-141.35994,,,
729716796.708607,-18.908953,0.87653,139.879811,-0.011078,-0.327347,0.935211,-0.217312,0.02978,0.049013,89.414932,51.315598,-141.35994,,,
729716796.711684,-18.908955,0.87653,101.266608,-0.011078,-0.327347,0.935211,-0.217312,0.02978,0.049013,89.414932,51.315598,-141.35994,,,
729716796.711903,-18.90895,0.876533,104.343459,-0.011078,-0.327347,0.935211,-0.217312,0.02978,0.049013,89.414932,51.315598,-141.35994,,,
729716796.712041,-18.908953,0.87653,139.879811,-0.011078,-0.327347,0.935211,-0.217312,0.02978,0.049013,89.414932,51.315598,-141.35994,,,
729716796.71545,-18.972033,0.890569,101.280347,-0.011078,-0.327347,0.935211,-0.233662,0.055776,0.029652,89.414932,51.315598,-141.35994,,,
729716796.716599,-18.972027,0.890572,104.357198,-0.011078,-0.327347,0.935211,-0.233662,0.055776,0.029652,89.414932,51.315598,-141.35994,,,
729716796.7167,-18.97203,0.890569,139.893552,-0.011078,-0.327347,0.935211,-0.233662,0.055776,0.029652,89.414932,51.315598,-141.35994,,,
729716796.717509,-18.972033,0.890569,101.280347,-0.011078,-0.327347,0.935211,-0.233662,0.055776,0.029652,89.414932,51.315598,-141.35994,,,
729716796.718586,-19.039255,0.908797,104.368258,-0.000961,-0.32724,0.947372,-0.233662,0.055776,0.029652,89.414932,51.315598,-141.35994,,,
729716796.718702,-19.039258,0.908794,139.904611,-0.000961,-0.32724,0.947372,-0.233662,0.055776,0.029652,89.414932,51.315598,-141.35994,,,
729716796.722441,-19.039261,0.908794,101.291407,-0.000961,-0.32724,0.947372,-0.233662,0.055776,0.029652,89.54364,51.606369,-141.316086,,,
729716796.72315,-19.039255,0.908797,104.368258,-0.000961,-0.32724,0.947372,-0.233662,0.055776,0.029652,89.54364,51.606369,-141.316086,,,
729716796.723298,-19.10762,0.929984,139.912491,-0.000961,-0.32724,0.947372,-0.265342,0.080941,0.012637,89.54364,51.606369,-141.316086,,,
729716796.725271,-19.107622,0.929984,101.299289,-0.000961,-0.32724,0.947372,-0.265342,0.080941,0.012637,89.54364,51.606369,-141.316086,,,
729716796.726425,-19.107617,0.929988,104.37614,-0.000961,-0.32724,0.947372,-0.265342,0.080941,0.012637,89.54364,51.606369,-141.316086,,,
729716796.726535,-19.10762,0.929984,139.912491,-0.000961,-0.32724,0.947372,-0.265342,0.080941,0.012637,89.54364,51.606369,-141.316086,,,
729716796.727559,-19.107622,0.929984,101.299289,-0.000961,-0.32724,0.947372,-0.265342,0.080941,0.012637,89.54364,51.606369,-141.316086,,,
729716796.729032,-19.182303,0.95408,104.382485,0.005783,-0.330048,0.958542,-0.265342,0.080941,0.012637,89.54364,51.606369,-141.316086,,,
729716796.729159,-19.182307,0.954077,139.918836,0.005783,-0.330048,0.958542,-0.265342,0.080941,0.012637,89.54364,51.606369,-141.316086,,,
729716796.732048,-19.182309,0.954076,101.305634,0.005783,-0.330048,0.958542,-0.265342,0.080941,0.012637,89.54364,51.606369,-141.316086,,,
729716796.732216,-19.182303,0.95408,104.382485,0.005783,-0.330048,0.958542,-0.265342,0.080941,0.012637,89.54364,51.606369,-141.316086,,,
729716796.732299,-19.182307,0.954077,139.918836,0.005783,-0.330048,0.958542,-0.265342,0.080941,0.012637,89.54364,51.606369,-141.316086,,,
729716796.735153,-19.260344,0.977,101.310487,0.005783,-0.330048,0.958542,-0.306153,0.090192,0.012447,89.54364,51.606369,-141.316086,,,
729716796.736295,-19.260338,0.977003,104.387338,0.005783,-0.330048,0.958542,-0.306153,0.090192,0.012447,89.54364,51.606369,-141.316086,,,
729716796.736452,-19.260341,0.977,139.92369,0.005783,-0.330048,0.958542,-0.306153,0.090192,0.012447,89.54364,51.606369,-141.316086,,,
729716796.737623,-19.260344,0.977,101.310487,0.005783,-0.330048,0.958542,-0.306153,0.090192,0.012447,89.54364,51.606369,-141.316086,,,
729716796.738938,-19.34739,1.003528,104.392877,0.003159,-0.337036,0.951691,-0.306153,0.090192,0.012447,89.54364,51.606369,-141.316086,,,
729716796.739106,-19.347393,1.003525,139.929232,0.003159,-0.337036,0.951691,-0.306153,0.090192,0.012447,89.54364,51.606369,-141.316086,,,
729716796.742084,-19.347395,1.003524,101.316026,0.003159,-0.337036,0.951691,-0.306153,0.090192,0.012447,89.54364,51.606369,-141.316086,,,
729716796.742318,-19.34739,1.003528,104.392877,0.003159,-0.337036,0.951691,-0.306153,0.090192,0.012447,89.54364,51.606369,-141.316086,,,
729716796.742445,-19.347393,1.003525,139.929232,0.003159,-0.337036,0.951691,-0.306153,0.090192,0.012447,89.54364,51.606369,-141.316086,,,
729716796.74525,-19.439627,1.030847,101.321402,0.003159,-0.337036,0.951691,-0.35637,0.118923,0.018327,89.54364,51.606369,-141.316086,,,
729716796.746502,-19.439622,1.03085,104.398254,0.003159,-0.337036,0.951691,-0.35637,0.118923,0.018327,89.54364,51.606369,-141.316086,,,
729716796.74665,-19.439625,1.030847,139.934609,0.003159,-0.337036,0.951691,-0.35637,0.118923,0.018327,89.54364,51.606369,-141.316086,,,
729716796.747568,-19.439627,1.030847,101.321402,0.003159,-0.337036,0.951691,-0.35637,0.118923,0.018327,89.54364,51.606369,-141.316086,,,
729716796.748767,-19.540576,1.06448,104.405599,0.000687,-0.339096,0.959045,-0.35637,0.118923,0.018327,89.54364,51.606369,-141.316086,,,
729716796.74893,-19.540579,1.064477,139.941955,0.000687,-0.339096,0.959045,-0.35637,0.118923,0.018327,89.54364,51.606369,-141.316086,,,
729716796.751813,-19.540581,1.064477,101.328748,0.000687,-0.339096,0.959045,-0.35637,0.118923,0.018327,89.54364,51.606369,-141.316086,,,
729716796.752038,-19.540576,1.06448,104.405599,0.000687,-0.339096,0.959045,-0.35637,0.118923,0.018327,89.54364,51.606369,-141.316086,,,
729716796.752156,-19.540579,1.064477,139.941955,0.000687,-0.339096,0.959045,-0.35637,0.118923,0.018327,89.54364,51.606369,-141.316086,,,
729716796.755546,-19.646515,1.104795,101.337798,0.000687,-0.339096,0.959045,-0.388132,0.176314,0.027291,89.54364,51.606369,-141.316086,,,
729716796.756704,-19.64651,1.104799,104.41465,0.000687,-0.339096,0.959045,-0.388132,0.176314,0.027291,89.54364,51.606369,-141.316086,,,
729716796.756856,-19.646513,1.104795,139.951004,0.000687,-0.339096,0.959045,-0.388132,0.176314,0.027291,89.54364,51.606369,-141.316086,,,
729716796.75755,-19.646515,1.104795,101.337798,0.000687,-0.339096,0.959045,-0.388132,0.176314,0.027291,89.54364,51.606369,-141.316086,,,
729716796.759064,-19.757081,1.15518,104.425148,0.005844,-0.338821,0.969086,-0.388132,0.176314,0.027291,89.54364,51.606369,-141.316086,,,
729716796.759257,-19.757084,1.155177,139.961503,0.005844,-0.338821,0.969086,-0.388132,0.176314,0.027291,89.54364,51.606369,-141.316086,,,
729716796.761921,-19.757086,1.155176,101.348297,0.005844,-0.338821,0.969086,-0.388132,0.176314,0.027291,89.54364,51.606369,-141.316086,,,
729716796.762161,-19.757081,1.15518,104.425148,0.005844,-0.338821,0.969086,-0.388132,0.176314,0.027291,89.54364,51.606369,-141.316086,,,
729716796.762286,-19.757084,1.155177,139.961503,0.005844,-0.338821,0.969086,-0.388132,0.176314,0.027291,89.54364,51.606369,-141.316086,,,
729716796.765712,-19.869283,1.217044,101.3592,0.005844,-0.338821,0.969086,-0.40417,0.269328,0.028229,89.819443,52.285553,-140.490067,,,
729716796.76728,-19.869277,1.217048,104.436051,0.005844,-0.338821,0.969086,-0.40417,0.269328,0.028229,89.819443,52.285553,-140.490067,,,
729716796.767438,-19.86928,1.217045,139.972405,0.005844,-0.338821,0.969086,-0.40417,0.269328,0.028229,89.819443,52.285553,-140.490067,,,
729716796.767662,-19.869283,1.217044,101.3592,0.005844,-0.338821,0.969086,-0.40417,0.269328,0.028229,89.819443,52.285553,-140.490067,,,
729716796.768971,-19.984725,1.293559,104.447402,0.016983,-0.339386,0.985977,-0.40417,0.269328,0.028229,89.819443,52.285553,-140.490067,,,
729716796.769098,-19.984728,1.293556,139.983755,0.016983,-0.339386,0.985977,-0.40417,0.269328,0.028229,89.819443,52.285553,-140.490067,,,
729716796.771932,-19.984731,1.293556,101.37055,0.016983,-0.339386,0.985977,-0.40417,0.269328,0.028229,89.819443,52.285553,-140.490067,,,
729716796.772171,-19.984725,1.293559,104.447402,0.016983,-0.339386,0.985977,-0.40417,0.269328,0.028229,89.819443,52.285553,-140.490067,,,
729716796.772288,-19.984728,1.293556,139.983755,0.016983,-0.339386,0.985977,-0.40417,0.269328,0.028229,89.819443,52.285553,-140.490067,,,
729716796.775292,-20.099151,1.380882,101.381088,0.016983,-0.339386,0.985977,-0.396781,0.338348,0.023215,89.819443,52.285553,-140.490067,,,
729716796.776426,-20.099145,1.380885,104.457939,0.016983,-0.339386,0.985977,-0.396781,0.338348,0.023215,89.819443,52.285553,-140.490067,,,
729716796.776584,-20.099149,1.380882,139.994291,0.016983,-0.339386,0.985977,-0.396781,0.338348,0.023215,89.819443,52.285553,-140.490067,,,
729716796.77754,-20.099151,1.380882,101.381088,0.016983,-0.339386,0.985977,-0.396781,0.338348,0.023215,89.819443,52.285553,-140.490067,,,
729716796.778463,-20.214112,1.478596,104.468574,0.016556,-0.342987,0.981308,-0.396781,0.338348,0.023215,89.819443,52.285553,-140.490067,,,
729716796.778597,-20.214116,1.478593,140.004925,0.016556,-0.342987,0.981308,-0.396781,0.338348,0.023215,89.819443,52.285553,-140.490067,,,
729716796.781816,-20.214118,1.478593,101.391723,0.016556,-0.342987,0.981308,-0.396781,0.338348,0.023215,89.819443,52.285553,-140.490067,,,
729716796.782035,-20.214112,1.478596,104.468574,0.016556,-0.342987,0.981308,-0.396781,0.338348,0.023215,89.819443,52.285553,-140.490067,,,
729716796.782151,-20.214116,1.478593,140.004925,0.016556,-0.342987,0.981308,-0.396781,0.338348,0.023215,89.819443,52.285553,-140.490067,,,
729716796.785285,-20.326022,1.580074,101.402238,0.016556,-0.342987,0.981308,-0.370626,0.344007,0.027953,89.819443,52.285553,-140.490067,,,
729716796.786387,-20.326016,1.580077,104.479089,0.016556,-0.342987,0.981308,-0.370626,0.344007,0.027953,89.819443,52.285553,-140.490067,,,
729716796.786542,-20.326019,1.580074,140.015441,0.016556,-0.342987,0.981308,-0.370626,0.344007,0.027953,89.819443,52.285553,-140.490067,,,
729716796.78754,-20.326022,1.580074,101.402238,0.016556,-0.342987,0.981308,-0.370626,0.344007,0.027953,89.819443,52.285553,-140.490067,,,
729716796.789267,-20.432747,1.681986,104.490992,-0.001144,-0.354767,0.967453,-0.370626,0.344007,0.027953,89.819443,52.285553,-140.490067,,,
729716796.789407,-20.43275,1.681982,140.027347,-0.001144,-0.354767,0.967453,-0.370626,0.344007,0.027953,89.819443,52.285553,-140.490067,,,
729716796.792189,-20.432752,1.681982,101.414141,-0.001144,-0.354767,0.967453,-0.370626,0.344007,0.027953,89.819443,52.285553,-140.490067,,,
729716796.792365,-20.432747,1.681986,104.490992,-0.001144,-0.354767,0.967453,-0.370626,0.344007,0.027953,89.819443,52.285553,-140.490067,,,
729716796.792447,-20.43275,1.681982,140.027347,-0.001144,-0.354767,0.967453,-0.370626,0.344007,0.027953,89.819443,52.285553,-140.490067,,,
729716796.795061,-20.53312,1.781356,101.428673,-0.001144,-0.354767,0.967453,-0.313864,0.297336,0.047961,89.819443,52.285553,-140.490067,,,
729716796.796256,-20.533114,1.781359,104.505524,-0.001144,-0.354767,0.967453,-0.313864,0.297336,0.047961,89.819443,52.285553,-140.490067,,,
729716796.796407,-20.533118,1.781356,140.04188,-0.001144,-0.354767,0.967453,-0.313864,0.297336,0.047961,89.819443,52.285553,-140.490067,,,
729716796.797554,-20.53312,1.781356,101.428673,-0.001144,-0.354767,0.967453,-0.313864,0.297336,0.047961,89.819443,52.285553,-140.490067,,,
729716796.798665,-20.625284,1.874182,104.52288,-0.028351,-0.367905,0.963852,-0.313864,0.297336,0.047961,89.819443,52.285553,-140.490067,,,
729716796.798787,-20.625288,1.874179,140.059234,-0.028351,-0.367905,0.963852,-0.313864,0.297336,0.047961,89.819443,52.285553,-140.490067,,,
729716796.801729,-20.62529,1.874178,101.446029,-0.028351,-0.367905,0.963852,-0.313864,0.297336,0.047961,89.819443,52.285553,-140.490067,,,
729716796.801886,-20.625284,1.874182,104.52288,-0.028351,-0.367905,0.963852,-0.313864,0.297336,0.047961,89.819443,52.285553,-140.490067,,,
729716796.801965,-20.625288,1.874179,140.059234,-0.028351,-0.367905,0.963852,-0.313864,0.297336,0.047961,89.819443,52.285553,-140.490067,,,
729716796.805915,-20.706586,1.956335,101.466329,-0.028351,-0.367905,0.963852,-0.234953,0.207257,0.067134,90.412369,52.779022,-139.964996,,,
729716796.807305,-20.70658,1.956338,104.54318,-0.028351,-0.367905,0.963852,-0.234953,0.207257,0.067134,90.412369,52.779022,-139.964996,,,
729716796.807419,-20.706583,1.956335,140.079536,-0.028351,-0.367905,0.963852,-0.234953,0.207257,0.067134,90.412369,52.779022,-139.964996,,,
729716796.807559,-20.706586,1.956335,101.466329,-0.028351,-0.367905,0.963852,-0.234953,0.207257,0.067134,90.412369,52.779022,-139.964996,,,
729716796.808677,-20.776341,2.027006,104.566019,-0.054504,-0.377655,0.952576,-0.234953,0.207257,0.067134,90.412369,52.779022,-139.964996,,,
729716796.808797,-20.776344,2.027003,140.102375,-0.054504,-0.377655,0.952576,-0.234953,0.207257,0.067134,90.412369,52.779022,-139.964996,,,
729716796.811739,-20.776346,2.027002,101.489168,-0.054504,-0.377655,0.952576,-0.234953,0.207257,0.067134,90.412369,52.779022,-139.964996,,,
729716796.811898,-20.776341,2.027006,104.566019,-0.054504,-0.377655,0.952576,-0.234953,0.207257,0.067134,90.412369,52.779022,-139.964996,,,
729716796.811976,-20.776344,2.027003,140.102375,-0.054504,-0.377655,0.952576,-0.234953,0.207257,0.067134,90.412369,52.779022,-139.964996,,,
729716796.815068,-20.835698,2.089206,101.514042,-0.054504,-0.377655,0.952576,-0.179231,0.175423,0.082126,90.412369,52.779022,-139.964996,,,
729716796.81592,-20.835692,2.089209,104.590893,-0.054504,-0.377655,0.952576,-0.179231,0.175423,0.082126,90.412369,52.779022,-139.964996,,,
729716796.81602,-20.835696,2.089206,140.127244,-0.054504,-0.377655,0.952576,-0.179231,0.175423,0.082126,90.412369,52.779022,-139.964996,,,
729716796.817608,-20.835698,2.089206,101.514042,-0.054504,-0.377655,0.952576,-0.179231,0.175423,0.082126,90.412369,52.779022,-139.964996,,,
729716796.818567,-20.887712,2.148484,104.61811,-0.068314,-0.378998,0.961472,-0.179231,0.175423,0.082126,90.412369,52.779022,-139.964996,,,
729716796.818688,-20.887715,2.148481,140.154462,-0.068314,-0.378998,0.961472,-0.179231,0.175423,0.082126,90.412369,52.779022,-139.964996,,,
729716796.821646,-20.887718,2.148481,101.541259,-0.068314,-0.378998,0.961472,-0.179231,0.175423,0.082126,90.412369,52.779022,-139.964996,,,
729716796.821795,-20.887712,2.148484,104.61811,-0.068314,-0.378998,0.961472,-0.179231,0.175423,0.082126,90.412369,52.779022,-139.964996,,,
729716796.821905,-20.887715,2.148481,140.154462,-0.068314,-0.378998,0.961472,-0.179231,0.175423,0.082126,90.412369,52.779022,-139.964996,,,
729716796.825486,-20.935598,2.209667,101.570426,-0.068314,-0.378998,0.961472,-0.15208,0.195956,0.094384,90.412369,52.779022,-139.964996,,,
729716796.826726,-20.935593,2.20967,104.647277,-0.068314,-0.378998,0.961472,-0.15208,0.195956,0.094384,90.412369,52.779022,-139.964996,,,
729716796.82684,-20.935596,2.209667,140.183633,-0.068314,-0.378998,0.961472,-0.15208,0.195956,0.094384,90.412369,52.779022,-139.964996,,,
729716796.827476,-20.935598,2.209667,101.570426,-0.068314,-0.378998,0.961472,-0.15208,0.195956,0.094384,90.412369,52.779022,-139.964996,,,
729716796.828472,-20.979328,2.27477,104.678242,-0.065247,-0.377396,0.96936,-0.15208,0.195956,0.094384,90.412369,52.779022,-139.964996,,,
729716796.8286,-20.979332,2.274767,140.214598,-0.065247,-0.377396,0.96936,-0.15208,0.195956,0.094384,90.412369,52.779022,-139.964996,,,
729716796.831832,-20.979334,2.274766,101.60139,-0.065247,-0.377396,0.96936,-0.15208,0.195956,0.094384,90.412369,52.779022,-139.964996,,,
729716796.832055,-20.979328,2.27477,104.678242,-0.065247,-0.377396,0.96936,-0.15208,0.195956,0.094384,90.412369,52.779022,-139.964996,,,
729716796.832182,-20.979332,2.274767,140.214598,-0.065247,-0.377396,0.96936,-0.15208,0.195956,0.094384,90.412369,52.779022,-139.964996,,,
729716796.835419,-21.019406,2.345737,101.635383,-0.065247,-0.377396,0.96936,-0.133179,0.236587,0.116596,90.412369,52.779022,-139.964996,,,
729716796.836641,-21.0194,2.34574,104.712234,-0.065247,-0.377396,0.96936,-0.133179,0.236587,0.116596,90.412369,52.779022,-139.964996,,,
729716796.836739,-21.019403,2.345737,140.248586,-0.065247,-0.377396,0.96936,-0.133179,0.236587,0.116596,90.412369,52.779022,-139.964996,,,
729716796.837486,-21.019406,2.345737,101.635383,-0.065247,-0.377396,0.96936,-0.133179,0.236587,0.116596,90.412369,52.779022,-139.964996,,,
729716796.838464,-21.056626,2.424599,104.749762,-0.058426,-0.378235,0.965393,-0.133179,0.236587,0.116596,90.412369,52.779022,-139.964996,,,
729716796.838667,-21.05663,2.424596,140.286113,-0.058426,-0.378235,0.965393,-0.133179,0.236587,0.116596,90.412369,52.779022,-139.964996,,,
729716796.841577,-21.056632,2.424595,101.672911,-0.058426,-0.378235,0.965393,-0.133179,0.236587,0.116596,90.412369,52.779022,-139.964996,,,
729716796.841727,-21.056626,2.424599,104.749762,-0.058426,-0.378235,0.965393,-0.133179,0.236587,0.116596,90.412369,52.779022,-139.964996,,,
729716796.841873,-21.05663,2.424596,140.286113,-0.058426,-0.378235,0.965393,-0.133179,0.236587,0.116596,90.412369,52.779022,-139.964996,,,
729716796.845834,-21.092479,2.512422,101.714923,-0.058426,-0.378235,0.965393,-0.128154,0.292857,0.150476,91.006943,53.022751,-139.566101,,,
729716796.847076,-21.092473,2.512425,104.791774,-0.058426,-0.378235,0.965393,-0.128154,0.292857,0.150476,91.006943,53.022751,-139.566101,,,
729716796.847185,-21.092477,2.512422,140.328126,-0.058426,-0.378235,0.965393,-0.128154,0.292857,0.150476,91.006943,53.022751,-139.566101,,,
729716796.847437,-21.092479,2.512422,101.714923,-0.058426,-0.378235,0.965393,-0.128154,0.292857,0.150476,91.006943,53.022751,-139.566101,,,
729716796.8484,-21.128434,2.609994,104.838891,-0.059097,-0.377869,0.966141,-0.128154,0.292857,0.150476,91.006943,53.022751,-139.566101,,,
729716796.848609,-21.128437,2.609991,140.375242,-0.059097,-0.377869,0.966141,-0.128154,0.292857,0.150476,91.006943,53.022751,-139.566101,,,
729716796.85146,-21.128439,2.609991,101.76204,-0.059097,-0.377869,0.966141,-0.128154,0.292857,0.150476,91.006943,53.022751,-139.566101,,,
729716796.851608,-21.128434,2.609994,104.838891,-0.059097,-0.377869,0.966141,-0.128154,0.292857,0.150476,91.006943,53.022751,-139.566101,,,
729716796.851896,-21.128437,2.609991,140.375242,-0.059097,-0.377869,0.966141,-0.128154,0.292857,0.150476,91.006943,53.022751,-139.566101,,,
729716796.855471,-21.165456,2.717624,101.814144,-0.059097,-0.377869,0.966141,-0.152595,0.344957,0.177867,91.006943,53.022751,-139.566101,,,
729716796.856732,-21.16545,2.717627,104.890995,-0.059097,-0.377869,0.966141,-0.152595,0.344957,0.177867,91.006943,53.022751,-139.566101,,,
729716796.856853,-21.165454,2.717624,140.42735,-0.059097,-0.377869,0.966141,-0.152595,0.344957,0.177867,91.006943,53.022751,-139.566101,,,
729716796.857474,-21.165456,2.717624,101.814144,-0.059097,-0.377869,0.966141,-0.152595,0.344957,0.177867,91.006943,53.022751,-139.566101,,,
729716796.858485,-21.205038,2.835029,104.947833,-0.056198,-0.375092,0.957764,-0.152595,0.344957,0.177867,91.006943,53.022751,-139.566101,,,
729716796.858621,-21.205042,2.835026,140.48419,-0.056198,-0.375092,0.957764,-0.152595,0.344957,0.177867,91.006943,53.022751,-139.566101,,,
729716796.86184,-21.205044,2.835026,101.870982,-0.056198,-0.375092,0.957764,-0.152595,0.344957,0.177867,91.006943,53.022751,-139.566101,,,
729716796.86206,-21.205038,2.835029,104.947833,-0.056198,-0.375092,0.957764,-0.152595,0.344957,0.177867,91.006943,53.022751,-139.566101,,,
729716796.862172,-21.205042,2.835026,140.48419,-0.056198,-0.375092,0.957764,-0.152595,0.344957,0.177867,91.006943,53.022751,-139.566101,,,
729716796.865425,-21.247859,2.96175,101.931704,-0.056198,-0.375092,0.957764,-0.172285,0.398465,0.19772,91.006943,53.022751,-139.566101,,,
729716796.866688,-21.247853,2.961753,105.008555,-0.056198,-0.375092,0.957764,-0.172285,0.398465,0.19772,91.006943,53.022751,-139.566101,,,
729716796.866788,-21.247857,2.96175,140.544907,-0.056198,-0.375092,0.957764,-0.172285,0.398465,0.19772,91.006943,53.022751,-139.566101,,,
729716796.867479,-21.247859,2.96175,101.931704,-0.056198,-0.375092,0.957764,-0.172285,0.398465,0.19772,91.006943,53.022751,-139.566101,,,
729716796.868302,-21.247853,2.961753,105.008555,-0.052643,-0.37059,0.950684,-0.172285,0.398465,0.19772,91.006943,53.022751,-139.566101,,,
729716796.868609,-21.293645,3.096694,140.608621,-0.052643,-0.37059,0.950684,-0.172285,0.398465,0.19772,91.006943,53.022751,-139.566101,,,
729716796.872127,-21.293648,3.096694,101.995416,-0.052643,-0.37059,0.950684,-0.172285,0.398465,0.19772,91.006943,53.022751,-139.566101,,,
729716796.872998,-21.293642,3.096697,105.072267,-0.052643,-0.37059,0.950684,-0.172285,0.398465,0.19772,91.006943,53.022751,-139.566101,,,
729716796.873139,-21.343385,3.237009,140.673643,-0.052643,-0.37059,0.950684,-0.195419,0.410937,0.199306,91.006943,53.022751,-139.566101,,,
729716796.875163,-21.343387,3.237009,102.060441,-0.052643,-0.37059,0.950684,-0.195419,0.410937,0.199306,91.006943,53.022751,-139.566101,,,
729716796.876274,-21.343381,3.237012,105.137292,-0.052643,-0.37059,0.950684,-0.195419,0.410937,0.199306,91.006943,53.022751,-139.566101,,,
729716796.876415,-21.343385,3.237009,140.673643,-0.052643,-0.37059,0.950684,-0.195419,0.410937,0.199306,91.006943,53.022751,-139.566101,,,
729716796.877552,-21.343387,3.237009,102.060441,-0.052643,-0.37059,0.950684,-0.195419,0.410937,0.199306,91.006943,53.022751,-139.566101,,,
729716796.878541,-21.395971,3.377972,105.201962,-0.054611,-0.365326,0.934921,-0.195419,0.410937,0.199306,91.006943,53.022751,-139.566101,,,
729716796.878656,-21.395975,3.377969,140.738314,-0.054611,-0.365326,0.934921,-0.195419,0.410937,0.199306,91.006943,53.022751,-139.566101,,,
729716796.881842,-21.395977,3.377969,102.125111,-0.054611,-0.365326,0.934921,-0.195419,0.410937,0.199306,91.006943,53.022751,-139.566101,,,
729716796.882071,-21.395971,3.377972,105.201962,-0.054611,-0.365326,0.934921,-0.195419,0.410937,0.199306,91.006943,53.022751,-139.566101,,,
729716796.882189,-21.395975,3.377969,140.738314,-0.054611,-0.365326,0.934921,-0.195419,0.410937,0.199306,91.006943,53.022751,-139.566101,,,
729716796.885728,-21.447187,3.516759,102.188034,-0.054611,-0.365326,0.934921,-0.171651,0.395343,0.175733,91.761398,53.015472,-138.940704,,,
729716796.887001,-21.447181,3.516762,105.264885,-0.054611,-0.365326,0.934921,-0.171651,0.395343,0.175733,91.761398,53.015472,-138.940704,,,
729716796.887118,-21.447185,3.516759,140.801237,-0.054611,-0.365326,0.934921,-0.171651,0.395343,0.175733,91.761398,53.015472,-138.940704,,,
729716796.88744,-21.447187,3.516759,102.188034,-0.054611,-0.365326,0.934921,-0.171651,0.395343,0.175733,91.761398,53.015472,-138.940704,,,
729716796.887962,-21.447181,3.516762,105.264885,-0.054611,-0.365326,0.934921,-0.171651,0.395343,0.175733,91.761398,53.015472,-138.940704,,,
729716796.888599,-21.494149,3.651465,140.860406,-0.05275,-0.35759,0.925812,-0.171651,0.395343,0.175733,91.761398,53.015472,-138.940704,,,
729716796.891571,-21.494152,3.651465,102.247201,-0.05275,-0.35759,0.925812,-0.171651,0.395343,0.175733,91.761398,53.015472,-138.940704,,,
729716796.892235,-21.494146,3.651468,105.324053,-0.05275,-0.35759,0.925812,-0.171651,0.395343,0.175733,91.761398,53.015472,-138.940704,,,
729716796.892355,-21.494149,3.651465,140.860406,-0.05275,-0.35759,0.925812,-0.171651,0.395343,0.175733,91.761398,53.015472,-138.940704,,,
729716796.895366,-21.536557,3.779185,102.30138,-0.05275,-0.35759,0.925812,-0.135707,0.335231,0.146664,91.761398,53.015472,-138.940704,,,
729716796.896506,-21.536551,3.779188,105.378231,-0.05275,-0.35759,0.925812,-0.135707,0.335231,0.146664,91.761398,53.015472,-138.940704,,,
729716796.896604,-21.536554,3.779185,140.914586,-0.05275,-0.35759,0.925812,-0.135707,0.335231,0.146664,91.761398,53.015472,-138.940704,,,
729716796.897536,-21.536557,3.779185,102.30138,-0.05275,-0.35759,0.925812,-0.135707,0.335231,0.146664,91.761398,53.015472,-138.940704,,,
729716796.897949,-21.536551,3.779188,105.378231,-0.05275,-0.35759,0.925812,-0.135707,0.335231,0.146664,91.761398,53.015472,-138.940704,,,
729716796.898604,-21.573966,3.895897,140.963947,-0.063126,-0.35408,0.928986,-0.135707,0.335231,0.146664,91.761398,53.015472,-138.940704,,,
729716796.901989,-21.573968,3.895897,102.350743,-0.063126,-0.35408,0.928986,-0.135707,0.335231,0.146664,91.761398,53.015472,-138.940704,,,
729716796.903546,-21.573962,3.8959,105.427594,-0.063126,-0.35408,0.928986,-0.112329,0.216386,0.122913,91.761398,53.015472,-138.940704,,,
729716796.903714,-21.607204,3.996775,141.009305,-0.063126,-0.35408,0.928986,-0.112329,0.216386,0.122913,91.761398,53.015472,-138.940704,,,
729716796.905217,-21.607206,3.996775,102.3961,-0.063126,-0.35408,0.928986,-0.112329,0.216386,0.122913,91.761398,53.015472,-138.940704,,,
729716796.906023,-21.6072,3.996778,105.472951,-0.063126,-0.35408,0.928986,-0.112329,0.216386,0.122913,91.761398,53.015472,-138.940704,,,
729716796.906156,-21.607204,3.996775,141.009305,-0.063126,-0.35408,0.928986,-0.112329,0.216386,0.122913,91.761398,53.015472,-138.940704,,,
729716796.907618,-21.607206,3.996775,102.3961,-0.063126,-0.35408,0.928986,-0.112329,0.216386,0.122913,91.761398,53.015472,-138.940704,,,
729716796.909116,-21.63797,4.078392,105.514507,-0.07666,-0.35051,0.903427,-0.112329,0.216386,0.122913,91.761398,53.015472,-138.940704,,,
729716796.909303,-21.637974,4.078389,141.05086,-0.07666,-0.35051,0.903427,-0.112329,0.216386,0.122913,91.761398,53.015472,-138.940704,,,
729716796.911898,-21.637976,4.078389,102.437656,-0.07666,-0.35051,0.903427,-0.112329,0.216386,0.122913,91.761398,53.015472,-138.940704,,,
729716796.912122,-21.63797,4.078392,105.514507,-0.07666,-0.35051,0.903427,-0.112329,0.216386,0.122913,91.761398,53.015472,-138.940704,,,
729716796.912247,-21.637974,4.078389,141.05086,-0.07666,-0.35051,0.903427,-0.112329,0.216386,0.122913,91.761398,53.015472,-138.940704,,,
729716796.915395,-21.668824,4.14035,102.475131,-0.07666,-0.35051,0.903427,-0.12696,0.105063,0.091656,91.761398,53.015472,-138.940704,,,
729716796.916644,-21.668818,4.140353,105.551983,-0.07666,-0.35051,0.903427,-0.12696,0.105063,0.091656,91.761398,53.015472,-138.940704,,,
729716796.91679,-21.668822,4.14035,141.088336,-0.07666,-0.35051,0.903427,-0.12696,0.105063,0.091656,91.761398,53.015472,-138.940704,,,
729716796.917528,-21.668824,4.14035,102.475131,-0.07666,-0.35051,0.903427,-0.12696,0.105063,0.091656,91.761398,53.015472,-138.940704,,,
729716796.918031,-21.668818,4.140353,105.551983,-0.07666,-0.35051,0.903427,-0.12696,0.105063,0.091656,91.761398,53.015472,-138.940704,,,
729716796.918628,-21.702732,4.185254,141.121304,-0.077011,-0.346878,0.885284,-0.12696,0.105063,0.091656,91.761398,53.015472,-138.940704,,,
729716796.92184,-21.702735,4.185254,102.508098,-0.077011,-0.346878,0.885284,-0.12696,0.105063,0.091656,91.761398,53.015472,-138.940704,,,
729716796.9228,-21.702729,4.185257,105.58495,-0.077011,-0.346878,0.885284,-0.12696,0.105063,0.091656,91.761398,53.015472,-138.940704,,,
729716796.922949,-21.702732,4.185254,141.121304,-0.077011,-0.346878,0.885284,-0.12696,0.105063,0.091656,91.761398,53.015472,-138.940704,,,
729716796.925352,-21.740958,4.215269,102.535753,-0.077011,-0.346878,0.885284,-0.15797,0.023971,0.052592,91.761398,53.015472,-138.940704,,,
729716796.926743,-21.740952,4.215271,105.612605,-0.077011,-0.346878,0.885284,-0.15797,0.023971,0.052592,91.761398,53.015472,-139.112549,,,
729716796.926851,-21.740955,4.215269,141.14896,-0.077011,-0.346878,0.885284,-0.15797,0.023971,0.052592,92.238998,53.332413,-139.112549,,,
729716796.92779,-21.740958,4.215269,102.535753,-0.077011,-0.346878,0.885284,-0.15797,0.023971,0.052592,92.238998,53.332413,-139.112549,,,
729716796.928164,-21.740952,4.215271,105.612605,-0.077011,-0.346878,0.885284,-0.15797,0.023971,0.052592,92.238998,53.332413,-139.112549,,,
729716796.928609,-21.783528,4.231962,141.170762,-0.071442,-0.346634,0.883575,-0.15797,0.023971,0.052592,92.238998,53.332413,-139.112549,,,
729716796.932006,-21.783531,4.231962,102.557556,-0.071442,-0.346634,0.883575,-0.15797,0.023971,0.052592,92.238998,53.332413,-139.112549,,,
729716796.93312,-21.783524,4.231964,105.634407,-0.071442,-0.346634,0.883575,-0.15797,0.023971,0.052592,92.238998,53.332413,-139.112549,,,
729716796.93327,-21.831637,4.236879,141.186313,-0.071442,-0.346634,0.883575,-0.192951,-0.039195,0.002867,92.238998,53.332413,-139.112549,,,
729716796.936545,-21.831639,4.236879,102.573111,-0.071442,-0.346634,0.883575,-0.192951,-0.039195,0.002867,92.238998,53.332413,-139.112549,,,
729716796.937999,-21.831633,4.236882,105.649962,-0.071442,-0.346634,0.883575,-0.192951,-0.039195,0.002867,92.238998,53.332413,-139.112549,,,
729716796.938131,-21.885735,4.229949,141.194831,-0.071442,-0.346634,0.883575,-0.192951,-0.039195,0.002867,92.238998,53.332413,-139.112549,,,
729716796.938918,-21.885738,4.229949,102.58163,-0.062103,-0.342682,0.884628,-0.192951,-0.039195,0.002867,92.238998,53.332413,-139.112549,,,
729716796.93903,-21.885735,4.229949,141.194831,-0.062103,-0.342682,0.884628,-0.192951,-0.039195,0.002867,92.238998,53.332413,-139.112549,,,
729716796.941005,-21.885738,4.229949,102.58163,-0.062103,-0.342682,0.884628,-0.192951,-0.039195,0.002867,92.238998,53.332413,-139.112549,,,
729716796.941908,-21.885731,4.229951,105.658481,-0.062103,-0.342682,0.884628,-0.192951,-0.039195,0.002867,92.238998,53.332413,-139.112549,,,
729716796.942032,-21.885735,4.229949,141.194831,-0.062103,-0.342682,0.884628,-0.192951,-0.039195,0.002867,92.238998,53.332413,-139.112549,,,
729716796.945525,-21.945713,4.211088,102.582273,-0.062103,-0.342682,0.884628,-0.232719,-0.09611,-0.047629,92.238998,53.332413,-139.112549,,,
729716796.946759,-21.945707,4.211091,105.659124,-0.062103,-0.342682,0.884628,-0.232719,-0.09611,-0.047629,92.238998,53.332413,-139.112549,,,
729716796.946875,-21.945711,4.211088,141.195476,-0.062103,-0.342682,0.884628,-0.232719,-0.09611,-0.047629,92.238998,53.332413,-139.112549,,,
729716796.947485,-21.945713,4.211088,102.582273,-0.062103,-0.342682,0.884628,-0.232719,-0.09611,-0.047629,92.238998,53.332413,-139.112549,,,
729716796.947983,-21.945707,4.211091,105.659124,-0.062103,-0.342682,0.884628,-0.232719,-0.09611,-0.047629,92.238998,53.332413,-139.112549,,,
729716796.94861,-22.012016,4.182094,141.188517,-0.059586,-0.338882,0.881317,-0.232719,-0.09611,-0.047629,92.238998,53.332413,-139.112549,,,
729716796.951388,-22.012018,4.182094,102.575313,-0.059586,-0.338882,0.881317,-0.232719,-0.09611,-0.047629,92.238998,53.332413,-139.112549,,,
729716796.951949,-22.012012,4.182097,105.652165,-0.059586,-0.338882,0.881317,-0.232719,-0.09611,-0.047629,92.238998,53.332413,-139.112549,,,
729716796.952059,-22.012016,4.182094,141.188517,-0.059586,-0.338882,0.881317,-0.232719,-0.09611,-0.047629,92.238998,53.332413,-139.112549,,,
729716796.955073,-22.084714,4.14586,102.561464,-0.059586,-0.338882,0.881317,-0.27307,-0.115327,-0.087451,92.238998,53.332413,-139.112549,,,
729716796.955932,-22.084708,4.145863,105.638315,-0.059586,-0.338882,0.881317,-0.27307,-0.115327,-0.087451,92.238998,53.332413,-139.112549,,,
729716796.956039,-22.084712,4.14586,141.174668,-0.059586,-0.338882,0.881317,-0.27307,-0.115327,-0.087451,92.238998,53.332413,-139.112549,,,
729716796.957608,-22.084714,4.14586,102.561464,-0.059586,-0.338882,0.881317,-0.27307,-0.115327,-0.087451,92.238998,53.332413,-139.112549,,,
729716796.957941,-22.084708,4.145863,105.638315,-0.059586,-0.338882,0.881317,-0.27307,-0.115327,-0.087451,92.238998,53.332413,-139.112549,,,
729716796.958604,-22.163744,4.104704,141.15511,-0.056702,-0.340897,0.890457,-0.27307,-0.115327,-0.087451,92.238998,53.332413,-139.112549,,,
729716796.961837,-22.163746,4.104704,102.541905,-0.056702,-0.340897,0.890457,-0.27307,-0.115327,-0.087451,92.238998,53.332413,-139.112549,,,
729716796.962794,-22.16374,4.104706,105.618756,-0.056702,-0.340897,0.890457,-0.27307,-0.115327,-0.087451,92.238998,53.332413,-139.112549,,,
729716796.962922,-22.163744,4.104704,141.15511,-0.056702,-0.340897,0.890457,-0.27307,-0.115327,-0.087451,92.238998,53.332413,-139.112549,,,
729716796.964964,-22.24906,4.059994,102.517673,-0.056702,-0.340897,0.890457,-0.318647,-0.131304,-0.116193,92.238998,53.332413,-139.112549,,,
729716796.965824,-22.249054,4.059996,105.594524,-0.056702,-0.340897,0.890457,-0.318647,-0.131304,-0.116193,92.238998,53.332413,-139.112549,,,
729716796.965942,-22.249058,4.059994,141.130879,-0.056702,-0.340897,0.890457,-0.318647,-0.131304,-0.116193,92.238998,53.332413,-139.112549,,,
729716796.967916,-22.24906,4.059994,102.517673,-0.056702,-0.340897,0.890457,-0.318647,-0.131304,-0.116193,92.06842,53.610489,-138.484558,,,
729716796.968412,-22.249054,4.059996,105.594524,-0.056702,-0.340897,0.890457,-0.318647,-0.131304,-0.116193,92.06842,53.610489,-138.484558,,,
729716796.968585,-22.340727,4.011474,141.102905,-0.056381,-0.349503,0.891022,-0.318647,-0.131304,-0.116193,92.06842,53.610489,-138.484558,,,
729716796.971831,-22.340729,4.011473,102.489698,-0.056381,-0.349503,0.891022,-0.318647,-0.131304,-0.116193,92.06842,53.610489,-138.484558,,,
729716796.972779,-22.340723,4.011476,105.566549,-0.056381,-0.349503,0.891022,-0.318647,-0.131304,-0.116193,92.06842,53.610489,-138.484558,,,
729716796.97292,-22.340727,4.011474,141.102905,-0.056381,-0.349503,0.891022,-0.318647,-0.131304,-0.116193,92.06842,53.610489,-138.484558,,,
729716796.975333,-22.437543,3.959469,102.459665,-0.056381,-0.349503,0.891022,-0.340502,-0.138491,-0.125825,92.06842,53.610489,-138.484558,,,
729716796.976583,-22.437536,3.959472,105.536516,-0.056381,-0.349503,0.891022,-0.340502,-0.138491,-0.125825,92.06842,53.610489,-138.484558,,,
729716796.976733,-22.43754,3.959469,141.072868,-0.056381,-0.349503,0.891022,-0.340502,-0.138491,-0.125825,92.06842,53.610489,-138.484558,,,
729716796.977489,-22.437543,3.959469,102.459665,-0.056381,-0.349503,0.891022,-0.340502,-0.138491,-0.125825,92.06842,53.610489,-138.484558,,,
729716796.977954,-22.437536,3.959472,105.536516,-0.056381,-0.349503,0.891022,-0.340502,-0.138491,-0.125825,92.06842,53.610489,-138.484558,,,
729716796.978604,-22.537471,3.906428,141.041673,-0.055847,-0.361404,0.887619,-0.340502,-0.138491,-0.125825,92.06842,53.610489,-138.484558,,,
729716796.98188,-22.537473,3.906428,102.428469,-0.055847,-0.361404,0.887619,-0.340502,-0.138491,-0.125825,92.06842,53.610489,-138.484558,,,
729716796.982829,-22.537467,3.906431,105.50532,-0.055847,-0.361404,0.887619,-0.340502,-0.138491,-0.125825,92.06842,53.610489,-138.484558,,,
729716796.98297,-22.537471,3.906428,141.041673,-0.055847,-0.361404,0.887619,-0.340502,-0.138491,-0.125825,92.06842,53.610489,-138.484558,,,
729716796.985181,-22.63892,3.853768,102.396637,-0.055847,-0.361404,0.887619,-0.345296,-0.133315,-0.126063,92.06842,53.610489,-138.484558,,,
729716796.986285,-22.638913,3.853771,105.473489,-0.055847,-0.361404,0.887619,-0.345296,-0.133315,-0.126063,92.06842,53.610489,-138.484558,,,
729716796.986428,-22.638917,3.853769,141.009843,-0.055847,-0.361404,0.887619,-0.345296,-0.133315,-0.126063,92.06842,53.610489,-138.484558,,,
729716796.987548,-22.63892,3.853768,102.396637,-0.055847,-0.361404,0.887619,-0.345296,-0.133315,-0.126063,92.06842,53.610489,-138.484558,,,
729716796.987947,-22.638913,3.853771,105.473489,-0.055847,-0.361404,0.887619,-0.345296,-0.133315,-0.126063,92.06842,53.610489,-138.484558,,,
729716796.988601,-22.740677,3.801491,140.97798,-0.04744,-0.371994,0.89978,-0.345296,-0.133315,-0.126063,92.06842,53.610489,-138.484558,,,
729716796.992121,-22.740679,3.801491,102.364775,-0.04744,-0.371994,0.89978,-0.345296,-0.133315,-0.126063,92.06842,53.610489,-138.484558,,,
729716796.993814,-22.740673,3.801494,105.441626,-0.04744,-0.371994,0.89978,-0.309391,-0.117511,-0.113977,92.06842,53.610489,-138.484558,,,
729716796.993972,-22.840166,3.751046,140.946948,-0.04744,-0.371994,0.89978,-0.309391,-0.117511,-0.113977,92.06842,53.610489,-138.484558,,,
729716796.994984,-22.840168,3.751046,102.333746,-0.04744,-0.371994,0.89978,-0.309391,-0.117511,-0.113977,92.06842,53.610489,-138.484558,,,
729716796.995531,-22.840162,3.751049,105.410597,-0.04744,-0.371994,0.89978,-0.309391,-0.117511,-0.113977,92.06842,53.610489,-138.484558,,,
729716796.99565,-22.840166,3.751046,140.946948,-0.04744,-0.371994,0.89978,-0.309391,-0.117511,-0.113977,92.06842,53.610489,-138.484558,,,
729716796.997667,-22.840168,3.751046,102.333746,-0.04744,-0.371994,0.89978,-0.309391,-0.117511,-0.113977,92.06842,53.610489,-138.484558,,,
729716796.997933,-22.840162,3.751049,105.410597,-0.04744,-0.371994,0.89978,-0.309391,-0.117511,-0.113977,92.06842,53.610489,-138.484558,,,
729716796.998604,-22.93296,3.704075,140.917965,-0.045639,-0.383041,0.908096,-0.309391,-0.117511,-0.113977,92.06842,53.610489,-138.484558,,,
729716797.001661,-22.932962,3.704075,102.304762,-0.045639,-0.383041,0.908096,-0.309391,-0.117511,-0.113977,92.06842,53.610489,-138.484558,,,
729716797.002402,-22.932956,3.704078,105.381613,-0.045639,-0.383041,0.908096,-0.309391,-0.117511,-0.113977,92.06842,53.610489,-138.484558,,,
729716797.002517,-22.93296,3.704075,140.917965,-0.045639,-0.383041,0.908096,-0.309391,-0.117511,-0.113977,92.06842,53.610489,-138.484558,,,
729716797.005445,-23.017145,3.661527,102.279116,-0.045639,-0.383041,0.908096,-0.250054,-0.100295,-0.086433,92.06842,53.610489,-138.484558,,,
729716797.006721,-23.017138,3.66153,105.355967,-0.045639,-0.383041,0.908096,-0.250054,-0.100295,-0.086433,92.06842,53.610489,-138.484558,,,
729716797.006869,-23.017142,3.661527,140.892323,-0.045639,-0.383041,0.908096,-0.250054,-0.100295,-0.086433,92.06842,53.610489,-138.484558,,,
729716797.007513,-23.017145,3.661527,102.279116,-0.045639,-0.383041,0.908096,-0.250054,-0.100295,-0.086433,92.06842,53.610489,-138.484558,,,
