Time (sec),Pitch (deg),Roll (deg),Yaw(deg),X-Acceleration (g),Y-Acceleration (g),Z-Acceleration (g),Pitch Rate (deg/sec),Roll Rate (deg/sec),Yaw Rate (deg/sec),Magnetic Field in X direction (uT),Magnetic Field in Y direction (uT),Magnetic Field in Z Direction (uT),Latitude (deg),Longitude (deg),Altitude (m)
729860997.932267,-0.666152,4.536255,45.237618,-0.060272,-0.010452,0.980164,-0.028672,0.016407,-0.008808,66.269165,5.257248,-148.635803,,,
729860997.935588,-0.677198,4.546645,45.235937,-0.065186,-0.011917,0.986771,-0.028672,0.016407,-0.008808,66.269165,5.257248,-148.635803,,,
729860997.938931,-0.684417,4.552659,45.233478,-0.065186,-0.011917,0.986771,-0.020442,0.026961,-0.01313,66.269165,5.257248,-148.635803,,,
729860997.942265,-0.684417,4.552659,45.233478,-0.065186,-0.011917,0.986771,-0.020442,0.026961,-0.01313,66.139694,5.551025,-148.837936,,,
729860997.945584,-0.691127,4.564942,45.2307,-0.068726,-0.017349,0.996704,-0.020442,0.026961,-0.01313,66.139694,5.551025,-148.837936,,,
729860997.948915,-0.694871,4.572671,45.227777,-0.068726,-0.017349,0.996704,-0.009518,0.030841,-0.012844,66.139694,5.551025,-148.837936,,,
729860997.952262,-0.694871,4.572671,45.227777,-0.068726,-0.017349,0.996704,-0.009518,0.030841,-0.012844,66.139694,5.551025,-148.837936,,,
729860997.9556,-0.699374,4.583365,45.224628,-0.072144,-0.019104,0.996918,-0.009518,0.030841,-0.012844,66.139694,5.551025,-148.837936,,,
729860997.958972,-0.702543,4.591114,45.220502,-0.072144,-0.019104,0.996918,-0.008853,0.029452,-0.019421,66.139694,5.551025,-148.837936,,,
729860997.962355,-0.702543,4.591114,45.220502,-0.072144,-0.019104,0.996918,-0.008853,0.029452,-0.019421,66.139694,5.551025,-148.837936,,,
729860997.965591,-0.707624,4.599063,45.215608,-0.073639,-0.015808,0.992218,-0.008853,0.029452,-0.019421,66.139694,5.551025,-148.837936,,,
729860997.968997,-0.71294,4.602959,45.210605,-0.073639,-0.015808,0.992218,-0.020897,0.011823,-0.021068,66.139694,5.551025,-148.837936,,,
729860997.9723,-0.71294,4.602959,45.210605,-0.073639,-0.015808,0.992218,-0.020897,0.011823,-0.021068,66.139694,5.551025,-148.837936,,,
729860997.97568,-0.720614,4.604478,45.205076,-0.082657,-0.016296,0.985092,-0.020897,0.011823,-0.021068,66.139694,5.551025,-148.837936,,,
729860997.978982,-0.729523,4.602481,45.198969,-0.082657,-0.016296,0.985092,-0.03065,-0.008233,-0.025866,66.139694,5.551025,-148.837936,,,
729860997.982244,-0.729523,4.602481,45.198969,-0.082657,-0.016296,0.985092,-0.03065,-0.008233,-0.025866,66.398026,5.660629,-148.832489,,,
729860997.985677,-0.738506,4.596671,45.192999,-0.085861,-0.018127,0.981598,-0.03065,-0.008233,-0.025866,66.398026,5.660629,-148.832489,,,
729860997.988959,-0.748391,4.588879,45.188181,-0.085861,-0.018127,0.981598,-0.032641,-0.028102,-0.017996,66.398026,5.660629,-148.832489,,,
729860997.992266,-0.748391,4.588879,45.188181,-0.085861,-0.018127,0.981598,-0.032641,-0.028102,-0.017996,66.398026,5.660629,-148.832489,,,
729860997.995579,-0.75758,4.57475,45.184931,-0.092239,-0.019974,0.984116,-0.032641,-0.028102,-0.017996,66.398026,5.660629,-148.832489,,,
729860997.998921,-0.768454,4.562609,45.183467,-0.092239,-0.019974,0.984116,-0.038866,-0.041667,-0.006436,66.398026,5.660629,-148.832489,,,
729860998.002359,-0.768454,4.562609,45.183467,-0.092239,-0.019974,0.984116,-0.038866,-0.041667,-0.006436,66.398026,5.660629,-148.832489,,,
729860998.00559,-0.779069,4.544837,45.183283,-0.09343,-0.018906,0.985199,-0.038866,-0.041667,-0.006436,66.398026,5.660629,-148.832489,,,
729860998.008918,-0.78946,4.530864,45.184479,-0.09343,-0.018906,0.985199,-0.033307,-0.046662,0.003228,66.398026,5.660629,-148.832489,,,
729860998.012259,-0.78946,4.530864,45.184479,-0.09343,-0.018906,0.985199,-0.033307,-0.046662,0.003228,66.398026,5.660629,-148.832489,,,
729860998.015595,-0.798468,4.514061,45.186656,-0.086472,-0.014435,0.993073,-0.033307,-0.046662,0.003228,66.398026,5.660629,-148.832489,,,
729860998.018994,-0.807883,4.502157,45.189172,-0.086472,-0.014435,0.993073,-0.032876,-0.036466,0.00529,66.398026,5.660629,-148.832489,,,
729860998.022246,-0.807883,4.502157,45.189172,-0.086472,-0.014435,0.993073,-0.032876,-0.036466,0.00529,66.168869,5.69899,-148.91539,,,
729860998.025585,-0.817894,4.489494,45.191978,-0.079117,-0.013535,0.995987,-0.032876,-0.036466,0.00529,66.168869,5.69899,-148.91539,,,
729860998.028972,-0.828904,4.481555,45.194798,-0.079117,-0.013535,0.995987,-0.032876,-0.036466,0.00529,66.168869,5.69899,-148.91539,,,
729860998.032268,-0.828904,4.481555,45.194798,-0.079117,-0.013535,0.995987,-0.042075,-0.020887,0.004391,66.168869,5.69899,-148.91539,,,
729860998.035603,-0.842201,4.474157,45.19695,-0.070908,-0.009506,0.988388,-0.042075,-0.020887,0.004391,66.168869,5.69899,-148.91539,,,
729860998.038945,-0.842201,4.474157,45.198449,-0.070908,-0.009506,0.988388,-0.042075,-0.020887,0.004391,66.168869,5.69899,-148.91539,,,
729860998.042339,-0.856011,4.470794,45.198449,-0.070908,-0.009506,0.988388,-0.052008,-0.003105,-0.001113,66.168869,5.69899,-148.91539,,,
729860998.045572,-0.871071,4.469164,45.200073,-0.071487,-0.006256,0.990417,-0.052008,-0.003105,-0.001113,66.168869,5.69899,-148.91539,,,
729860998.048971,-0.871071,4.469164,45.201779,-0.071487,-0.006256,0.990417,-0.052008,-0.003105,-0.001113,66.168869,5.69899,-148.91539,,,
729860998.052249,-0.885166,4.470412,45.201779,-0.071487,-0.006256,0.990417,-0.049009,0.008344,-0.000414,66.168869,5.69899,-148.91539,,,
729860998.055583,-0.899265,4.473607,45.203053,-0.072235,-0.005585,0.992706,-0.049009,0.008344,-0.000414,66.168869,5.69899,-148.91539,,,
729860998.058937,-0.899265,4.473607,45.203053,-0.072235,-0.005585,0.992706,-0.049009,0.008344,-0.000414,66.168869,5.69899,-148.91539,,,
729860998.062268,-0.913294,4.477091,45.203438,-0.072235,-0.005585,0.992706,-0.04916,0.016649,-0.006493,66.168869,5.69899,-148.91539,,,
729860998.065592,-0.928607,4.484221,45.202275,-0.067413,-0.005875,0.989502,-0.04916,0.016649,-0.006493,65.974304,5.878113,-148.956924,,,
729860998.069048,-0.928607,4.490945,45.199882,-0.067413,-0.005875,0.989502,-0.04916,0.016649,-0.006493,65.974304,5.878113,-148.956924,,,
729860998.072285,-0.943564,4.490945,45.199882,-0.067413,-0.005875,0.989502,-0.049575,0.030052,-0.014854,65.974304,5.878113,-148.956924,,,
729860998.075597,-0.958812,4.502935,45.19688,-0.066849,-0.009369,0.998138,-0.049575,0.030052,-0.014854,65.974304,5.878113,-148.956924,,,
729860998.078924,-0.958812,4.502935,45.19688,-0.066849,-0.009369,0.998138,-0.049575,0.030052,-0.014854,65.974304,5.878113,-148.956924,,,
729860998.082329,-0.972935,4.511336,45.192889,-0.066849,-0.009369,0.998138,-0.045771,0.029656,-0.021055,65.974304,5.878113,-148.956924,,,
729860998.085579,-0.986567,4.520927,45.188111,-0.073456,-0.010254,0.999908,-0.045771,0.029656,-0.021055,65.974304,5.878113,-148.956924,,,
729860998.088925,-0.986567,4.520927,45.188111,-0.073456,-0.010254,0.999908,-0.045771,0.029656,-0.021055,65.974304,5.878113,-148.956924,,,
729860998.092262,-0.997216,4.521304,45.182538,-0.073456,-0.010254,0.999908,-0.03081,-0.003856,-0.024906,65.974304,5.878113,-148.956924,,,
729860998.095593,-1.005523,4.520061,45.176037,-0.073502,-0.012756,0.995605,-0.03081,-0.003856,-0.024906,65.974304,5.878113,-148.956924,,,
729860998.099047,-1.005523,4.520061,45.176037,-0.073502,-0.012756,0.995605,-0.03081,-0.003856,-0.024906,65.974304,5.878113,-148.956924,,,
729860998.102337,-1.012907,4.512368,45.168479,-0.073502,-0.012756,0.995605,-0.019245,-0.02909,-0.031018,65.974304,5.878113,-148.956924,,,
729860998.105631,-1.017702,4.503267,45.160332,-0.071991,-0.016663,1.000809,-0.019245,-0.02909,-0.031018,66.209427,5.786316,-149.051895,,,
729860998.108983,-1.017702,4.503267,45.160332,-0.071991,-0.016663,1.000809,-0.019245,-0.02909,-0.031018,66.209427,5.786316,-149.051895,,,
729860998.112247,-1.023526,4.492798,45.151507,-0.071991,-0.016663,1.000809,-0.020247,-0.031477,-0.035732,66.209427,5.786316,-149.051895,,,
729860998.11559,-1.029543,4.482418,45.142226,-0.069,-0.013885,0.999527,-0.020247,-0.031477,-0.035732,66.209427,5.786316,-149.051895,,,
729860998.119012,-1.029543,4.482418,45.142226,-0.069,-0.013885,0.999527,-0.020247,-0.031477,-0.035732,66.209427,5.786316,-149.051895,,,
729860998.122282,-1.039845,4.476397,45.133386,-0.069,-0.013885,0.999527,-0.037908,-0.011657,-0.034202,66.209427,5.786316,-149.051895,,,
729860998.125586,-1.050036,4.471968,45.125121,-0.067581,-0.009781,0.995667,-0.037908,-0.011657,-0.034202,66.209427,5.786316,-149.051895,,,
729860998.128955,-1.050036,4.471968,45.125121,-0.067581,-0.009781,0.995667,-0.037908,-0.011657,-0.034202,66.209427,5.786316,-149.051895,,,
729860998.132247,-1.065886,4.472133,45.117912,-0.067581,-0.009781,0.995667,-0.05742,0.008915,-0.02855,66.209427,5.786316,-149.051895,,,
729860998.135653,-1.080776,4.474052,45.111186,-0.06868,-0.010605,0.995056,-0.05742,0.008915,-0.02855,66.209427,5.786316,-149.051895,,,
729860998.138997,-1.080776,4.474052,45.111186,-0.06868,-0.010605,0.995056,-0.05742,0.008915,-0.02855,66.209427,5.786316,-149.051895,,,
729860998.142364,-1.100108,4.480891,45.104701,-0.06868,-0.010605,0.995056,-0.066905,0.033566,-0.027716,66.209427,5.786316,-149.051895,,,
729860998.145577,-1.117156,4.48973,45.098684,-0.070648,-0.013367,1.001602,-0.066905,0.033566,-0.027716,66.299393,5.763336,-149.365021,,,
729860998.149015,-1.117156,4.48973,45.098684,-0.070648,-0.013367,1.001602,-0.066905,0.033566,-0.027716,66.299393,5.763336,-149.365021,,,
729860998.152254,-1.137856,4.504164,45.092534,-0.070648,-0.013367,1.001602,-0.068029,0.057257,-0.029048,66.299393,5.763336,-149.365021,,,
729860998.155597,-1.154195,4.515908,45.086627,-0.075912,-0.017242,1.009903,-0.068029,0.057257,-0.029048,66.299393,5.763336,-149.365021,,,
729860998.158932,-1.154195,4.515908,45.086627,-0.075912,-0.017242,1.009903,-0.068029,0.057257,-0.029048,66.299393,5.763336,-149.365021,,,
729860998.162254,-1.170554,4.528939,45.081507,-0.075912,-0.017242,1.009903,-0.05053,0.043689,-0.022617,66.299393,5.763336,-149.365021,,,
729860998.165594,-1.180756,4.536107,45.076604,-0.083084,-0.022522,1.015152,-0.05053,0.043689,-0.022617,66.299393,5.763336,-149.365021,,,
729860998.169032,-1.180756,4.536107,45.076604,-0.083084,-0.022522,1.015152,-0.05053,0.043689,-0.022617,66.299393,5.763336,-149.365021,,,
729860998.172258,-1.189664,4.541041,45.071691,-0.083084,-0.022522,1.015152,-0.02263,0.013459,-0.020767,66.299393,5.763336,-149.365021,,,
729860998.175596,-1.192565,4.54139,45.066901,-0.085785,-0.023911,1.021027,-0.02263,0.013459,-0.020767,66.299393,5.763336,-149.365021,,,
729860998.178925,-1.192565,4.54139,45.066901,-0.085785,-0.023911,1.021027,-0.02263,0.013459,-0.020767,66.299393,5.763336,-149.365021,,,
729860998.182364,-1.193674,4.540994,45.062491,-0.085785,-0.023911,1.021027,0.004604,-0.000464,-0.016125,66.299393,5.763336,-149.365021,,,
729860998.185583,-1.190558,4.538433,45.058646,-0.086121,-0.028275,1.023804,0.004604,-0.000464,-0.016125,66.299393,5.763336,-149.365021,,,
729860998.188936,-1.190558,4.538433,45.058646,-0.086121,-0.028275,1.023804,0.004604,-0.000464,-0.016125,66.332352,5.743408,-149.343857,,,
729860998.192275,-1.186638,4.537488,45.055781,-0.086121,-0.028275,1.023804,0.018023,-0.002051,-0.008424,66.332352,5.743408,-149.343857,,,
729860998.195588,-1.18042,4.533232,45.053281,-0.082291,-0.023727,1.011261,0.018023,-0.002051,-0.008424,66.332352,5.743408,-149.343857,,,
729860998.198932,-1.18042,4.533232,45.053281,-0.082291,-0.023727,1.011261,0.018023,-0.002051,-0.008424,66.332352,5.743408,-149.343857,,,
729860998.202254,-1.175349,4.530985,45.050316,-0.082291,-0.023727,1.011261,0.019157,-0.005651,-0.012021,66.332352,5.743408,-149.343857,,,
729860998.205585,-1.16832,4.52536,45.046116,-0.072525,-0.016342,1.002625,0.019157,-0.005651,-0.012021,66.332352,5.743408,-149.343857,,,
729860998.20901,-1.16832,4.52536,45.046116,-0.072525,-0.016342,1.002625,0.019157,-0.005651,-0.012021,66.332352,5.743408,-149.343857,,,
729860998.21197,-1.164915,4.522009,45.040188,-0.072525,-0.016342,1.002625,0.011919,-0.009423,-0.025088,66.332352,5.743408,-149.343857,,,
729860998.215636,-1.160287,4.515477,45.031855,-0.070572,-0.017609,1.000214,0.011919,-0.009423,-0.025088,66.332352,5.743408,-149.343857,,,
729860998.218917,-1.160287,4.515477,45.031855,-0.070572,-0.017609,1.000214,0.011919,-0.009423,-0.025088,66.332352,5.743408,-149.343857,,,
729860998.22226,-1.158559,4.511766,45.021437,-0.070572,-0.017609,1.000214,0.011123,-0.007785,-0.040106,66.332352,5.743408,-149.343857,,,
729860998.225592,-1.154953,4.507247,45.010357,-0.077209,-0.021561,1.001389,0.011123,-0.007785,-0.040106,66.332352,5.743408,-149.343857,,,
729860998.228941,-1.154953,4.507247,45.010357,-0.077209,-0.021561,1.001389,0.011123,-0.007785,-0.040106,66.278214,5.676453,-149.09964,,,
729860998.232335,-1.15361,4.507442,45.000689,-0.077209,-0.021561,1.001389,0.00673,0.008659,-0.030953,66.278214,5.676453,-149.09964,,,
729860998.235627,-1.15137,4.509206,44.992906,-0.086243,-0.022766,1.003098,0.00673,0.008659,-0.030953,66.278214,5.676453,-149.09964,,,
729860998.238926,-1.15137,4.509206,44.992906,-0.086243,-0.022766,1.003098,0.00673,0.008659,-0.030953,66.278214,5.676453,-149.09964,,,
729860998.242276,-1.150588,4.515093,44.987812,-0.086243,-0.022766,1.003098,0.002821,0.027558,-0.012671,66.278214,5.676453,-149.09964,,,
729860998.245592,-1.151313,4.522869,44.985448,-0.090012,-0.020065,0.992218,0.002821,0.027558,-0.012671,66.278214,5.676453,-149.09964,,,
729860998.248931,-1.151313,4.522869,44.985448,-0.090012,-0.020065,0.992218,0.002821,0.027558,-0.012671,66.278214,5.676453,-149.09964,,,
729860998.252256,-1.153148,4.530565,44.984607,-0.090012,-0.020065,0.992218,-0.008501,0.028364,-0.002876,66.278214,5.676453,-149.09964,,,
729860998.255598,-1.157065,4.539208,44.985153,-0.093582,-0.018066,0.980957,-0.008501,0.028364,-0.002876,66.278214,5.676453,-149.09964,,,
729860998.258996,-1.157065,4.539208,44.985153,-0.093582,-0.018066,0.980957,-0.008501,0.028364,-0.002876,66.278214,5.676453,-149.09964,,,
729860998.262261,-1.161437,4.546151,44.986137,-0.093582,-0.018066,0.980957,-0.016019,0.024752,-0.000283,66.278214,5.676453,-149.09964,,,
729860998.265592,-1.168542,4.552594,44.986776,-0.090103,-0.017517,0.975998,-0.016019,0.024752,-0.000283,66.278214,5.676453,-149.09964,,,
729860998.268976,-1.168542,4.552594,44.986776,-0.090103,-0.017517,0.975998,-0.016019,0.024752,-0.000283,66.292786,5.350143,-148.885559,,,
729860998.272338,-1.174905,4.556192,44.987111,-0.090103,-0.017517,0.975998,-0.02172,0.013573,-0.002678,66.292786,5.350143,-148.885559,,,
729860998.275586,-1.183272,4.55976,44.987094,-0.082275,-0.01738,0.979141,-0.02172,0.013573,-0.002678,66.292786,5.350143,-148.885559,,,
729860998.278938,-1.183272,4.55976,44.987094,-0.082275,-0.01738,0.979141,-0.02172,0.013573,-0.002678,66.292786,5.350143,-148.885559,,,
729860998.282331,-1.19093,4.562044,44.986291,-0.082275,-0.01738,0.979141,-0.025954,0.011533,-0.008393,66.292786,5.350143,-148.885559,,,
729860998.28559,-1.197537,4.563453,44.984758,-0.081573,-0.021591,0.989166,-0.025954,0.011533,-0.008393,66.292786,5.350143,-148.885559,,,
729860998.288954,-1.197537,4.563453,44.984758,-0.081573,-0.021591,0.989166,-0.025954,0.011533,-0.008393,66.292786,5.350143,-148.885559,,,
729860998.292258,-1.204741,4.564876,44.982947,-0.081573,-0.021591,0.989166,-0.022576,0.002873,-0.010234,66.292786,5.350143,-148.885559,,,
729860998.295593,-1.209636,4.562063,44.980957,-0.078522,-0.026138,0.994064,-0.022576,0.002873,-0.010234,66.292786,5.350143,-148.885559,,,
729860998.298934,-1.209636,4.562063,44.980957,-0.078522,-0.026138,0.994064,-0.022576,0.002873,-0.010234,66.292786,5.350143,-148.885559,,,
729860998.302282,-1.213216,4.561394,44.978786,-0.078522,-0.026138,0.994064,-0.006487,0.001369,-0.010539,66.292786,5.350143,-148.885559,,,
729860998.305591,-1.214061,4.559943,44.975451,-0.078598,-0.029297,1.013443,-0.006487,0.001369,-0.010539,66.292786,5.350143,-148.885559,,,
729860998.308923,-1.214061,4.559943,44.975451,-0.078598,-0.029297,1.013443,-0.006487,0.001369,-0.010539,66.433975,5.355545,-149.067337,,,
729860998.312287,-1.211205,4.559754,44.97083,-0.078598,-0.029297,1.013443,0.020507,0.000971,-0.017618,66.433975,5.355545,-149.067337,,,
729860998.315587,-1.204485,4.55953,44.965655,-0.082184,-0.033829,1.022003,0.020507,0.000971,-0.017618,66.433975,5.355545,-149.067337,,,
729860998.318931,-1.204485,4.55953,44.965655,-0.082184,-0.033829,1.022003,0.020507,0.000971,-0.017618,66.433975,5.355545,-149.067337,,,
729860998.322324,-1.194918,4.556428,44.959925,-0.082184,-0.033829,1.022003,0.037193,-0.00996,-0.019985,66.433975,5.355545,-149.067337,,,
729860998.325587,-1.184635,4.555254,44.954046,-0.083145,-0.029541,1.009354,0.037193,-0.00996,-0.019985,66.433975,5.355545,-149.067337,,,
729860998.328926,-1.184635,4.555254,44.954046,-0.083145,-0.029541,1.009354,0.037193,-0.00996,-0.019985,66.433975,5.355545,-149.067337,,,
729860998.332268,-1.175269,4.551824,44.948293,-0.083145,-0.029541,1.009354,0.031312,-0.007617,-0.019181,66.433975,5.355545,-149.067337,,,
729860998.335622,-1.167974,4.554064,44.943194,-0.080917,-0.020584,0.999557,0.031312,-0.007617,-0.019181,66.433975,5.355545,-149.067337,,,
729860998.33895,-1.167974,4.554064,44.943194,-0.080917,-0.020584,0.999557,0.031312,-0.007617,-0.019181,66.433975,5.355545,-149.067337,,,
729860998.342266,-1.16381,4.555431,44.9394,-0.080917,-0.020584,0.999557,0.011408,0.012808,-0.011065,66.433975,5.355545,-149.067337,,,
729860998.345592,-1.161982,4.562377,44.937262,-0.083023,-0.018234,0.992416,0.011408,0.012808,-0.011065,66.433975,5.355545,-149.067337,,,
729860998.349029,-1.161982,4.562377,44.937262,-0.083023,-0.018234,0.992416,0.011408,0.012808,-0.011065,66.433975,5.355545,-149.067337,,,
729860998.352262,-1.163396,4.566823,44.936535,-0.083023,-0.018234,0.992416,-0.007972,0.020299,-0.002246,66.44725,5.631958,-148.892212,,,
729860998.355592,-1.166424,4.573525,44.936867,-0.086349,-0.016907,0.985687,-0.007972,0.020299,-0.002246,66.44725,5.631958,-148.892212,,,
729860998.358922,-1.166424,4.573525,44.936867,-0.086349,-0.016907,0.985687,-0.007972,0.020299,-0.002246,66.44725,5.631958,-148.892212,,,
729860998.362318,-1.172597,4.578323,44.937653,-0.086349,-0.016907,0.985687,-0.026138,0.017573,-0.000285,66.44725,5.631958,-148.892212,,,
729860998.365591,-1.181095,4.582227,44.939039,-0.082962,-0.010208,0.977402,-0.026138,0.017573,-0.000285,66.44725,5.631958,-148.892212,,,
729860998.368923,-1.181095,4.582227,44.939039,-0.082962,-0.010208,0.977402,-0.026138,0.017573,-0.000285,66.44725,5.631958,-148.892212,,,
729860998.372271,-1.191632,4.583528,44.939894,-0.082962,-0.010208,0.977402,-0.038979,0.004895,-0.004834,66.44725,5.631958,-148.892212,,,
729860998.375593,-1.203985,4.583725,44.939257,-0.07576,-0.014633,0.982666,-0.038979,0.004895,-0.004834,66.44725,5.631958,-148.892212,,,
729860998.378921,-1.203985,4.583725,44.939257,-0.07576,-0.014633,0.982666,-0.038979,0.004895,-0.004834,66.44725,5.631958,-148.892212,,,
729860998.382284,-1.214025,4.583145,44.937359,-0.07576,-0.014633,0.982666,-0.031132,0.000353,-0.013032,66.44725,5.631958,-148.892212,,,
729860998.38559,-1.224705,4.581449,44.933916,-0.069626,-0.023972,0.998688,-0.031132,0.000353,-0.013032,66.44725,5.631958,-148.892212,,,
729860998.388921,-1.224705,4.581449,44.933916,-0.069626,-0.023972,0.998688,-0.031132,0.000353,-0.013032,66.44725,5.631958,-148.892212,,,
729860998.392272,-1.232962,4.580763,44.929406,-0.069626,-0.023972,0.998688,-0.024902,0.001975,-0.020156,66.57193,5.549179,-149.131912,,,
729860998.395591,-1.242407,4.581149,44.924618,-0.07254,-0.030548,1.006439,-0.024902,0.001975,-0.020156,66.57193,5.549179,-149.131912,,,
729860998.398987,-1.242407,4.581149,44.924618,-0.07254,-0.030548,1.006439,-0.024902,0.001975,-0.020156,66.57193,5.549179,-149.131912,,,
729860998.402274,-1.247508,4.584404,44.920084,-0.07254,-0.030548,1.006439,-0.012356,0.02133,-0.017368,66.57193,5.549179,-149.131912,,,
729860998.405593,-1.251908,4.592035,44.916087,-0.074646,-0.031021,1.021194,-0.012356,0.02133,-0.017368,66.57193,5.549179,-149.131912,,,
729860998.40893,-1.251908,4.592035,44.916087,-0.074646,-0.031021,1.021194,-0.012356,0.02133,-0.017368,66.57193,5.549179,-149.131912,,,
729860998.412335,-1.249387,4.603222,44.913048,-0.074646,-0.031021,1.021194,0.018366,0.048358,-0.008151,66.57193,5.549179,-149.131912,,,
729860998.415412,-1.243267,4.61743,44.910975,-0.077087,-0.03508,1.028656,0.018366,0.048358,-0.008151,66.57193,5.549179,-149.131912,,,
729860998.418961,-1.243267,4.61743,44.910975,-0.077087,-0.03508,1.028656,0.018366,0.048358,-0.008151,66.57193,5.549179,-149.131912,,,
729860998.422273,-1.234785,4.631996,44.909232,-0.077087,-0.03508,1.028656,0.033971,0.053532,-0.004494,66.57193,5.549179,-149.131912,,,
729860998.426483,-1.224163,4.646029,44.906888,-0.076248,-0.034714,1.009827,0.033971,0.053532,-0.004494,66.57193,5.549179,-149.131912,,,
729860998.428827,-1.224163,4.646029,44.906888,-0.076248,-0.034714,1.009827,0.033971,0.053532,-0.004494,66.57193,5.549179,-149.131912,,,
729860998.432277,-1.214286,4.657714,44.903559,-0.076248,-0.034714,1.009827,0.033391,0.038679,-0.01139,66.463638,5.370895,-148.924347,,,
729860998.435593,-1.20534,4.667463,44.899701,-0.077591,-0.027313,0.987686,0.033391,0.038679,-0.01139,66.463638,5.370895,-148.924347,,,
729860998.438937,-1.20534,4.667463,44.899701,-0.077591,-0.027313,0.987686,0.033391,0.038679,-0.01139,66.463638,5.370895,-148.924347,,,
729860998.442256,-1.199167,4.672418,44.895151,-0.077591,-0.027313,0.987686,0.01994,0.013937,-0.017111,66.463638,5.370895,-148.924347,,,
729860998.445589,-1.193348,4.67457,44.890375,-0.082565,-0.021225,0.972107,0.01994,0.013937,-0.017111,66.463638,5.370895,-148.924347,,,
729860998.448925,-1.193348,4.67457,44.890375,-0.082565,-0.021225,0.972107,0.01994,0.013937,-0.017111,66.463638,5.370895,-148.924347,,,
729860998.4523,-1.192274,4.67121,44.885769,-0.082565,-0.021225,0.972107,0.001479,-0.01522,-0.017221,66.463638,5.370895,-148.924347,,,
729860998.455642,-1.191544,4.664039,44.881047,-0.081833,-0.018738,0.967911,0.001479,-0.01522,-0.017221,66.463638,5.370895,-148.924347,,,
729860998.459044,-1.191544,4.664039,44.881047,-0.081833,-0.018738,0.967911,0.001479,-0.01522,-0.017221,66.463638,5.370895,-148.924347,,,
729860998.462308,-1.194635,4.656616,44.876308,-0.081833,-0.018738,0.967911,-0.011401,-0.021985,-0.018606,66.463638,5.370895,-148.924347,,,
729860998.465599,-1.199828,4.647254,44.87142,-0.07901,-0.020859,0.979523,-0.011401,-0.021985,-0.018606,66.463638,5.370895,-148.924347,,,
729860998.468947,-1.199828,4.647254,44.87142,-0.07901,-0.020859,0.979523,-0.011401,-0.021985,-0.018606,66.463638,5.370895,-148.924347,,,
729860998.472277,-1.205811,4.64265,44.866394,-0.07901,-0.020859,0.979523,-0.018167,-0.008561,-0.020581,66.617218,5.528427,-148.936691,,,
729860998.47559,-1.213708,4.637911,44.861229,-0.07634,-0.023178,0.994995,-0.018167,-0.008561,-0.020581,66.617218,5.528427,-148.936691,,,
729860998.478943,-1.213708,4.637911,44.861229,-0.07634,-0.023178,0.994995,-0.018167,-0.008561,-0.020581,66.617218,5.528427,-148.936691,,,
729860998.482269,-1.218967,4.638045,44.855897,-0.07634,-0.023178,0.994995,-0.01354,0.008843,-0.021728,66.617218,5.528427,-148.936691,,,
729860998.485588,-1.225278,4.63848,44.850304,-0.077316,-0.024796,0.996552,-0.01354,0.008843,-0.021728,66.617218,5.528427,-148.936691,,,
729860998.488932,-1.225278,4.63848,44.850304,-0.077316,-0.024796,0.996552,-0.01354,0.008843,-0.021728,66.617218,5.528427,-148.936691,,,
729860998.492262,-1.228763,4.64326,44.844561,-0.077316,-0.024796,0.996552,-0.008126,0.024456,-0.02268,66.617218,5.528427,-148.936691,,,
729860998.495674,-1.234397,4.6484,44.839324,-0.084457,-0.027283,0.997482,-0.008126,0.024456,-0.02268,66.617218,5.528427,-148.936691,,,
729860998.498935,-1.234397,4.6484,44.839324,-0.084457,-0.027283,0.997482,-0.008126,0.024456,-0.02268,66.617218,5.528427,-148.936691,,,
729860998.502287,-1.2364,4.656979,44.834942,-0.084457,-0.027283,0.997482,-0.002149,0.036015,-0.016476,66.617218,5.528427,-148.936691,,,
729860998.505586,-1.240603,4.665642,44.831381,-0.088303,-0.026642,0.997345,-0.002149,0.036015,-0.016476,66.617218,5.528427,-148.936691,,,
729860998.508991,-1.240603,4.665642,44.831381,-0.088303,-0.026642,0.997345,-0.002149,0.036015,-0.016476,66.617218,5.528427,-148.936691,,,
729860998.512272,-1.240086,4.676594,44.829605,-0.088303,-0.026642,0.997345,0.006823,0.040534,-0.003472,66.617218,5.528427,-148.936691,,,
729860998.515587,-1.238996,4.685756,44.829651,-0.092453,-0.029434,0.998352,0.006823,0.040534,-0.003472,66.763458,5.419861,-149.171265,,,
729860998.518935,-1.238996,4.685756,44.829651,-0.092453,-0.029434,0.998352,0.006823,0.040534,-0.003472,66.763458,5.419861,-149.171265,,,
729860998.522358,-1.233687,4.69466,44.83051,-0.092453,-0.029434,0.998352,0.022941,0.030387,0.00336,66.763458,5.419861,-149.171265,,,
729860998.525582,-1.226707,4.702256,44.831021,-0.093262,-0.029785,0.997131,0.022941,0.030387,0.00336,66.763458,5.419861,-149.171265,,,
729860998.528955,-1.226707,4.702256,44.831021,-0.093262,-0.029785,0.997131,0.022941,0.030387,0.00336,66.763458,5.419861,-149.171265,,,
729860998.532269,-1.217946,4.709655,44.830539,-0.093262,-0.029785,0.997131,0.032931,0.031036,-0.002748,66.763458,5.419861,-149.171265,,,
729860998.5356,-1.208411,4.718883,44.829099,-0.087845,-0.027084,0.996201,0.032931,0.031036,-0.002748,66.763458,5.419861,-149.171265,,,
729860998.538946,-1.208411,4.718883,44.829099,-0.087845,-0.027084,0.996201,0.032931,0.031036,-0.002748,66.763458,5.419861,-149.171265,,,
729860998.542275,-1.19972,4.72829,44.827001,-0.087845,-0.027084,0.996201,0.029723,0.037235,-0.007459,66.763458,5.419861,-149.171265,,,
729860998.545588,-1.192174,4.737448,44.824489,-0.087784,-0.024185,0.987015,0.029723,0.037235,-0.007459,66.763458,5.419861,-149.171265,,,
729860998.549038,-1.192174,4.737448,44.824489,-0.087784,-0.024185,0.987015,0.029723,0.037235,-0.007459,66.763458,5.419861,-149.171265,,,
729860998.552275,-1.187782,4.745966,44.82225,-0.087784,-0.024185,0.987015,0.00988,0.031092,-0.007269,66.763458,5.419861,-149.171265,,,
729860998.555598,-1.186939,4.751689,44.820811,-0.093796,-0.022018,0.979797,0.00988,0.031092,-0.007269,66.824005,5.410278,-149.054977,,,
729860998.558941,-1.186939,4.751689,44.820811,-0.093796,-0.022018,0.979797,0.00988,0.031092,-0.007269,66.824005,5.410278,-149.054977,,,
729860998.562339,-1.187293,4.757234,44.820749,-0.093796,-0.022018,0.979797,-0.004719,0.019483,0.000875,66.824005,5.410278,-149.054977,,,
729860998.565579,-1.189904,4.758995,44.822299,-0.097321,-0.022278,0.982697,-0.004719,0.019483,0.000875,66.824005,5.410278,-149.054977,,,
729860998.568956,-1.189904,4.758995,44.822299,-0.097321,-0.022278,0.982697,-0.004719,0.019483,0.000875,66.824005,5.410278,-149.054977,,,
729860998.572274,-1.192561,4.760325,44.825333,-0.097321,-0.022278,0.982697,-0.01127,0.004455,0.010482,66.824005,5.410278,-149.054977,,,
729860998.575586,-1.197606,4.759381,44.829734,-0.097809,-0.024048,0.985291,-0.01127,0.004455,0.010482,66.824005,5.410278,-149.054977,,,
729860998.57897,-1.197606,4.759381,44.829734,-0.097809,-0.024048,0.985291,-0.01127,0.004455,0.010482,66.824005,5.410278,-149.054977,,,
729860998.582257,-1.202064,4.756374,44.835305,-0.097809,-0.024048,0.985291,-0.017703,-0.012012,0.018105,66.824005,5.410278,-149.054977,,,
729860998.585662,-1.207754,4.751513,44.841728,-0.094833,-0.024277,0.985367,-0.017703,-0.012012,0.018105,66.824005,5.410278,-149.054977,,,
729860998.58898,-1.207754,4.751513,44.841728,-0.094833,-0.024277,0.985367,-0.017703,-0.012012,0.018105,66.824005,5.410278,-149.054977,,,
729860998.592268,-1.211354,4.742545,44.848674,-0.094833,-0.024277,0.985367,-0.012378,-0.031102,0.022381,66.824005,5.410278,-149.054977,,,
729860998.595592,-1.215687,4.735111,44.856388,-0.088333,-0.024414,0.995819,-0.012378,-0.031102,0.022381,66.961899,5.433502,-148.794785,,,
729860998.598933,-1.215687,4.735111,44.856388,-0.088333,-0.024414,0.995819,-0.012378,-0.031102,0.022381,66.961899,5.433502,-148.794785,,,
729860998.602297,-1.216131,4.727528,44.86421,-0.088333,-0.024414,0.995819,0.00228,-0.018671,0.024721,66.961899,5.433502,-148.794785,,,
729860998.605587,-1.21573,4.726153,44.871368,-0.076096,-0.029175,1.011566,0.00228,-0.018671,0.024721,66.961899,5.433502,-148.794785,,,
729860998.608943,-1.21573,4.726153,44.871368,-0.076096,-0.029175,1.011566,0.00228,-0.018671,0.024721,66.961899,5.433502,-148.794785,,,
729860998.612274,-1.210283,4.725768,44.877845,-0.076096,-0.029175,1.011566,0.023024,0.007725,0.022116,66.961899,5.433502,-148.794785,,,
729860998.615598,-1.203469,4.730792,44.883998,-0.069839,-0.03067,1.019867,0.023024,0.007725,0.022116,66.961899,5.433502,-148.794785,,,
729860998.619022,-1.203469,4.730792,44.883998,-0.069839,-0.03067,1.019867,0.023024,0.007725,0.022116,66.961899,5.433502,-148.794785,,,
729860998.622243,-1.192177,4.736768,44.890019,-0.069839,-0.03067,1.019867,0.042208,0.026907,0.023108,66.961899,5.433502,-148.794785,,,
729860998.625593,-1.179346,4.744742,44.896115,-0.072083,-0.025635,1.013138,0.042208,0.026907,0.023108,66.961899,5.433502,-148.794785,,,
729860998.629005,-1.179346,4.744742,44.896115,-0.072083,-0.025635,1.013138,0.042208,0.026907,0.023108,66.961899,5.433502,-148.794785,,,
729860998.632227,-1.163337,4.751614,44.901473,-0.072083,-0.025635,1.013138,0.056704,0.027548,0.019233,66.961899,5.433502,-148.794785,,,
729860998.635627,-1.147276,4.761055,44.905244,-0.073151,-0.021683,1.003265,0.056704,0.027548,0.019233,66.961899,5.433502,-148.794785,,,
729860998.638943,-1.147276,4.761055,44.905244,-0.073151,-0.021683,1.003265,0.056704,0.027548,0.019233,66.844467,5.689438,-148.927185,,,
729860998.642328,-1.13156,4.766317,44.907753,-0.073151,-0.021683,1.003265,0.052004,0.018216,0.010407,66.844467,5.689438,-148.927185,,,
729860998.645615,-1.11829,4.772922,44.910545,-0.075577,-0.016678,0.988571,0.052004,0.018216,0.010407,66.844467,5.689438,-148.927185,,,
729860998.648924,-1.11829,4.772922,44.910545,-0.075577,-0.016678,0.988571,0.052004,0.018216,0.010407,66.844467,5.689438,-148.927185,,,
729860998.652275,-1.107326,4.771747,44.913786,-0.075577,-0.016678,0.988571,0.031479,-0.009277,0.012371,66.844467,5.689438,-148.927185,,,
729860998.655672,-1.10233,4.769775,44.91744,-0.081619,-0.008789,0.961899,0.031479,-0.009277,0.012371,66.844467,5.689438,-148.927185,,,
729860998.658925,-1.10233,4.769775,44.91744,-0.081619,-0.008789,0.961899,0.031479,-0.009277,0.012371,66.844467,5.689438,-148.927185,,,
729860998.662284,-1.101961,4.758665,44.921134,-0.081619,-0.008789,0.961899,-0.009743,-0.044573,0.009748,66.844467,5.689438,-148.927185,,,
729860998.665625,-1.108947,4.747144,44.924585,-0.076263,-0.000671,0.950989,-0.009743,-0.044573,0.009748,66.844467,5.689438,-148.927185,,,
729860998.669,-1.108947,4.747144,44.924585,-0.076263,-0.000671,0.950989,-0.009743,-0.044573,0.009748,66.844467,5.689438,-148.927185,,,
729860998.672268,-1.120528,4.730749,44.927176,-0.076263,-0.000671,0.950989,-0.048474,-0.054548,0.000962,66.844467,5.689438,-148.927185,,,
729860998.675637,-1.136339,4.716851,44.929107,-0.068893,-0.006882,0.966919,-0.048474,-0.054548,0.000962,66.844467,5.689438,-148.927185,,,
729860998.678924,-1.136339,4.716851,44.929107,-0.068893,-0.006882,0.966919,-0.048474,-0.054548,0.000962,66.713562,5.441254,-149.099457,,,
729860998.682353,-1.151784,4.703028,44.930072,-0.068893,-0.006882,0.966919,-0.052193,-0.039545,-0.005825,66.713562,5.441254,-149.099457,,,
729860998.685612,-1.167524,4.692977,44.929327,-0.061111,-0.017715,0.9991,-0.052193,-0.039545,-0.005825,66.713562,5.441254,-149.099457,,,
729860998.688947,-1.167524,4.692977,44.929327,-0.061111,-0.017715,0.9991,-0.052193,-0.039545,-0.005825,66.713562,5.441254,-149.099457,,,
729860998.692264,-1.179156,4.689638,44.927584,-0.061111,-0.017715,0.9991,-0.034467,0.000502,-0.01155,66.713562,5.441254,-149.099457,,,
729860998.695647,-1.190409,4.687761,44.923649,-0.059647,-0.023285,1.01683,-0.034467,0.000502,-0.01155,66.713562,5.441254,-149.099457,,,
729860998.698945,-1.190409,4.687761,44.923649,-0.059647,-0.023285,1.01683,-0.034467,0.000502,-0.01155,66.713562,5.441254,-149.099457,,,
729860998.702266,-1.196531,4.693231,44.917388,-0.059647,-0.023285,1.01683,-0.01399,0.027988,-0.026598,66.713562,5.441254,-149.099457,,,
729860998.705628,-1.201639,4.698034,44.910123,-0.064163,-0.021332,1.011002,-0.01399,0.027988,-0.026598,66.713562,5.441254,-149.099457,,,
729860998.708983,-1.201639,4.698034,44.910123,-0.064163,-0.021332,1.011002,-0.01399,0.027988,-0.026598,66.713562,5.441254,-149.099457,,,
729860998.712265,-1.203845,4.70711,44.901947,-0.064163,-0.021332,1.011002,-0.002494,0.038261,-0.03247,66.713562,5.441254,-149.099457,,,
729860998.715607,-1.205151,4.715257,44.893169,-0.073837,-0.023056,1.002365,-0.002494,0.038261,-0.03247,66.713562,5.441254,-149.099457,,,
729860998.718929,-1.205151,4.715257,44.893169,-0.073837,-0.023056,1.002365,-0.002494,0.038261,-0.03247,67.151352,5.748001,-148.951431,,,
729860998.722263,-1.205307,4.726779,44.884382,-0.073837,-0.023056,1.002365,0.004298,0.043693,-0.032417,67.151352,5.748001,-148.951431,,,
729860998.725707,-1.20412,4.736489,44.875936,-0.086212,-0.021317,0.99826,0.004298,0.043693,-0.032417,67.151352,5.748001,-148.951431,,,
729860998.728937,-1.20412,4.736489,44.875936,-0.086212,-0.021317,0.99826,0.004298,0.043693,-0.032417,67.151352,5.748001,-148.951431,,,
729860998.732322,-1.203912,4.747346,44.868774,-0.086212,-0.021317,0.99826,0.002509,0.038972,-0.023864,67.151352,5.748001,-148.951431,,,
729860998.735585,-1.203912,4.747346,44.868774,-0.091507,-0.01915,0.987473,0.002509,0.038972,-0.023864,67.151352,5.748001,-148.951431,,,
729860998.738931,-1.202214,4.757588,44.863033,-0.091507,-0.01915,0.987473,0.002509,0.038972,-0.023864,67.151352,5.748001,-148.951431,,,
729860998.742266,-1.204677,4.767277,44.85835,-0.091507,-0.01915,0.987473,-0.010697,0.035613,-0.017578,67.151352,5.748001,-148.951431,,,
729860998.745625,-1.204677,4.767277,44.85835,-0.093384,-0.018265,0.979935,-0.010697,0.035613,-0.017578,67.151352,5.748001,-148.951431,,,
729860998.748934,-1.20541,4.775863,44.854505,-0.093384,-0.018265,0.979935,-0.010697,0.035613,-0.017578,67.151352,5.748001,-148.951431,,,
729860998.752265,-1.213354,4.783389,44.852004,-0.093384,-0.018265,0.979935,-0.031716,0.027172,-0.009903,67.151352,5.748001,-148.951431,,,
729860998.755633,-1.213354,4.783389,44.852004,-0.099014,-0.016922,0.972824,-0.031716,0.027172,-0.009903,67.151352,5.748001,-148.951431,,,
729860998.758925,-1.220304,4.787176,44.850873,-0.099014,-0.016922,0.972824,-0.031716,0.027172,-0.009903,66.968521,5.680634,-148.803085,,,
729860998.762264,-1.233591,4.791963,44.851597,-0.099014,-0.016922,0.972824,-0.049548,0.016534,0.001189,66.968521,5.680634,-148.803085,,,
729860998.765592,-1.233591,4.791963,44.851597,-0.099014,-0.016922,0.972824,-0.049548,0.016534,0.001189,66.968521,5.680634,-148.803085,,,
729860998.768951,-1.246649,4.79035,44.854185,-0.101608,-0.019516,0.975204,-0.049548,0.016534,0.001189,66.968521,5.680634,-148.803085,,,
729860998.772326,-1.260213,4.792576,44.857792,-0.101608,-0.019516,0.975204,-0.044995,0.008542,0.007883,66.968521,5.680634,-148.803085,,,
729860998.775627,-1.260213,4.792576,44.857792,-0.101608,-0.019516,0.975204,-0.044995,0.008542,0.007883,66.968521,5.680634,-148.803085,,,
729860998.778952,-1.272387,4.788068,44.861929,-0.096573,-0.0242,0.990356,-0.044995,0.008542,0.007883,66.968521,5.680634,-148.803085,,,
729860998.782363,-1.283406,4.790811,44.866647,-0.096573,-0.0242,0.990356,-0.037424,0.014105,0.011662,66.968521,5.680634,-148.803085,,,
729860998.78566,-1.283406,4.790811,44.866647,-0.096573,-0.0242,0.990356,-0.037424,0.014105,0.011662,66.968521,5.680634,-148.803085,,,
729860998.788931,-1.292404,4.788709,44.870239,-0.087463,-0.025467,1.002106,-0.037424,0.014105,0.011662,66.968521,5.680634,-148.803085,,,
729860998.792293,-1.298758,4.792016,44.872052,-0.087463,-0.025467,1.002106,-0.016298,0.013659,0.000183,66.968521,5.680634,-148.803085,,,
729860998.795651,-1.298758,4.792016,44.872052,-0.087463,-0.025467,1.002106,-0.016298,0.013659,0.000183,66.968521,5.680634,-148.803085,,,
729860998.799026,-1.301129,4.791247,44.872276,-0.079544,-0.027191,1.001511,-0.016298,0.013659,0.000183,66.968521,5.680634,-148.803085,,,
729860998.802264,-1.299306,4.792822,44.870614,-0.079544,-0.027191,1.001511,0.014942,0.008484,-0.010837,66.945618,5.778168,-148.856934,,,
729860998.805606,-1.299306,4.792822,44.870614,-0.079544,-0.027191,1.001511,0.014942,0.008484,-0.010837,66.945618,5.778168,-148.856934,,,
729860998.809004,-1.2939,4.7946,44.866045,-0.077209,-0.027542,1.006363,0.014942,0.008484,-0.010837,66.945618,5.778168,-148.856934,,,
729860998.812273,-1.287078,4.796973,44.859415,-0.077209,-0.027542,1.006363,0.027649,0.011514,-0.024203,66.945618,5.778168,-148.856934,,,
729860998.81563,-1.287078,4.796973,44.859415,-0.077209,-0.027542,1.006363,0.027649,0.011514,-0.024203,66.945618,5.778168,-148.856934,,,
729860998.818937,-1.279427,4.800672,44.852108,-0.076767,-0.025146,0.995392,0.027649,0.011514,-0.024203,66.945618,5.778168,-148.856934,,,
729860998.822336,-1.273124,4.801095,44.844893,-0.076767,-0.025146,0.995392,0.021441,0.002622,-0.023766,66.945618,5.778168,-148.856934,,,
729860998.825638,-1.273124,4.801095,44.844893,-0.076767,-0.025146,0.995392,0.021441,0.002622,-0.023766,66.945618,5.778168,-148.856934,,,
729860998.828949,-1.268426,4.803367,44.838637,-0.082413,-0.021667,0.980637,0.021441,0.002622,-0.023766,66.945618,5.778168,-148.856934,,,
729860998.83227,-1.267249,4.802281,44.832962,-0.082413,-0.021667,0.980637,0.001805,-0.001934,-0.020927,66.945618,5.778168,-148.856934,,,
729860998.835626,-1.267249,4.802281,44.832962,-0.082413,-0.021667,0.980637,0.001805,-0.001934,-0.020927,66.945618,5.778168,-148.856934,,,
729860998.838944,-1.269004,4.805129,44.828,-0.086227,-0.015366,0.973969,0.001805,-0.001934,-0.020927,66.945618,5.778168,-148.856934,,,
729860998.84226,-1.277046,4.803935,44.824019,-0.086227,-0.015366,0.973969,-0.034659,-0.001756,-0.016578,67.148605,5.729202,-148.918091,,,
729860998.845657,-1.277046,4.803935,44.824019,-0.086227,-0.015366,0.973969,-0.034659,-0.001756,-0.016578,67.148605,5.729202,-148.918091,,,
729860998.848926,-1.289026,4.806847,44.821221,-0.086487,-0.013702,0.967041,-0.034659,-0.001756,-0.016578,67.148605,5.729202,-148.918091,,,
729860998.852267,-1.306805,4.803647,44.819148,-0.086487,-0.013702,0.967041,-0.070352,-0.009633,-0.013734,67.148605,5.729202,-148.918091,,,
729860998.855673,-1.306805,4.803647,44.819148,-0.086487,-0.013702,0.967041,-0.070352,-0.009633,-0.013734,67.148605,5.729202,-148.918091,,,
729860998.859068,-1.328959,4.803174,44.817807,-0.085587,-0.013916,0.968384,-0.070352,-0.009633,-0.013734,67.148605,5.729202,-148.918091,,,
729860998.862281,-1.352983,4.797846,44.81665,-0.085587,-0.013916,0.968384,-0.085036,-0.016452,-0.013109,67.148605,5.729202,-148.918091,,,
729860998.865612,-1.352983,4.797846,44.81665,-0.085587,-0.013916,0.968384,-0.085036,-0.016452,-0.013109,67.148605,5.729202,-148.918091,,,
729860998.868927,-1.377367,4.793601,44.815951,-0.084183,-0.02002,0.981674,-0.085036,-0.016452,-0.013109,67.148605,5.729202,-148.918091,,,
729860998.872258,-1.398869,4.788418,44.816385,-0.084183,-0.02002,0.981674,-0.066677,-0.013827,-0.003471,67.148605,5.729202,-148.918091,,,
729860998.875637,-1.398869,4.788418,44.816385,-0.084183,-0.02002,0.981674,-0.066677,-0.013827,-0.003471,67.148605,5.729202,-148.918091,,,
729860998.878926,-1.416262,4.784397,44.817019,-0.085999,-0.032761,1.01416,-0.066677,-0.013827,-0.003471,67.148605,5.729202,-148.918091,,,
729860998.882264,-1.426699,4.782463,44.817758,-0.085999,-0.032761,1.01416,-0.022471,-0.004211,0.000834,67.098404,5.66391,-149.227936,,,
729860998.885692,-1.426699,4.782463,44.817758,-0.085999,-0.032761,1.01416,-0.022471,-0.004211,0.000834,67.098404,5.66391,-149.227936,,,
729860998.888931,-1.429973,4.779288,44.818997,-0.084854,-0.039978,1.033646,-0.022471,-0.004211,0.000834,67.098404,5.66391,-149.227936,,,
729860998.892291,-1.424391,4.778076,44.819276,-0.084854,-0.039978,1.033646,0.034538,1.4e-05,-0.001398,67.098404,5.66391,-149.227936,,,
729860998.89561,-1.424391,4.778076,44.819276,-0.084854,-0.039978,1.033646,0.034538,1.4e-05,-0.001398,67.098404,5.66391,-149.227936,,,
729860998.899001,-1.411898,4.77564,44.817237,-0.081467,-0.035522,1.03685,0.034538,1.4e-05,-0.001398,67.098404,5.66391,-149.227936,,,
729860998.902282,-1.393996,4.775513,44.812683,-0.081467,-0.035522,1.03685,0.071954,0.004138,-0.016201,67.098404,5.66391,-149.227936,,,
729860998.9056,-1.393996,4.775513,44.812683,-0.081467,-0.035522,1.03685,0.071954,0.004138,-0.016201,67.098404,5.66391,-149.227936,,,
729860998.908954,-1.373089,4.775361,44.805695,-0.076813,-0.029251,1.022202,0.071954,0.004138,-0.016201,67.098404,5.66391,-149.227936,,,
729860998.912263,-1.352514,4.775401,44.797138,-0.076813,-0.029251,1.022202,0.071886,0.003267,-0.027227,67.098404,5.66391,-149.227936,,,
729860998.915613,-1.352514,4.775401,44.797138,-0.076813,-0.029251,1.022202,0.071886,0.003267,-0.027227,67.098404,5.66391,-149.227936,,,
729860998.918949,-1.333637,4.776295,44.788235,-0.079636,-0.019867,0.993423,0.071886,0.003267,-0.027227,67.098404,5.66391,-149.227936,,,
729860998.922252,-1.321407,4.776001,44.780669,-0.079636,-0.019867,0.993423,0.033593,0.001786,-0.02095,67.206146,5.541428,-149.375,,,
729860998.925673,-1.321407,4.776001,44.780669,-0.079636,-0.019867,0.993423,0.033593,0.001786,-0.02095,67.206146,5.541428,-149.375,,,
729860998.92894,-1.314025,4.776892,44.775802,-0.090271,-0.007446,0.972763,0.033593,0.001786,-0.02095,67.206146,5.541428,-149.375,,,
729860998.932259,-1.315547,4.776571,44.774309,-0.090271,-0.007446,0.972763,-0.016806,0.002173,-0.001368,67.206146,5.541428,-149.375,,,
729860998.935688,-1.315547,4.776571,44.774309,-0.090271,-0.007446,0.972763,-0.016806,0.002173,-0.001368,67.206146,5.541428,-149.375,,,
729860998.938937,-1.322785,4.778083,44.776241,-0.094635,-0.00209,0.962585,-0.016806,0.002173,-0.001368,67.206146,5.541428,-149.375,,,
729860998.942266,-1.338528,4.779467,44.78044,-0.094635,-0.00209,0.962585,-0.066358,0.008082,0.010457,67.206146,5.541428,-149.375,,,
729860998.945606,-1.338528,4.779467,44.78044,-0.094635,-0.00209,0.962585,-0.066358,0.008082,0.010457,67.206146,5.541428,-149.375,,,
729860998.948998,-1.35926,4.782887,44.786401,-0.089798,-0.004227,0.969528,-0.066358,0.008082,0.010457,67.206146,5.541428,-149.375,,,
729860998.952252,-1.385412,4.788503,44.792894,-0.089798,-0.004227,0.969528,-0.098159,0.026092,0.011483,67.206146,5.541428,-149.375,,,
729860998.955616,-1.385412,4.788503,44.792894,-0.089798,-0.004227,0.969528,-0.098159,0.026092,0.011483,67.206146,5.541428,-149.375,,,
729860998.958943,-1.414825,4.796226,44.798404,-0.082626,-0.010498,0.983337,-0.098159,0.026092,0.011483,67.206146,5.541428,-149.375,,,
729860998.962256,-1.443811,4.804406,44.802678,-0.082626,-0.010498,0.983337,-0.100764,0.031687,0.002669,67.206146,5.541428,-149.375,,,
729860998.965592,-1.443811,4.804406,44.802678,-0.082626,-0.010498,0.983337,-0.100764,0.031687,0.002669,66.974625,5.912933,-149.365891,,,
729860998.968936,-1.473618,4.811511,44.805293,-0.080856,-0.018631,0.994553,-0.100764,0.031687,0.002669,66.974625,5.912933,-149.365891,,,
729860998.972262,-1.498007,4.816463,44.805806,-0.080856,-0.018631,0.994553,-0.076629,0.015375,-0.010033,66.974625,5.912933,-149.365891,,,
729860998.975657,-1.498007,4.816463,44.805806,-0.080856,-0.018631,0.994553,-0.076629,0.015375,-0.010033,66.974625,5.912933,-149.365891,,,
729860998.978925,-1.518517,4.817756,44.804588,-0.083679,-0.030853,1.01059,-0.076629,0.015375,-0.010033,66.974625,5.912933,-149.365891,,,
729860998.98226,-1.529279,4.817773,44.801524,-0.083679,-0.030853,1.01059,-0.018499,0.001427,-0.018137,66.974625,5.912933,-149.365891,,,
729860998.98559,-1.529279,4.817773,44.801524,-0.083679,-0.030853,1.01059,-0.018499,0.001427,-0.018137,66.974625,5.912933,-149.365891,,,
729860998.988997,-1.530631,4.81503,44.796362,-0.085297,-0.039001,1.03653,-0.018499,0.001427,-0.018137,66.974625,5.912933,-149.365891,,,
729860998.992256,-1.522668,4.813097,44.789857,-0.085297,-0.039001,1.03653,0.042994,-0.001721,-0.022605,66.974625,5.912933,-149.365891,,,
729860998.995595,-1.522668,4.813097,44.789857,-0.085297,-0.039001,1.03653,0.042994,-0.001721,-0.022605,66.974625,5.912933,-149.365891,,,
729860998.998945,-1.50789,4.810792,44.782044,-0.082123,-0.044876,1.043167,0.042994,-0.001721,-0.022605,66.974625,5.912933,-149.365891,,,
729860999.002357,-1.489537,4.81004,44.773216,-0.082123,-0.044876,1.043167,0.072196,0.003478,-0.027412,66.974625,5.912933,-149.365891,,,
729860999.005587,-1.489537,4.81004,44.773216,-0.082123,-0.044876,1.043167,0.072196,0.003478,-0.027412,67.12851,5.784119,-149.513184,,,
729860999.008953,-1.467911,4.811862,44.763939,-0.085022,-0.038452,1.026031,0.072196,0.003478,-0.027412,67.12851,5.784119,-149.513184,,,
729860999.012264,-1.449772,4.815847,44.755146,-0.085022,-0.038452,1.026031,0.060021,0.023333,-0.024869,67.12851,5.784119,-149.513184,,,
729860999.015666,-1.449772,4.815847,44.755146,-0.085022,-0.038452,1.026031,0.060021,0.023333,-0.024869,67.12851,5.784119,-149.513184,,,
729860999.018932,-1.432734,4.825181,44.748399,-0.093369,-0.026443,1.005829,0.060021,0.023333,-0.024869,67.12851,5.784119,-149.513184,,,
729860999.022259,-1.42504,4.834383,44.744173,-0.093369,-0.026443,1.005829,0.015615,0.036716,-0.010582,67.12851,5.784119,-149.513184,,,
729860999.025607,-1.42504,4.834383,44.744173,-0.093369,-0.026443,1.005829,0.015615,0.036716,-0.010582,67.12851,5.784119,-149.513184,,,
729860999.028986,-1.420074,4.846282,44.742665,-0.101654,-0.020142,0.991867,0.015615,0.036716,-0.010582,67.12851,5.784119,-149.513184,,,
729860999.032256,-1.422969,4.857017,44.744023,-0.101654,-0.020142,0.991867,-0.018788,0.038922,0.006813,67.12851,5.784119,-149.513184,,,
729860999.035612,-1.422969,4.857017,44.744023,-0.101654,-0.020142,0.991867,-0.018788,0.038922,0.006813,67.12851,5.784119,-149.513184,,,
729860999.038943,-1.42699,4.866812,44.747178,-0.107697,-0.01944,0.989899,-0.018788,0.038922,0.006813,67.12851,5.784119,-149.513184,,,
729860999.042275,-1.434897,4.873468,44.751509,-0.107697,-0.01944,0.989899,-0.030569,0.017736,0.013996,67.12851,5.784119,-149.513184,,,
729860999.045634,-1.434897,4.873468,44.751509,-0.107697,-0.01944,0.989899,-0.030569,0.017736,0.013996,67.185303,5.768723,-149.098129,,,
729860999.04899,-1.442543,4.87496,44.756825,-0.106323,-0.025787,0.988449,-0.030569,0.017736,0.013996,67.185303,5.768723,-149.098129,,,
729860999.052257,-1.451616,4.87258,44.763169,-0.106323,-0.025787,0.988449,-0.031093,-0.013876,0.021043,67.185303,5.768723,-149.098129,,,
729860999.055702,-1.451616,4.87258,44.763169,-0.106323,-0.025787,0.988449,-0.031093,-0.013876,0.021043,67.185303,5.768723,-149.098129,,,
729860999.058943,-1.460362,4.865227,44.770369,-0.104767,-0.028381,0.988144,-0.031093,-0.013876,0.021043,67.185303,5.768723,-149.098129,,,
729860999.062274,-1.467481,4.853724,44.777497,-0.104767,-0.028381,0.988144,-0.02213,-0.045342,0.021216,67.185303,5.768723,-149.098129,,,
729860999.065609,-1.467481,4.853724,44.777497,-0.104767,-0.028381,0.988144,-0.02213,-0.045342,0.021216,67.185303,5.768723,-149.098129,,,
729860999.069006,-1.47437,4.838477,44.783783,-0.096664,-0.026031,0.992599,-0.02213,-0.045342,0.021216,67.185303,5.768723,-149.098129,,,
729860999.072262,-1.476048,4.822184,44.789089,-0.096664,-0.026031,0.992599,8.3e-05,-0.055189,0.016248,67.185303,5.768723,-149.098129,,,
729860999.075625,-1.476048,4.822184,44.789089,-0.096664,-0.026031,0.992599,8.3e-05,-0.055189,0.016248,67.185303,5.768723,-149.098129,,,
729860999.078962,-1.47699,4.805036,44.793203,-0.08461,-0.030197,1.003693,8.3e-05,-0.055189,0.016248,67.185303,5.768723,-149.098129,,,
729860999.082268,-1.470449,4.792228,44.795708,-0.08461,-0.030197,1.003693,0.030153,-0.03229,0.007334,67.185303,5.768723,-149.098129,,,
729860999.08563,-1.470449,4.792228,44.795708,-0.08461,-0.030197,1.003693,0.030153,-0.03229,0.007334,67.185303,5.768723,-149.098129,,,
729860999.08897,-1.463202,4.784514,44.796869,-0.075836,-0.03447,1.016052,0.030153,-0.03229,0.007334,66.95224,6.014465,-149.165161,,,
729860999.092391,-1.449971,4.782907,44.797303,-0.075836,-0.03447,1.016052,0.05167,0.006383,0.003917,66.95224,6.014465,-149.165161,,,
729860999.095614,-1.449971,4.782907,44.797303,-0.075836,-0.03447,1.016052,0.05167,0.006383,0.003917,66.95224,6.014465,-149.165161,,,
729860999.098976,-1.434656,4.78759,44.797337,-0.070511,-0.031479,1.015076,0.05167,0.006383,0.003917,66.95224,6.014465,-149.165161,,,
729860999.102272,-1.415863,4.792882,44.797043,-0.070511,-0.031479,1.015076,0.070211,0.023722,0.003441,66.95224,6.014465,-149.165161,,,
729860999.1056,-1.415863,4.792882,44.797043,-0.070511,-0.031479,1.015076,0.070211,0.023722,0.003441,66.95224,6.014465,-149.165161,,,
729860999.108946,-1.395088,4.803756,44.796195,-0.07074,-0.029831,1.002045,0.070211,0.023722,0.003441,66.95224,6.014465,-149.165161,,,
729860999.112265,-1.376212,4.812628,44.794347,-0.07074,-0.029831,1.002045,0.06478,0.036015,-0.003371,66.95224,6.014465,-149.165161,,,
729860999.115592,-1.376212,4.812628,44.794347,-0.07074,-0.029831,1.002045,0.06478,0.036015,-0.003371,66.95224,6.014465,-149.165161,,,
729860999.119026,-1.358531,4.828335,44.792227,-0.074005,-0.022919,0.983566,0.06478,0.036015,-0.003371,66.95224,6.014465,-149.165161,,,
729860999.122261,-1.346214,4.838011,44.790178,-0.074005,-0.022919,0.983566,0.035078,0.035965,-0.004366,66.95224,6.014465,-149.165161,,,
729860999.125618,-1.346214,4.838011,44.790178,-0.074005,-0.022919,0.983566,0.035078,0.035965,-0.004366,66.95224,6.014465,-149.165161,,,
729860999.128936,-1.339544,4.851403,44.788183,-0.078323,-0.017044,0.962402,0.035078,0.035965,-0.004366,66.998886,6.087204,-149.194443,,,
729860999.132264,-1.338716,4.856208,44.786458,-0.078323,-0.017044,0.962402,-0.006582,0.015166,-0.005077,66.998886,6.087204,-149.194443,,,
729860999.135622,-1.338716,4.856208,44.786458,-0.078323,-0.017044,0.962402,-0.006582,0.015166,-0.005077,66.998886,6.087204,-149.194443,,,
729860999.138949,-1.345444,4.861736,44.785816,-0.082367,-0.01442,0.94545,-0.006582,0.015166,-0.005077,66.998886,6.087204,-149.194443,,,
729860999.142265,-1.358994,4.859858,44.785477,-0.082367,-0.01442,0.94545,-0.05964,-0.008663,-0.006839,66.998886,6.087204,-149.194443,,,
729860999.145664,-1.358994,4.859858,44.785477,-0.082367,-0.01442,0.94545,-0.05964,-0.008663,-0.006839,66.998886,6.087204,-149.194443,,,
729860999.148948,-1.379275,4.857751,44.785994,-0.084152,-0.011047,0.941589,-0.05964,-0.008663,-0.006839,66.998886,6.087204,-149.194443,,,
729860999.152268,-1.403101,4.85114,44.786923,-0.084152,-0.011047,0.941589,-0.087019,-0.024452,-0.005904,66.998886,6.087204,-149.194443,,,
729860999.155614,-1.403101,4.85114,44.786923,-0.084152,-0.011047,0.941589,-0.087019,-0.024452,-0.005904,66.998886,6.087204,-149.194443,,,
729860999.159003,-1.428667,4.843974,44.787675,-0.081787,-0.01503,0.956573,-0.087019,-0.024452,-0.005904,66.998886,6.087204,-149.194443,,,
729860999.162251,-1.452447,4.836456,44.788207,-0.081787,-0.01503,0.956573,-0.078147,-0.023977,-0.006562,66.998886,6.087204,-149.194443,,,
729860999.165603,-1.452447,4.836456,44.788207,-0.081787,-0.01503,0.956573,-0.078147,-0.023977,-0.006562,66.998886,6.087204,-149.194443,,,
729860999.168937,-1.47484,4.827216,44.787972,-0.072693,-0.024261,0.988724,-0.078147,-0.023977,-0.006562,67.012665,5.984909,-148.972382,,,
729860999.172259,-1.490231,4.820699,44.785681,-0.072693,-0.024261,0.988724,-0.039755,-0.016103,-0.018009,67.012665,5.984909,-148.972382,,,
729860999.1756,-1.490231,4.820699,44.785681,-0.072693,-0.024261,0.988724,-0.039755,-0.016103,-0.018009,67.012665,5.984909,-148.972382,,,
729860999.178947,-1.499691,4.814079,44.780504,-0.065155,-0.038361,1.018921,-0.039755,-0.016103,-0.018009,67.012665,5.984909,-148.972382,,,
729860999.18226,-1.500636,4.814716,44.772688,-0.065155,-0.038361,1.018921,0.013741,0.014667,-0.032466,67.012665,5.984909,-148.972382,,,
729860999.185668,-1.500636,4.814716,44.772688,-0.065155,-0.038361,1.018921,0.013741,0.014667,-0.032466,67.012665,5.984909,-148.972382,,,
729860999.188917,-1.494564,4.817993,44.762266,-0.065125,-0.042542,1.040909,0.013741,0.014667,-0.032466,67.012665,5.984909,-148.972382,,,
729860999.192268,-1.482335,4.827863,44.750403,-0.065125,-0.042542,1.040909,0.053425,0.045676,-0.039573,67.012665,5.984909,-148.972382,,,
729860999.195602,-1.482335,4.827863,44.750403,-0.065125,-0.042542,1.040909,0.053425,0.045676,-0.039573,67.012665,5.984909,-148.972382,,,
729860999.199029,-1.46804,4.839893,44.738436,-0.072876,-0.039215,1.024765,0.053425,0.045676,-0.039573,67.012665,5.984909,-148.972382,,,
729860999.202258,-1.454647,4.855029,44.727266,-0.072876,-0.039215,1.024765,0.047607,0.058119,-0.03475,67.012665,5.984909,-148.972382,,,
729860999.205617,-1.454647,4.855029,44.727266,-0.072876,-0.039215,1.024765,0.047607,0.058119,-0.03475,67.012665,5.984909,-148.972382,,,
729860999.208937,-1.443661,4.869909,44.717328,-0.08429,-0.025055,0.991089,0.047607,0.058119,-0.03475,67.058273,5.876602,-149.288483,,,
729860999.212265,-1.438182,4.884338,44.709888,-0.08429,-0.025055,0.991089,0.01364,0.05005,-0.020258,67.058273,5.876602,-149.288483,,,
729860999.21561,-1.438182,4.884338,44.709888,-0.08429,-0.025055,0.991089,0.01364,0.05005,-0.020258,67.058273,5.876602,-149.288483,,,
729860999.218894,-1.436606,4.896114,44.705482,-0.097931,-0.016571,0.969574,0.01364,0.05005,-0.020258,67.058273,5.876602,-149.288483,,,
729860999.222265,-1.441313,4.903687,44.703264,-0.097931,-0.016571,0.969574,-0.023663,0.021311,-0.008132,67.058273,5.876602,-149.288483,,,
729860999.225676,-1.441313,4.903687,44.703264,-0.097931,-0.016571,0.969574,-0.023663,0.021311,-0.008132,67.058273,5.876602,-149.288483,,,
729860999.228933,-1.449009,4.906967,44.702886,-0.109222,-0.015671,0.963211,-0.023663,0.021311,-0.008132,67.058273,5.876602,-149.288483,,,
729860999.2323,-1.461162,4.905268,44.704188,-0.109222,-0.015671,0.963211,-0.045833,-0.010209,0.001862,67.058273,5.876602,-149.288483,,,
729860999.235614,-1.461162,4.905268,44.704188,-0.109222,-0.015671,0.963211,-0.045833,-0.010209,0.001862,67.058273,5.876602,-149.288483,,,
729860999.238999,-1.473831,4.899571,44.70759,-0.109055,-0.017822,0.96907,-0.045833,-0.010209,0.001862,67.058273,5.876602,-149.288483,,,
729860999.242252,-1.489186,4.890085,44.712676,-0.109055,-0.017822,0.96907,-0.056822,-0.035903,0.012734,67.058273,5.876602,-149.288483,,,
729860999.245611,-1.489186,4.890085,44.712676,-0.109055,-0.017822,0.96907,-0.056822,-0.035903,0.012734,67.058273,5.876602,-149.288483,,,
729860999.248933,-1.503726,4.876244,44.718198,-0.100281,-0.021835,0.979492,-0.056822,-0.035903,0.012734,67.058273,5.876602,-149.288483,,,
729860999.252261,-1.515899,4.860724,44.723571,-0.100281,-0.021835,0.979492,-0.037659,-0.054669,0.013163,67.102219,5.934235,-149.204803,,,
729860999.255602,-1.515899,4.860724,44.723571,-0.100281,-0.021835,0.979492,-0.037659,-0.054669,0.013163,67.102219,5.934235,-149.204803,,,
729860999.258932,-1.525271,4.84151,44.727319,-0.08577,-0.026245,1.001007,-0.037659,-0.054669,0.013163,67.102219,5.934235,-149.204803,,,
729860999.262268,-1.528761,4.825887,44.728757,-0.08577,-0.026245,1.001007,-0.00197,-0.047158,-0.000497,67.102219,5.934235,-149.204803,,,
729860999.265658,-1.528761,4.825887,44.728757,-0.08577,-0.026245,1.001007,-0.00197,-0.047158,-0.000497,67.102219,5.934235,-149.204803,,,
729860999.268933,-1.529258,4.810413,44.728134,-0.075302,-0.033966,1.021057,-0.00197,-0.047158,-0.000497,67.102219,5.934235,-149.204803,,,
729860999.272266,-1.524977,4.802212,44.725461,-0.075302,-0.033966,1.021057,0.020892,-0.015468,-0.013427,67.102219,5.934235,-149.204803,,,
729860999.27561,-1.524977,4.802212,44.725461,-0.075302,-0.033966,1.021057,0.020892,-0.015468,-0.013427,67.102219,5.934235,-149.204803,,,
729860999.278994,-1.519314,4.798118,44.720778,-0.066223,-0.03511,1.021759,0.020892,-0.015468,-0.013427,67.102219,5.934235,-149.204803,,,
729860999.282259,-1.510246,4.80071,44.714514,-0.066223,-0.03511,1.021759,0.036215,0.018645,-0.023464,67.102219,5.934235,-149.204803,,,
729860999.285613,-1.510246,4.80071,44.714514,-0.066223,-0.03511,1.021759,0.036215,0.018645,-0.023464,67.102219,5.934235,-149.204803,,,
729860999.288942,-1.500858,4.806028,44.707237,-0.074081,-0.031769,1.018524,0.036215,0.018645,-0.023464,67.102219,5.934235,-149.204803,,,
729860999.29228,-1.491465,4.81255,44.700013,-0.074081,-0.031769,1.018524,0.034782,0.02486,-0.02327,67.101929,5.717422,-148.961121,,,
729860999.295619,-1.491465,4.81255,44.700013,-0.074081,-0.031769,1.018524,0.034782,0.02486,-0.02327,67.101929,5.717422,-148.961121,,,
729860999.298953,-1.481128,4.819714,44.694232,-0.089493,-0.029968,1.001251,0.034782,0.02486,-0.02327,67.101929,5.717422,-148.961121,,,
729860999.30227,-1.472099,4.823785,44.691045,-0.089493,-0.029968,1.001251,0.030923,0.013498,-0.005185,67.101929,5.717422,-148.961121,,,
729860999.305666,-1.472099,4.823785,44.691045,-0.089493,-0.029968,1.001251,0.030923,0.013498,-0.005185,67.101929,5.717422,-148.961121,,,
729860999.308932,-1.462267,4.829643,44.691155,-0.099899,-0.028473,0.987869,0.030923,0.013498,-0.005185,67.101929,5.717422,-148.961121,,,
729860999.312266,-1.454632,4.827122,44.693746,-0.099899,-0.028473,0.987869,0.02341,-0.014654,0.012311,67.101929,5.717422,-148.961121,,,
729860999.315609,-1.454632,4.827122,44.693746,-0.099899,-0.028473,0.987869,0.02341,-0.014654,0.012311,67.101929,5.717422,-148.961121,,,
729860999.319006,-1.447633,4.825318,44.697788,-0.101257,-0.022888,0.977341,0.02341,-0.014654,0.012311,67.101929,5.717422,-148.961121,,,
729860999.322273,-1.444802,4.813591,44.70224,-0.101257,-0.022888,0.977341,0.004836,-0.044241,0.014592,67.101929,5.717422,-148.961121,,,
729860999.325617,-1.444802,4.813591,44.70224,-0.101257,-0.022888,0.977341,0.004836,-0.044241,0.014592,67.101929,5.717422,-148.961121,,,
729860999.328933,-1.443766,4.804607,44.706247,-0.091873,-0.017853,0.978455,0.004836,-0.044241,0.014592,67.101929,5.717422,-148.961121,,,
729860999.332326,-1.445963,4.791638,44.709135,-0.091873,-0.017853,0.978455,-0.012093,-0.042492,0.006051,66.824814,5.638931,-148.595169,,,
729860999.335617,-1.445963,4.791638,44.709135,-0.091873,-0.017853,0.978455,-0.012093,-0.042492,0.006051,66.824814,5.638931,-148.595169,,,
729860999.338958,-1.450378,4.779651,44.711316,-0.080551,-0.019547,0.982376,-0.012093,-0.042492,0.006051,66.824814,5.638931,-148.595169,,,
729860999.342268,-1.456554,4.767305,44.712446,-0.080551,-0.019547,0.982376,-0.023582,-0.037713,-0.002098,66.824814,5.638931,-148.595169,,,
729860999.346003,-1.456554,4.767305,44.712446,-0.080551,-0.019547,0.982376,-0.023582,-0.037713,-0.002098,66.824814,5.638931,-148.595169,,,
729860999.34891,-1.464336,4.754401,44.712805,-0.073441,-0.022141,0.989441,-0.023582,-0.037713,-0.002098,66.824814,5.638931,-148.595169,,,
729860999.352269,-1.469124,4.743584,44.7122,-0.073441,-0.022141,0.989441,-0.011525,-0.032684,-0.0081,66.824814,5.638931,-148.595169,,,
729860999.355701,-1.469124,4.743584,44.7122,-0.073441,-0.022141,0.989441,-0.011525,-0.032684,-0.0081,66.824814,5.638931,-148.595169,,,
729860999.358953,-1.473237,4.730634,44.709186,-0.069931,-0.025528,1.006104,-0.011525,-0.032684,-0.0081,66.824814,5.638931,-148.595169,,,
729860999.362271,-1.472215,4.725698,44.703974,-0.069931,-0.025528,1.006104,0.011348,-0.007086,-0.022331,66.824814,5.638931,-148.595169,,,
729860999.36561,-1.472215,4.725698,44.703974,-0.069931,-0.025528,1.006104,0.011348,-0.007086,-0.022331,66.824814,5.638931,-148.595169,,,
729860999.36903,-1.469784,4.7217,44.697202,-0.07045,-0.033798,1.020828,0.011348,-0.007086,-0.022331,66.824814,5.638931,-148.595169,,,
729860999.372257,-1.463414,4.724577,44.689707,-0.07045,-0.033798,1.020828,0.027975,0.018714,-0.026556,66.972183,5.425674,-148.80455,,,
729860999.375604,-1.463414,4.724577,44.689707,-0.07045,-0.033798,1.020828,0.027975,0.018714,-0.026556,66.972183,5.425674,-148.80455,,,
729860999.378942,-1.457037,4.731138,44.681967,-0.073776,-0.033264,1.013901,0.027975,0.018714,-0.026556,66.972183,5.425674,-148.80455,,,
729860999.382265,-1.449594,4.739634,44.675232,-0.073776,-0.033264,1.013901,0.027398,0.036738,-0.01957,66.972183,5.425674,-148.80455,,,
729860999.385614,-1.449594,4.739634,44.675232,-0.073776,-0.033264,1.013901,0.027398,0.036738,-0.01957,66.972183,5.425674,-148.80455,,,
