Time (sec),Pitch (deg),Roll (deg),Yaw(deg),X-Acceleration (g),Y-Acceleration (g),Z-Acceleration (g),Pitch Rate (deg/sec),Roll Rate (deg/sec),Yaw Rate (deg/sec),Magnetic Field in X direction (uT),Magnetic Field in Y direction (uT),Magnetic Field in Z Direction (uT),Latitude (deg),Longitude (deg),Altitude (m)
729861567.796877,0.632636,0.897312,128.455328,-0.019943,0.007309,1.030136,-0.024899,0.049242,0.001928,65.898026,34.115845,-145.972412,,,
729861567.800255,0.632636,0.897312,128.455328,-0.019943,0.007309,1.030136,-0.024899,0.049242,0.001928,65.898026,34.115845,-145.972412,,,
729861567.803513,0.639411,0.91254,128.459454,-0.019943,0.007309,1.030136,0.021656,0.054791,0.011113,65.898026,34.115845,-145.972412,,,
729861567.806865,0.651383,0.928635,128.46612,-0.031342,0.000641,1.03717,0.021656,0.054791,0.011113,65.898026,34.115845,-145.972412,,,
729861567.810179,0.651383,0.928635,128.46612,-0.031342,0.000641,1.03717,0.021656,0.054791,0.011113,65.898026,34.115845,-145.972412,,,
729861567.813517,0.666276,0.941394,128.475299,-0.031342,0.000641,1.03717,0.051284,0.04715,0.030239,65.988281,34.26326,-145.891403,,,
729861567.816845,0.684083,0.95154,128.486692,-0.041595,-0.001755,1.028427,0.051284,0.04715,0.030239,65.988281,34.26326,-145.891403,,,
729861567.820133,0.684083,0.95154,128.486692,-0.041595,-0.001755,1.028427,0.051284,0.04715,0.030239,65.988281,34.26326,-145.891403,,,
729861567.82355,0.701096,0.9557,128.499763,-0.041595,-0.001755,1.028427,0.06049,0.024701,0.04589,65.988281,34.26326,-145.891403,,,
729861567.826847,0.719415,0.955622,128.514066,-0.046234,-0.000229,1.012283,0.06049,0.024701,0.04589,65.988281,34.26326,-145.891403,,,
729861567.830135,0.719415,0.955622,128.514066,-0.046234,-0.000229,1.012283,0.06049,0.024701,0.04589,65.988281,34.26326,-145.891403,,,
729861567.833496,0.734863,0.949291,128.529495,-0.046234,-0.000229,1.012283,0.054056,-0.014567,0.053521,65.988281,34.26326,-145.891403,,,
729861567.836862,0.750274,0.937122,128.544899,-0.041229,0.006805,0.999512,0.054056,-0.014567,0.053521,65.988281,34.26326,-145.891403,,,
729861567.840241,0.750274,0.937122,128.544899,-0.041229,0.006805,0.999512,0.054056,-0.014567,0.053521,65.988281,34.26326,-145.891403,,,
729861567.843468,0.762937,0.920404,128.559009,-0.041229,0.006805,0.999512,0.042108,-0.052081,0.050261,65.988281,34.26326,-145.891403,,,
729861567.846862,0.775017,0.899926,128.571495,-0.029526,0.012222,0.995224,0.042108,-0.052081,0.050261,65.988281,34.26326,-145.891403,,,
729861567.850225,0.775017,0.899926,128.571495,-0.029526,0.012222,0.995224,0.042108,-0.052081,0.050261,65.988281,34.26326,-145.891403,,,
729861567.853514,0.784251,0.877729,128.581671,-0.029526,0.012222,0.995224,0.03462,-0.073806,0.036739,66.148178,33.979919,-146.240723,,,
729861567.856935,0.7922,0.854946,128.589142,-0.013474,0.018158,0.996719,0.03462,-0.073806,0.036739,66.148178,33.979919,-146.240723,,,
729861567.86024,0.7922,0.854946,128.589142,-0.013474,0.018158,0.996719,0.03462,-0.073806,0.036739,66.148178,33.979919,-146.240723,,,
729861567.863541,0.797142,0.834464,128.594118,-0.013474,0.018158,0.996719,0.020551,-0.071435,0.019173,66.148178,33.979919,-146.240723,,,
729861567.866623,0.799216,0.818139,128.596567,-0.001709,0.023468,1.00087,0.020551,-0.071435,0.019173,66.148178,33.979919,-146.240723,,,
729861567.870312,0.799216,0.818139,128.596567,-0.001709,0.023468,1.00087,0.020551,-0.071435,0.019173,66.148178,33.979919,-146.240723,,,
729861567.873514,0.799641,0.805891,128.596736,-0.001709,0.023468,1.00087,0.003331,-0.043519,-0.001143,66.148178,33.979919,-146.240723,,,
729861567.876864,0.794681,0.802841,128.595668,0.004547,0.021332,1.001297,0.003331,-0.043519,-0.001143,66.148178,33.979919,-146.240723,,,
729861567.880167,0.794681,0.802841,128.595668,0.004547,0.021332,1.001297,0.003331,-0.043519,-0.001143,66.148178,33.979919,-146.240723,,,
729861567.883534,0.791206,0.804579,128.594888,0.004547,0.021332,1.001297,-0.009613,0.000373,-0.003884,66.148178,33.979919,-146.240723,,,
729861567.886846,0.783942,0.82187,128.595363,0.002701,0.015762,1.002853,-0.009613,0.000373,-0.003884,66.148178,33.979919,-146.240723,,,
729861567.890168,0.783942,0.82187,128.595363,0.002701,0.015762,1.002853,-0.009613,0.000373,-0.003884,66.148178,33.979919,-146.240723,,,
729861567.893615,0.783,0.84072,128.597931,0.002701,0.015762,1.002853,-0.006426,0.062819,0.002305,66.068115,34.100494,-146.319931,,,
729861567.896799,0.781262,0.876267,128.60271,-0.006699,0.004974,1.015991,-0.006426,0.062819,0.002305,66.068115,34.100494,-146.319931,,,
729861567.900142,0.781262,0.876267,128.60271,-0.006699,0.004974,1.015991,-0.006426,0.062819,0.002305,66.068115,34.100494,-146.319931,,,
729861567.903577,0.786997,0.906715,128.609803,-0.006699,0.004974,1.015991,0.020124,0.106674,0.022262,66.068115,34.100494,-146.319931,,,
729861567.906846,0.792959,0.948322,128.619204,-0.014191,-0.002213,1.022842,0.020124,0.106674,0.022262,66.068115,34.100494,-146.319931,,,
729861567.910179,0.792959,0.948322,128.619204,-0.014191,-0.002213,1.022842,0.020124,0.106674,0.022262,66.068115,34.100494,-146.319931,,,
729861567.913521,0.804957,0.978626,128.630491,-0.014191,-0.002213,1.022842,0.039823,0.111822,0.03759,66.068115,34.100494,-146.319931,,,
729861567.916815,0.816632,1.011474,128.641956,-0.021805,-0.002579,1.007584,0.039823,0.111822,0.03759,66.068115,34.100494,-146.319931,,,
729861567.920138,0.816632,1.011474,128.641956,-0.021805,-0.002579,1.007584,0.039823,0.111822,0.03759,66.068115,34.100494,-146.319931,,,
729861567.923442,0.83079,1.030412,128.653258,-0.021805,-0.002579,1.007584,0.048279,0.078899,0.037364,66.068115,34.100494,-146.319931,,,
729861567.926799,0.846067,1.043959,128.663457,-0.023895,0.004623,0.989578,0.048279,0.078899,0.037364,66.068115,34.100494,-146.319931,,,
729861567.930115,0.846067,1.043959,128.663457,-0.023895,0.004623,0.989578,0.048279,0.078899,0.037364,66.068115,34.100494,-146.319931,,,
729861567.933445,0.861677,1.047588,128.672319,-0.023895,0.004623,0.989578,0.053818,0.023288,0.033242,66.068115,34.100494,-146.319931,,,
729861567.936768,0.878974,1.040165,128.679474,-0.020447,0.009308,0.978958,0.053818,0.023288,0.033242,66.257187,34.105682,-146.153488,,,
729861567.940118,0.878974,1.040165,128.679474,-0.020447,0.009308,0.978958,0.053818,0.023288,0.033242,66.257187,34.105682,-146.153488,,,
729861567.943438,0.894181,1.02968,128.68443,-0.020447,0.009308,0.978958,0.052354,-0.029077,0.018823,66.257187,34.105682,-146.153488,,,
729861567.946775,0.910214,1.008075,128.687969,-0.015656,0.013351,0.975937,0.052354,-0.029077,0.018823,66.257187,34.105682,-146.153488,,,
729861567.950104,0.910214,1.008075,128.687969,-0.015656,0.013351,0.975937,0.052354,-0.029077,0.018823,66.257187,34.105682,-146.153488,,,
729861567.953424,0.922237,0.989885,128.690331,-0.015656,0.013351,0.975937,0.044287,-0.059048,0.006898,66.257187,34.105682,-146.153488,,,
729861567.956794,0.932767,0.96275,128.692162,-0.012756,0.015747,0.977081,0.044287,-0.059048,0.006898,66.257187,34.105682,-146.153488,,,
729861567.960123,0.932767,0.96275,128.692162,-0.012756,0.015747,0.977081,0.044287,-0.059048,0.006898,66.257187,34.105682,-146.153488,,,
729861567.963491,0.939155,0.943747,128.693605,-0.012756,0.015747,0.977081,0.022625,-0.064178,0.001251,66.257187,34.105682,-146.153488,,,
729861567.96676,0.940986,0.920258,128.695082,-0.011642,0.01413,0.976746,0.022625,-0.064178,0.001251,66.257187,34.105682,-146.153488,,,
729861567.970107,0.940986,0.920258,128.695082,-0.011642,0.01413,0.976746,0.022625,-0.064178,0.001251,66.257187,34.105682,-146.153488,,,
729861567.973426,0.940876,0.903568,128.696706,-0.011642,0.01413,0.976746,0.001344,-0.056131,0.006131,66.257187,34.105682,-146.153488,,,
729861567.976769,0.933206,0.886765,128.698559,-0.009781,0.014526,0.977554,0.001344,-0.056131,0.006131,66.108765,34.060318,-145.820999,,,
729861567.9801,0.933206,0.886765,128.698559,-0.009781,0.014526,0.977554,0.001344,-0.056131,0.006131,66.108765,34.060318,-145.820999,,,
729861567.983446,0.926255,0.875097,128.700504,-0.009781,0.014526,0.977554,-0.021382,-0.041376,0.004647,66.108765,34.060318,-145.820999,,,
729861567.98677,0.910715,0.866813,128.702066,-0.006546,0.016205,0.97757,-0.021382,-0.041376,0.004647,66.108765,34.060318,-145.820999,,,
729861567.990095,0.910715,0.866813,128.702066,-0.006546,0.016205,0.97757,-0.021382,-0.041376,0.004647,66.108765,34.060318,-145.820999,,,
729861567.993466,0.897942,0.861159,128.702938,-0.006546,0.016205,0.97757,-0.041065,-0.019285,0.00205,66.108765,34.060318,-145.820999,,,
729861567.996789,0.880623,0.861565,128.703219,-0.001587,0.013641,0.984436,-0.041065,-0.019285,0.00205,66.108765,34.060318,-145.820999,,,
729861568.000093,0.880623,0.861565,128.703219,-0.001587,0.013641,0.984436,-0.041065,-0.019285,0.00205,66.108765,34.060318,-145.820999,,,
729861568.003446,0.868828,0.861906,128.702974,-0.001587,0.013641,0.984436,-0.043321,0.001814,-0.00128,66.108765,34.060318,-145.820999,,,
729861568.006765,0.857249,0.868583,128.702968,-0.000473,0.008179,0.999146,-0.043321,0.001814,-0.00128,66.108765,34.060318,-145.820999,,,
729861568.01011,0.857249,0.868583,128.702968,-0.000473,0.008179,0.999146,-0.043321,0.001814,-0.00128,66.108765,34.060318,-145.820999,,,
729861568.013479,0.852373,0.87672,128.70356,-0.000473,0.008179,0.999146,-0.023794,0.027303,-0.003992,66.108765,34.060318,-145.820999,,,
729861568.016782,0.851366,0.889696,128.704916,-0.001984,0.001282,1.016922,-0.023794,0.027303,-0.003992,65.929733,34.144592,-145.914841,,,
729861568.020094,0.851366,0.889696,128.704916,-0.001984,0.001282,1.016922,-0.023794,0.027303,-0.003992,65.929733,34.144592,-145.914841,,,
729861568.023494,0.855088,0.904276,128.707614,-0.001984,0.001282,1.016922,0.008428,0.053101,0.004881,65.929733,34.144592,-145.914841,,,
729861568.026764,0.862006,0.919768,128.712068,-0.009583,-0.000961,1.026138,0.008428,0.053101,0.004881,65.929733,34.144592,-145.914841,,,
729861568.030127,0.862006,0.919768,128.712068,-0.009583,-0.000961,1.026138,0.008428,0.053101,0.004881,65.929733,34.144592,-145.914841,,,
729861568.033439,0.871713,0.936153,128.718186,-0.009583,-0.000961,1.026138,0.030472,0.064462,0.018204,65.929733,34.144592,-145.914841,,,
729861568.036517,0.882904,0.950362,128.725779,-0.015335,0.001038,1.020187,0.030472,0.064462,0.018204,65.929733,34.144592,-145.914841,,,
729861568.04013,0.882904,0.950362,128.725779,-0.015335,0.001038,1.020187,0.030472,0.064462,0.018204,65.929733,34.144592,-145.914841,,,
729861568.043433,0.893969,0.962795,128.733687,-0.015335,0.001038,1.020187,0.041654,0.04806,0.027893,65.929733,34.144592,-145.914841,,,
729861568.046764,0.90372,0.968991,128.740599,-0.017044,0.007996,1.002838,0.041654,0.04806,0.027893,65.929733,34.144592,-145.914841,,,
729861568.050112,0.90372,0.968991,128.740599,-0.017044,0.007996,1.002838,0.041654,0.04806,0.027893,65.929733,34.144592,-145.914841,,,
729861568.053437,0.910823,0.971041,128.746303,-0.017044,0.007996,1.002838,0.027892,0.015805,0.020061,65.929733,34.144592,-145.914841,,,
729861568.056761,0.914347,0.964288,128.749968,-0.013916,0.016098,0.979599,0.027892,0.015805,0.020061,66.232895,34.034683,-145.938141,,,
729861568.060091,0.914347,0.964288,128.749968,-0.013916,0.016098,0.979599,0.027892,0.015805,0.020061,66.232895,34.034683,-145.938141,,,
729861568.063427,0.914398,0.953867,128.751561,-0.013916,0.016098,0.979599,0.005442,-0.026546,0.004655,66.232895,34.034683,-145.938141,,,
729861568.066761,0.911173,0.934386,128.751142,-0.00798,0.022644,0.965256,0.005442,-0.026546,0.004655,66.232895,34.034683,-145.938141,,,
729861568.070094,0.911173,0.934386,128.751142,-0.00798,0.022644,0.965256,0.005442,-0.026546,0.004655,66.232895,34.034683,-145.938141,,,
729861568.073446,0.903932,0.916266,128.748437,-0.00798,0.022644,0.965256,-0.018144,-0.060575,-0.010656,66.232895,34.034683,-145.938141,,,
729861568.076759,0.891559,0.892988,128.743989,-0.00351,0.026947,0.963654,-0.018144,-0.060575,-0.010656,66.232895,34.034683,-145.938141,,,
729861568.080092,0.891559,0.892988,128.743989,-0.00351,0.026947,0.963654,-0.018144,-0.060575,-0.010656,66.232895,34.034683,-145.938141,,,
729861568.083427,0.876025,0.874592,128.738225,-0.00351,0.026947,0.963654,-0.050083,-0.061428,-0.022182,66.232895,34.034683,-145.938141,,,
729861568.086758,0.854665,0.855232,128.731829,0.001755,0.02681,0.966354,-0.050083,-0.061428,-0.022182,66.232895,34.034683,-145.938141,,,
729861568.090092,0.854665,0.855232,128.731829,0.001755,0.02681,0.966354,-0.050083,-0.061428,-0.022182,66.232895,34.034683,-145.938141,,,
729861568.093174,0.831702,0.844219,128.724956,0.001755,0.02681,0.966354,-0.079199,-0.041171,-0.02811,66.232895,34.034683,-145.938141,,,
729861568.09679,0.80274,0.837469,128.718105,0.004791,0.02504,0.973328,-0.079199,-0.041171,-0.02811,66.232895,34.034683,-145.938141,,,
729861568.100088,0.80274,0.837469,128.718105,0.004791,0.02504,0.973328,-0.079199,-0.041171,-0.02811,66.081726,33.929718,-145.958359,,,
729861568.103426,0.775475,0.841063,128.710915,0.004791,0.02504,0.973328,-0.094297,0.007669,-0.028341,66.081726,33.929718,-145.958359,,,
729861568.106769,0.745365,0.851334,128.703964,0.001328,0.020248,0.989761,-0.094297,0.007669,-0.028341,66.081726,33.929718,-145.958359,,,
729861568.11009,0.745365,0.851334,128.703964,0.001328,0.020248,0.989761,-0.094297,0.007669,-0.028341,66.081726,33.929718,-145.958359,,,
729861568.113434,0.718843,0.868394,128.697761,0.001328,0.020248,0.989761,-0.092639,0.058095,-0.025169,66.081726,33.929718,-145.958359,,,
729861568.11676,0.691537,0.890038,128.692575,-0.003708,0.012497,1.003235,-0.092639,0.058095,-0.025169,66.081726,33.929718,-145.958359,,,
729861568.120092,0.691537,0.890038,128.692575,-0.003708,0.012497,1.003235,-0.092639,0.058095,-0.025169,66.081726,33.929718,-145.958359,,,
729861568.123429,0.669987,0.914724,128.688448,-0.003708,0.012497,1.003235,-0.074932,0.087993,-0.017991,66.081726,33.929718,-145.958359,,,
729861568.126759,0.65272,0.941393,128.68503,-0.011597,0.005997,1.009735,-0.074932,0.087993,-0.017991,66.081726,33.929718,-145.958359,,,
729861568.130093,0.65272,0.941393,128.68503,-0.011597,0.005997,1.009735,-0.074932,0.087993,-0.017991,66.081726,33.929718,-145.958359,,,
729861568.133428,0.641065,0.967778,128.682295,-0.011597,0.005997,1.009735,-0.044003,0.096918,-0.012825,66.081726,33.929718,-145.958359,,,
729861568.136771,0.636653,0.990028,128.679799,-0.017288,0.001114,1.021378,-0.044003,0.096918,-0.012825,66.081726,33.929718,-145.958359,,,
729861568.140089,0.636653,0.990028,128.679799,-0.017288,0.001114,1.021378,-0.044003,0.096918,-0.012825,66.34465,33.979446,-145.906067,,,
729861568.143428,0.63484,1.008529,128.677546,-0.017288,0.001114,1.021378,-0.007921,0.073901,-0.010677,66.34465,33.979446,-145.906067,,,
729861568.14676,0.640354,1.016333,128.675401,-0.023117,-0.000824,1.018677,-0.007921,0.073901,-0.010677,66.34465,33.979446,-145.906067,,,
729861568.15011,0.640354,1.016333,128.675401,-0.023117,-0.000824,1.018677,-0.007921,0.073901,-0.010677,66.34465,33.979446,-145.906067,,,
729861568.153475,0.644283,1.02025,128.672858,-0.023117,-0.000824,1.018677,0.015724,0.024616,-0.009367,66.34465,33.979446,-145.906067,,,
729861568.156796,0.653635,1.011093,128.67006,-0.027756,0.003677,1.004349,0.015724,0.024616,-0.009367,66.34465,33.979446,-145.906067,,,
729861568.160198,0.653635,1.011093,128.67006,-0.027756,0.003677,1.004349,0.015724,0.024616,-0.009367,66.34465,33.979446,-145.906067,,,
729861568.163523,0.659223,0.999112,128.667023,-0.027756,0.003677,1.004349,0.022156,-0.033531,-0.009382,66.34465,33.979446,-145.906067,,,
729861568.166834,0.667927,0.973943,128.663868,-0.031128,0.008224,0.989502,0.022156,-0.033531,-0.009382,66.34465,33.979446,-145.906067,,,
729861568.169892,0.667927,0.973943,128.663868,-0.031128,0.008224,0.989502,0.022156,-0.033531,-0.009382,66.34465,33.979446,-145.906067,,,
729861568.173475,0.670714,0.950496,128.660285,-0.031128,0.008224,0.989502,0.013327,-0.077775,-0.012775,66.34465,33.979446,-145.906067,,,
729861568.176767,0.675063,0.918182,128.656443,-0.028519,0.011093,0.985794,0.013327,-0.077775,-0.012775,66.34465,33.979446,-145.906067,,,
729861568.180097,0.675063,0.918182,128.656443,-0.028519,0.011093,0.985794,0.013327,-0.077775,-0.012775,66.206665,34.009766,-146.161713,,,
729861568.183434,0.673828,0.892978,128.652179,-0.028519,0.011093,0.985794,-0.000752,-0.088182,-0.015104,66.206665,34.009766,-146.161713,,,
729861568.186762,0.67254,0.864603,128.647741,-0.022552,0.013611,0.990509,-0.000752,-0.088182,-0.015104,66.206665,34.009766,-146.161713,,,
729861568.190097,0.67254,0.864603,128.647741,-0.022552,0.013611,0.990509,-0.000752,-0.088182,-0.015104,66.206665,34.009766,-146.161713,,,
729861568.19345,0.667865,0.846106,128.64313,-0.022552,0.013611,0.990509,-0.015565,-0.065085,-0.017532,66.206665,34.009766,-146.161713,,,
729861568.196792,0.66145,0.830875,128.637996,-0.01152,0.015381,0.999176,-0.015565,-0.065085,-0.017532,66.206665,34.009766,-146.161713,,,
729861568.200145,0.66145,0.830875,128.637996,-0.01152,0.015381,0.999176,-0.015565,-0.065085,-0.017532,66.206665,34.009766,-146.161713,,,
729861568.20345,0.654021,0.825952,128.632491,-0.01152,0.015381,0.999176,-0.024399,-0.021173,-0.02253,66.206665,34.009766,-146.161713,,,
729861568.206762,0.64321,0.829343,128.626421,-0.005249,0.015747,1.007614,-0.024399,-0.021173,-0.02253,66.206665,34.009766,-146.161713,,,
729861568.210102,0.64321,0.829343,128.626421,-0.005249,0.015747,1.007614,-0.024399,-0.021173,-0.02253,66.206665,34.009766,-146.161713,,,
729861568.213431,0.634006,0.841818,128.619398,-0.005249,0.015747,1.007614,-0.030653,0.040496,-0.023556,66.206665,34.009766,-146.161713,,,
729861568.216799,0.621688,0.863079,128.612863,-0.005798,0.017029,1.01207,-0.030653,0.040496,-0.023556,66.206665,34.009766,-146.161713,,,
729861568.220153,0.621688,0.863079,128.612863,-0.005798,0.017029,1.01207,-0.030653,0.040496,-0.023556,66.168213,34.10463,-146.131683,,,
729861568.223478,0.612658,0.888028,128.607493,-0.005798,0.017029,1.01207,-0.031208,0.089627,-0.023672,66.168213,34.10463,-146.131683,,,
729861568.226766,0.601906,0.919088,128.602897,-0.013779,0.012405,1.010712,-0.031208,0.089627,-0.023672,66.168213,34.10463,-146.131683,,,
729861568.230107,0.601906,0.919088,128.602897,-0.013779,0.012405,1.010712,-0.031208,0.089627,-0.023672,66.168213,34.10463,-146.131683,,,
729861568.233473,0.595624,0.948636,128.599016,-0.013779,0.012405,1.010712,-0.023289,0.107954,-0.01614,66.168213,34.10463,-146.131683,,,
729861568.236767,0.590921,0.982475,128.595434,-0.020828,0.008881,1.008408,-0.023289,0.107954,-0.01614,66.168213,34.10463,-146.131683,,,
729861568.240104,0.590921,0.982475,128.595434,-0.020828,0.008881,1.008408,-0.023289,0.107954,-0.01614,66.168213,34.10463,-146.131683,,,
729861568.243495,0.590649,1.009699,128.591793,-0.020828,0.008881,1.008408,-0.002225,0.100369,-0.0134,66.168213,34.10463,-146.131683,,,
729861568.246781,0.590649,1.009699,128.587974,-0.026764,0.006653,1.008759,-0.002225,0.100369,-0.0134,66.168213,34.10463,-146.131683,,,
729861568.250121,0.592954,1.037406,128.587974,-0.026764,0.006653,1.008759,-0.002225,0.100369,-0.0134,66.168213,34.10463,-146.131683,,,
729861568.253453,0.598016,1.055043,128.584628,-0.026764,0.006653,1.008759,0.016181,0.06987,-0.011021,66.168213,34.10463,-146.131683,,,
729861568.256871,0.605284,1.06795,128.581545,-0.033234,0.006744,1.001526,0.016181,0.06987,-0.011021,66.168213,34.10463,-146.131683,,,
729861568.260179,0.605284,1.06795,128.581545,-0.033234,0.006744,1.001526,0.016181,0.06987,-0.011021,66.168213,34.10463,-146.131683,,,
729861568.263462,0.612503,1.069426,128.578846,-0.033234,0.006744,1.001526,0.028491,0.016709,-0.009237,66.200806,34.117416,-145.647995,,,
729861568.266855,0.620406,1.062684,128.576498,-0.038208,0.006912,0.987549,0.028491,0.016709,-0.009237,66.200806,34.117416,-145.647995,,,
729861568.270016,0.620406,1.062684,128.576498,-0.038208,0.006912,0.987549,0.028491,0.016709,-0.009237,66.200806,34.117416,-145.647995,,,
729861568.273472,0.626232,1.048218,128.574038,-0.038208,0.006912,0.987549,0.024664,-0.039329,-0.007,66.200806,34.117416,-145.647995,,,
729861568.276868,0.631268,1.024492,128.572014,-0.038162,0.00943,0.976135,0.024664,-0.039329,-0.007,66.200806,34.117416,-145.647995,,,
729861568.280133,0.631268,1.024492,128.572014,-0.038162,0.00943,0.976135,0.024664,-0.039329,-0.007,66.200806,34.117416,-145.647995,,,
729861568.283438,0.632684,0.999646,128.570643,-0.038162,0.00943,0.976135,0.008177,-0.081127,-0.004279,66.200806,34.117416,-145.647995,,,
729861568.28678,0.632684,0.999646,128.570643,-0.034927,0.012573,0.975662,0.008177,-0.081127,-0.004279,66.200806,34.117416,-145.647995,,,
729861568.290101,0.633411,0.96789,128.5703,-0.034927,0.012573,0.975662,0.008177,-0.081127,-0.004279,66.200806,34.117416,-145.647995,,,
729861568.293444,0.631493,0.94046,128.570448,-0.034927,0.012573,0.975662,-0.005282,-0.09412,-0.001272,66.200806,34.117416,-145.647995,,,
729861568.296769,0.631493,0.94046,128.570448,-0.030121,0.01265,0.982132,-0.005282,-0.09412,-0.001272,66.200806,34.117416,-145.647995,,,
729861568.300097,0.630042,0.912284,128.57077,-0.030121,0.01265,0.982132,-0.005282,-0.09412,-0.001272,66.200806,34.117416,-145.647995,,,
729861568.303286,0.625847,0.891266,128.57122,-0.030121,0.01265,0.982132,-0.013713,-0.074469,0.001922,66.057617,34.121567,-145.690964,,,
729861568.306778,0.625847,0.891266,128.57122,-0.018173,0.01297,0.992538,-0.013713,-0.074469,0.001922,66.057617,34.121567,-145.690964,,,
729861568.310092,0.619906,0.877018,128.571357,-0.018173,0.01297,0.992538,-0.013713,-0.074469,0.001922,66.057617,34.121567,-145.690964,,,
729861568.313435,0.613761,0.870842,128.571376,-0.018173,0.01297,0.992538,-0.019252,-0.029063,-0.001723,66.057617,34.121567,-145.690964,,,
729861568.316804,0.613761,0.870842,128.571376,-0.007401,0.013687,0.999695,-0.019252,-0.029063,-0.001723,66.057617,34.121567,-145.690964,,,
729861568.320091,0.607522,0.87698,128.570994,-0.007401,0.013687,0.999695,-0.019252,-0.029063,-0.001723,66.057617,34.121567,-145.690964,,,
729861568.323435,0.603693,0.890968,128.569595,-0.007401,0.013687,0.999695,-0.016227,0.04146,-0.007323,66.057617,34.121567,-145.690964,,,
729861568.326764,0.603693,0.890968,128.569595,-0.003159,0.010864,1.01088,-0.016227,0.04146,-0.007323,66.057617,34.121567,-145.690964,,,
729861568.330132,0.601729,0.919109,128.567519,-0.003159,0.010864,1.01088,-0.016227,0.04146,-0.007323,66.057617,34.121567,-145.690964,,,
729861568.333537,0.604609,0.949562,128.565724,-0.003159,0.010864,1.01088,0.007565,0.106441,-0.008954,66.057617,34.121567,-145.690964,,,
729861568.336757,0.604609,0.949562,128.565724,-0.003159,0.010864,1.01088,0.007565,0.106441,-0.008954,66.057617,34.121567,-145.690964,,,
729861568.340098,0.608682,0.989541,128.563599,-0.005203,0.009232,1.021027,0.007565,0.106441,-0.008954,66.057617,34.121567,-145.690964,,,
729861568.34343,0.61546,1.024513,128.560739,-0.005203,0.009232,1.021027,0.023437,0.124331,-0.00843,66.232803,34.096252,-145.568497,,,
729861568.346787,0.61546,1.024513,128.560739,-0.012405,0.006683,1.006485,0.023437,0.124331,-0.00843,66.232803,34.096252,-145.568497,,,
729861568.350096,0.623456,1.065932,128.5577,-0.012405,0.006683,1.006485,0.023437,0.124331,-0.00843,66.232803,34.096252,-145.568497,,,
729861568.353428,0.633024,1.097272,128.554954,-0.012405,0.006683,1.006485,0.037046,0.113762,-0.010184,66.232803,34.096252,-145.568497,,,
729861568.356837,0.633024,1.097272,128.554954,-0.020569,0.006668,0.99472,0.037046,0.113762,-0.010184,66.232803,34.096252,-145.568497,,,
729861568.360145,0.64301,1.129818,128.552496,-0.020569,0.006668,0.99472,0.037046,0.113762,-0.010184,66.232803,34.096252,-145.568497,,,
729861568.363429,0.652706,1.149571,128.550356,-0.020569,0.006668,0.99472,0.036373,0.077621,-0.009022,66.232803,34.096252,-145.568497,,,
729861568.366812,0.652706,1.149571,128.550356,-0.032959,0.007263,0.982635,0.036373,0.077621,-0.009022,66.232803,34.096252,-145.568497,,,
729861568.369948,0.661607,1.16609,128.548903,-0.032959,0.007263,0.982635,0.036373,0.077621,-0.009022,66.232803,34.096252,-145.568497,,,
729861568.373528,0.668425,1.168414,128.548383,-0.032959,0.007263,0.982635,0.027883,0.019426,-0.001035,66.232803,34.096252,-145.568497,,,
729861568.376808,0.668425,1.168414,128.548383,-0.040802,0.006119,0.969116,0.027883,0.019426,-0.001035,66.232803,34.096252,-145.568497,,,
729861568.380052,0.673758,1.164128,128.548401,-0.040802,0.006119,0.969116,0.027883,0.019426,-0.001035,66.232803,34.096252,-145.568497,,,
729861568.383481,0.676369,1.151227,128.548706,-0.040802,0.006119,0.969116,0.012627,-0.037866,-0.002664,66.232803,34.096252,-145.568497,,,
729861568.386755,0.676369,1.151227,128.548706,-0.040802,0.006119,0.969116,0.012627,-0.037866,-0.002664,66.204773,33.940933,-145.856934,,,
729861568.39011,0.676175,1.131059,128.548984,-0.039032,0.012527,0.963287,0.012627,-0.037866,-0.002664,66.204773,33.940933,-145.856934,,,
729861568.393452,0.672498,1.109709,128.54958,-0.039032,0.012527,0.963287,-0.008709,-0.068495,-0.002539,66.204773,33.940933,-145.856934,,,
729861568.396774,0.672498,1.109709,128.54958,-0.039032,0.012527,0.963287,-0.008709,-0.068495,-0.002539,66.204773,33.940933,-145.856934,,,
729861568.400145,0.665819,1.082302,128.550101,-0.027634,0.018265,0.967377,-0.008709,-0.068495,-0.002539,66.204773,33.940933,-145.856934,,,
729861568.403449,0.655621,1.060179,128.550197,-0.027634,0.018265,0.967377,-0.034768,-0.076947,-0.002899,66.204773,33.940933,-145.856934,,,
729861568.406767,0.655621,1.060179,128.550197,-0.027634,0.018265,0.967377,-0.034768,-0.076947,-0.002899,66.204773,33.940933,-145.856934,,,
729861568.410097,0.64271,1.037638,128.550053,-0.019577,0.018845,0.973129,-0.034768,-0.076947,-0.002899,66.204773,33.940933,-145.856934,,,
729861568.413504,0.628955,1.025359,128.549423,-0.019577,0.018845,0.973129,-0.046993,-0.046069,-0.004822,66.204773,33.940933,-145.856934,,,
729861568.416786,0.628955,1.025359,128.549423,-0.019577,0.018845,0.973129,-0.046993,-0.046069,-0.004822,66.204773,33.940933,-145.856934,,,
729861568.420097,0.61502,1.017482,128.549218,-0.010208,0.01709,0.988312,-0.046993,-0.046069,-0.004822,66.204773,33.940933,-145.856934,,,
729861568.423432,0.604077,1.020327,128.549408,-0.010208,0.01709,0.988312,-0.041288,0.004801,-0.002784,66.204773,33.940933,-145.856934,,,
729861568.42681,0.604077,1.020327,128.549408,-0.010208,0.01709,0.988312,-0.041288,0.004801,-0.002784,66.181885,34.13858,-145.912506,,,
729861568.430176,0.595251,1.029647,128.550149,-0.006226,0.009003,1.012543,-0.041288,0.004801,-0.002784,66.181885,34.13858,-145.912506,,,
729861568.433528,0.591426,1.045523,128.551787,-0.006226,0.009003,1.012543,-0.015802,0.052449,0.004273,66.181885,34.13858,-145.912506,,,
729861568.436852,0.591426,1.045523,128.551787,-0.006226,0.009003,1.012543,-0.015802,0.052449,0.004273,66.181885,34.13858,-145.912506,,,
729861568.440185,0.591175,1.068489,128.552827,-0.005554,0.001816,1.029068,-0.015802,0.052449,0.004273,66.181885,34.13858,-145.912506,,,
729861568.44361,0.594669,1.092178,128.552538,-0.005554,0.001816,1.029068,0.008534,0.084397,-0.00129,66.181885,34.13858,-145.912506,,,
729861568.44685,0.594669,1.092178,128.552538,-0.005554,0.001816,1.029068,0.008534,0.084397,-0.00129,66.181885,34.13858,-145.912506,,,
729861568.45017,0.600016,1.123437,128.550638,-0.004593,0.002396,1.032501,0.008534,0.084397,-0.00129,66.181885,34.13858,-145.912506,,,
729861568.453503,0.608882,1.149153,128.547711,-0.004593,0.002396,1.032501,0.028718,0.093834,-0.009218,66.181885,34.13858,-145.912506,,,
729861568.456924,0.608882,1.149153,128.547711,-0.004593,0.002396,1.032501,0.028718,0.093834,-0.009218,66.181885,34.13858,-145.912506,,,
729861568.460157,0.619163,1.179158,128.54477,-0.006134,0.007462,1.026154,0.028718,0.093834,-0.009218,66.181885,34.13858,-145.912506,,,
729861568.463514,0.631302,1.199492,128.541958,-0.006134,0.007462,1.026154,0.043653,0.075515,-0.010184,66.181885,34.13858,-145.912506,,,
729861568.466905,0.631302,1.199492,128.541958,-0.006134,0.007462,1.026154,0.043653,0.075515,-0.010184,66.413513,34.018127,-145.794342,,,
729861568.470131,0.645481,1.220139,128.538973,-0.016586,0.006088,1.013565,0.043653,0.075515,-0.010184,66.413513,34.018127,-145.794342,,,
729861568.47348,0.657917,1.2331,128.536175,-0.016586,0.006088,1.013565,0.045353,0.052446,-0.008952,66.413513,34.018127,-145.794342,,,
729861568.476651,0.657917,1.2331,128.536175,-0.016586,0.006088,1.013565,0.045353,0.052446,-0.008952,66.413513,34.018127,-145.794342,,,
729861568.480164,0.670526,1.243918,128.533605,-0.02449,0.007248,1.000031,0.045353,0.052446,-0.008952,66.413513,34.018127,-145.794342,,,
729861568.483459,0.679307,1.250896,128.531992,-0.02449,0.007248,1.000031,0.033324,0.028431,-0.006584,66.413513,34.018127,-145.794342,,,
729861568.486476,0.679307,1.250896,128.531992,-0.02449,0.007248,1.000031,0.033324,0.028431,-0.006584,66.413513,34.018127,-145.794342,,,
729861568.490153,0.686807,1.253332,128.531108,-0.029388,0.010193,0.99028,0.033324,0.028431,-0.006584,66.413513,34.018127,-145.794342,,,
729861568.493499,0.689095,1.254099,128.530878,-0.029388,0.010193,0.99028,0.013243,0.006357,-0.001964,66.413513,34.018127,-145.794342,,,
729861568.49683,0.689095,1.254099,128.530878,-0.029388,0.010193,0.99028,0.013243,0.006357,-0.001964,66.413513,34.018127,-145.794342,,,
729861568.500146,0.688612,1.248845,128.531906,-0.032333,0.013351,0.983536,0.013243,0.006357,-0.001964,66.413513,34.018127,-145.794342,,,
729861568.503538,0.685092,1.246795,128.533708,-0.032333,0.013351,0.983536,-0.009007,-0.004228,0.00451,66.413513,34.018127,-145.794342,,,
729861568.506865,0.685092,1.246795,128.533708,-0.032333,0.013351,0.983536,-0.009007,-0.004228,0.00451,66.495361,34.125168,-146.054596,,,
729861568.510148,0.678668,1.239196,128.536498,-0.031494,0.014267,0.983475,-0.009007,-0.004228,0.00451,66.495361,34.125168,-146.054596,,,
729861568.513491,0.673348,1.236608,128.53994,-0.031494,0.014267,0.983475,-0.019579,-0.006203,0.007949,66.495361,34.125168,-146.054596,,,
729861568.516896,0.673348,1.236608,128.53994,-0.031494,0.014267,0.983475,-0.019579,-0.006203,0.007949,66.495361,34.125168,-146.054596,,,
729861568.520237,0.665005,1.229672,128.543433,-0.029526,0.013367,0.990692,-0.019579,-0.006203,0.007949,66.495361,34.125168,-146.054596,,,
729861568.523491,0.659624,1.228764,128.546655,-0.029526,0.013367,0.990692,-0.019918,-0.000826,0.010948,66.495361,34.125168,-146.054596,,,
729861568.526827,0.659624,1.228764,128.546655,-0.029526,0.013367,0.990692,-0.019918,-0.000826,0.010948,66.495361,34.125168,-146.054596,,,
729861568.530161,0.653052,1.223655,128.549375,-0.024734,0.010681,0.998718,-0.019918,-0.000826,0.010948,66.495361,34.125168,-146.054596,,,
729861568.533491,0.648527,1.22559,128.550807,-0.024734,0.010681,0.998718,-0.016024,0.01052,0.002678,66.495361,34.125168,-146.054596,,,
729861568.536831,0.648527,1.22559,128.550807,-0.024734,0.010681,0.998718,-0.016024,0.01052,0.002678,66.495361,34.125168,-146.054596,,,
729861568.540178,0.643515,1.224908,128.551211,-0.017166,0.011536,1.003235,-0.016024,0.01052,0.002678,66.495361,34.125168,-146.054596,,,
729861568.543462,0.640053,1.229414,128.550771,-0.017166,0.011536,1.003235,-0.012358,0.015951,-0.003305,66.495361,34.125168,-146.054596,,,
729861568.546904,0.640053,1.229414,128.550771,-0.017166,0.011536,1.003235,-0.012358,0.015951,-0.003305,66.495361,34.125168,-146.054596,,,
729861568.550157,0.635346,1.234897,128.549559,-0.01535,0.011032,1.001892,-0.012358,0.015951,-0.003305,66.611115,33.875992,-146.182053,,,
729861568.553491,0.63301,1.242656,128.548694,-0.01535,0.011032,1.001892,-0.009634,0.0282,-0.006065,66.611115,33.875992,-146.182053,,,
729861568.556826,0.63301,1.242656,128.548694,-0.01535,0.011032,1.001892,-0.009634,0.0282,-0.006065,66.611115,33.875992,-146.182053,,,
729861568.560166,0.630244,1.252009,128.549605,-0.022278,0.00589,1.001541,-0.009634,0.0282,-0.006065,66.611115,33.875992,-146.182053,,,
729861568.56356,0.628483,1.258192,128.55213,-0.022278,0.00589,1.001541,-0.007414,0.027324,0.005431,66.611115,33.875992,-146.182053,,,
729861568.566812,0.628483,1.258192,128.55213,-0.022278,0.00589,1.001541,-0.007414,0.027324,0.005431,66.611115,33.875992,-146.182053,,,
729861568.570168,0.626881,1.264709,128.555442,-0.026031,0.004593,0.998901,-0.007414,0.027324,0.005431,66.611115,33.875992,-146.182053,,,
729861568.573483,0.623687,1.264615,128.559084,-0.026031,0.004593,0.998901,-0.007331,0.004949,0.010197,66.611115,33.875992,-146.182053,,,
729861568.576829,0.623687,1.264615,128.559084,-0.026031,0.004593,0.998901,-0.007331,0.004949,0.010197,66.611115,33.875992,-146.182053,,,
729861568.58032,0.620574,1.26403,128.562559,-0.027756,0.005814,0.993088,-0.007331,0.004949,0.010197,66.611115,33.875992,-146.182053,,,
729861568.583469,0.61561,1.255714,128.56534,-0.027756,0.005814,0.993088,-0.015522,-0.02325,0.008587,66.611115,33.875992,-146.182053,,,
729861568.586941,0.61561,1.255714,128.56534,-0.027756,0.005814,0.993088,-0.015522,-0.02325,0.008587,66.611115,33.875992,-146.182053,,,
729861568.59031,0.610172,1.248021,128.566928,-0.022247,0.012161,0.990707,-0.015522,-0.02325,0.008587,66.450592,34.014359,-146.069336,,,
729861568.593615,0.603685,1.234894,128.567632,-0.022247,0.012161,0.990707,-0.021984,-0.041974,0.001143,66.450592,34.014359,-146.069336,,,
729861568.596905,0.603685,1.234894,128.567632,-0.022247,0.012161,0.990707,-0.021984,-0.041974,0.001143,66.450592,34.014359,-146.069336,,,
729861568.600259,0.598155,1.222876,128.567683,-0.017044,0.01384,0.993408,-0.021984,-0.041974,0.001143,66.450592,34.014359,-146.069336,,,
729861568.603616,0.593225,1.209597,128.567258,-0.017044,0.01384,0.993408,-0.016047,-0.046005,-0.003785,66.450592,34.014359,-146.069336,,,
729861568.606867,0.593225,1.209597,128.567258,-0.017044,0.01384,0.993408,-0.016047,-0.046005,-0.003785,66.450592,34.014359,-146.069336,,,
729861568.61025,0.589368,1.19902,128.566474,-0.011841,0.011307,1.004364,-0.016047,-0.046005,-0.003785,66.450592,34.014359,-146.069336,,,
729861568.613484,0.586746,1.191403,128.565396,-0.011841,0.011307,1.004364,-0.010012,-0.028061,-0.003256,66.450592,34.014359,-146.069336,,,
729861568.616845,0.586746,1.191403,128.565396,-0.011841,0.011307,1.004364,-0.010012,-0.028061,-0.003256,66.450592,34.014359,-146.069336,,,
729861568.620199,0.585329,1.186571,128.564435,-0.009689,0.009171,1.011612,-0.010012,-0.028061,-0.003256,66.450592,34.014359,-146.069336,,,
729861568.62352,0.583606,1.18896,128.563122,-0.009689,0.009171,1.011612,-0.007384,0.005618,-0.002838,66.450592,34.014359,-146.069336,,,
729861568.626961,0.583606,1.18896,128.563122,-0.009689,0.009171,1.011612,-0.007384,0.005618,-0.002838,66.450592,34.014359,-146.069336,,,
729861568.630263,0.58174,1.195474,128.561369,-0.007782,0.008652,1.007355,-0.007384,0.005618,-0.002838,66.544876,34.038239,-145.927444,,,
729861568.633598,0.580743,1.207691,128.559796,-0.007782,0.008652,1.007355,-0.006588,0.043776,-0.007568,66.544876,34.038239,-145.927444,,,
729861568.63695,0.580743,1.207691,128.559796,-0.007782,0.008652,1.007355,-0.006588,0.043776,-0.007568,66.544876,34.038239,-145.927444,,,
729861568.640272,0.579682,1.223773,128.558713,-0.00943,0.010757,1.00502,-0.006588,0.043776,-0.007568,66.544876,34.038239,-145.927444,,,
729861568.643607,0.581518,1.239161,128.558198,-0.00943,0.010757,1.00502,0.006069,0.059696,-0.00388,66.544876,34.038239,-145.927444,,,
729861568.646881,0.581518,1.239161,128.558198,-0.00943,0.010757,1.00502,0.006069,0.059696,-0.00388,66.544876,34.038239,-145.927444,,,
729861568.650256,0.58361,1.254618,128.55824,-0.018036,0.007355,1.005905,0.006069,0.059696,-0.00388,66.544876,34.038239,-145.927444,,,
729861568.653596,0.588264,1.26282,128.55862,-0.018036,0.007355,1.005905,0.01587,0.038156,5e-06,66.544876,34.038239,-145.927444,,,
729861568.656942,0.588264,1.26282,128.55862,-0.018036,0.007355,1.005905,0.01587,0.038156,5e-06,66.544876,34.038239,-145.927444,,,
729861568.660276,0.592997,1.264355,128.558469,-0.023972,0.004791,0.996674,0.01587,0.038156,5e-06,66.544876,34.038239,-145.927444,,,
729861568.663638,0.599175,1.254749,128.557954,-0.023972,0.004791,0.996674,0.019629,-0.020861,-0.003509,66.544876,34.038239,-145.927444,,,
729861568.66699,0.599175,1.254749,128.557954,-0.023972,0.004791,0.996674,0.019629,-0.020861,-0.003509,66.544876,34.038239,-145.927444,,,
729861568.670218,0.60784,1.234683,128.556825,-0.028809,0.009018,0.984375,0.019629,-0.020861,-0.003509,66.693924,33.877365,-146.370377,,,
729861568.67354,0.6172,1.205594,128.554521,-0.028809,0.009018,0.984375,0.032828,-0.090891,-0.008408,66.693924,33.877365,-146.370377,,,
729861568.676856,0.6172,1.205594,128.554521,-0.028809,0.009018,0.984375,0.032828,-0.090891,-0.008408,66.693924,33.877365,-146.370377,,,
729861568.680305,0.628227,1.167181,128.551575,-0.031631,0.008331,0.981216,0.032828,-0.090891,-0.008408,66.693924,33.877365,-146.370377,,,
729861568.683538,0.639331,1.126468,128.547907,-0.031631,0.008331,0.981216,0.040331,-0.140272,-0.011313,66.693924,33.877365,-146.370377,,,
729861568.686859,0.639331,1.126468,128.547907,-0.031631,0.008331,0.981216,0.040331,-0.140272,-0.011313,66.693924,33.877365,-146.370377,,,
729861568.690181,0.649121,1.082329,128.543974,-0.02507,0.009979,0.98616,0.040331,-0.140272,-0.011313,66.693924,33.877365,-146.370377,,,
729861568.69361,0.657642,1.044561,128.540552,-0.02507,0.009979,0.98616,0.031455,-0.132013,-0.014414,66.693924,33.877365,-146.370377,,,
729861568.696842,0.657642,1.044561,128.540552,-0.02507,0.009979,0.98616,0.031455,-0.132013,-0.014414,66.693924,33.877365,-146.370377,,,
729861568.700191,0.663647,1.010585,128.538203,-0.015991,0.011597,0.989243,0.031455,-0.132013,-0.014414,66.693924,33.877365,-146.370377,,,
729861568.703619,0.667928,0.988704,128.537122,-0.015991,0.011597,0.989243,0.017395,-0.082004,-0.0073,66.693924,33.877365,-146.370377,,,
729861568.706852,0.667928,0.988704,128.537122,-0.015991,0.011597,0.989243,0.017395,-0.082004,-0.0073,66.693924,33.877365,-146.370377,,,
729861568.71025,0.66829,0.973455,128.536978,-0.011856,0.012039,0.99733,0.017395,-0.082004,-0.0073,66.693924,33.877365,-146.370377,,,
729861568.713603,0.665927,0.971894,128.537716,-0.011856,0.012039,0.99733,-0.000972,-0.012849,0.003655,66.365753,34.062225,-145.921326,,,
729861568.716974,0.665927,0.971894,128.537716,-0.011856,0.012039,0.99733,-0.000972,-0.012849,0.003655,66.365753,34.062225,-145.921326,,,
729861568.720216,0.66026,0.979044,128.539045,-0.006943,0.013824,0.997223,-0.000972,-0.012849,0.003655,66.365753,34.062225,-145.921326,,,
729861568.723535,0.652617,0.996788,128.540272,-0.006943,0.013824,0.997223,-0.024427,0.059876,0.001675,66.365753,34.062225,-145.921326,,,
729861568.726867,0.652617,0.996788,128.540272,-0.006943,0.013824,0.997223,-0.024427,0.059876,0.001675,66.365753,34.062225,-145.921326,,,
729861568.730296,0.641709,1.021822,128.540736,-0.002563,0.017792,0.995026,-0.024427,0.059876,0.001675,66.365753,34.062225,-145.921326,,,
729861568.733533,0.630625,1.04841,128.540053,-0.002563,0.017792,0.995026,-0.036032,0.094985,-0.001745,66.365753,34.062225,-145.921326,,,
729861568.736928,0.630625,1.04841,128.540053,-0.002563,0.017792,0.995026,-0.036032,0.094985,-0.001745,66.365753,34.062225,-145.921326,,,
729861568.740215,0.616609,1.07726,128.53844,-0.006622,0.016266,0.989944,-0.036032,0.094985,-0.001745,66.365753,34.062225,-145.921326,,,
729861568.743574,0.602926,1.101333,128.536495,-0.006622,0.016266,0.989944,-0.049519,0.090146,-0.008384,66.365753,34.062225,-145.921326,,,
729861568.746889,0.602926,1.101333,128.536495,-0.006622,0.016266,0.989944,-0.049519,0.090146,-0.008384,66.365753,34.062225,-145.921326,,,
729861568.750253,0.588637,1.125869,128.533557,-0.015518,0.017517,0.98465,-0.049519,0.090146,-0.008384,66.365753,34.062225,-145.921326,,,
729861568.753554,0.576034,1.142609,128.529308,-0.015518,0.017517,0.98465,-0.045828,0.06419,-0.016795,66.362961,34.23204,-145.978683,,,
729861568.756915,0.576034,1.142609,128.529308,-0.015518,0.017517,0.98465,-0.045828,0.06419,-0.016795,66.362961,34.23204,-145.978683,,,
729861568.760225,0.565882,1.158727,128.524014,-0.020004,0.013611,0.988968,-0.045828,0.06419,-0.016795,66.362961,34.23204,-145.978683,,,
729861568.763558,0.560009,1.167494,128.517962,-0.020004,0.013611,0.988968,-0.025046,0.039466,-0.023886,66.362961,34.23204,-145.978683,,,
729861568.766875,0.560009,1.167494,128.517962,-0.020004,0.013611,0.988968,-0.025046,0.039466,-0.023886,66.362961,34.23204,-145.978683,,,
729861568.770194,0.558495,1.173112,128.511525,-0.024582,0.009399,1.002975,-0.025046,0.039466,-0.023886,66.362961,34.23204,-145.978683,,,
729861568.77351,0.560336,1.176129,128.505306,-0.024582,0.009399,1.002975,0.006427,0.014186,-0.021746,66.362961,34.23204,-145.978683,,,
729861568.776862,0.560336,1.176129,128.505306,-0.024582,0.009399,1.002975,0.006427,0.014186,-0.021746,66.362961,34.23204,-145.978683,,,
729861568.780255,0.566299,1.175072,128.500034,-0.029633,0.003738,1.012573,0.006427,0.014186,-0.021746,66.362961,34.23204,-145.978683,,,
729861568.783522,0.574669,1.174445,128.4954,-0.029633,0.003738,1.012573,0.027476,0.001565,-0.0165,66.362961,34.23204,-145.978683,,,
729861568.78688,0.574669,1.174445,128.4954,-0.029633,0.003738,1.012573,0.027476,0.001565,-0.0165,66.362961,34.23204,-145.978683,,,
729861568.790343,0.585412,1.169359,128.491772,-0.034241,0.002289,1.012741,0.027476,0.001565,-0.0165,66.362961,34.23204,-145.978683,,,
729861568.793664,0.59623,1.167164,128.489183,-0.034241,0.002289,1.012741,0.039987,-0.004174,-0.008319,66.576462,34.111099,-146.025665,,,
729861568.796876,0.59623,1.167164,128.489183,-0.034241,0.002289,1.012741,0.039987,-0.004174,-0.008319,66.576462,34.111099,-146.025665,,,
729861568.800212,0.608571,1.16084,128.487332,-0.033615,0.003525,1.008087,0.039987,-0.004174,-0.008319,66.576462,34.111099,-146.025665,,,
729861568.80361,0.619284,1.161261,128.486783,-0.033615,0.003525,1.008087,0.038461,0.006252,-0.004006,66.576462,34.111099,-146.025665,,,
729861568.806909,0.619284,1.161261,128.486783,-0.033615,0.003525,1.008087,0.038461,0.006252,-0.004006,66.576462,34.111099,-146.025665,,,
729861568.810256,0.631148,1.157153,128.4874,-0.035614,0.008438,1.004196,0.038461,0.006252,-0.004006,66.576462,34.111099,-146.025665,,,
729861568.813627,0.639472,1.159986,128.488666,-0.035614,0.008438,1.004196,0.032654,0.014446,0.002459,66.576462,34.111099,-146.025665,,,
729861568.816917,0.639472,1.159986,128.488666,-0.035614,0.008438,1.004196,0.032654,0.014446,0.002459,66.576462,34.111099,-146.025665,,,
729861568.82025,0.647745,1.158904,128.490063,-0.034683,0.010727,1.00087,0.032654,0.014446,0.002459,66.576462,34.111099,-146.025665,,,
729861568.82356,0.652483,1.161205,128.491016,-0.034683,0.010727,1.00087,0.017401,0.010037,0.002483,66.576462,34.111099,-146.025665,,,
729861568.826898,0.652483,1.161205,128.491016,-0.034683,0.010727,1.00087,0.017401,0.010037,0.002483,66.576462,34.111099,-146.025665,,,
729861568.830242,0.655674,1.162801,128.490777,-0.028397,0.014023,0.988434,0.017401,0.010037,0.002483,66.576462,34.111099,-146.025665,,,
729861568.833576,0.654191,1.165381,128.48838,-0.028397,0.014023,0.988434,1.7e-05,0.012089,-0.006025,66.576462,34.111099,-146.025665,,,
729861568.83689,0.654191,1.165381,128.48838,-0.028397,0.014023,0.988434,1.7e-05,0.012089,-0.006025,66.677124,33.867142,-145.930145,,,
729861568.840246,0.649599,1.169213,128.484256,-0.021805,0.022797,0.984055,1.7e-05,0.012089,-0.006025,66.677124,33.867142,-145.930145,,,
729861568.843574,0.641535,1.174345,128.479241,-0.021805,0.022797,0.984055,-0.026508,0.018825,-0.019649,66.677124,33.867142,-145.930145,,,
729861568.846866,0.641535,1.174345,128.479241,-0.021805,0.022797,0.984055,-0.026508,0.018825,-0.019649,66.677124,33.867142,-145.930145,,,
729861568.850071,0.629629,1.183028,128.474422,-0.020447,0.024765,0.986908,-0.026508,0.018825,-0.019649,66.677124,33.867142,-145.930145,,,
729861568.853513,0.61896,1.191928,128.470414,-0.020447,0.024765,0.986908,-0.036225,0.03099,-0.018898,66.677124,33.867142,-145.930145,,,
729861568.856844,0.61896,1.191928,128.470414,-0.020447,0.024765,0.986908,-0.036225,0.03099,-0.018898,66.677124,33.867142,-145.930145,,,
729861568.860253,0.609044,1.207261,128.467859,-0.024734,0.018356,1.001633,-0.036225,0.03099,-0.018898,66.677124,33.867142,-145.930145,,,
729861568.863535,0.604511,1.220476,128.467301,-0.024734,0.018356,1.001633,-0.019625,0.049918,-0.005877,66.677124,33.867142,-145.930145,,,
729861568.866881,0.604511,1.220476,128.467301,-0.024734,0.018356,1.001633,-0.019625,0.049918,-0.005877,66.677124,33.867142,-145.930145,,,
729861568.870173,0.600664,1.237906,128.468321,-0.032043,0.007523,1.022522,-0.019625,0.049918,-0.005877,66.677124,33.867142,-145.930145,,,
729861568.873469,0.601733,1.248835,128.470478,-0.032043,0.007523,1.022522,0.002267,0.046713,0.002738,66.677124,33.867142,-145.930145,,,
729861568.87687,0.601733,1.248835,128.470478,-0.032043,0.007523,1.022522,0.002267,0.046713,0.002738,66.753403,34.058533,-146.080872,,,
729861568.880205,0.604631,1.259509,128.47299,-0.037109,0.002869,1.025055,0.002267,0.046713,0.002738,66.753403,34.058533,-146.080872,,,
729861568.883508,0.612119,1.260626,128.475783,-0.037109,0.002869,1.025055,0.025015,0.010986,0.006981,66.753403,34.058533,-146.080872,,,
729861568.886838,0.612119,1.260626,128.475783,-0.037109,0.002869,1.025055,0.025015,0.010986,0.006981,66.753403,34.058533,-146.080872,,,
729861568.890211,0.621218,1.259475,128.478778,-0.041168,0.004745,1.015228,0.025015,0.010986,0.006981,66.753403,34.058533,-146.080872,,,
729861568.893545,0.632127,1.246835,128.481677,-0.041168,0.004745,1.015228,0.035986,-0.035148,0.010021,66.753403,34.058533,-146.080872,,,
729861568.896865,0.632127,1.246835,128.481677,-0.041168,0.004745,1.015228,0.035986,-0.035148,0.010021,66.753403,34.058533,-146.080872,,,
729861568.900146,0.644262,1.231462,128.484928,-0.044266,0.004974,1.003647,0.035986,-0.035148,0.010021,66.753403,34.058533,-146.080872,,,
729861568.903491,0.656007,1.20763,128.489045,-0.044266,0.004974,1.003647,0.043193,-0.078582,0.015055,66.753403,34.058533,-146.080872,,,
729861568.906875,0.656007,1.20763,128.489045,-0.044266,0.004974,1.003647,0.043193,-0.078582,0.015055,66.753403,34.058533,-146.080872,,,
729861568.910196,0.668638,1.183651,128.493295,-0.041107,0.006226,0.993713,0.043193,-0.078582,0.015055,66.753403,34.058533,-146.080872,,,
729861568.913633,0.678176,1.15791,128.497935,-0.041107,0.006226,0.993713,0.034754,-0.088232,0.016664,66.753403,34.058533,-146.080872,,,
729861568.916963,0.678176,1.15791,128.497935,-0.041107,0.006226,0.993713,0.034754,-0.088232,0.016664,66.435364,34.060425,-145.645615,,,
729861568.920206,0.688959,1.133562,128.503239,-0.035355,0.010223,0.992935,0.034754,-0.088232,0.016664,66.435364,34.060425,-145.645615,,,
729861568.92364,0.694505,1.110591,128.509584,-0.035355,0.010223,0.992935,0.025106,-0.079294,0.019776,66.435364,34.060425,-145.645615,,,
729861568.926854,0.694505,1.110591,128.509584,-0.035355,0.010223,0.992935,0.025106,-0.079294,0.019776,66.435364,34.060425,-145.645615,,,
729861568.930325,0.701381,1.091483,128.516729,-0.029831,0.013031,0.991547,0.025106,-0.079294,0.019776,66.435364,34.060425,-145.645615,,,
729861568.93354,0.703024,1.076601,128.524185,-0.029831,0.013031,0.991547,0.008445,-0.053255,0.02429,66.435364,34.060425,-145.645615,,,
729861568.936869,0.703024,1.076601,128.524185,-0.029831,0.013031,0.991547,0.008445,-0.053255,0.02429,66.435364,34.060425,-145.645615,,,
729861568.940197,0.703552,1.070901,128.532013,-0.021301,0.014938,0.989151,0.008445,-0.053255,0.02429,66.435364,34.060425,-145.645615,,,
729861568.943616,0.702711,1.069507,128.539805,-0.021301,0.014938,0.989151,-0.000756,-0.008221,0.028805,66.435364,34.060425,-145.645615,,,
729861568.946872,0.702711,1.069507,128.539805,-0.021301,0.014938,0.989151,-0.000756,-0.008221,0.028805,66.435364,34.060425,-145.645615,,,
729861568.950205,0.699381,1.079555,128.547472,-0.010208,0.018417,0.9935,-0.000756,-0.008221,0.028805,66.435364,34.060425,-145.645615,,,
729861568.953586,0.697861,1.090961,128.555204,-0.010208,0.018417,0.9935,-0.006524,0.039331,0.028802,66.435364,34.060425,-145.645615,,,
729861568.95687,0.697861,1.090961,128.555204,-0.010208,0.018417,0.9935,-0.006524,0.039331,0.028802,66.633072,33.913986,-146.083008,,,
729861568.960185,0.693561,1.114631,128.562681,-0.007309,0.017776,0.995407,-0.006524,0.039331,0.028802,66.633072,33.913986,-146.083008,,,
729861568.963509,0.691469,1.135714,128.570309,-0.007309,0.017776,0.995407,-0.006207,0.07448,0.025234,66.633072,33.913986,-146.083008,,,
729861568.966837,0.691469,1.135714,128.570309,-0.007309,0.017776,0.995407,-0.006207,0.07448,0.025234,66.633072,33.913986,-146.083008,,,
729861568.97017,0.687543,1.165455,128.57859,-0.009201,0.013901,0.991745,-0.006207,0.07448,0.025234,66.633072,33.913986,-146.083008,,,
729861568.973515,0.685902,1.187575,128.58772,-0.009201,0.013901,0.991745,-0.005461,0.084645,0.031658,66.633072,33.913986,-146.083008,,,
729861568.976644,0.685902,1.187575,128.58772,-0.009201,0.013901,0.991745,-0.005461,0.084645,0.031658,66.633072,33.913986,-146.083008,,,
729861568.98019,0.682864,1.214685,128.597749,-0.016205,0.011337,0.978973,-0.005461,0.084645,0.031658,66.633072,33.913986,-146.083008,,,
729861568.983509,0.682378,1.229247,128.609171,-0.016205,0.011337,0.978973,-0.002142,0.0578,0.039348,66.633072,33.913986,-146.083008,,,
729861568.986854,0.682378,1.229247,128.609171,-0.016205,0.011337,0.978973,-0.002142,0.0578,0.039348,66.633072,33.913986,-146.083008,,,
729861568.990188,0.680062,1.242129,128.62162,-0.023727,0.009415,0.96608,-0.002142,0.0578,0.039348,66.633072,33.913986,-146.083008,,,
729861568.993489,0.677003,1.24054,128.634749,-0.023727,0.009415,0.96608,-0.011578,0.006291,0.043073,66.633072,33.913986,-146.083008,,,
729861568.996852,0.677003,1.24054,128.634749,-0.023727,0.009415,0.96608,-0.011578,0.006291,0.043073,66.633072,33.913986,-146.083008,,,
729861569.00025,0.671965,1.234815,128.647637,-0.026917,0.010025,0.957474,-0.011578,0.006291,0.043073,66.614273,34.219894,-145.675583,,,
729861569.003595,0.665315,1.217032,128.659253,-0.026917,0.010025,0.957474,-0.0237,-0.055213,0.042628,66.614273,34.219894,-145.675583,,,
729861569.006871,0.665315,1.217032,128.659253,-0.026917,0.010025,0.957474,-0.0237,-0.055213,0.042628,66.614273,34.219894,-145.675583,,,
729861569.010161,0.65807,1.195123,128.668918,-0.019684,0.015625,0.954987,-0.0237,-0.055213,0.042628,66.614273,34.219894,-145.675583,,,
729861569.013579,0.649414,1.16553,128.676038,-0.019684,0.015625,0.954987,-0.029668,-0.098353,0.023903,66.614273,34.219894,-145.675583,,,
729861569.016894,0.649414,1.16553,128.676038,-0.019684,0.015625,0.954987,-0.029668,-0.098353,0.023903,66.614273,34.219894,-145.675583,,,
729861569.020231,0.641281,1.132063,128.679911,-0.006561,0.020279,0.967148,-0.029668,-0.098353,0.023903,66.614273,34.219894,-145.675583,,,
729861569.023565,0.630976,1.099671,128.680619,-0.006561,0.020279,0.967148,-0.035475,-0.112375,0.004413,66.614273,34.219894,-145.675583,,,
729861569.026936,0.630976,1.099671,128.680619,-0.006561,0.020279,0.967148,-0.035475,-0.112375,0.004413,66.614273,34.219894,-145.675583,,,
729861569.030275,0.622036,1.067359,128.678522,0.004913,0.022293,0.981827,-0.035475,-0.112375,0.004413,66.614273,34.219894,-145.675583,,,
729861569.033564,0.611238,1.043741,128.674593,0.004913,0.022293,0.981827,-0.037595,-0.087683,-0.013779,66.614273,34.219894,-145.675583,,,
729861569.03685,0.611238,1.043741,128.674593,0.004913,0.022293,0.981827,-0.037595,-0.087683,-0.013779,66.614273,34.219894,-145.675583,,,
729861569.040303,0.601174,1.026929,128.669864,0.010178,0.02269,0.996292,-0.037595,-0.087683,-0.013779,66.13887,34.237762,-145.783905,,,
729861569.043463,0.58983,1.023272,128.664921,0.010178,0.02269,0.996292,-0.037828,-0.02132,-0.020125,66.13887,34.237762,-145.783905,,,
729861569.046971,0.58983,1.023272,128.664921,0.010178,0.02269,0.996292,-0.037828,-0.02132,-0.020125,66.13887,34.237762,-145.783905,,,
729861569.050208,0.578438,1.029043,128.660757,0.01004,0.018433,1.010712,-0.037828,-0.02132,-0.020125,66.13887,34.237762,-145.783905,,,
729861569.053619,0.565351,1.046259,128.658116,0.01004,0.018433,1.010712,-0.043269,0.056566,-0.01162,66.13887,34.237762,-145.783905,,,
729861569.056923,0.565351,1.046259,128.658116,0.01004,0.018433,1.010712,-0.043269,0.056566,-0.01162,66.13887,34.237762,-145.783905,,,
729861569.060238,0.550753,1.072723,128.6571,0.001678,0.010788,1.015625,-0.043269,0.056566,-0.01162,66.13887,34.237762,-145.783905,,,
729861569.063468,0.535341,1.106718,128.657281,0.001678,0.010788,1.015625,-0.056331,0.116862,-0.002414,66.13887,34.237762,-145.783905,,,
729861569.06704,0.535341,1.106718,128.657281,0.001678,0.010788,1.015625,-0.056331,0.116862,-0.002414,66.13887,34.237762,-145.783905,,,
729861569.070229,0.519983,1.148344,128.658293,-0.008209,0.008621,1.010071,-0.056331,0.116862,-0.002414,66.13887,34.237762,-145.783905,,,
729861569.073528,0.505035,1.190715,128.659909,-0.008209,0.008621,1.010071,-0.052752,0.152727,0.00303,66.13887,34.237762,-145.783905,,,
729861569.07686,0.505035,1.190715,128.659909,-0.008209,0.008621,1.010071,-0.052752,0.152727,0.00303,66.13887,34.237762,-145.783905,,,
729861569.080289,0.492672,1.233869,128.661988,-0.017639,0.0047,1.006927,-0.052752,0.152727,0.00303,66.255753,34.044418,-145.919357,,,
729861569.083577,0.481776,1.27088,128.664613,-0.017639,0.0047,1.006927,-0.052752,0.152727,0.00303,66.255753,34.044418,-145.919357,,,
729861569.086873,0.481776,1.27088,128.664613,-0.017639,0.0047,1.006927,-0.039942,0.137357,0.006962,66.255753,34.044418,-145.919357,,,
729861569.090199,0.476859,1.299094,128.667217,-0.030212,0.002396,1.00354,-0.039942,0.137357,0.006962,66.255753,34.044418,-145.919357,,,
729861569.093605,0.473024,1.321653,128.668752,-0.030212,0.002396,1.00354,-0.039942,0.137357,0.006962,66.255753,34.044418,-145.919357,,,
729861569.096886,0.473024,1.321653,128.668752,-0.030212,0.002396,1.00354,-0.016463,0.086824,0.004306,66.255753,34.044418,-145.919357,,,
729861569.100235,0.474886,1.329165,128.668784,-0.036926,0.001755,0.998047,-0.016463,0.086824,0.004306,66.255753,34.044418,-145.919357,,,
729861569.103608,0.474133,1.334543,128.667442,-0.036926,0.001755,0.998047,-0.016463,0.086824,0.004306,66.255753,34.044418,-145.919357,,,
729861569.106927,0.474133,1.334543,128.667442,-0.036926,0.001755,0.998047,-0.002225,0.029682,-0.005986,66.255753,34.044418,-145.919357,,,
729861569.110195,0.478126,1.321549,128.665534,-0.040131,0.005539,0.99202,-0.002225,0.029682,-0.005986,66.255753,34.044418,-145.919357,,,
729861569.11353,0.478126,1.321549,128.665534,-0.040131,0.005539,0.99202,-0.002225,0.029682,-0.005986,66.255753,34.044418,-145.919357,,,
729861569.116881,0.478098,1.310636,128.663633,-0.040131,0.005539,0.99202,0.002985,-0.031087,-0.007787,66.255753,34.044418,-145.919357,,,
729861569.120212,0.480847,1.283988,128.662278,-0.044571,0.010437,0.982361,0.002985,-0.031087,-0.007787,66.497574,34.034607,-145.795074,,,
729861569.123598,0.480847,1.283988,128.662278,-0.044571,0.010437,0.982361,0.002985,-0.031087,-0.007787,66.497574,34.034607,-145.795074,,,
729861569.126855,0.480458,1.263814,128.662296,-0.044571,0.010437,0.982361,0.001066,-0.064417,-0.003324,66.497574,34.034607,-145.795074,,,
729861569.130197,0.481138,1.233369,128.664653,-0.047638,0.007202,0.98494,0.001066,-0.064417,-0.003324,66.497574,34.034607,-145.795074,,,
729861569.133532,0.481138,1.233369,128.664653,-0.047638,0.007202,0.98494,0.001066,-0.064417,-0.003324,66.497574,34.034607,-145.795074,,,
729861569.136843,0.478648,1.211098,128.668557,-0.047638,0.007202,0.98494,-0.004977,-0.073277,0.011784,66.497574,34.034607,-145.795074,,,
729861569.140171,0.474628,1.183491,128.673091,-0.043152,0.008591,0.995941,-0.004977,-0.073277,0.011784,66.497574,34.034607,-145.795074,,,
729861569.143553,0.474628,1.183491,128.673091,-0.043152,0.008591,0.995941,-0.004977,-0.073277,0.011784,66.497574,34.034607,-145.795074,,,
729861569.14684,0.468713,1.166454,128.676932,-0.043152,0.008591,0.995941,-0.019021,-0.062166,0.015611,66.497574,34.034607,-145.795074,,,
729861569.150168,0.461958,1.153294,128.679369,-0.028885,0.010406,1.000977,-0.019021,-0.062166,0.015611,66.497574,34.034607,-145.795074,,,
729861569.153621,0.461958,1.153294,128.679369,-0.028885,0.010406,1.000977,-0.019021,-0.062166,0.015611,66.497574,34.034607,-145.795074,,,
729861569.156846,0.455285,1.151914,128.680563,-0.028885,0.010406,1.000977,-0.025838,-0.011557,0.005102,66.497574,34.034607,-145.795074,,,
729861569.160181,0.448266,1.16024,128.681426,-0.015991,0.011459,1.015106,-0.025838,-0.011557,0.005102,66.497574,34.034607,-145.795074,,,
729861569.163568,0.448266,1.16024,128.681426,-0.015991,0.011459,1.015106,-0.025838,-0.011557,0.005102,66.324249,34.168869,-146.014572,,,
729861569.166856,0.444408,1.176334,128.68337,-0.015991,0.011459,1.015106,-0.014127,0.051669,0.002979,66.324249,34.168869,-146.014572,,,
729861569.170188,0.441292,1.204439,128.686785,-0.013611,0.004913,1.027878,-0.014127,0.051669,0.002979,66.324249,34.168869,-146.014572,,,
729861569.173591,0.441292,1.204439,128.686785,-0.013611,0.004913,1.027878,-0.014127,0.051669,0.002979,66.324249,34.168869,-146.014572,,,
729861569.176851,0.442654,1.234889,128.692487,-0.013611,0.004913,1.027878,0.005067,0.104202,0.016167,66.324249,34.168869,-146.014572,,,
729861569.180186,0.445194,1.276315,128.699663,-0.020996,-0.004211,1.024475,0.005067,0.104202,0.016167,66.324249,34.168869,-146.014572,,,
729861569.183659,0.445194,1.276315,128.699663,-0.020996,-0.004211,1.024475,0.005067,0.104202,0.016167,66.324249,34.168869,-146.014572,,,
729861569.186828,0.450553,1.315358,128.707304,-0.020996,-0.004211,1.024475,0.019244,0.139966,0.026698,66.324249,34.168869,-146.014572,,,
729861569.190176,0.458073,1.360446,128.715534,-0.025497,-0.005737,1.016281,0.019244,0.139966,0.026698,66.324249,34.168869,-146.014572,,,
729861569.193556,0.458073,1.360446,128.715534,-0.025497,-0.005737,1.016281,0.019244,0.139966,0.026698,66.324249,34.168869,-146.014572,,,
729861569.19694,0.468643,1.395475,128.724118,-0.025497,-0.005737,1.016281,0.036625,0.129555,0.030494,66.324249,34.168869,-146.014572,,,
729861569.200193,0.482206,1.431073,128.732544,-0.032257,-0.002045,1.002502,0.036625,0.129555,0.030494,66.324249,34.168869,-146.014572,,,
729861569.203522,0.482206,1.431073,128.732544,-0.032257,-0.002045,1.002502,0.036625,0.129555,0.030494,66.610184,34.036331,-145.774338,,,
729861569.206836,0.496419,1.450596,128.740283,-0.032257,-0.002045,1.002502,0.048784,0.079715,0.026821,66.610184,34.036331,-145.774338,,,
729861569.210187,0.510091,1.468783,128.746984,-0.034088,-0.000153,0.984329,0.048784,0.079715,0.026821,66.610184,34.036331,-145.774338,,,
729861569.2135,0.510091,1.468783,128.746984,-0.034088,-0.000153,0.984329,0.048784,0.079715,0.026821,66.610184,34.036331,-145.774338,,,
729861569.216863,0.523941,1.470013,128.753069,-0.034088,-0.000153,0.984329,0.050547,0.013259,0.023592,66.610184,34.036331,-145.774338,,,
729861569.220182,0.536294,1.467485,128.759159,-0.034912,0.002441,0.972,0.050547,0.013259,0.023592,66.610184,34.036331,-145.774338,,,
729861569.223626,0.536294,1.467485,128.759159,-0.034912,0.002441,0.972,0.050547,0.013259,0.023592,66.610184,34.036331,-145.774338,,,
729861569.226861,0.546043,1.454367,128.765494,-0.034912,0.002441,0.972,0.036123,-0.039541,0.019631,66.610184,34.036331,-145.774338,,,
729861569.230176,0.552504,1.43555,128.771716,-0.034592,0.006348,0.964432,0.036123,-0.039541,0.019631,66.610184,34.036331,-145.774338,,,
729861569.233506,0.552504,1.43555,128.771716,-0.034592,0.006348,0.964432,0.036123,-0.039541,0.019631,66.610184,34.036331,-145.774338,,,
729861569.236906,0.553699,1.414275,128.777775,-0.034592,0.006348,0.964432,0.00874,-0.070805,0.020741,66.610184,34.036331,-145.774338,,,
729861569.240167,0.54927,1.388248,128.783733,-0.026474,0.008789,0.964447,0.00874,-0.070805,0.020741,66.610184,34.036331,-145.774338,,,
729861569.243508,0.54927,1.388248,128.783733,-0.026474,0.008789,0.964447,0.00874,-0.070805,0.020741,66.600739,33.823944,-145.568939,,,
729861569.246844,0.540068,1.366749,128.789126,-0.026474,0.008789,0.964447,-0.029251,-0.072849,0.01853,66.600739,33.823944,-145.568939,,,
729861569.250176,0.525368,1.345312,128.794565,-0.018509,0.009399,0.969254,-0.029251,-0.072849,0.01853,66.600739,33.823944,-145.568939,,,
729861569.253526,0.525368,1.345312,128.794565,-0.018509,0.009399,0.969254,-0.029251,-0.072849,0.01853,66.600739,33.823944,-145.568939,,,
