Time (sec),Pitch (deg),Roll (deg),Yaw(deg),X-Acceleration (g),Y-Acceleration (g),Z-Acceleration (g),Pitch Rate (deg/sec),Roll Rate (deg/sec),Yaw Rate (deg/sec),Magnetic Field in X direction (uT),Magnetic Field in Y direction (uT),Magnetic Field in Z Direction (uT),Latitude (deg),Longitude (deg),Altitude (m)
729862942.518821,-1.477306,-2.501545,-160.78513,0.053711,-0.01886,0.976624,-0.035893,0.028363,-0.006264,58.401855,30.307327,-143.156403,,,
729862942.522135,-1.487851,-2.493445,-160.787545,0.04686,-0.023605,0.98526,-0.035893,0.028363,-0.006264,58.664139,30.411545,-143.333084,,,
729862942.525552,-1.487851,-2.493445,-160.787545,0.04686,-0.023605,0.98526,-0.035893,0.028363,-0.006264,58.664139,30.411545,-143.333084,,,
729862942.528589,-1.499107,-2.4837,-160.789557,0.04686,-0.023605,0.98526,-0.01943,0.010304,-0.002654,58.664139,30.411545,-143.333084,,,
729862942.532173,-1.505462,-2.480815,-160.790173,0.039459,-0.033768,0.99939,-0.01943,0.010304,-0.002654,58.664139,30.411545,-143.333084,,,
729862942.535461,-1.505462,-2.480815,-160.790173,0.039459,-0.033768,0.99939,-0.01943,0.010304,-0.002654,58.664139,30.411545,-143.333084,,,
729862942.538872,-1.509926,-2.482473,-160.788538,0.039459,-0.033768,0.99939,0.005836,-0.006765,0.012753,58.664139,30.411545,-143.333084,,,
729862942.542154,-1.510118,-2.48406,-160.785176,0.035172,-0.039795,1.000778,0.005836,-0.006765,0.012753,58.664139,30.411545,-143.333084,,,
729862942.545496,-1.510118,-2.48406,-160.785176,0.035172,-0.039795,1.000778,0.005836,-0.006765,0.012753,58.664139,30.411545,-143.333084,,,
729862942.548811,-1.50728,-2.490962,-160.780783,0.035172,-0.039795,1.000778,0.025598,-0.005415,0.017006,58.664139,30.411545,-143.333084,,,
729862942.552143,-1.50111,-2.493661,-160.775746,0.036362,-0.038696,1.002975,0.025598,-0.005415,0.017006,58.664139,30.411545,-143.333084,,,
729862942.555482,-1.50111,-2.493661,-160.775746,0.036362,-0.038696,1.002975,0.025598,-0.005415,0.017006,58.664139,30.411545,-143.333084,,,
729862942.558832,-1.489879,-2.50066,-160.770489,0.036362,-0.038696,1.002975,0.05425,-0.002576,0.017252,58.664139,30.411545,-143.333084,,,
729862942.562137,-1.476052,-2.501909,-160.764418,0.039948,-0.039764,1.00882,0.05425,-0.002576,0.017252,58.605209,30.110214,-143.384338,,,
729862942.565534,-1.476052,-2.501909,-160.764418,0.039948,-0.039764,1.00882,0.05425,-0.002576,0.017252,58.605209,30.110214,-143.384338,,,
729862942.568814,-1.456717,-2.509014,-160.758878,0.039948,-0.039764,1.00882,0.070218,0.001696,0.009978,58.605209,30.110214,-143.384338,,,
729862942.571938,-1.437325,-2.509367,-160.754701,0.046951,-0.036377,1.00058,0.070218,0.001696,0.009978,58.605209,30.110214,-143.384338,,,
729862942.575596,-1.437325,-2.509367,-160.754701,0.046951,-0.036377,1.00058,0.070218,0.001696,0.009978,58.605209,30.110214,-143.384338,,,
729862942.57881,-1.414611,-2.517167,-160.752374,0.046951,-0.036377,1.00058,0.058689,0.005778,-0.00199,58.605209,30.110214,-143.384338,,,
729862942.582144,-1.397863,-2.516899,-160.751558,0.047501,-0.023651,0.984344,0.058689,0.005778,-0.00199,58.605209,30.110214,-143.384338,,,
729862942.585482,-1.397863,-2.516899,-160.751558,0.047501,-0.023651,0.984344,0.058689,0.005778,-0.00199,58.605209,30.110214,-143.384338,,,
729862942.588875,-1.380651,-2.521908,-160.752145,0.047501,-0.023651,0.984344,0.035319,0.002932,-0.007479,58.605209,30.110214,-143.384338,,,
729862942.592131,-1.369573,-2.521606,-160.753102,0.042892,-0.021454,0.969299,0.035319,0.002932,-0.007479,58.605209,30.110214,-143.384338,,,
729862942.595484,-1.369573,-2.521606,-160.753102,0.042892,-0.021454,0.969299,0.035319,0.002932,-0.007479,58.605209,30.110214,-143.384338,,,
729862942.598799,-1.36179,-2.524559,-160.754458,0.042892,-0.021454,0.969299,0.004217,-0.000647,-0.009481,58.605209,30.110214,-143.384338,,,
729862942.60213,-1.359545,-2.525525,-160.756819,0.042297,-0.019806,0.960678,0.004217,-0.000647,-0.009481,58.605209,30.110214,-143.384338,,,
729862942.605479,-1.359545,-2.525525,-160.756819,0.042297,-0.019806,0.960678,0.004217,-0.000647,-0.009481,58.588943,30.058975,-143.383453,,,
729862942.608804,-1.361546,-2.528105,-160.76024,0.042297,-0.019806,0.960678,-0.016218,-0.006332,-0.013664,58.588943,30.058975,-143.383453,,,
729862942.612171,-1.365922,-2.53074,-160.764064,0.042496,-0.015106,0.9617,-0.016218,-0.006332,-0.013664,58.588943,30.058975,-143.383453,,,
729862942.615489,-1.365922,-2.53074,-160.764064,0.042496,-0.015106,0.9617,-0.016218,-0.006332,-0.013664,58.588943,30.058975,-143.383453,,,
729862942.618804,-1.376804,-2.531702,-160.767929,0.042496,-0.015106,0.9617,-0.037299,-0.011598,-0.010015,58.588943,30.058975,-143.383453,,,
729862942.622132,-1.387159,-2.535103,-160.771139,0.039215,-0.018921,0.96611,-0.037299,-0.011598,-0.010015,58.588943,30.058975,-143.383453,,,
729862942.625539,-1.387159,-2.535103,-160.771139,0.039215,-0.018921,0.96611,-0.037299,-0.011598,-0.010015,58.588943,30.058975,-143.383453,,,
729862942.628794,-1.403565,-2.536844,-160.773135,0.039215,-0.018921,0.96611,-0.048639,-0.022903,0.001677,58.588943,30.058975,-143.383453,,,
729862942.632208,-1.4172,-2.543528,-160.773564,0.035721,-0.025467,0.968399,-0.048639,-0.022903,0.001677,58.588943,30.058975,-143.383453,,,
729862942.6355,-1.4172,-2.543528,-160.773564,0.035721,-0.025467,0.968399,-0.048639,-0.022903,0.001677,58.588943,30.058975,-143.383453,,,
729862942.638871,-1.433416,-2.549715,-160.772061,0.035721,-0.025467,0.968399,-0.035482,-0.024778,0.013188,58.588943,30.058975,-143.383453,,,
729862942.642133,-1.444081,-2.557613,-160.769076,0.037384,-0.033585,0.98642,-0.035482,-0.024778,0.013188,58.588943,30.058975,-143.383453,,,
729862942.645475,-1.444081,-2.557613,-160.769076,0.037384,-0.033585,0.98642,-0.035482,-0.024778,0.013188,58.597885,30.332397,-143.308029,,,
729862942.648802,-1.452081,-2.562817,-160.763179,0.037384,-0.033585,0.98642,0.008447,-0.004384,0.033958,58.597885,30.332397,-143.308029,,,
729862942.65214,-1.451679,-2.565136,-160.753741,0.039719,-0.044571,1.019714,0.008447,-0.004384,0.033958,58.597885,30.332397,-143.308029,,,
729862942.655479,-1.451679,-2.565136,-160.753741,0.039719,-0.044571,1.019714,0.008447,-0.004384,0.033958,58.597885,30.332397,-143.308029,,,
729862942.658807,-1.447139,-2.563698,-160.741321,0.039719,-0.044571,1.019714,0.043117,0.029217,0.045535,58.597885,30.332397,-143.308029,,,
729862942.662191,-1.43648,-2.556353,-160.726685,0.043198,-0.046112,1.028412,0.043117,0.029217,0.045535,58.597885,30.332397,-143.308029,,,
729862942.665457,-1.43648,-2.556353,-160.726685,0.043198,-0.046112,1.028412,0.043117,0.029217,0.045535,58.597885,30.332397,-143.308029,,,
729862942.668799,-1.422221,-2.545833,-160.711861,0.043198,-0.046112,1.028412,0.053889,0.048183,0.039203,58.597885,30.332397,-143.308029,,,
729862942.672129,-1.407394,-2.532803,-160.69863,0.053818,-0.028137,1.012405,0.053889,0.048183,0.039203,58.597885,30.332397,-143.308029,,,
729862942.67556,-1.407394,-2.532803,-160.69863,0.053818,-0.028137,1.012405,0.053889,0.048183,0.039203,58.597885,30.332397,-143.308029,,,
729862942.678852,-1.392705,-2.519642,-160.688259,0.053818,-0.028137,1.012405,0.040355,0.047888,0.02078,58.597885,30.332397,-143.308029,,,
729862942.682141,-1.381891,-2.506826,-160.680925,0.058823,-0.013168,0.987411,0.040355,0.047888,0.02078,58.597885,30.332397,-143.308029,,,
729862942.685475,-1.381891,-2.506826,-160.680925,0.058823,-0.013168,0.987411,0.040355,0.047888,0.02078,58.687439,30.134689,-143.416321,,,
729862942.688805,-1.373568,-2.494212,-160.675744,0.058823,-0.013168,0.987411,0.001052,0.043496,0.011926,58.687439,30.134689,-143.416321,,,
729862942.692131,-1.371758,-2.482003,-160.671974,0.055573,-0.006973,0.969666,0.001052,0.043496,0.011926,58.687439,30.134689,-143.416321,,,
729862942.695489,-1.371758,-2.482003,-160.671974,0.055573,-0.006973,0.969666,0.001052,0.043496,0.011926,58.687439,30.134689,-143.416321,,,
729862942.698808,-1.374378,-2.470768,-160.669285,0.055573,-0.006973,0.969666,-0.039295,0.032069,0.005808,58.687439,30.134689,-143.416321,,,
729862942.702158,-1.384555,-2.461751,-160.667787,0.04776,-0.005356,0.959106,-0.039295,0.032069,0.005808,58.687439,30.134689,-143.416321,,,
729862942.705538,-1.384555,-2.461751,-160.667787,0.04776,-0.005356,0.959106,-0.039295,0.032069,0.005808,58.687439,30.134689,-143.416321,,,
729862942.708815,-1.399378,-2.455801,-160.667331,0.04776,-0.005356,0.959106,-0.071809,8.9e-05,-0.002687,58.687439,30.134689,-143.416321,,,
729862942.712184,-1.418925,-2.455029,-160.6678,0.044708,-0.005447,0.960052,-0.071809,8.9e-05,-0.002687,58.687439,30.134689,-143.416321,,,
729862942.715464,-1.418925,-2.455029,-160.6678,0.044708,-0.005447,0.960052,-0.071809,8.9e-05,-0.002687,58.687439,30.134689,-143.416321,,,
729862942.718798,-1.442248,-2.457442,-160.669423,0.044708,-0.005447,0.960052,-0.091894,-0.025825,-0.006654,58.687439,30.134689,-143.416321,,,
729862942.722157,-1.468196,-2.465061,-160.671813,0.046387,-0.009125,0.966675,-0.091894,-0.025825,-0.006654,58.687439,30.134689,-143.416321,,,
729862942.725473,-1.468196,-2.465061,-160.671813,0.046387,-0.009125,0.966675,-0.091894,-0.025825,-0.006654,58.906494,30.308304,-143.520996,,,
729862942.728874,-1.498159,-2.474687,-160.674391,0.046387,-0.009125,0.966675,-0.103665,-0.039852,-0.005743,58.906494,30.308304,-143.520996,,,
729862942.732236,-1.528086,-2.486666,-160.676946,0.046173,-0.01767,0.978134,-0.103665,-0.039852,-0.005743,58.906494,30.308304,-143.520996,,,
729862942.735485,-1.528086,-2.486666,-160.676946,0.046173,-0.01767,0.978134,-0.103665,-0.039852,-0.005743,58.906494,30.308304,-143.520996,,,
729862942.738808,-1.560404,-2.498754,-160.678564,0.046173,-0.01767,0.978134,-0.099339,-0.04312,0.006148,58.906494,30.308304,-143.520996,,,
729862942.742144,-1.5892,-2.511328,-160.677937,0.046173,-0.01767,0.978134,-0.099339,-0.04312,0.006148,58.906494,30.308304,-143.520996,,,
729862942.745483,-1.5892,-2.511328,-160.677937,0.037994,-0.031357,0.995636,-0.099339,-0.04312,0.006148,58.906494,30.308304,-143.520996,,,
729862942.748806,-1.61725,-2.521672,-160.674443,0.037994,-0.031357,0.995636,-0.071955,-0.012146,0.022763,58.906494,30.308304,-143.520996,,,
729862942.752132,-1.61725,-2.521672,-160.674443,0.037994,-0.031357,0.995636,-0.071955,-0.012146,0.022763,58.906494,30.308304,-143.520996,,,
729862942.755549,-1.638955,-2.526714,-160.668453,0.045303,-0.04335,1.023346,-0.071955,-0.012146,0.022763,58.906494,30.308304,-143.520996,,,
729862942.758811,-1.655122,-2.528449,-160.661731,0.045303,-0.04335,1.023346,-0.033742,0.016828,0.017803,58.906494,30.308304,-143.520996,,,
729862942.762144,-1.655122,-2.528449,-160.655741,0.045303,-0.04335,1.023346,-0.033742,0.016828,0.017803,58.906494,30.308304,-143.520996,,,
729862942.765469,-1.666659,-2.524484,-160.655741,0.061081,-0.042389,1.039185,-0.033742,0.016828,0.017803,58.906494,30.308304,-143.520996,,,
729862942.768813,-1.668304,-2.521983,-160.651137,0.061081,-0.042389,1.039185,0.016188,0.021753,0.008426,58.625061,30.445114,-143.362793,,,
729862942.772197,-1.668304,-2.521983,-160.647591,0.061081,-0.042389,1.039185,0.016188,0.021753,0.008426,58.625061,30.445114,-143.362793,,,
729862942.77548,-1.665958,-2.516762,-160.647591,0.06369,-0.039459,1.03978,0.016188,0.021753,0.008426,58.625061,30.445114,-143.362793,,,
729862942.7788,-1.655243,-2.513511,-160.644497,0.06369,-0.039459,1.03978,0.046526,0.0205,0.009709,58.625061,30.445114,-143.362793,,,
729862942.782156,-1.655243,-2.513511,-160.644497,0.06369,-0.039459,1.03978,0.046526,0.0205,0.009709,58.625061,30.445114,-143.362793,,,
729862942.785495,-1.643371,-2.50872,-160.641434,0.055954,-0.040817,1.03035,0.046526,0.0205,0.009709,58.625061,30.445114,-143.362793,,,
729862942.788868,-1.62621,-2.505116,-160.638519,0.055954,-0.040817,1.03035,0.051196,0.011812,0.009538,58.625061,30.445114,-143.362793,,,
729862942.792175,-1.62621,-2.505116,-160.638519,0.055954,-0.040817,1.03035,0.051196,0.011812,0.009538,58.625061,30.445114,-143.362793,,,
729862942.795455,-1.612545,-2.501756,-160.635457,0.048401,-0.035309,1.014496,0.051196,0.011812,0.009538,58.625061,30.445114,-143.362793,,,
729862942.798804,-1.597753,-2.499491,-160.63197,0.048401,-0.035309,1.014496,0.029728,0.010847,0.008714,58.625061,30.445114,-143.362793,,,
729862942.802133,-1.597753,-2.499491,-160.63197,0.048401,-0.035309,1.014496,0.029728,0.010847,0.008714,58.625061,30.445114,-143.362793,,,
729862942.805528,-1.588797,-2.497019,-160.628223,0.042679,-0.028091,0.99617,0.029728,0.010847,0.008714,58.625061,30.445114,-143.362793,,,
729862942.808802,-1.580871,-2.495081,-160.624719,0.042679,-0.028091,0.99617,0.007196,0.01324,0.009958,58.700745,30.365921,-143.358368,,,
729862942.812145,-1.580871,-2.495081,-160.624719,0.042679,-0.028091,0.99617,0.007196,0.01324,0.009958,58.700745,30.365921,-143.358368,,,
729862942.815466,-1.578292,-2.491372,-160.62172,0.043854,-0.024109,0.991959,0.007196,0.01324,0.009958,58.700745,30.365921,-143.358368,,,
729862942.818801,-1.57686,-2.487101,-160.619272,0.043854,-0.024109,0.991959,-0.002791,0.022017,0.003578,58.700745,30.365921,-143.358368,,,
729862942.822147,-1.57686,-2.487101,-160.619272,0.043854,-0.024109,0.991959,-0.002791,0.022017,0.003578,58.700745,30.365921,-143.358368,,,
729862942.825475,-1.577658,-2.481873,-160.617423,0.044937,-0.024673,1.001831,-0.002791,0.022017,0.003578,58.700745,30.365921,-143.358368,,,
729862942.82887,-1.580417,-2.476232,-160.616375,0.044937,-0.024673,1.001831,-0.003331,0.010796,0.00067,58.700745,30.365921,-143.358368,,,
729862942.832151,-1.580417,-2.476232,-160.616375,0.044937,-0.024673,1.001831,-0.003331,0.010796,0.00067,58.700745,30.365921,-143.358368,,,
729862942.835485,-1.581768,-2.473568,-160.615896,0.04657,-0.023926,1.00621,-0.003331,0.010796,0.00067,58.700745,30.365921,-143.358368,,,
729862942.8388,-1.586076,-2.4736,-160.616139,0.04657,-0.023926,1.00621,-0.01252,-0.001869,-0.002718,58.700745,30.365921,-143.358368,,,
729862942.84221,-1.586076,-2.4736,-160.616139,0.04657,-0.023926,1.00621,-0.01252,-0.001869,-0.002718,58.700745,30.365921,-143.358368,,,
729862942.845458,-1.589872,-2.474909,-160.616842,0.040771,-0.023956,0.998154,-0.01252,-0.001869,-0.002718,58.700745,30.365921,-143.358368,,,
729862942.848802,-1.597252,-2.481904,-160.617626,0.040771,-0.023956,0.998154,-0.026375,-0.020544,-0.001877,58.448273,30.638657,-143.465591,,,
729862942.852144,-1.597252,-2.481904,-160.617626,0.040771,-0.023956,0.998154,-0.026375,-0.020544,-0.001877,58.448273,30.638657,-143.465591,,,
729862942.855554,-1.604205,-2.487867,-160.618162,0.038559,-0.024094,0.987411,-0.026375,-0.020544,-0.001877,58.448273,30.638657,-143.465591,,,
729862942.858796,-1.614094,-2.499153,-160.618083,0.038559,-0.024094,0.987411,-0.023796,-0.023887,0.000914,58.448273,30.638657,-143.465591,,,
729862942.862182,-1.614094,-2.499153,-160.618083,0.038559,-0.024094,0.987411,-0.023796,-0.023887,0.000914,58.448273,30.638657,-143.465591,,,
729862942.865468,-1.621922,-2.507181,-160.617214,0.038406,-0.027725,0.996109,-0.023796,-0.023887,0.000914,58.448273,30.638657,-143.465591,,,
729862942.868809,-1.631113,-2.517198,-160.616092,0.038406,-0.027725,0.996109,-0.009403,-0.023682,0.004103,58.448273,30.638657,-143.465591,,,
729862942.872146,-1.631113,-2.517198,-160.616092,0.038406,-0.027725,0.996109,-0.009403,-0.023682,0.004103,58.448273,30.638657,-143.465591,,,
729862942.87548,-1.635036,-2.524471,-160.614822,0.041122,-0.033844,1.008865,-0.009403,-0.023682,0.004103,58.448273,30.638657,-143.465591,,,
729862942.878807,-1.636079,-2.530324,-160.612991,0.041122,-0.033844,1.008865,0.024112,0.001252,0.006246,58.448273,30.638657,-143.465591,,,
729862942.882195,-1.636079,-2.530324,-160.612991,0.041122,-0.033844,1.008865,0.024112,0.001252,0.006246,58.448273,30.638657,-143.465591,,,
729862942.885493,-1.631224,-2.531954,-160.610007,0.043396,-0.036407,1.024872,0.024112,0.001252,0.006246,58.448273,30.638657,-143.465591,,,
729862942.888809,-1.620954,-2.528441,-160.605544,0.043396,-0.036407,1.024872,0.05797,0.025096,0.019533,58.448273,30.638657,-143.465591,,,
729862942.89213,-1.620954,-2.528441,-160.605544,0.043396,-0.036407,1.024872,0.05797,0.025096,0.019533,58.776962,30.602722,-143.926331,,,
729862942.895482,-1.606381,-2.521629,-160.599335,0.03833,-0.047394,1.038361,0.05797,0.025096,0.019533,58.776962,30.602722,-143.926331,,,
729862942.898807,-1.587681,-2.513672,-160.591571,0.03833,-0.047394,1.038361,0.066253,0.030583,0.022808,58.776962,30.602722,-143.926331,,,
729862942.902153,-1.587681,-2.513672,-160.591571,0.03833,-0.047394,1.038361,0.066253,0.030583,0.022808,58.776962,30.602722,-143.926331,,,
729862942.905535,-1.568715,-2.505475,-160.583223,0.036545,-0.041977,1.019409,0.066253,0.030583,0.022808,58.776962,30.602722,-143.926331,,,
729862942.908799,-1.549842,-2.497774,-160.575435,0.036545,-0.041977,1.019409,0.055172,0.028305,0.025318,58.776962,30.602722,-143.926331,,,
729862942.912208,-1.549842,-2.497774,-160.575435,0.036545,-0.041977,1.019409,0.055172,0.028305,0.025318,58.776962,30.602722,-143.926331,,,
729862942.915468,-1.533284,-2.490517,-160.567592,0.032639,-0.028641,0.997055,0.055172,0.028305,0.025318,58.776962,30.602722,-143.926331,,,
729862942.918807,-1.519468,-2.485432,-160.559121,0.032639,-0.028641,0.997055,0.031469,0.014298,0.030344,58.776962,30.602722,-143.926331,,,
729862942.922151,-1.519468,-2.485432,-160.559121,0.032639,-0.028641,0.997055,0.031469,0.014298,0.030344,58.776962,30.602722,-143.926331,,,
729862942.92548,-1.510455,-2.481636,-160.55036,0.033051,-0.026291,0.98259,0.031469,0.014298,0.030344,58.776962,30.602722,-143.926331,,,
729862942.928806,-1.506272,-2.479077,-160.541768,0.033051,-0.026291,0.98259,-0.007002,-0.007831,0.023689,58.776962,30.602722,-143.926331,,,
729862942.932135,-1.506272,-2.479077,-160.541768,0.033051,-0.026291,0.98259,-0.007002,-0.007831,0.023689,58.806641,30.518616,-143.592163,,,
729862942.93548,-1.507733,-2.48065,-160.534402,0.039505,-0.022491,0.970108,-0.007002,-0.007831,0.023689,58.806641,30.518616,-143.592163,,,
729862942.938804,-1.513239,-2.483133,-160.528617,0.039505,-0.022491,0.970108,-0.03642,-0.020381,0.014656,58.806641,30.518616,-143.592163,,,
729862942.942219,-1.513239,-2.483133,-160.528617,0.039505,-0.022491,0.970108,-0.03642,-0.020381,0.014656,58.806641,30.518616,-143.592163,,,
729862942.945471,-1.523439,-2.489107,-160.524321,0.043228,-0.015198,0.967133,-0.03642,-0.020381,0.014656,58.806641,30.518616,-143.592163,,,
729862942.948806,-1.538496,-2.495299,-160.520978,0.043228,-0.015198,0.967133,-0.064093,-0.022592,0.012401,58.806641,30.518616,-143.592163,,,
729862942.952135,-1.538496,-2.495299,-160.520978,0.043228,-0.015198,0.967133,-0.064093,-0.022592,0.012401,58.806641,30.518616,-143.592163,,,
729862942.955531,-1.556474,-2.502923,-160.51807,0.050766,-0.022675,0.968384,-0.064093,-0.022592,0.012401,58.806641,30.518616,-143.592163,,,
729862942.958798,-1.578836,-2.50912,-160.515807,0.050766,-0.022675,0.968384,-0.075667,-0.017888,0.003658,58.806641,30.518616,-143.592163,,,
729862942.962145,-1.578836,-2.50912,-160.515807,0.050766,-0.022675,0.968384,-0.075667,-0.017888,0.003658,58.806641,30.518616,-143.592163,,,
729862942.965479,-1.60089,-2.514906,-160.514737,0.056717,-0.024979,0.977112,-0.075667,-0.017888,0.003658,58.806641,30.518616,-143.592163,,,
729862942.9688,-1.625971,-2.518038,-160.515104,0.056717,-0.024979,0.977112,-0.071587,-0.002436,-0.000598,58.806641,30.518616,-143.592163,,,
729862942.972137,-1.625971,-2.518038,-160.515104,0.056717,-0.024979,0.977112,-0.071587,-0.002436,-0.000598,58.647583,30.547348,-143.768387,,,
729862942.975466,-1.646814,-2.519771,-160.516431,0.058792,-0.030853,0.990173,-0.071587,-0.002436,-0.000598,58.647583,30.547348,-143.768387,,,
729862942.978797,-1.668663,-2.516606,-160.517518,0.058792,-0.030853,0.990173,-0.035239,0.017363,0.000675,58.647583,30.547348,-143.768387,,,
729862942.982133,-1.668663,-2.516606,-160.517518,0.058792,-0.030853,0.990173,-0.035239,0.017363,0.000675,58.647583,30.547348,-143.768387,,,
729862942.985506,-1.680489,-2.513492,-160.517907,0.055893,-0.045898,1.011734,-0.035239,0.017363,0.000675,58.647583,30.547348,-143.768387,,,
729862942.988796,-1.687383,-2.506872,-160.517633,0.055893,-0.045898,1.011734,0.022885,0.016395,0.000676,58.647583,30.547348,-143.768387,,,
729862942.992199,-1.687383,-2.506872,-160.517633,0.055893,-0.045898,1.011734,0.022885,0.016395,0.000676,58.647583,30.547348,-143.768387,,,
729862942.995471,-1.683322,-2.502819,-160.517004,0.054504,-0.054047,1.027588,0.022885,0.016395,0.000676,58.647583,30.547348,-143.768387,,,
729862942.998802,-1.670913,-2.497007,-160.516749,0.054504,-0.054047,1.027588,0.067935,-6.4e-05,-0.008968,58.647583,30.547348,-143.768387,,,
729862943.002152,-1.670913,-2.497007,-160.516749,0.054504,-0.054047,1.027588,0.067935,-6.4e-05,-0.008968,58.647583,30.547348,-143.768387,,,
729862943.005554,-1.653237,-2.497211,-160.518046,0.05629,-0.050461,1.018539,0.067935,-6.4e-05,-0.008968,58.647583,30.547348,-143.768387,,,
729862943.008797,-1.632272,-2.499002,-160.521098,0.05629,-0.050461,1.018539,0.075225,-0.024871,-0.023546,58.647583,30.547348,-143.768387,,,
729862943.012207,-1.632272,-2.499002,-160.521098,0.05629,-0.050461,1.018539,0.075225,-0.024871,-0.023546,58.647583,30.547348,-143.768387,,,
729862943.015473,-1.611041,-2.506417,-160.525954,0.056671,-0.037064,0.991211,0.075225,-0.024871,-0.023546,58.859222,30.438263,-143.455246,,,
729862943.018857,-1.588732,-2.515889,-160.532163,0.056671,-0.037064,0.991211,0.060983,-0.041194,-0.02848,58.859222,30.438263,-143.455246,,,
729862943.022148,-1.588732,-2.515889,-160.532163,0.056671,-0.037064,0.991211,0.060983,-0.041194,-0.02848,58.859222,30.438263,-143.455246,,,
729862943.02549,-1.570673,-2.527654,-160.539304,0.051331,-0.029114,0.974991,0.060983,-0.041194,-0.02848,58.859222,30.438263,-143.455246,,,
729862943.028562,-1.553389,-2.53907,-160.546518,0.051331,-0.029114,0.974991,0.035384,-0.016971,-0.023733,58.859222,30.438263,-143.455246,,,
729862943.032169,-1.553389,-2.53907,-160.546518,0.051331,-0.029114,0.974991,0.035384,-0.016971,-0.023733,58.859222,30.438263,-143.455246,,,
729862943.035497,-1.542057,-2.546103,-160.552929,0.050507,-0.025772,0.978821,0.035384,-0.016971,-0.023733,58.859222,30.438263,-143.455246,,,
729862943.038803,-1.534739,-2.550609,-160.558121,0.050507,-0.025772,0.978821,0.005652,0.016214,-0.015345,58.859222,30.438263,-143.455246,,,
729862943.042161,-1.534739,-2.550609,-160.558121,0.050507,-0.025772,0.978821,0.005652,0.016214,-0.015345,58.859222,30.438263,-143.455246,,,
729862943.04549,-1.532162,-2.548094,-160.561992,0.049927,-0.023819,0.980087,0.005652,0.016214,-0.015345,58.859222,30.438263,-143.455246,,,
729862943.048828,-1.533257,-2.545287,-160.56571,0.049927,-0.023819,0.980087,-0.020551,0.042176,-0.017111,58.859222,30.438263,-143.455246,,,
729862943.052148,-1.533257,-2.545287,-160.56571,0.049927,-0.023819,0.980087,-0.020551,0.042176,-0.017111,58.859222,30.438263,-143.455246,,,
729862943.055543,-1.538255,-2.534957,-160.57045,0.052612,-0.018707,0.977234,-0.020551,0.042176,-0.017111,58.789001,30.545822,-143.713669,,,
729862943.058792,-1.548714,-2.524713,-160.576763,0.052612,-0.018707,0.977234,-0.03632,0.07233,-0.022804,58.789001,30.545822,-143.713669,,,
729862943.062172,-1.548714,-2.524713,-160.576763,0.052612,-0.018707,0.977234,-0.03632,0.07233,-0.022804,58.789001,30.545822,-143.713669,,,
729862943.065464,-1.558812,-2.506056,-160.583626,0.053848,-0.015137,0.983154,-0.03632,0.07233,-0.022804,58.789001,30.545822,-143.713669,,,
729862943.0688,-1.574552,-2.486484,-160.590224,0.053848,-0.015137,0.983154,-0.037612,0.089498,-0.017616,58.789001,30.545822,-143.713669,,,
729862943.072145,-1.574552,-2.486484,-160.590224,0.053848,-0.015137,0.983154,-0.037612,0.089498,-0.017616,58.789001,30.545822,-143.713669,,,
729862943.075461,-1.585184,-2.462089,-160.595812,0.044312,-0.024384,0.994995,-0.037612,0.089498,-0.017616,58.789001,30.545822,-143.713669,,,
729862943.078802,-1.599929,-2.439858,-160.600432,0.044312,-0.024384,0.994995,-0.010385,0.083592,-0.011936,58.789001,30.545822,-143.713669,,,
729862943.08214,-1.599929,-2.439858,-160.600432,0.044312,-0.024384,0.994995,-0.010385,0.083592,-0.011936,58.789001,30.545822,-143.713669,,,
729862943.085486,-1.604197,-2.416094,-160.604007,0.029114,-0.034149,1.010452,-0.010385,0.083592,-0.011936,58.789001,30.545822,-143.713669,,,
729862943.088808,-1.608039,-2.40053,-160.606836,0.029114,-0.034149,1.010452,0.026961,0.047889,-0.007935,58.789001,30.545822,-143.713669,,,
729862943.092197,-1.608039,-2.40053,-160.606836,0.029114,-0.034149,1.010452,0.026961,0.047889,-0.007935,58.789001,30.545822,-143.713669,,,
729862943.095487,-1.602138,-2.386436,-160.608686,0.022018,-0.040604,1.020523,0.026961,0.047889,-0.007935,58.644302,30.583939,-143.334946,,,
729862943.098805,-1.593815,-2.383858,-160.61027,0.022018,-0.040604,1.020523,0.052267,-0.010941,-0.007012,58.644302,30.583939,-143.334946,,,
729862943.102131,-1.593815,-2.383858,-160.61027,0.022018,-0.040604,1.020523,0.052267,-0.010941,-0.007012,58.644302,30.583939,-143.334946,,,
729862943.105533,-1.580537,-2.385325,-160.61166,0.019241,-0.036148,1.008789,0.052267,-0.010941,-0.007012,58.644302,30.583939,-143.334946,,,
729862943.108793,-1.566502,-2.39788,-160.612596,0.019241,-0.036148,1.008789,0.044073,-0.058439,-0.001887,58.644302,30.583939,-143.334946,,,
729862943.112147,-1.566502,-2.39788,-160.612596,0.019241,-0.036148,1.008789,0.044073,-0.058439,-0.001887,58.644302,30.583939,-143.334946,,,
729862943.115476,-1.553458,-2.414179,-160.612347,0.01149,-0.031097,0.993225,0.044073,-0.058439,-0.001887,58.644302,30.583939,-143.334946,,,
729862943.118798,-1.542893,-2.437481,-160.611691,0.01149,-0.031097,0.993225,0.025051,-0.07735,0.003192,58.644302,30.583939,-143.334946,,,
729862943.122142,-1.542893,-2.437481,-160.611691,0.01149,-0.031097,0.993225,0.025051,-0.07735,0.003192,58.644302,30.583939,-143.334946,,,
729862943.125469,-1.535674,-2.459414,-160.610706,0.018112,-0.023132,0.987396,0.025051,-0.07735,0.003192,58.644302,30.583939,-143.334946,,,
729862943.1288,-1.531036,-2.483441,-160.608915,0.018112,-0.023132,0.987396,-0.002504,-0.06483,0.004496,58.644302,30.583939,-143.334946,,,
729862943.132182,-1.531036,-2.483441,-160.608915,0.018112,-0.023132,0.987396,-0.002504,-0.06483,0.004496,58.644302,30.583939,-143.334946,,,
729862943.135515,-1.531168,-2.503318,-160.606957,0.036346,-0.018738,0.990326,-0.002504,-0.06483,0.004496,58.756638,30.393936,-143.691711,,,
729862943.138815,-1.532986,-2.523502,-160.605768,0.036346,-0.018738,0.990326,-0.025944,-0.037686,0.001131,58.756638,30.393936,-143.691711,,,
729862943.142134,-1.532986,-2.523502,-160.605768,0.036346,-0.018738,0.990326,-0.025944,-0.037686,0.001131,58.756638,30.393936,-143.691711,,,
729862943.145478,-1.540121,-2.536485,-160.605547,0.047668,-0.013824,0.993912,-0.025944,-0.037686,0.001131,58.756638,30.393936,-143.691711,,,
729862943.148694,-1.547324,-2.547043,-160.60602,0.047668,-0.013824,0.993912,-0.041332,0.001224,-0.000813,58.756638,30.393936,-143.691711,,,
729862943.152158,-1.547324,-2.547043,-160.60602,0.047668,-0.013824,0.993912,-0.041332,0.001224,-0.000813,58.756638,30.393936,-143.691711,,,
729862943.155472,-1.559153,-2.548747,-160.606117,0.05098,-0.017227,1.003021,-0.041332,0.001224,-0.000813,58.756638,30.393936,-143.691711,,,
729862943.158799,-1.570539,-2.542931,-160.604945,0.05098,-0.017227,1.003021,-0.027509,0.042034,0.017,58.756638,30.393936,-143.691711,,,
729862943.162187,-1.570539,-2.542931,-160.604945,0.05098,-0.017227,1.003021,-0.027509,0.042034,0.017,58.756638,30.393936,-143.691711,,,
729862943.165541,-1.579456,-2.533018,-160.60112,0.045532,-0.028915,1.0242,-0.027509,0.042034,0.017,58.756638,30.393936,-143.691711,,,
729862943.168841,-1.587089,-2.514982,-160.594509,0.045532,-0.028915,1.0242,0.002882,0.040115,0.026898,58.756638,30.393936,-143.691711,,,
729862943.172138,-1.587089,-2.514982,-160.594509,0.045532,-0.028915,1.0242,0.002882,0.040115,0.026898,58.756638,30.393936,-143.691711,,,
729862943.175483,-1.588277,-2.503282,-160.586752,0.047775,-0.037125,1.03215,0.002882,0.040115,0.026898,58.674667,30.378464,-143.447189,,,
729862943.178805,-1.587729,-2.488881,-160.579188,0.047775,-0.037125,1.03215,0.029904,0.013732,0.020146,58.674667,30.378464,-143.447189,,,
729862943.182145,-1.587729,-2.488881,-160.579188,0.047775,-0.037125,1.03215,0.029904,0.013732,0.020146,58.674667,30.378464,-143.447189,,,
729862943.185474,-1.580432,-2.484779,-160.57279,0.048767,-0.029648,1.020935,0.029904,0.013732,0.020146,58.674667,30.378464,-143.447189,,,
729862943.188807,-1.572172,-2.475941,-160.566741,0.048767,-0.029648,1.020935,0.04368,-0.005718,0.015064,58.674667,30.378464,-143.447189,,,
729862943.192137,-1.572172,-2.475941,-160.566741,0.048767,-0.029648,1.020935,0.04368,-0.005718,0.015064,58.674667,30.378464,-143.447189,,,
729862943.195593,-1.560268,-2.477493,-160.561456,0.050278,-0.026489,1.015442,0.04368,-0.005718,0.015064,58.674667,30.378464,-143.447189,,,
729862943.198814,-1.548629,-2.472488,-160.555942,0.050278,-0.026489,1.015442,0.044369,-0.03019,0.010331,58.674667,30.378464,-143.447189,,,
729862943.202137,-1.548629,-2.472488,-160.555942,0.050278,-0.026489,1.015442,0.044369,-0.03019,0.010331,58.674667,30.378464,-143.447189,,,
729862943.205479,-1.536974,-2.480468,-160.551422,0.06012,-0.020828,1.004211,0.044369,-0.03019,0.010331,58.674667,30.378464,-143.447189,,,
729862943.208807,-1.524238,-2.485189,-160.549038,0.06012,-0.020828,1.004211,0.035202,-0.042644,-0.009878,58.674667,30.378464,-143.447189,,,
729862943.212138,-1.524238,-2.485189,-160.549038,0.06012,-0.020828,1.004211,0.035202,-0.042644,-0.009878,58.674667,30.378464,-143.447189,,,
729862943.215573,-1.513633,-2.497961,-160.550558,0.069321,-0.01088,0.991699,0.035202,-0.042644,-0.009878,58.674667,30.378464,-143.447189,,,
729862943.218807,-1.503392,-2.509567,-160.55535,0.069321,-0.01088,0.991699,0.009311,-0.034522,-0.026585,58.733246,30.121201,-143.099289,,,
729862943.222143,-1.503392,-2.509567,-160.55535,0.069321,-0.01088,0.991699,0.009311,-0.034522,-0.026585,58.733246,30.121201,-143.099289,,,
729862943.225477,-1.499386,-2.519801,-160.561786,0.076019,-0.004425,0.984787,0.009311,-0.034522,-0.026585,58.733246,30.121201,-143.099289,,,
729862943.228807,-1.496097,-2.529326,-160.56939,0.076019,-0.004425,0.984787,-0.016873,-0.012158,-0.03322,58.733246,30.121201,-143.099289,,,
729862943.232138,-1.496097,-2.529326,-160.56939,0.076019,-0.004425,0.984787,-0.016873,-0.012158,-0.03322,58.733246,30.121201,-143.099289,,,
729862943.235477,-1.499809,-2.534418,-160.57826,0.073761,-0.006012,0.97493,-0.016873,-0.012158,-0.03322,58.733246,30.121201,-143.099289,,,
729862943.238805,-1.50572,-2.538706,-160.588287,0.073761,-0.006012,0.97493,-0.043204,0.001478,-0.039684,58.733246,30.121201,-143.099289,,,
729862943.242137,-1.50572,-2.538706,-160.588287,0.073761,-0.006012,0.97493,-0.043204,0.001478,-0.039684,58.733246,30.121201,-143.099289,,,
729862943.245483,-1.517404,-2.539432,-160.599261,0.067139,-0.007935,0.96701,-0.043204,0.001478,-0.039684,58.733246,30.121201,-143.099289,,,
729862943.248808,-1.533155,-2.538013,-160.611159,0.067139,-0.007935,0.96701,-0.063882,0.014353,-0.037118,58.733246,30.121201,-143.099289,,,
729862943.252179,-1.533155,-2.538013,-160.611159,0.067139,-0.007935,0.96701,-0.063882,0.014353,-0.037118,58.733246,30.121201,-143.099289,,,
729862943.255472,-1.55038,-2.534979,-160.622513,0.052048,-0.015381,0.972,-0.063882,0.014353,-0.037118,58.733246,30.121201,-143.099289,,,
729862943.25881,-1.570837,-2.531077,-160.632006,0.052048,-0.015381,0.972,-0.061648,0.027228,-0.021942,58.627762,30.351257,-143.378128,,,
729862943.262134,-1.570837,-2.531077,-160.632006,0.052048,-0.015381,0.972,-0.061648,0.027228,-0.021942,58.627762,30.351257,-143.378128,,,
729862943.265482,-1.58837,-2.52461,-160.639369,0.04213,-0.028854,0.981964,-0.061648,0.027228,-0.021942,58.627762,30.351257,-143.378128,,,
729862943.268918,-1.603978,-2.517242,-160.644561,0.04213,-0.028854,0.981964,-0.036102,0.041919,-0.005424,58.627762,30.351257,-143.378128,,,
729862943.272132,-1.603978,-2.517242,-160.644561,0.04213,-0.028854,0.981964,-0.036102,0.041919,-0.005424,58.627762,30.351257,-143.378128,,,
729862943.275478,-1.615157,-2.506688,-160.647056,0.03009,-0.043533,1.005722,-0.036102,0.041919,-0.005424,58.627762,30.351257,-143.378128,,,
729862943.278912,-1.619348,-2.496859,-160.647339,0.03009,-0.043533,1.005722,0.021789,0.050799,0.006379,58.627762,30.351257,-143.378128,,,
729862943.282134,-1.619348,-2.496859,-160.647339,0.03009,-0.043533,1.005722,0.021789,0.050799,0.006379,58.627762,30.351257,-143.378128,,,
729862943.285486,-1.616109,-2.483116,-160.645682,0.024734,-0.054321,1.034225,0.021789,0.050799,0.006379,58.627762,30.351257,-143.378128,,,
729862943.288813,-1.601779,-2.474799,-160.642628,0.024734,-0.054321,1.034225,0.071563,0.037638,0.00726,58.627762,30.351257,-143.378128,,,
729862943.292259,-1.601779,-2.474799,-160.642628,0.024734,-0.054321,1.034225,0.071563,0.037638,0.00726,58.627762,30.351257,-143.378128,,,
729862943.295465,-1.583299,-2.46398,-160.638994,0.026093,-0.053757,1.040756,0.071563,0.037638,0.00726,58.627762,30.351257,-143.378128,,,
729862943.298815,-1.557417,-2.463767,-160.636541,0.026093,-0.053757,1.040756,0.080358,0.007585,-0.002812,58.712265,30.060181,-143.146027,,,
729862943.302138,-1.557417,-2.463767,-160.636541,0.026093,-0.053757,1.040756,0.080358,0.007585,-0.002812,58.712265,30.060181,-143.146027,,,
729862943.305472,-1.535007,-2.461882,-160.635706,0.027069,-0.035263,1.011185,0.080358,0.007585,-0.002812,58.712265,30.060181,-143.146027,,,
729862943.308844,-1.509351,-2.473154,-160.63631,0.027069,-0.035263,1.011185,0.056542,-0.025219,-0.006759,58.712265,30.060181,-143.146027,,,
729862943.312146,-1.509351,-2.473154,-160.63631,0.027069,-0.035263,1.011185,0.056542,-0.025219,-0.006759,58.712265,30.060181,-143.146027,,,
729862943.315482,-1.492168,-2.480254,-160.637323,0.020233,-0.023056,0.979797,0.056542,-0.025219,-0.006759,58.712265,30.060181,-143.146027,,,
729862943.318803,-1.47644,-2.497297,-160.638398,0.020233,-0.023056,0.979797,0.019645,-0.043361,-0.001302,58.712265,30.060181,-143.146027,,,
729862943.322141,-1.47644,-2.497297,-160.638398,0.020233,-0.023056,0.979797,0.019645,-0.043361,-0.001302,58.712265,30.060181,-143.146027,,,
729862943.325476,-1.469609,-2.510214,-160.638802,0.022964,-0.018219,0.967957,0.019645,-0.043361,-0.001302,58.712265,30.060181,-143.146027,,,
729862943.328805,-1.465165,-2.529048,-160.638671,0.022964,-0.018219,0.967957,-0.019521,-0.049792,-0.003694,58.712265,30.060181,-143.146027,,,
729862943.332137,-1.465165,-2.529048,-160.638671,0.022964,-0.018219,0.967957,-0.019521,-0.049792,-0.003694,58.712265,30.060181,-143.146027,,,
729862943.335479,-1.46938,-2.54419,-160.638435,0.029892,-0.014267,0.967575,-0.019521,-0.049792,-0.003694,58.712265,30.060181,-143.146027,,,
729862943.338877,-1.476232,-2.561054,-160.639865,0.029892,-0.014267,0.967575,-0.037205,-0.050144,-0.015631,58.79538,30.140625,-143.397888,,,
729862943.342136,-1.476232,-2.561054,-160.639865,0.029892,-0.014267,0.967575,-0.037205,-0.050144,-0.015631,58.79538,30.140625,-143.397888,,,
729862943.345483,-1.486333,-2.576543,-160.64331,0.042831,-0.011551,0.975143,-0.037205,-0.050144,-0.015631,58.79538,30.140625,-143.397888,,,
729862943.34881,-1.498272,-2.590976,-160.648678,0.042831,-0.011551,0.975143,-0.033447,-0.043946,-0.024651,58.79538,30.140625,-143.397888,,,
729862943.352134,-1.498272,-2.590976,-160.648678,0.042831,-0.011551,0.975143,-0.033447,-0.043946,-0.024651,58.79538,30.140625,-143.397888,,,
729862943.355479,-1.507485,-2.60527,-160.655473,0.052048,-0.016663,0.991623,-0.033447,-0.043946,-0.024651,58.79538,30.140625,-143.397888,,,
729862943.358805,-1.517647,-2.612151,-160.661706,0.052048,-0.016663,0.991623,0.002355,-0.01694,-0.014304,58.79538,30.140625,-143.397888,,,
729862943.36214,-1.517647,-2.612151,-160.661706,0.052048,-0.016663,0.991623,0.002355,-0.01694,-0.014304,58.79538,30.140625,-143.397888,,,
729862943.365487,-1.518394,-2.619351,-160.666345,0.050919,-0.031631,1.014084,0.002355,-0.01694,-0.014304,58.79538,30.140625,-143.397888,,,
729862943.368814,-1.519614,-2.616078,-160.668279,0.050919,-0.031631,1.014084,0.036371,0.020609,0.005026,58.79538,30.140625,-143.397888,,,
729862943.372248,-1.519614,-2.616078,-160.668279,0.050919,-0.031631,1.014084,0.036371,0.020609,0.005026,58.79538,30.140625,-143.397888,,,
729862943.375528,-1.510202,-2.612213,-160.667131,0.045975,-0.041183,1.025497,0.036371,0.020609,0.005026,58.79538,30.140625,-143.397888,,,
729862943.378911,-1.500419,-2.60021,-160.663809,0.045975,-0.041183,1.025497,0.062524,0.040217,0.011795,58.79538,30.140625,-143.397888,,,
729862943.382193,-1.500419,-2.60021,-160.663809,0.045975,-0.041183,1.025497,0.062524,0.040217,0.011795,58.553207,30.120438,-143.349747,,,
729862943.385518,-1.483526,-2.589818,-160.659285,0.046402,-0.041351,1.019882,0.062524,0.040217,0.011795,58.553207,30.120438,-143.349747,,,
729862943.388731,-1.464539,-2.575526,-160.6543,0.046402,-0.041351,1.019882,0.077474,0.038915,0.010248,58.553207,30.120438,-143.349747,,,
729862943.392155,-1.464539,-2.575526,-160.6543,0.046402,-0.041351,1.019882,0.077474,0.038915,0.010248,58.553207,30.120438,-143.349747,,,
729862943.395479,-1.442992,-2.565304,-160.649542,0.043625,-0.033951,1.002945,0.077474,0.038915,0.010248,58.553207,30.120438,-143.349747,,,
729862943.398807,-1.421097,-2.549538,-160.6441,0.043625,-0.033951,1.002945,0.07068,0.039556,0.013284,58.553207,30.120438,-143.349747,,,
729862943.402154,-1.421097,-2.549538,-160.6441,0.043625,-0.033951,1.002945,0.07068,0.039556,0.013284,58.553207,30.120438,-143.349747,,,
729862943.405483,-1.400721,-2.539241,-160.63815,0.0439,-0.032547,0.992996,0.07068,0.039556,0.013284,58.553207,30.120438,-143.349747,,,
729862943.408823,-1.380956,-2.52582,-160.631899,0.0439,-0.032547,0.992996,0.05021,0.022913,0.010119,58.553207,30.120438,-143.349747,,,
729862943.412179,-1.380956,-2.52582,-160.631899,0.0439,-0.032547,0.992996,0.05021,0.022913,0.010119,58.553207,30.120438,-143.349747,,,
729862943.415477,-1.366176,-2.519521,-160.626708,0.049835,-0.023849,0.979477,0.05021,0.022913,0.010119,58.553207,30.120438,-143.349747,,,
729862943.418809,-1.353006,-2.514149,-160.623869,0.049835,-0.023849,0.979477,0.01988,0.001075,-0.001005,58.553207,30.120438,-143.349747,,,
729862943.422144,-1.353006,-2.514149,-160.623869,0.049835,-0.023849,0.979477,0.01988,0.001075,-0.001005,58.730438,29.816956,-143.353897,,,
729862943.425507,-1.346351,-2.514137,-160.6235,0.049789,-0.012466,0.964737,0.01988,0.001075,-0.001005,58.730438,29.816956,-143.353897,,,
729862943.428813,-1.343307,-2.516703,-160.624595,0.049789,-0.012466,0.964737,-0.013638,-0.00389,-0.007705,58.730438,29.816956,-143.353897,,,
729862943.432231,-1.343307,-2.516703,-160.624595,0.049789,-0.012466,0.964737,-0.013638,-0.00389,-0.007705,58.730438,29.816956,-143.353897,,,
729862943.435623,-1.347061,-2.518852,-160.626759,0.051743,-0.009842,0.961411,-0.013638,-0.00389,-0.007705,58.730438,29.816956,-143.353897,,,
729862943.438808,-1.354234,-2.52068,-160.629543,0.051743,-0.009842,0.961411,-0.043262,0.013113,-0.01076,58.730438,29.816956,-143.353897,,,
729862943.442128,-1.354234,-2.52068,-160.629543,0.051743,-0.009842,0.961411,-0.043262,0.013113,-0.01076,58.730438,29.816956,-143.353897,,,
729862943.445507,-1.366261,-2.518449,-160.632837,0.055481,-0.010651,0.968811,-0.043262,0.013113,-0.01076,58.730438,29.816956,-143.353897,,,
729862943.448556,-1.366261,-2.518449,-160.632837,0.055481,-0.010651,0.968811,-0.043262,0.013113,-0.01076,58.730438,29.816956,-143.353897,,,
729862943.452257,-1.383439,-2.514976,-160.637102,0.055481,-0.010651,0.968811,-0.06188,0.025188,-0.019884,58.730438,29.816956,-143.353897,,,
729862943.455462,-1.400225,-2.509426,-160.642436,0.061188,-0.011169,0.972412,-0.06188,0.025188,-0.019884,58.730438,29.816956,-143.353897,,,
729862943.45881,-1.421859,-2.502396,-160.649601,0.061188,-0.011169,0.972412,-0.068255,0.036711,-0.021396,58.730438,29.816956,-143.353897,,,
729862943.462167,-1.421859,-2.502396,-160.649601,0.061188,-0.011169,0.972412,-0.068255,0.036711,-0.021396,58.59166,30.042023,-143.224335,,,
729862943.465489,-1.440798,-2.492846,-160.657283,0.056168,-0.014069,0.977295,-0.068255,0.036711,-0.021396,58.59166,30.042023,-143.224335,,,
729862943.468812,-1.461798,-2.481527,-160.663365,0.056168,-0.014069,0.977295,-0.056897,0.045464,-0.009108,58.59166,30.042023,-143.224335,,,
729862943.472138,-1.461798,-2.481527,-160.663365,0.056168,-0.014069,0.977295,-0.056897,0.045464,-0.009108,58.59166,30.042023,-143.224335,,,
729862943.475482,-1.478859,-2.469251,-160.667539,0.041885,-0.028366,0.99144,-0.056897,0.045464,-0.009108,58.59166,30.042023,-143.224335,,,
729862943.478808,-1.478859,-2.459099,-160.670365,0.041885,-0.028366,0.99144,-0.029818,0.021436,-0.005484,58.59166,30.042023,-143.224335,,,
729862943.482164,-1.494584,-2.459099,-160.670365,0.041885,-0.028366,0.99144,-0.029818,0.021436,-0.005484,58.59166,30.042023,-143.224335,,,
729862943.485594,-1.504514,-2.452661,-160.672737,0.040939,-0.033325,0.998428,-0.029818,0.021436,-0.005484,58.59166,30.042023,-143.224335,,,
729862943.488887,-1.51116,-2.451435,-160.675452,0.040939,-0.033325,0.998428,-0.029818,0.021436,-0.005484,58.59166,30.042023,-143.224335,,,
729862943.492175,-1.51116,-2.451435,-160.675452,0.040939,-0.033325,0.998428,0.000293,-0.008681,-0.013193,58.59166,30.042023,-143.224335,,,
729862943.495486,-1.512172,-2.454025,-160.678731,0.040695,-0.029709,1.006058,0.000293,-0.008681,-0.013193,58.59166,30.042023,-143.224335,,,
729862943.498905,-1.508684,-2.462482,-160.68205,0.040695,-0.029709,1.006058,0.014072,-0.03023,-0.009516,58.59166,30.042023,-143.224335,,,
729862943.502152,-1.508684,-2.462482,-160.68205,0.040695,-0.029709,1.006058,0.014072,-0.03023,-0.009516,58.59166,30.042023,-143.224335,,,
729862943.505479,-1.50465,-2.470804,-160.684173,0.035828,-0.031738,1.005768,0.014072,-0.03023,-0.009516,58.559341,30.229187,-143.246429,,,
729862943.508808,-1.50465,-2.470804,-160.684907,0.035828,-0.031738,1.005768,0.014072,-0.03023,-0.009516,58.559341,30.229187,-143.246429,,,
729862943.512192,-1.497107,-2.482954,-160.684907,0.035828,-0.031738,1.005768,0.007963,-0.029383,0.002511,58.559341,30.229187,-143.246429,,,
729862943.515594,-1.494921,-2.49242,-160.684368,0.030151,-0.029938,0.997269,0.007963,-0.029383,0.002511,58.559341,30.229187,-143.246429,,,
729862943.518812,-1.494921,-2.49242,-160.684368,0.030151,-0.029938,0.997269,0.007963,-0.029383,0.002511,58.559341,30.229187,-143.246429,,,
729862943.522144,-1.491182,-2.504089,-160.683707,0.030151,-0.029938,0.997269,-0.015253,-0.017259,0.000374,58.559341,30.229187,-143.246429,,,
729862943.525475,-1.495095,-2.510362,-160.683572,0.041107,-0.020508,0.993286,-0.015253,-0.017259,0.000374,58.559341,30.229187,-143.246429,,,
729862943.528926,-1.498284,-2.51841,-160.684336,0.041107,-0.020508,0.993286,-0.03812,0.001778,-0.007523,58.559341,30.229187,-143.246429,,,
729862943.532132,-1.498284,-2.51841,-160.684336,0.041107,-0.020508,0.993286,-0.03812,0.001778,-0.007523,58.559341,30.229187,-143.246429,,,
729862943.535477,-1.5084,-2.519383,-160.686296,0.055435,-0.01297,0.992386,-0.03812,0.001778,-0.007523,58.559341,30.229187,-143.246429,,,
729862943.538866,-1.5084,-2.519383,-160.686296,0.055435,-0.01297,0.992386,-0.03812,0.001778,-0.007523,58.559341,30.229187,-143.246429,,,
729862943.542142,-1.5172,-2.523199,-160.689323,0.055435,-0.01297,0.992386,-0.048919,0.021435,-0.010354,58.559341,30.229187,-143.246429,,,
729862943.54547,-1.531454,-2.518449,-160.692643,0.056183,-0.01828,0.996094,-0.048919,0.021435,-0.010354,58.370773,30.372391,-143.437836,,,
729862943.54881,-1.531454,-2.518449,-160.692643,0.056183,-0.01828,0.996094,-0.048919,0.021435,-0.010354,58.370773,30.372391,-143.437836,,,
729862943.552137,-1.544551,-2.513447,-160.696469,0.056183,-0.01828,0.996094,-0.054295,0.035833,-0.014222,58.370773,30.372391,-143.437836,,,
729862943.55547,-1.559806,-2.504094,-160.700631,0.048935,-0.019943,1.001648,-0.054295,0.035833,-0.014222,58.370773,30.372391,-143.437836,,,
729862943.558803,-1.559806,-2.504094,-160.700631,0.048935,-0.019943,1.001648,-0.054295,0.035833,-0.014222,58.370773,30.372391,-143.437836,,,
729862943.562134,-1.576259,-2.493483,-160.704905,0.048935,-0.019943,1.001648,-0.053046,0.035221,-0.013849,58.370773,30.372391,-143.437836,,,
729862943.565539,-1.591377,-2.484015,-160.708904,0.04303,-0.025238,1.000992,-0.053046,0.035221,-0.013849,58.370773,30.372391,-143.437836,,,
729862943.568882,-1.591377,-2.484015,-160.708904,0.04303,-0.025238,1.000992,-0.053046,0.035221,-0.013849,58.370773,30.372391,-143.437836,,,
729862943.572178,-1.605678,-2.47541,-160.711693,0.04303,-0.025238,1.000992,-0.031597,0.020396,-0.003059,58.370773,30.372391,-143.437836,,,
729862943.575481,-1.61584,-2.469608,-160.713084,0.036072,-0.033325,1.007736,-0.031597,0.020396,-0.003059,58.370773,30.372391,-143.437836,,,
729862943.578874,-1.61584,-2.469608,-160.713084,0.036072,-0.033325,1.007736,-0.031597,0.020396,-0.003059,58.370773,30.372391,-143.437836,,,
729862943.582141,-1.6228,-2.466035,-160.713348,0.036072,-0.033325,1.007736,-0.008178,-0.009933,0.000848,58.370773,30.372391,-143.437836,,,
729862943.585482,-1.625585,-2.468243,-160.712959,0.032425,-0.037231,1.007965,-0.008178,-0.009933,0.000848,58.50293,30.288055,-143.305588,,,
729862943.588856,-1.625585,-2.468243,-160.712959,0.032425,-0.037231,1.007965,-0.008178,-0.009933,0.000848,58.50293,30.288055,-143.305588,,,
729862943.592205,-1.626529,-2.471614,-160.713022,0.032425,-0.037231,1.007965,0.008113,-0.029578,-0.009271,58.50293,30.288055,-143.305588,,,
729862943.595467,-1.624652,-2.479855,-160.7145,0.038086,-0.029999,1.006638,0.008113,-0.029578,-0.009271,58.50293,30.288055,-143.305588,,,
729862943.598842,-1.624652,-2.479855,-160.7145,0.038086,-0.029999,1.006638,0.008113,-0.029578,-0.009271,58.50293,30.288055,-143.305588,,,
729862943.602131,-1.621389,-2.48502,-160.7166,0.038086,-0.029999,1.006638,0.019114,-0.019116,-0.004704,58.50293,30.288055,-143.305588,,,
729862943.605476,-1.616349,-2.492714,-160.717854,0.040329,-0.031281,1.014572,0.019114,-0.019116,-0.004704,58.50293,30.288055,-143.305588,,,
729862943.608858,-1.616349,-2.492714,-160.717854,0.040329,-0.031281,1.014572,0.019114,-0.019116,-0.004704,58.50293,30.288055,-143.305588,,,
729862943.61215,-1.607381,-2.497857,-160.716693,0.040329,-0.031281,1.014572,0.029083,0.000792,0.01368,58.50293,30.288055,-143.305588,,,
729862943.615481,-1.599626,-2.498752,-160.71276,0.034592,-0.040924,1.017456,0.029083,0.000792,0.01368,58.50293,30.288055,-143.305588,,,
729862943.618909,-1.599626,-2.498752,-160.71276,0.034592,-0.040924,1.017456,0.029083,0.000792,0.01368,58.50293,30.288055,-143.305588,,,
729862943.622138,-1.587684,-2.500118,-160.708096,0.034592,-0.040924,1.017456,0.030201,0.028911,0.010005,58.50293,30.288055,-143.305588,,,
729862943.625472,-1.579803,-2.493317,-160.704284,0.040924,-0.033295,1.013824,0.030201,0.028911,0.010005,58.355621,30.431244,-143.555054,,,
729862943.628842,-1.579803,-2.493317,-160.704284,0.040924,-0.033295,1.013824,0.030201,0.028911,0.010005,58.355621,30.431244,-143.555054,,,
729862943.632236,-1.571665,-2.486037,-160.70197,0.040924,-0.033295,1.013824,0.009673,0.04937,-0.00333,58.355621,30.431244,-143.555054,,,
729862943.635496,-1.567981,-2.473009,-160.70134,0.048859,-0.020645,1.006317,0.009673,0.04937,-0.00333,58.355621,30.431244,-143.555054,,,
729862943.63882,-1.567981,-2.473009,-160.70134,0.048859,-0.020645,1.006317,0.009673,0.04937,-0.00333,58.355621,30.431244,-143.555054,,,
729862943.642214,-1.564307,-2.460557,-160.702438,0.048859,-0.020645,1.006317,-0.000294,0.051248,-0.009992,58.355621,30.431244,-143.555054,,,
729862943.645474,-1.563551,-2.44681,-160.704492,0.045822,-0.021484,0.996338,-0.000294,0.051248,-0.009992,58.355621,30.431244,-143.555054,,,
729862943.648809,-1.563551,-2.44681,-160.704492,0.045822,-0.021484,0.996338,-0.000294,0.051248,-0.009992,58.355621,30.431244,-143.555054,,,
729862943.652009,-1.563625,-2.434548,-160.706641,0.045822,-0.021484,0.996338,-0.008973,0.034255,-0.009321,58.355621,30.431244,-143.555054,,,
729862943.655504,-1.565629,-2.425014,-160.708349,0.037125,-0.024704,0.992325,-0.008973,0.034255,-0.009321,58.355621,30.431244,-143.555054,,,
729862943.658816,-1.565629,-2.425014,-160.708349,0.037125,-0.024704,0.992325,-0.008973,0.034255,-0.009321,58.355621,30.431244,-143.555054,,,
729862943.662149,-1.571273,-2.415769,-160.708879,0.037125,-0.024704,0.992325,-0.014253,0.007578,0.004532,58.355621,30.431244,-143.555054,,,
729862943.665473,-1.574981,-2.412641,-160.707586,0.026688,-0.029709,0.988968,-0.014253,0.007578,0.004532,58.355621,30.431244,-143.555054,,,
729862943.668797,-1.574981,-2.412641,-160.707586,0.026688,-0.029709,0.988968,-0.014253,0.007578,0.004532,58.523102,30.432312,-143.332352,,,
729862943.672147,-1.581092,-2.409928,-160.704306,0.026688,-0.029709,0.988968,-0.009476,-0.007849,0.012817,58.523102,30.432312,-143.332352,,,
729862943.675464,-1.584609,-2.412185,-160.700343,0.026993,-0.032761,0.994934,-0.009476,-0.007849,0.012817,58.523102,30.432312,-143.332352,,,
729862943.678894,-1.584609,-2.412185,-160.700343,0.026993,-0.032761,0.994934,-0.009476,-0.007849,0.012817,58.523102,30.432312,-143.332352,,,
729862943.682123,-1.586729,-2.414909,-160.696317,0.026993,-0.032761,0.994934,-0.000471,-0.014789,0.01244,58.523102,30.432312,-143.332352,,,
729862943.685472,-1.587188,-2.419527,-160.692372,0.042542,-0.031647,1.002975,-0.000471,-0.014789,0.01244,58.523102,30.432312,-143.332352,,,
729862943.688812,-1.587188,-2.419527,-160.692372,0.042542,-0.031647,1.002975,-0.000471,-0.014789,0.01244,58.523102,30.432312,-143.332352,,,
729862943.692222,-1.586672,-2.423282,-160.68849,0.042542,-0.031647,1.002975,0.019557,-0.015927,0.010657,58.523102,30.432312,-143.332352,,,
729862943.695469,-1.581756,-2.427921,-160.684846,0.050064,-0.030121,1.00972,0.019557,-0.015927,0.010657,58.523102,30.432312,-143.332352,,,
729862943.69883,-1.581756,-2.427921,-160.684846,0.050064,-0.030121,1.00972,0.019557,-0.015927,0.010657,58.523102,30.432312,-143.332352,,,
729862943.702156,-1.577091,-2.427519,-160.680924,0.050064,-0.030121,1.00972,0.046922,0.014717,0.01577,58.523102,30.432312,-143.332352,,,
729862943.705472,-1.564708,-2.425017,-160.675965,0.045242,-0.035629,1.021561,0.046922,0.014717,0.01577,58.523102,30.432312,-143.332352,,,
729862943.70881,-1.564708,-2.425017,-160.675965,0.045242,-0.035629,1.021561,0.046922,0.014717,0.01577,58.703674,30.413773,-143.41124,,,
729862943.71216,-1.549052,-2.419592,-160.67003,0.045242,-0.035629,1.021561,0.067498,0.030863,0.016542,58.703674,30.413773,-143.41124,,,
729862943.715483,-1.530174,-2.411965,-160.664417,0.047745,-0.03717,1.020874,0.067498,0.030863,0.016542,58.703674,30.413773,-143.41124,,,
729862943.718803,-1.530174,-2.411965,-160.664417,0.047745,-0.03717,1.020874,0.067498,0.030863,0.016542,58.703674,30.413773,-143.41124,,,
729862943.722155,-1.508856,-2.405402,-160.659992,0.047745,-0.03717,1.020874,0.064351,0.03246,0.001942,58.703674,30.413773,-143.41124,,,
729862943.72547,-1.490219,-2.396872,-160.657663,0.053391,-0.023392,1.001343,0.064351,0.03246,0.001942,58.703674,30.413773,-143.41124,,,
729862943.728894,-1.490219,-2.396872,-160.657663,0.053391,-0.023392,1.001343,0.064351,0.03246,0.001942,58.703674,30.413773,-143.41124,,,
729862943.732195,-1.472801,-2.389757,-160.657967,0.053391,-0.023392,1.001343,0.044679,0.023352,-0.011596,58.703674,30.413773,-143.41124,,,
729862943.735472,-1.459115,-2.384006,-160.659974,0.052765,-0.011841,0.982117,0.044679,0.023352,-0.011596,58.703674,30.413773,-143.41124,,,
729862943.738815,-1.459115,-2.384006,-160.659974,0.052765,-0.011841,0.982117,0.044679,0.023352,-0.011596,58.703674,30.413773,-143.41124,,,
729862943.742212,-1.449298,-2.379537,-160.66293,0.052765,-0.011841,0.982117,0.017751,-0.005466,-0.017378,58.703674,30.413773,-143.41124,,,
729862943.745462,-1.443629,-2.381,-160.66675,0.045563,-0.011505,0.965591,0.017751,-0.005466,-0.017378,58.703674,30.413773,-143.41124,,,
729862943.748805,-1.443629,-2.381,-160.66675,0.045563,-0.011505,0.965591,0.017751,-0.005466,-0.017378,58.698669,30.318069,-143.249115,,,
729862943.752161,-1.443517,-2.381933,-160.671728,0.045563,-0.011505,0.965591,-0.013736,-0.034587,-0.020421,58.698669,30.318069,-143.249115,,,
729862943.755467,-1.446394,-2.391837,-160.677309,0.039856,-0.010742,0.961044,-0.013736,-0.034587,-0.020421,58.698669,30.318069,-143.249115,,,
729862943.758816,-1.446394,-2.391837,-160.677309,0.039856,-0.010742,0.961044,-0.013736,-0.034587,-0.020421,58.698669,30.318069,-143.249115,,,
729862943.762147,-1.453921,-2.400504,-160.682001,0.039856,-0.010742,0.961044,-0.026288,-0.034916,-0.013904,58.698669,30.318069,-143.249115,,,
729862943.76547,-1.460789,-2.411923,-160.685976,0.043839,-0.015778,0.973511,-0.026288,-0.034916,-0.013904,58.698669,30.318069,-143.249115,,,
729862943.768887,-1.460789,-2.411923,-160.685976,0.043839,-0.015778,0.973511,-0.026288,-0.034916,-0.013904,58.698669,30.318069,-143.249115,,,
729862943.772145,-1.469818,-2.421733,-160.689588,0.043839,-0.015778,0.973511,-0.032809,-0.014283,-0.011557,58.698669,30.318069,-143.249115,,,
729862943.775481,-1.478451,-2.427033,-160.693544,0.052658,-0.019653,0.98793,-0.032809,-0.014283,-0.011557,58.698669,30.318069,-143.249115,,,
729862943.778805,-1.478451,-2.427033,-160.693544,0.052658,-0.019653,0.98793,-0.032809,-0.014283,-0.011557,58.698669,30.318069,-143.249115,,,
729862943.782145,-1.489117,-2.430755,-160.697899,0.052658,-0.019653,0.98793,-0.026191,0.017273,-0.013089,58.698669,30.318069,-143.249115,,,
729862943.785478,-1.497457,-2.427451,-160.701617,0.056351,-0.018616,0.997482,-0.026191,0.017273,-0.013089,58.698669,30.318069,-143.249115,,,
729862943.788819,-1.497457,-2.427451,-160.701617,0.056351,-0.018616,0.997482,-0.026191,0.017273,-0.013089,58.698669,30.318069,-143.249115,,,
729862943.792264,-1.506197,-2.416755,-160.703791,0.056351,-0.018616,0.997482,-0.006993,0.079707,0.0013,58.984161,30.186951,-143.536774,,,
729862943.795493,-1.509626,-2.397,-160.703354,0.04837,-0.033279,1.020462,-0.006993,0.079707,0.0013,58.984161,30.186951,-143.536774,,,
729862943.798804,-1.509626,-2.397,-160.703354,0.04837,-0.033279,1.020462,-0.006993,0.079707,0.0013,58.984161,30.186951,-143.536774,,,
729862943.802158,-1.511613,-2.372145,-160.700374,0.04837,-0.033279,1.020462,0.020384,0.113467,0.015235,58.984161,30.186951,-143.536774,,,
729862943.805485,-1.507345,-2.341737,-160.6956,0.039169,-0.04155,1.030533,0.020384,0.113467,0.015235,58.984161,30.186951,-143.536774,,,
729862943.80882,-1.507345,-2.341737,-160.6956,0.039169,-0.04155,1.030533,0.020384,0.113467,0.015235,58.984161,30.186951,-143.536774,,,
729862943.81215,-1.497284,-2.314969,-160.690259,0.039169,-0.04155,1.030533,0.046106,0.090499,0.010834,58.984161,30.186951,-143.536774,,,
729862943.81548,-1.48523,-2.288105,-160.685757,0.034912,-0.037689,1.021011,0.046106,0.090499,0.010834,58.984161,30.186951,-143.536774,,,
729862943.818859,-1.48523,-2.288105,-160.685757,0.034912,-0.037689,1.021011,0.046106,0.090499,0.010834,58.984161,30.186951,-143.536774,,,
729862943.82214,-1.467874,-2.27164,-160.683097,0.034912,-0.037689,1.021011,0.045181,0.034443,0.00096,58.984161,30.186951,-143.536774,,,
729862943.825479,-1.455359,-2.260234,-160.681716,0.02774,-0.027039,0.996445,0.045181,0.034443,0.00096,58.984161,30.186951,-143.536774,,,
729862943.828815,-1.455359,-2.260234,-160.681716,0.02774,-0.027039,0.996445,0.045181,0.034443,0.00096,58.984161,30.186951,-143.536774,,,
729862943.832145,-1.441465,-2.259278,-160.680677,0.02774,-0.027039,0.996445,0.024857,-0.025571,0.000554,58.938995,29.950836,-143.013351,,,
729862943.83548,-1.43357,-2.264874,-160.679402,0.023727,-0.021011,0.978165,0.024857,-0.025571,0.000554,58.938995,29.950836,-143.013351,,,
729862943.838815,-1.43357,-2.264874,-160.679402,0.023727,-0.021011,0.978165,0.024857,-0.025571,0.000554,58.938995,29.950836,-143.013351,,,
729862943.842158,-1.425828,-2.27834,-160.678794,0.023727,-0.021011,0.978165,0.005753,-0.067058,0.000206,58.938995,29.950836,-143.013351,,,
729862943.845479,-1.423886,-2.296526,-160.679142,0.02652,-0.019821,0.979355,0.005753,-0.067058,0.000206,58.938995,29.950836,-143.013351,,,
729862943.848805,-1.423886,-2.296526,-160.679142,0.02652,-0.019821,0.979355,0.005753,-0.067058,0.000206,58.938995,29.950836,-143.013351,,,
729862943.852182,-1.422505,-2.31962,-160.680299,0.02652,-0.019821,0.979355,-0.005571,-0.077081,-0.008148,58.938995,29.950836,-143.013351,,,
729862943.855473,-1.424116,-2.342526,-160.682065,0.036301,-0.019974,0.992798,-0.005571,-0.077081,-0.008148,58.938995,29.950836,-143.013351,,,
729862943.858894,-1.424116,-2.342526,-160.682065,0.036301,-0.019974,0.992798,-0.005571,-0.077081,-0.008148,58.938995,29.950836,-143.013351,,,
729862943.862144,-1.424116,-2.368724,-160.684593,0.036301,-0.019974,0.992798,-0.001745,-0.06512,-0.010921,58.938995,29.950836,-143.013351,,,
729862943.86547,-1.425015,-2.388961,-160.687483,0.048645,-0.021255,1.007538,-0.001745,-0.06512,-0.010921,58.938995,29.950836,-143.013351,,,
729862943.86882,-1.425015,-2.388961,-160.687483,0.048645,-0.021255,1.007538,-0.001745,-0.06512,-0.010921,58.938995,29.950836,-143.013351,,,
729862943.872207,-1.425161,-2.409145,-160.690215,0.048645,-0.021255,1.007538,-0.004831,-0.030978,-0.010899,58.76825,30.091141,-143.168716,,,
729862943.875473,-1.426745,-2.420546,-160.692901,0.055466,-0.019623,1.010223,-0.004831,-0.030978,-0.010899,58.76825,30.091141,-143.168716,,,
729862943.878819,-1.426745,-2.420546,-160.692901,0.055466,-0.019623,1.010223,-0.004831,-0.030978,-0.010899,58.76825,30.091141,-143.168716,,,
729862943.882155,-1.431518,-2.427581,-160.695739,0.055466,-0.019623,1.010223,-0.002,-0.002635,-0.007235,58.76825,30.091141,-143.168716,,,
729862943.885478,-1.432948,-2.430137,-160.69758,0.053574,-0.019257,1.006836,-0.002,-0.002635,-0.007235,58.76825,30.091141,-143.168716,,,
729862943.888828,-1.432948,-2.430137,-160.69758,0.053574,-0.019257,1.006836,-0.002,-0.002635,-0.007235,58.76825,30.091141,-143.168716,,,
729862943.892145,-1.437332,-2.427833,-160.698049,0.053574,-0.019257,1.006836,0.007748,0.020509,0.006716,58.76825,30.091141,-143.168716,,,
729862943.895474,-1.436177,-2.423446,-160.696808,0.046707,-0.027634,1.014389,0.007748,0.020509,0.006716,58.76825,30.091141,-143.168716,,,
729862943.898807,-1.436177,-2.423446,-160.696808,0.046707,-0.027634,1.014389,0.007748,0.020509,0.006716,58.76825,30.091141,-143.168716,,,
729862943.902161,-1.435317,-2.412442,-160.693568,0.046707,-0.027634,1.014389,0.022944,0.041317,0.01444,58.76825,30.091141,-143.168716,,,
729862943.905469,-1.430308,-2.401196,-160.688916,0.045853,-0.030853,1.026657,0.022944,0.041317,0.01444,58.76825,30.091141,-143.168716,,,
729862943.908869,-1.430308,-2.401196,-160.688916,0.045853,-0.030853,1.026657,0.022944,0.041317,0.01444,58.76825,30.091141,-143.168716,,,
729862943.912134,-1.422746,-2.385042,-160.682724,0.045853,-0.030853,1.026657,0.039832,0.032224,0.021851,58.796356,30.141586,-143.261063,,,
729862943.915484,-1.412209,-2.375666,-160.675587,0.040848,-0.031372,1.021515,0.039832,0.032224,0.021851,58.796356,30.141586,-143.261063,,,
729862943.918821,-1.412209,-2.375666,-160.675587,0.040848,-0.031372,1.021515,0.039832,0.032224,0.021851,58.796356,30.141586,-143.261063,,,
729862943.922191,-1.397488,-2.365823,-160.668242,0.040848,-0.031372,1.021515,0.056522,-0.001672,0.01721,58.796356,30.141586,-143.261063,,,
729862943.925465,-1.381806,-2.366129,-160.661619,0.037018,-0.027939,1.013367,0.056522,-0.001672,0.01721,58.796356,30.141586,-143.261063,,,
729862943.928811,-1.381806,-2.366129,-160.661619,0.037018,-0.027939,1.013367,0.056522,-0.001672,0.01721,58.796356,30.141586,-143.261063,,,
729862943.932141,-1.364517,-2.366644,-160.65573,0.037018,-0.027939,1.013367,0.057656,-0.021548,0.015529,58.796356,30.141586,-143.261063,,,
729862943.935469,-1.348799,-2.372827,-160.65034,0.039963,-0.022781,1.011047,0.057656,-0.021548,0.015529,58.796356,30.141586,-143.261063,,,
729862943.938815,-1.348799,-2.372827,-160.65034,0.039963,-0.022781,1.011047,0.057656,-0.021548,0.015529,58.796356,30.141586,-143.261063,,,
729862943.942147,-1.332876,-2.380599,-160.644956,0.039963,-0.022781,1.011047,0.048191,-0.035303,0.015586,58.796356,30.141586,-143.261063,,,
729862943.94548,-1.318722,-2.390333,-160.639432,0.039581,-0.020279,1.005554,0.048191,-0.035303,0.015586,58.796356,30.141586,-143.261063,,,
