Time (sec),Pitch (deg),Roll (deg),Yaw(deg),X-Acceleration (g),Y-Acceleration (g),Z-Acceleration (g),Pitch Rate (deg/sec),Roll Rate (deg/sec),Yaw Rate (deg/sec),Magnetic Field in X direction (uT),Magnetic Field in Y direction (uT),Magnetic Field in Z Direction (uT),Latitude (deg),Longitude (deg),Altitude (m)
729862468.617693,0.08882,4.369245,47.863071,-0.077286,-0.005737,1.006851,0.020755,0.039377,0.006965,48.732361,0.67131,-150.165924,,,
729862468.621026,0.093574,4.381173,47.864821,-0.075821,-0.001038,0.994217,0.011971,0.04102,0.00615,48.732361,0.67131,-150.165924,,,
729862468.624352,0.096462,4.391682,47.8667,-0.075821,-0.001038,0.994217,0.011971,0.04102,0.00615,48.732361,0.67131,-150.165924,,,
729862468.627783,0.096462,4.391682,47.8667,-0.075821,-0.001038,0.994217,0.011971,0.04102,0.00615,48.732361,0.67131,-150.165924,,,
729862468.631088,0.09835,4.400836,47.868476,-0.075745,0.00058,0.977554,0.002,0.020912,0.00467,48.732361,0.67131,-150.165924,,,
729862468.634348,0.097504,4.402613,47.869808,-0.075745,0.00058,0.977554,0.002,0.020912,0.00467,49.112534,0.466263,-149.769363,,,
729862468.637695,0.097504,4.402613,47.869808,-0.075745,0.00058,0.977554,0.002,0.020912,0.00467,49.112534,0.466263,-149.769363,,,
729862468.641099,0.09504,4.399582,47.869858,-0.078812,0.00148,0.973572,-0.01022,-0.023645,-0.005228,49.112534,0.466263,-149.769363,,,
729862468.644342,0.091322,4.389931,47.868676,-0.078812,0.00148,0.973572,-0.01022,-0.023645,-0.005228,49.112534,0.466263,-149.769363,,,
729862468.647697,0.091322,4.389931,47.868676,-0.078812,0.00148,0.973572,-0.01022,-0.023645,-0.005228,49.112534,0.466263,-149.769363,,,
729862468.65103,0.08703,4.377959,47.866999,-0.078552,0.001938,0.984451,-0.015614,-0.044281,-0.009051,49.112534,0.466263,-149.769363,,,
729862468.654353,0.082348,4.364277,47.865409,-0.078552,0.001938,0.984451,-0.015614,-0.044281,-0.009051,49.112534,0.466263,-149.769363,,,
729862468.657703,0.082348,4.364277,47.865409,-0.078552,0.001938,0.984451,-0.015614,-0.044281,-0.009051,49.112534,0.466263,-149.769363,,,
729862468.661037,0.078464,4.350848,47.864527,-0.078873,-0.000458,1.001343,-0.008777,-0.047069,-0.003576,49.112534,0.466263,-149.769363,,,
729862468.664347,0.076777,4.337538,47.864283,-0.078873,-0.000458,1.001343,-0.008777,-0.047069,-0.003576,49.112534,0.466263,-149.769363,,,
729862468.667746,0.076777,4.337538,47.864283,-0.078873,-0.000458,1.001343,-0.008777,-0.047069,-0.003576,49.112534,0.466263,-149.769363,,,
729862468.671025,0.076817,4.327579,47.864249,-0.077423,-0.004578,1.015778,0.006027,-0.026775,-0.000965,49.112534,0.466263,-149.769363,,,
729862468.67435,0.080161,4.321361,47.864403,-0.077423,-0.004578,1.015778,0.006027,-0.026775,-0.000965,48.889786,0.642471,-150.080261,,,
729862468.67769,0.080161,4.321361,47.864403,-0.077423,-0.004578,1.015778,0.006027,-0.026775,-0.000965,48.889786,0.642471,-150.080261,,,
729862468.681023,0.086143,4.320117,47.865273,-0.076324,-0.007034,1.02803,0.02709,0.005019,0.005631,48.889786,0.642471,-150.080261,,,
729862468.684355,0.095032,4.323613,47.867211,-0.076324,-0.007034,1.02803,0.02709,0.005019,0.005631,48.889786,0.642471,-150.080261,,,
729862468.687698,0.095032,4.323613,47.867211,-0.076324,-0.007034,1.02803,0.02709,0.005019,0.005631,48.889786,0.642471,-150.080261,,,
729862468.691045,0.105095,4.331963,47.869858,-0.074783,-0.007034,1.026749,0.03902,0.037962,0.011485,48.889786,0.642471,-150.080261,,,
729862468.694351,0.115847,4.343552,47.872731,-0.074783,-0.007034,1.026749,0.03902,0.037962,0.011485,48.889786,0.642471,-150.080261,,,
729862468.697699,0.115847,4.343552,47.872731,-0.074783,-0.007034,1.026749,0.03902,0.037962,0.011485,48.889786,0.642471,-150.080261,,,
729862468.701035,0.125547,4.356501,47.875272,-0.072647,-1.5e-05,1.008301,0.033933,0.046379,0.008795,48.889786,0.642471,-150.080261,,,
729862468.704349,0.133769,4.368685,47.876972,-0.072647,-1.5e-05,1.008301,0.033933,0.046379,0.008795,48.889786,0.642471,-150.080261,,,
729862468.707768,0.133769,4.368685,47.876972,-0.072647,-1.5e-05,1.008301,0.033933,0.046379,0.008795,48.889786,0.642471,-150.080261,,,
729862468.711024,0.13968,4.378574,47.877798,-0.073593,0.007034,0.98941,0.019496,0.03123,0.001521,48.889786,0.642471,-150.080261,,,
729862468.71435,0.14477,4.384468,47.878199,-0.073593,0.007034,0.98941,0.019496,0.03123,0.001521,48.889786,0.642471,-150.080261,,,
729862468.717695,0.14477,4.384468,47.878199,-0.073593,0.007034,0.98941,0.019496,0.03123,0.001521,49.037552,0.486343,-149.628448,,,
729862468.721094,0.149016,4.38658,47.879113,-0.082901,0.005432,0.984406,0.01418,2.6e-05,0.004708,49.037552,0.486343,-149.628448,,,
729862468.724336,0.153002,4.383236,47.880658,-0.082901,0.005432,0.984406,0.01418,2.6e-05,0.004708,49.037552,0.486343,-149.628448,,,
729862468.727697,0.153002,4.383236,47.880658,-0.082901,0.005432,0.984406,0.01418,2.6e-05,0.004708,49.037552,0.486343,-149.628448,,,
729862468.731028,0.15726,4.375512,47.88288,-0.086945,0.006393,0.988174,0.016213,-0.033926,0.009647,49.037552,0.486343,-149.628448,,,
729862468.734354,0.162738,4.363626,47.886349,-0.086945,0.006393,0.988174,0.016213,-0.033926,0.009647,49.037552,0.486343,-149.628448,,,
729862468.737708,0.162738,4.363626,47.886349,-0.086945,0.006393,0.988174,0.016213,-0.033926,0.009647,49.037552,0.486343,-149.628448,,,
729862468.741055,0.169465,4.350104,47.890616,-0.088074,0.002274,1.001541,0.025715,-0.048337,0.015986,49.037552,0.486343,-149.628448,,,
729862468.74435,0.17758,4.336207,47.895437,-0.088074,0.002274,1.001541,0.025715,-0.048337,0.015986,49.037552,0.486343,-149.628448,,,
729862468.74775,0.17758,4.336207,47.895437,-0.088074,0.002274,1.001541,0.025715,-0.048337,0.015986,49.037552,0.486343,-149.628448,,,
729862468.75102,0.185424,4.324654,47.900597,-0.079208,0.003967,1.003632,0.027959,-0.033781,0.018601,49.037552,0.486343,-149.628448,,,
729862468.75435,0.192662,4.315968,47.905672,-0.079208,0.003967,1.003632,0.027959,-0.033781,0.018601,49.037552,0.486343,-149.628448,,,
729862468.757685,0.192662,4.315968,47.905672,-0.079208,0.003967,1.003632,0.027959,-0.033781,0.018601,48.8125,0.63591,-150.218689,,,
729862468.761095,0.19685,4.310744,47.910408,-0.068939,0.00946,0.99202,0.012376,-0.008538,0.015038,48.8125,0.63591,-150.218689,,,
729862468.764349,0.199159,4.309272,47.914286,-0.068939,0.00946,0.99202,0.012376,-0.008538,0.015038,48.8125,0.63591,-150.218689,,,
729862468.767695,0.199159,4.309272,47.914286,-0.068939,0.00946,0.99202,0.012376,-0.008538,0.015038,48.8125,0.63591,-150.218689,,,
729862468.771024,0.198185,4.311142,47.917094,-0.06041,0.012207,0.986145,-0.003529,0.016776,0.006359,48.8125,0.63591,-150.218689,,,
729862468.774348,0.195677,4.316867,47.918331,-0.06041,0.012207,0.986145,-0.003529,0.016776,0.006359,48.8125,0.63591,-150.218689,,,
729862468.777703,0.195677,4.316867,47.918331,-0.06041,0.012207,0.986145,-0.003529,0.016776,0.006359,48.8125,0.63591,-150.218689,,,
729862468.781028,0.190159,4.325428,47.918132,-0.059082,0.01416,0.981857,-0.02074,0.039224,-0.005039,48.8125,0.63591,-150.218689,,,
729862468.784222,0.183805,4.335823,47.917316,-0.059082,0.01416,0.981857,-0.02074,0.039224,-0.005039,48.8125,0.63591,-150.218689,,,
729862468.787777,0.183805,4.335823,47.917316,-0.059082,0.01416,0.981857,-0.02074,0.039224,-0.005039,48.8125,0.63591,-150.218689,,,
729862468.791014,0.177531,4.344873,47.916274,-0.062714,0.008347,0.982407,-0.022004,0.033263,-0.006691,48.8125,0.63591,-150.218689,,,
729862468.794349,0.170741,4.353135,47.914246,-0.062714,0.008347,0.982407,-0.022004,0.033263,-0.006691,48.8125,0.63591,-150.218689,,,
729862468.797684,0.170741,4.353135,47.914246,-0.062714,0.008347,0.982407,-0.022004,0.033263,-0.006691,48.792282,0.523926,-149.805161,,,
729862468.801045,0.164659,4.361083,47.911157,-0.069946,0.005722,0.985672,-0.018599,0.024919,-0.013857,48.792282,0.523926,-149.805161,,,
729862468.804345,0.16019,4.366072,47.908072,-0.069946,0.005722,0.985672,-0.018599,0.024919,-0.013857,48.792282,0.523926,-149.805161,,,
729862468.80769,0.16019,4.366072,47.908072,-0.069946,0.005722,0.985672,-0.018599,0.024919,-0.013857,48.792282,0.523926,-149.805161,,,
729862468.811028,0.158896,4.370469,47.905694,-0.07486,0.00174,0.991211,0.00158,0.008506,-0.007338,48.792282,0.523926,-149.805161,,,
729862468.814347,0.160677,4.370817,47.903918,-0.07486,0.00174,0.991211,0.00158,0.008506,-0.007338,48.792282,0.523926,-149.805161,,,
729862468.817666,0.160677,4.370817,47.903918,-0.07486,0.00174,0.991211,0.00158,0.008506,-0.007338,48.792282,0.523926,-149.805161,,,
729862468.821034,0.165736,4.371034,47.901664,-0.076401,-0.001389,1.003937,0.024719,-0.005061,-0.008897,48.792282,0.523926,-149.805161,,,
729862468.824345,0.172952,4.369001,47.898984,-0.076401,-0.001389,1.003937,0.024719,-0.005061,-0.008897,48.792282,0.523926,-149.805161,,,
729862468.827747,0.172952,4.369001,47.898984,-0.076401,-0.001389,1.003937,0.024719,-0.005061,-0.008897,48.792282,0.523926,-149.805161,,,
729862468.831042,0.179967,4.368278,47.8964,-0.075882,0.00351,1.000656,0.022952,-0.001523,-0.008409,48.792282,0.523926,-149.805161,,,
729862468.834395,0.185113,4.367644,47.893738,-0.075882,0.00351,1.000656,0.022952,-0.001523,-0.008409,48.792282,0.523926,-149.805161,,,
729862468.837661,0.185113,4.367644,47.893738,-0.075882,0.00351,1.000656,0.022952,-0.001523,-0.008409,49.110931,0.405731,-149.827621,,,
729862468.840994,0.188644,4.367577,47.890645,-0.06868,0.007751,0.989334,0.009076,0.007794,-0.012462,49.110931,0.405731,-149.827621,,,
729862468.8443,0.19031,4.370083,47.8871,-0.06868,0.007751,0.989334,0.009076,0.007794,-0.012462,49.110931,0.405731,-149.827621,,,
729862468.847633,0.19031,4.370083,47.8871,-0.06868,0.007751,0.989334,0.009076,0.007794,-0.012462,49.110931,0.405731,-149.827621,,,
729862468.850957,0.190767,4.372475,47.883238,-0.070557,0.009842,0.988495,-0.003558,0.02206,-0.015689,49.110931,0.405731,-149.827621,,,
729862468.854304,0.188565,4.378887,47.879256,-0.070557,0.009842,0.988495,-0.003558,0.02206,-0.015689,49.110931,0.405731,-149.827621,,,
729862468.85765,0.188565,4.378887,47.879256,-0.070557,0.009842,0.988495,-0.003558,0.02206,-0.015689,49.110931,0.405731,-149.827621,,,
729862468.861044,0.185836,4.383796,47.875936,-0.077652,0.007172,0.990906,-0.01369,0.029869,-0.01186,49.110931,0.405731,-149.827621,,,
729862468.864349,0.180792,4.390957,47.874531,-0.077652,0.007172,0.990906,-0.01369,0.029869,-0.01186,49.110931,0.405731,-149.827621,,,
729862468.867794,0.180792,4.390957,47.874531,-0.077652,0.007172,0.990906,-0.01369,0.029869,-0.01186,49.110931,0.405731,-149.827621,,,
729862468.871103,0.175411,4.394458,47.875225,-0.084183,0.006287,0.985886,-0.021509,0.019906,0.002126,49.110931,0.405731,-149.827621,,,
729862468.874353,0.168814,4.397502,47.877322,-0.084183,0.006287,0.985886,-0.021509,0.019906,0.002126,49.110931,0.405731,-149.827621,,,
729862468.877733,0.168814,4.397502,47.877322,-0.084183,0.006287,0.985886,-0.021509,0.019906,0.002126,49.110931,0.405731,-149.827621,,,
729862468.881097,0.161984,4.395613,47.879995,-0.083206,0.004822,0.978729,-0.024963,-0.005952,0.005852,48.798645,0.701614,-149.594284,,,
729862468.884365,0.154472,4.391357,47.882491,-0.083206,0.004822,0.978729,-0.024963,-0.005952,0.005852,48.798645,0.701614,-149.594284,,,
729862468.887718,0.154472,4.391357,47.882491,-0.083206,0.004822,0.978729,-0.024963,-0.005952,0.005852,48.798645,0.701614,-149.594284,,,
729862468.891088,0.146154,4.384375,47.884036,-0.074524,0.009094,0.978775,-0.030651,-0.022589,-0.001257,48.798645,0.701614,-149.594284,,,
729862468.894346,0.13611,4.37733,47.88336,-0.074524,0.009094,0.978775,-0.030651,-0.022589,-0.001257,48.798645,0.701614,-149.594284,,,
729862468.897688,0.13611,4.37733,47.88336,-0.074524,0.009094,0.978775,-0.030651,-0.022589,-0.001257,48.798645,0.701614,-149.594284,,,
729862468.901032,0.124678,4.370605,47.880605,-0.065094,0.00853,0.983154,-0.036853,-0.020216,-0.016226,48.798645,0.701614,-149.594284,,,
729862468.904351,0.113855,4.36532,47.876211,-0.065094,0.00853,0.983154,-0.036853,-0.020216,-0.016226,48.798645,0.701614,-149.594284,,,
729862468.907708,0.113855,4.36532,47.876211,-0.065094,0.00853,0.983154,-0.036853,-0.020216,-0.016226,48.798645,0.701614,-149.594284,,,
729862468.911016,0.103819,4.363174,47.870349,-0.061188,0.004333,0.995285,-0.030255,0.001141,-0.025988,48.798645,0.701614,-149.594284,,,
729862468.914349,0.095284,4.365153,47.864135,-0.061188,0.004333,0.995285,-0.030255,0.001141,-0.025988,48.798645,0.701614,-149.594284,,,
729862468.917686,0.095284,4.365153,47.864135,-0.061188,0.004333,0.995285,-0.030255,0.001141,-0.025988,48.798645,0.701614,-149.594284,,,
729862468.921057,0.089769,4.37107,47.858932,-0.073639,-0.005875,1.018127,-0.013005,0.034627,-0.017733,48.939346,0.524536,-149.675766,,,
729862468.924346,0.087322,4.382354,47.855456,-0.073639,-0.005875,1.018127,-0.013005,0.034627,-0.017733,48.939346,0.524536,-149.675766,,,
729862468.927749,0.087322,4.382354,47.855456,-0.073639,-0.005875,1.018127,-0.013005,0.034627,-0.017733,48.939346,0.524536,-149.675766,,,
729862468.931005,0.089052,4.395504,47.853996,-0.083374,-0.009369,1.023849,0.010417,0.05449,-0.001886,48.939346,0.524536,-149.675766,,,
729862468.934346,0.092062,4.409826,47.854518,-0.083374,-0.009369,1.023849,0.010417,0.05449,-0.001886,48.939346,0.524536,-149.675766,,,
729862468.937697,0.092062,4.409826,47.854518,-0.083374,-0.009369,1.023849,0.010417,0.05449,-0.001886,48.939346,0.524536,-149.675766,,,
729862468.941112,0.096654,4.421989,47.856723,-0.086609,-0.006104,1.004166,0.016946,0.040811,0.010289,48.939346,0.524536,-149.675766,,,
729862468.94435,0.101158,4.430841,47.859507,-0.086609,-0.006104,1.004166,0.016946,0.040811,0.010289,48.939346,0.524536,-149.675766,,,
729862468.947709,0.101158,4.430841,47.859507,-0.086609,-0.006104,1.004166,0.016946,0.040811,0.010289,48.939346,0.524536,-149.675766,,,
729862468.951038,0.104404,4.435763,47.86133,-0.083267,-7.6e-05,0.984375,0.006225,0.00633,0.002791,48.939346,0.524536,-149.675766,,,
729862468.954346,0.105109,4.434036,47.861852,-0.083267,-7.6e-05,0.984375,0.006225,0.00633,0.002791,48.939346,0.524536,-149.675766,,,
729862468.957704,0.105109,4.434036,47.861852,-0.083267,-7.6e-05,0.984375,0.006225,0.00633,0.002791,48.939346,0.524536,-149.675766,,,
729862468.961026,0.10451,4.428348,47.861529,-0.079224,0.002243,0.97261,-0.004008,-0.02998,-0.003968,49.124741,0.58609,-149.636139,,,
729862468.964392,0.101918,4.417102,47.860953,-0.079224,0.002243,0.97261,-0.004008,-0.02998,-0.003968,49.124741,0.58609,-149.636139,,,
729862468.967752,0.101918,4.417102,47.860953,-0.079224,0.002243,0.97261,-0.004008,-0.02998,-0.003968,49.124741,0.58609,-149.636139,,,
729862468.971015,0.098115,4.402807,47.860486,-0.077805,0.004013,0.976257,-0.016114,-0.053018,-0.004161,49.124741,0.58609,-149.636139,,,
729862468.974407,0.092378,4.386924,47.860086,-0.077805,0.004013,0.976257,-0.016114,-0.053018,-0.004161,49.124741,0.58609,-149.636139,,,
729862468.9777,0.092378,4.386924,47.860086,-0.077805,0.004013,0.976257,-0.016114,-0.053018,-0.004161,49.124741,0.58609,-149.636139,,,
729862468.981112,0.086143,4.370999,47.8603,-0.071121,0.002213,0.981812,-0.024323,-0.044682,-0.000563,49.124741,0.58609,-149.636139,,,
729862468.984345,0.079509,4.358509,47.861099,-0.071121,0.002213,0.981812,-0.024323,-0.044682,-0.000563,49.124741,0.58609,-149.636139,,,
729862468.987705,0.079509,4.358509,47.861099,-0.071121,0.002213,0.981812,-0.024323,-0.044682,-0.000563,49.124741,0.58609,-149.636139,,,
729862468.991029,0.074558,4.346482,47.86223,-0.065948,0.000183,0.997437,-0.015308,-0.024798,0.002482,49.124741,0.58609,-149.636139,,,
729862468.99436,0.070628,4.341069,47.862547,-0.065948,0.000183,0.997437,-0.015308,-0.024798,0.002482,49.124741,0.58609,-149.636139,,,
729862468.997715,0.070628,4.341069,47.862547,-0.065948,0.000183,0.997437,-0.015308,-0.024798,0.002482,49.124741,0.58609,-149.636139,,,
729862469.001022,0.0674,4.339261,47.860693,-0.061935,0.002838,1.010818,-0.00639,0.007167,-0.012025,49.085983,0.632004,-149.890762,,,
729862469.004441,0.065627,4.342497,47.856845,-0.061935,0.002838,1.010818,-0.00639,0.007167,-0.012025,49.085983,0.632004,-149.890762,,,
729862469.007749,0.065627,4.342497,47.856845,-0.061935,0.002838,1.010818,-0.00639,0.007167,-0.012025,49.085983,0.632004,-149.890762,,,
729862469.011029,0.064711,4.349354,47.852263,-0.066299,0.001358,1.011963,0.005678,0.028553,-0.016287,49.085983,0.632004,-149.890762,,,
729862469.014344,0.06635,4.3567,47.848094,-0.066299,0.001358,1.011963,0.005678,0.028553,-0.016287,49.085983,0.632004,-149.890762,,,
729862469.017693,0.06635,4.3567,47.848094,-0.066299,0.001358,1.011963,0.005678,0.028553,-0.016287,49.085983,0.632004,-149.890762,,,
729862469.021089,0.068872,4.363978,47.844548,-0.07869,-0.00206,1.006226,0.016454,0.017562,-0.011083,49.085983,0.632004,-149.890762,,,
729862469.024342,0.073289,4.366933,47.841946,-0.07869,-0.00206,1.006226,0.016454,0.017562,-0.011083,49.085983,0.632004,-149.890762,,,
729862469.0277,0.073289,4.366933,47.841946,-0.07869,-0.00206,1.006226,0.016454,0.017562,-0.011083,49.085983,0.632004,-149.890762,,,
729862469.031021,0.077593,4.368163,47.840526,-0.090103,0.002548,0.997391,0.016531,-0.003672,-0.002751,49.085983,0.632004,-149.890762,,,
729862469.034395,0.081333,4.36541,47.841065,-0.090103,0.002548,0.997391,0.016531,-0.003672,-0.002751,49.085983,0.632004,-149.890762,,,
729862469.037697,0.081333,4.36541,47.841065,-0.090103,0.002548,0.997391,0.016531,-0.003672,-0.002751,49.085983,0.632004,-149.890762,,,
729862469.041036,0.083823,4.361314,47.84377,-0.093811,0.00444,0.988968,0.006874,-0.018625,0.011597,49.085983,0.632004,-149.890762,,,
729862469.044372,0.085183,4.353905,47.848276,-0.093811,0.00444,0.988968,0.006874,-0.018625,0.011597,48.95813,0.54393,-149.89328,,,
729862469.047744,0.085183,4.353905,47.848276,-0.093811,0.00444,0.988968,0.006874,-0.018625,0.011597,48.95813,0.54393,-149.89328,,,
729862469.051022,0.085754,4.346008,47.853706,-0.082489,0.008972,0.986526,-0.000495,-0.027864,0.017576,48.95813,0.54393,-149.89328,,,
729862469.054381,0.084818,4.337991,47.858528,-0.082489,0.008972,0.986526,-0.000495,-0.027864,0.017576,48.95813,0.54393,-149.89328,,,
729862469.05769,0.084818,4.337991,47.858528,-0.082489,0.008972,0.986526,-0.000495,-0.027864,0.017576,48.95813,0.54393,-149.89328,,,
729862469.061087,0.083187,4.331359,47.862069,-0.071182,0.008804,0.99733,-0.005073,-0.016186,0.008268,48.95813,0.54393,-149.89328,,,
729862469.06434,0.081567,4.32725,47.864142,-0.071182,0.008804,0.99733,-0.005073,-0.016186,0.008268,48.95813,0.54393,-149.89328,,,
729862469.067686,0.081567,4.32725,47.864142,-0.071182,0.008804,0.99733,-0.005073,-0.016186,0.008268,48.95813,0.54393,-149.89328,,,
729862469.071038,0.07929,4.323607,47.86439,-0.0634,0.007812,1.001587,-0.00795,-0.00403,-0.004838,48.95813,0.54393,-149.89328,,,
729862469.074395,0.076481,4.32312,47.863186,-0.0634,0.007812,1.001587,-0.00795,-0.00403,-0.004838,48.95813,0.54393,-149.89328,,,
729862469.077694,0.076481,4.32312,47.863186,-0.0634,0.007812,1.001587,-0.00795,-0.00403,-0.004838,48.95813,0.54393,-149.89328,,,
729862469.081026,0.073576,4.3233,47.861374,-0.067444,0.007156,1.002792,-0.008104,0.014701,-0.009113,48.95813,0.54393,-149.89328,,,
729862469.084402,0.071782,4.327119,47.859772,-0.067444,0.007156,1.002792,-0.008104,0.014701,-0.009113,48.924927,0.829422,-150.099579,,,
729862469.087746,0.071782,4.327119,47.859772,-0.067444,0.007156,1.002792,-0.008104,0.014701,-0.009113,48.924927,0.829422,-150.099579,,,
729862469.091034,0.072136,4.329668,47.859224,-0.075104,0.000656,1.010605,0.005223,0.019106,-0.0008,48.924927,0.829422,-150.099579,,,
729862469.094392,0.074466,4.3338,47.860062,-0.075104,0.000656,1.010605,0.005223,0.019106,-0.0008,48.924927,0.829422,-150.099579,,,
729862469.09769,0.074466,4.3338,47.860062,-0.075104,0.000656,1.010605,0.005223,0.019106,-0.0008,48.924927,0.829422,-150.099579,,,
729862469.101087,0.078448,4.335965,47.862289,-0.081696,-0.001602,1.006912,0.01801,0.006928,0.009858,48.924927,0.829422,-150.099579,,,
729862469.10438,0.083614,4.336264,47.86509,-0.081696,-0.001602,1.006912,0.01801,0.006928,0.009858,48.924927,0.829422,-150.099579,,,
729862469.107691,0.083614,4.336264,47.86509,-0.081696,-0.001602,1.006912,0.01801,0.006928,0.009858,48.924927,0.829422,-150.099579,,,
729862469.111088,0.088613,4.336774,47.867946,-0.078384,7.6e-05,0.996323,0.017287,-0.004847,0.01022,48.924927,0.829422,-150.099579,,,
729862469.114367,0.092636,4.334413,47.870345,-0.078384,7.6e-05,0.996323,0.017287,-0.004847,0.01022,48.924927,0.829422,-150.099579,,,
729862469.117689,0.092636,4.334413,47.870345,-0.078384,7.6e-05,0.996323,0.017287,-0.004847,0.01022,48.924927,0.829422,-150.099579,,,
729862469.121016,0.094557,4.335004,47.872062,-0.072815,0.004364,0.989182,0.002162,-0.004514,0.004398,48.924927,0.829422,-150.099579,,,
729862469.124366,0.094557,4.332711,47.873715,-0.072815,0.004364,0.989182,0.002162,-0.004514,0.004398,48.845734,0.536835,-149.957474,,,
729862469.127688,0.094114,4.332711,47.873715,-0.072815,0.004364,0.989182,0.002162,-0.004514,0.004398,48.845734,0.536835,-149.957474,,,
729862469.131029,0.092066,4.331559,47.875063,-0.070755,0.005051,0.983704,-0.012196,-0.00833,0.001241,48.845734,0.536835,-149.957474,,,
729862469.134379,0.092066,4.329313,47.876016,-0.070755,0.005051,0.983704,-0.012196,-0.00833,0.001241,48.845734,0.536835,-149.957474,,,
729862469.137774,0.087474,4.329313,47.876016,-0.070755,0.005051,0.983704,-0.012196,-0.00833,0.001241,48.845734,0.536835,-149.957474,,,
729862469.141014,0.082983,4.327673,47.876718,-0.070572,0.003433,0.990768,-0.01592,-0.001732,-0.000855,48.845734,0.536835,-149.957474,,,
729862469.144418,0.079029,4.326967,47.877226,-0.070572,0.003433,0.990768,-0.01592,-0.001732,-0.000855,48.845734,0.536835,-149.957474,,,
729862469.147677,0.079029,4.326967,47.877226,-0.070572,0.003433,0.990768,-0.01592,-0.001732,-0.000855,48.845734,0.536835,-149.957474,,,
729862469.151023,0.077505,4.3251,47.878036,-0.069168,-0.00145,1.006683,-0.002367,0.002358,0.002295,48.845734,0.536835,-149.957474,,,
729862469.154347,0.077505,4.3251,47.878036,-0.069168,-0.00145,1.006683,-0.002367,0.002358,0.002295,48.845734,0.536835,-149.957474,,,
729862469.157702,0.077301,4.324801,47.879087,-0.069168,-0.00145,1.006683,-0.002367,0.002358,0.002295,48.845734,0.536835,-149.957474,,,
729862469.16102,0.079121,4.32283,47.879937,-0.069382,-0.001862,1.003204,0.0084,0.001049,0.001739,48.845734,0.536835,-149.957474,,,
729862469.16446,0.079121,4.32283,47.879937,-0.069382,-0.001862,1.003204,0.0084,0.001049,0.001739,48.845734,0.536835,-149.957474,,,
729862469.167682,0.081686,4.321962,47.880588,-0.069382,-0.001862,1.003204,0.0084,0.001049,0.001739,48.884842,0.537888,-149.834198,,,
729862469.171018,0.085333,4.319449,47.880518,-0.069092,-0.000565,0.997726,0.015597,-0.006889,-0.002765,48.884842,0.537888,-149.834198,,,
729862469.174377,0.085333,4.319449,47.880518,-0.069092,-0.000565,0.997726,0.015597,-0.006889,-0.002765,48.884842,0.537888,-149.834198,,,
729862469.177709,0.089222,4.317329,47.879812,-0.069092,-0.000565,0.997726,0.015597,-0.006889,-0.002765,48.884842,0.537888,-149.834198,,,
729862469.181025,0.091329,4.315687,47.879127,-0.070908,0.002121,0.990295,0.004678,-0.008583,-0.00342,48.884842,0.537888,-149.834198,,,
729862469.184347,0.091329,4.315687,47.879127,-0.070908,0.002121,0.990295,0.004678,-0.008583,-0.00342,48.884842,0.537888,-149.834198,,,
729862469.187704,0.091375,4.313303,47.878351,-0.070908,0.002121,0.990295,0.004678,-0.008583,-0.00342,48.884842,0.537888,-149.834198,,,
729862469.191016,0.089087,4.313325,47.8779,-0.07074,0.002991,0.983978,-0.010028,0.002827,-0.002258,48.884842,0.537888,-149.834198,,,
729862469.194361,0.089087,4.313325,47.8779,-0.07074,0.002991,0.983978,-0.010028,0.002827,-0.002258,48.884842,0.537888,-149.834198,,,
729862469.197692,0.085257,4.314116,47.878059,-0.07074,0.002991,0.983978,-0.010028,0.002827,-0.002258,48.884842,0.537888,-149.834198,,,
729862469.20102,0.08117,4.315339,47.878259,-0.074646,0.001831,0.987473,-0.012515,0.006608,-0.002171,48.884842,0.537888,-149.834198,,,
729862469.204347,0.08117,4.315339,47.878259,-0.074646,0.001831,0.987473,-0.012515,0.006608,-0.002171,48.884842,0.537888,-149.834198,,,
729862469.207702,0.077641,4.315757,47.87817,-0.074646,0.001831,0.987473,-0.012515,0.006608,-0.002171,49.20842,0.660828,-150.013672,,,
729862469.211013,0.074782,4.314598,47.877154,-0.074417,0.000519,0.990646,-0.009696,-0.000216,-0.008465,49.20842,0.660828,-150.013672,,,
729862469.214395,0.074782,4.314598,47.877154,-0.074417,0.000519,0.990646,-0.009696,-0.000216,-0.008465,49.20842,0.660828,-150.013672,,,
729862469.217696,0.07274,4.313098,47.875403,-0.074417,0.000519,0.990646,-0.009696,-0.000216,-0.008465,49.20842,0.660828,-150.013672,,,
729862469.221017,0.072555,4.308618,47.873901,-0.077606,-0.000671,0.994019,0.0013,-0.016186,-0.005902,49.20842,0.660828,-150.013672,,,
729862469.224362,0.072555,4.308618,47.873901,-0.077606,-0.000671,0.994019,0.0013,-0.016186,-0.005902,49.20842,0.660828,-150.013672,,,
729862469.227743,0.074136,4.302582,47.873123,-0.077606,-0.000671,0.994019,0.0013,-0.016186,-0.005902,49.20842,0.660828,-150.013672,,,
729862469.231019,0.07763,4.294449,47.873493,-0.080093,-0.003525,0.996582,0.01484,-0.024238,0.003122,49.20842,0.660828,-150.013672,,,
729862469.23435,0.07763,4.294449,47.873493,-0.080093,-0.003525,0.996582,0.01484,-0.024238,0.003122,49.20842,0.660828,-150.013672,,,
729862469.237707,0.082943,4.287277,47.874527,-0.080093,-0.003525,0.996582,0.01484,-0.024238,0.003122,49.20842,0.660828,-150.013672,,,
729862469.241013,0.08891,4.280658,47.875727,-0.074631,-0.000778,0.996231,0.021295,-0.014413,0.004747,49.20842,0.660828,-150.013672,,,
729862469.244352,0.08891,4.280658,47.875727,-0.074631,-0.000778,0.996231,0.021295,-0.014413,0.004747,49.20842,0.660828,-150.013672,,,
729862469.24769,0.09443,4.276211,47.876743,-0.074631,-0.000778,0.996231,0.021295,-0.014413,0.004747,48.915802,0.64566,-149.785477,,,
729862469.251011,0.09829,4.272237,47.876758,-0.06427,0.004654,0.990433,0.011496,-0.005056,-0.002908,48.915802,0.64566,-149.785477,,,
729862469.254418,0.09829,4.272237,47.876758,-0.06427,0.004654,0.990433,0.011496,-0.005056,-0.002908,48.915802,0.64566,-149.785477,,,
729862469.257694,0.100899,4.270601,47.875296,-0.06427,0.004654,0.990433,0.011496,-0.005056,-0.002908,48.915802,0.64566,-149.785477,,,
729862469.261016,0.10211,4.269449,47.872491,-0.063538,0.007278,0.986343,0.003078,0.003163,-0.012921,48.915802,0.64566,-149.785477,,,
729862469.264362,0.10211,4.269449,47.872491,-0.063538,0.007278,0.986343,0.003078,0.003163,-0.012921,48.915802,0.64566,-149.785477,,,
729862469.267776,0.102193,4.270282,47.869322,-0.063538,0.007278,0.986343,0.003078,0.003163,-0.012921,48.915802,0.64566,-149.785477,,,
729862469.271015,0.10103,4.272257,47.865905,-0.069275,0.008606,0.989944,-0.005952,0.014407,-0.015394,48.915802,0.64566,-149.785477,,,
729862469.274378,0.10103,4.272257,47.865905,-0.069275,0.008606,0.989944,-0.005952,0.014407,-0.015394,48.915802,0.64566,-149.785477,,,
729862469.277711,0.098576,4.2761,47.862396,-0.069275,0.008606,0.989944,-0.005952,0.014407,-0.015394,48.915802,0.64566,-149.785477,,,
729862469.281043,0.095218,4.280275,47.859552,-0.074966,0.007889,0.993851,-0.012761,0.017021,-0.011224,48.915802,0.64566,-149.785477,,,
729862469.284377,0.095218,4.280275,47.859552,-0.074966,0.007889,0.993851,-0.012761,0.017021,-0.011224,48.915802,0.64566,-149.785477,,,
729862469.287691,0.090971,4.283868,47.857076,-0.074966,0.007889,0.993851,-0.012761,0.017021,-0.011224,49.100189,0.388428,-149.62468,,,
729862469.291018,0.085683,4.286468,47.854368,-0.078064,0.006088,0.98909,-0.019504,0.008889,-0.01338,49.100189,0.388428,-149.62468,,,
729862469.294351,0.085683,4.286468,47.854368,-0.078064,0.006088,0.98909,-0.019504,0.008889,-0.01338,49.100189,0.388428,-149.62468,,,
729862469.297686,0.078582,4.287969,47.850991,-0.078064,0.006088,0.98909,-0.019504,0.008889,-0.01338,49.100189,0.388428,-149.62468,,,
729862469.30102,0.069943,4.289504,47.846906,-0.076996,0.011017,0.988205,-0.02879,0.006194,-0.019067,49.100189,0.388428,-149.62468,,,
729862469.304396,0.069943,4.289504,47.846906,-0.076996,0.011017,0.988205,-0.02879,0.006194,-0.019067,49.100189,0.388428,-149.62468,,,
729862469.307703,0.061256,4.289954,47.84232,-0.076996,0.011017,0.988205,-0.02879,0.006194,-0.019067,49.100189,0.388428,-149.62468,,,
729862469.311031,0.052845,4.290087,47.83754,-0.078201,0.005783,0.999329,-0.024219,-0.001666,-0.020118,49.100189,0.388428,-149.62468,,,
729862469.314364,0.052845,4.290087,47.83754,-0.078201,0.005783,0.999329,-0.024219,-0.001666,-0.020118,49.100189,0.388428,-149.62468,,,
729862469.317711,0.045704,4.28907,47.832289,-0.078201,0.005783,0.999329,-0.024219,-0.001666,-0.020118,49.100189,0.388428,-149.62468,,,
729862469.321028,0.038887,4.288552,47.827646,-0.082336,0.000519,1.007462,-0.020635,0.000395,-0.015588,49.100189,0.388428,-149.62468,,,
729862469.324348,0.038887,4.288552,47.827646,-0.082336,0.000519,1.007462,-0.020635,0.000395,-0.015588,49.100189,0.388428,-149.62468,,,
729862469.327738,0.033802,4.288725,47.82501,-0.082336,0.000519,1.007462,-0.020635,0.000395,-0.015588,49.100189,0.388428,-149.62468,,,
729862469.331018,0.031452,4.288383,47.824147,-0.084717,-0.003204,1.012161,-0.004004,0.005204,-0.001936,49.171326,0.564819,-149.454117,,,
729862469.334349,0.031452,4.288383,47.824147,-0.084717,-0.003204,1.012161,-0.004004,0.005204,-0.001936,49.171326,0.564819,-149.454117,,,
729862469.33769,0.032143,4.28862,47.824712,-0.084717,-0.003204,1.012161,-0.004004,0.005204,-0.001936,49.171326,0.564819,-149.454117,,,
729862469.34102,0.036656,4.285564,47.825799,-0.081711,-0.00441,1.014175,0.018672,-0.004921,0.003439,49.171326,0.564819,-149.454117,,,
729862469.344345,0.036656,4.285564,47.825799,-0.081711,-0.00441,1.014175,0.018672,-0.004921,0.003439,49.171326,0.564819,-149.454117,,,
729862469.347712,0.042552,4.282726,47.826741,-0.081711,-0.00441,1.014175,0.018672,-0.004921,0.003439,49.171326,0.564819,-149.454117,,,
729862469.351015,0.049572,4.279162,47.82707,-0.074326,-0.002838,1.006302,0.02272,-0.003201,-0.000615,49.171326,0.564819,-149.454117,,,
729862469.354348,0.049572,4.279162,47.82707,-0.074326,-0.002838,1.006302,0.02272,-0.003201,-0.000615,49.171326,0.564819,-149.454117,,,
729862469.357683,0.055623,4.278425,47.826407,-0.074326,-0.002838,1.006302,0.02272,-0.003201,-0.000615,49.171326,0.564819,-149.454117,,,
729862469.361016,0.061178,4.278894,47.824787,-0.061111,0.003357,1.000122,0.01567,0.006314,-0.00782,49.171326,0.564819,-149.454117,,,
729862469.364468,0.061178,4.278894,47.824787,-0.061111,0.003357,1.000122,0.01567,0.006314,-0.00782,49.171326,0.564819,-149.454117,,,
729862469.367703,0.064643,4.280009,47.821729,-0.061111,0.003357,1.000122,0.01567,0.006314,-0.00782,49.171326,0.564819,-149.454117,,,
729862469.371033,0.067108,4.281942,47.817008,-0.062119,0.005814,0.993683,0.00698,0.008015,-0.020077,48.915604,0.515915,-149.883743,,,
729862469.374155,0.067108,4.281942,47.817008,-0.062119,0.005814,0.993683,0.00698,0.008015,-0.020077,48.915604,0.515915,-149.883743,,,
729862469.377775,0.067746,4.283793,47.811474,-0.062119,0.005814,0.993683,0.00698,0.008015,-0.020077,48.915604,0.515915,-149.883743,,,
729862469.381058,0.067858,4.286993,47.806923,-0.074051,0.002411,0.994492,-0.001955,0.012941,-0.013918,48.915604,0.515915,-149.883743,,,
729862469.384352,0.067858,4.286993,47.806923,-0.074051,0.002411,0.994492,-0.001955,0.012941,-0.013918,48.915604,0.515915,-149.883743,,,
729862469.387688,0.06566,4.290708,47.803954,-0.074051,0.002411,0.994492,-0.001955,0.012941,-0.013918,48.915604,0.515915,-149.883743,,,
729862469.391017,0.062182,4.294968,47.801931,-0.077118,0.002869,0.991867,-0.01495,0.013227,-0.008277,48.915604,0.515915,-149.883743,,,
729862469.394365,0.062182,4.294968,47.801931,-0.077118,0.002869,0.991867,-0.01495,0.013227,-0.008277,48.915604,0.515915,-149.883743,,,
729862469.397706,0.057266,4.297691,47.800594,-0.077118,0.002869,0.991867,-0.01495,0.013227,-0.008277,48.915604,0.515915,-149.883743,,,
729862469.401016,0.051936,4.300733,47.798763,-0.076111,0.002258,0.992691,-0.017357,0.00948,-0.011957,48.915604,0.515915,-149.883743,,,
729862469.404414,0.051936,4.300733,47.798763,-0.076111,0.002258,0.992691,-0.017357,0.00948,-0.011957,48.915604,0.515915,-149.883743,,,
729862469.407694,0.047039,4.303051,47.79565,-0.076111,0.002258,0.992691,-0.017357,0.00948,-0.011957,48.915604,0.515915,-149.883743,,,
729862469.411026,0.042786,4.307139,47.791799,-0.074722,0.001526,1.000488,-0.011214,0.012549,-0.016628,48.91687,0.6409,-149.657852,,,
729862469.414363,0.042786,4.307139,47.791799,-0.074722,0.001526,1.000488,-0.011214,0.012549,-0.016628,48.91687,0.6409,-149.657852,,,
729862469.417682,0.039814,4.310019,47.787684,-0.074722,0.001526,1.000488,-0.011214,0.012549,-0.016628,48.91687,0.6409,-149.657852,,,
729862469.421019,0.039101,4.313531,47.784635,-0.077911,-0.003555,1.008682,0.006768,0.011002,-0.007853,48.91687,0.6409,-149.657852,,,
729862469.424368,0.039101,4.313531,47.784635,-0.077911,-0.003555,1.008682,0.006768,0.011002,-0.007853,48.91687,0.6409,-149.657852,,,
729862469.427791,0.0426,4.315643,47.78263,-0.077911,-0.003555,1.008682,0.006768,0.011002,-0.007853,48.91687,0.6409,-149.657852,,,
729862469.431021,0.049528,4.317671,47.781109,-0.083054,-0.007187,1.015701,0.032494,0.00852,-0.002527,48.91687,0.6409,-149.657852,,,
729862469.434371,0.049528,4.317671,47.781109,-0.083054,-0.007187,1.015701,0.032494,0.00852,-0.002527,48.91687,0.6409,-149.657852,,,
729862469.437714,0.060463,4.319399,47.780342,-0.083054,-0.007187,1.015701,0.032494,0.00852,-0.002527,48.91687,0.6409,-149.657852,,,
729862469.441027,0.074616,4.319455,47.779677,-0.085617,-0.005905,1.016418,0.054554,0.009464,-0.000165,48.91687,0.6409,-149.657852,,,
729862469.44437,0.074616,4.319455,47.779677,-0.085617,-0.005905,1.016418,0.054554,0.009464,-0.000165,48.91687,0.6409,-149.657852,,,
729862469.44771,0.090027,4.320703,47.779197,-0.085617,-0.005905,1.016418,0.054554,0.009464,-0.000165,48.91687,0.6409,-149.657852,,,
729862469.451019,0.104771,4.318087,47.779212,-0.084076,0.000961,1.000137,0.046737,-0.000859,0.002698,48.985214,0.380478,-149.734558,,,
729862469.45443,0.104771,4.318087,47.779212,-0.084076,0.000961,1.000137,0.046737,-0.000859,0.002698,48.985214,0.380478,-149.734558,,,
729862469.4577,0.116946,4.316213,47.779758,-0.084076,0.000961,1.000137,0.046737,-0.000859,0.002698,48.985214,0.380478,-149.734558,,,
729862469.461027,0.126718,4.31247,47.780838,-0.082016,0.005753,0.981796,0.029478,-0.009948,0.005142,48.985214,0.380478,-149.734558,,,
729862469.464367,0.126718,4.31247,47.780838,-0.082016,0.005753,0.981796,0.029478,-0.009948,0.005142,48.985214,0.380478,-149.734558,,,
729862469.467754,0.132684,4.309633,47.782085,-0.082016,0.005753,0.981796,0.029478,-0.009948,0.005142,48.985214,0.380478,-149.734558,,,
729862469.471019,0.134588,4.307696,47.783886,-0.079391,0.008881,0.977631,0.001065,-0.006008,0.00685,48.985214,0.380478,-149.734558,,,
729862469.474379,0.134588,4.307696,47.783886,-0.079391,0.008881,0.977631,0.001065,-0.006008,0.00685,48.985214,0.380478,-149.734558,,,
729862469.477706,0.133029,4.305202,47.786614,-0.079391,0.008881,0.977631,0.001065,-0.006008,0.00685,48.985214,0.380478,-149.734558,,,
729862469.481022,0.129019,4.302619,47.790215,-0.078537,0.008041,0.971405,-0.01687,-0.007934,0.011569,48.985214,0.380478,-149.734558,,,
729862469.484377,0.129019,4.302619,47.790215,-0.078537,0.008041,0.971405,-0.01687,-0.007934,0.011569,48.985214,0.380478,-149.734558,,,
729862469.487702,0.123091,4.299557,47.794541,-0.078537,0.008041,0.971405,-0.01687,-0.007934,0.011569,48.985214,0.380478,-149.734558,,,
729862469.491024,0.11574,4.297267,47.798786,-0.07222,0.007065,0.977173,-0.0268,-0.002009,0.010303,48.985214,0.380478,-149.734558,,,
729862469.494422,0.11574,4.297267,47.798786,-0.07222,0.007065,0.977173,-0.0268,-0.002009,0.010303,48.832367,0.5401,-149.696579,,,
729862469.4977,0.108134,4.296359,47.802006,-0.07222,0.007065,0.977173,-0.0268,-0.002009,0.010303,48.832367,0.5401,-149.696579,,,
729862469.501024,0.100347,4.29632,47.80451,-0.066254,0.00325,0.987244,-0.025612,0.00314,0.005434,48.832367,0.5401,-149.696579,,,
729862469.504376,0.100347,4.29632,47.80451,-0.066254,0.00325,0.987244,-0.025612,0.00314,0.005434,48.832367,0.5401,-149.696579,,,
729862469.507754,0.093586,4.296348,47.806561,-0.066254,0.00325,0.987244,-0.025612,0.00314,0.005434,48.832367,0.5401,-149.696579,,,
729862469.511019,0.088378,4.296557,47.808272,-0.064392,-0.000763,0.990768,-0.010419,-0.002846,0.004198,48.832367,0.5401,-149.696579,,,
729862469.514365,0.088378,4.296557,47.808272,-0.064392,-0.000763,0.990768,-0.010419,-0.002846,0.004198,48.832367,0.5401,-149.696579,,,
729862469.517698,0.086702,4.295219,47.80931,-0.064392,-0.000763,0.990768,-0.010419,-0.002846,0.004198,48.832367,0.5401,-149.696579,,,
729862469.521077,0.087479,4.295484,47.809442,-0.066406,-0.005432,1.001282,0.011736,-0.00101,-0.000491,48.832367,0.5401,-149.696579,,,
729862469.524346,0.087479,4.295484,47.809442,-0.066406,-0.005432,1.001282,0.011736,-0.00101,-0.000491,48.832367,0.5401,-149.696579,,,
729862469.52771,0.092455,4.295274,47.809539,-0.066406,-0.005432,1.001282,0.011736,-0.00101,-0.000491,48.832367,0.5401,-149.696579,,,
729862469.53102,0.100462,4.298576,47.809893,-0.071304,-0.007523,1.012039,0.034052,0.014068,0.003043,48.832367,0.5401,-149.696579,,,
729862469.534354,0.100462,4.298576,47.809893,-0.071304,-0.007523,1.012039,0.034052,0.014068,0.003043,48.998398,0.217484,-149.700928,,,
729862469.537706,0.111052,4.302294,47.810914,-0.071304,-0.007523,1.012039,0.034052,0.014068,0.003043,48.998398,0.217484,-149.700928,,,
729862469.541023,0.122969,4.308396,47.81211,-0.069641,-0.005661,1.008087,0.041596,0.021441,0.004866,48.998398,0.217484,-149.700928,,,
729862469.544419,0.122969,4.308396,47.81211,-0.069641,-0.005661,1.008087,0.041596,0.021441,0.004866,48.998398,0.217484,-149.700928,,,
729862469.547691,0.13446,4.31348,47.812891,-0.069641,-0.005661,1.008087,0.041596,0.021441,0.004866,48.998398,0.217484,-149.700928,,,
729862469.551028,0.145419,4.318388,47.813102,-0.070038,-0.00206,0.994507,0.03519,0.014138,0.000411,48.998398,0.217484,-149.700928,,,
729862469.554367,0.145419,4.318388,47.813102,-0.070038,-0.00206,0.994507,0.03519,0.014138,0.000411,48.998398,0.217484,-149.700928,,,
729862469.557748,0.153989,4.320466,47.812856,-0.070038,-0.00206,0.994507,0.03519,0.014138,0.000411,48.998398,0.217484,-149.700928,,,
729862469.561016,0.160341,4.321774,47.812439,-0.071167,0.00235,0.980911,0.01694,0.00182,-0.00212,48.998398,0.217484,-149.700928,,,
729862469.564363,0.160341,4.321774,47.812439,-0.071167,0.00235,0.980911,0.01694,0.00182,-0.00212,48.998398,0.217484,-149.700928,,,
729862469.567707,0.163026,4.320663,47.81173,-0.071167,0.00235,0.980911,0.01694,0.00182,-0.00212,48.998398,0.217484,-149.700928,,,
729862469.571023,0.161867,4.318054,47.811133,-0.067917,0.007172,0.971603,-0.012203,-0.009226,-0.003514,48.998398,0.217484,-149.700928,,,
729862469.574353,0.161867,4.318054,47.811133,-0.067917,0.007172,0.971603,-0.012203,-0.009226,-0.003514,48.884064,0.535477,-149.615158,,,
729862469.577711,0.15638,4.313693,47.810348,-0.067917,0.007172,0.971603,-0.012203,-0.009226,-0.003514,48.884064,0.535477,-149.615158,,,
729862469.581022,0.148343,4.306497,47.808916,-0.065384,0.010315,0.970093,-0.030577,-0.020666,-0.009379,48.884064,0.535477,-149.615158,,,
729862469.584351,0.148343,4.306497,47.808916,-0.065384,0.010315,0.970093,-0.030577,-0.020666,-0.009379,48.884064,0.535477,-149.615158,,,
729862469.587706,0.138438,4.29964,47.806936,-0.065384,0.010315,0.970093,-0.030577,-0.020666,-0.009379,48.884064,0.535477,-149.615158,,,
729862469.591023,0.126854,4.29159,47.804308,-0.067917,0.008896,0.979614,-0.04096,-0.019182,-0.014713,48.884064,0.535477,-149.615158,,,
729862469.594359,0.126854,4.29159,47.804308,-0.067917,0.008896,0.979614,-0.04096,-0.019182,-0.014713,48.884064,0.535477,-149.615158,,,
729862469.597788,0.115205,4.286177,47.802089,-0.067917,0.008896,0.979614,-0.04096,-0.019182,-0.014713,48.884064,0.535477,-149.615158,,,
729862469.601017,0.104544,4.281509,47.800544,-0.072433,0.003326,0.994827,-0.031293,-0.004179,-0.009302,48.884064,0.535477,-149.615158,,,
729862469.604366,0.104544,4.281509,47.800544,-0.072433,0.003326,0.994827,-0.031293,-0.004179,-0.009302,48.884064,0.535477,-149.615158,,,
729862469.607704,0.096401,4.280731,47.799178,-0.072433,0.003326,0.994827,-0.031293,-0.004179,-0.009302,48.884064,0.535477,-149.615158,,,
729862469.611017,0.090362,4.280934,47.798208,-0.07486,-0.002548,1.012756,-0.012064,0.008588,-0.005079,48.884064,0.535477,-149.615158,,,
729862469.614407,0.090362,4.280934,47.798208,-0.07486,-0.002548,1.012756,-0.012064,0.008588,-0.005079,48.884064,0.535477,-149.615158,,,
729862469.617695,0.088689,4.283253,47.797727,-0.07486,-0.002548,1.012756,-0.012064,0.008588,-0.005079,48.97142,0.610214,-149.904846,,,
729862469.621022,0.090649,4.285484,47.797747,-0.080719,-0.003677,1.018997,0.017233,0.013177,0.000667,48.97142,0.610214,-149.904846,,,
729862469.624431,0.090649,4.285484,47.797747,-0.080719,-0.003677,1.018997,0.017233,0.013177,0.000667,48.97142,0.610214,-149.904846,,,
729862469.627703,0.097322,4.289145,47.798105,-0.080719,-0.003677,1.018997,0.017233,0.013177,0.000667,48.97142,0.610214,-149.904846,,,
729862469.631048,0.106791,4.293458,47.798846,-0.080688,-0.004715,1.018295,0.039164,0.023226,0.004973,48.97142,0.610214,-149.904846,,,
729862469.634375,0.106791,4.293458,47.798846,-0.080688,-0.004715,1.018295,0.039164,0.023226,0.004973,48.97142,0.610214,-149.904846,,,
729862469.637757,0.117336,4.29994,47.799594,-0.080688,-0.004715,1.018295,0.039164,0.023226,0.004973,48.97142,0.610214,-149.904846,,,
729862469.641013,0.127275,4.305965,47.800214,-0.077362,0.0009,1.006622,0.035351,0.023783,0.003775,48.97142,0.610214,-149.904846,,,
729862469.644389,0.127275,4.305965,47.800214,-0.077362,0.0009,1.006622,0.035351,0.023783,0.003775,48.97142,0.610214,-149.904846,,,
729862469.647696,0.135564,4.3116,47.800505,-0.077362,0.0009,1.006622,0.035351,0.023783,0.003775,48.97142,0.610214,-149.904846,,,
729862469.65102,0.140158,4.315299,47.800209,-0.075668,0.008682,0.982254,0.008067,0.014621,-0.00232,48.97142,0.610214,-149.904846,,,
729862469.654363,0.140158,4.315299,47.800209,-0.075668,0.008682,0.982254,0.008067,0.014621,-0.00232,48.97142,0.610214,-149.904846,,,
729862469.657713,0.140354,4.318597,47.799916,-0.075668,0.008682,0.982254,0.008067,0.014621,-0.00232,48.926346,0.55687,-149.741257,,,
729862469.661022,0.137271,4.319772,47.799815,-0.0737,0.012665,0.974136,-0.018851,0.007456,-0.003113,48.926346,0.55687,-149.741257,,,
729862469.664409,0.137271,4.319772,47.799815,-0.0737,0.012665,0.974136,-0.018851,0.007456,-0.003113,48.926346,0.55687,-149.741257,,,
729862469.667693,0.130587,4.318987,47.79926,-0.0737,0.012665,0.974136,-0.018851,0.007456,-0.003113,48.926346,0.55687,-149.741257,,,
729862469.671024,0.122201,4.31282,47.79862,-0.073715,0.011703,0.971985,-0.034542,-0.022347,-0.004904,48.926346,0.55687,-149.741257,,,
729862469.674362,0.122201,4.31282,47.79862,-0.073715,0.011703,0.971985,-0.034542,-0.022347,-0.004904,48.926346,0.55687,-149.741257,,,
729862469.677745,0.111471,4.304446,47.797982,-0.073715,0.011703,0.971985,-0.034542,-0.022347,-0.004904,48.926346,0.55687,-149.741257,,,
729862469.681014,0.100391,4.293875,47.797001,-0.072876,0.006256,0.979919,-0.038733,-0.0344,-0.007593,48.926346,0.55687,-149.741257,,,
729862469.684367,0.100391,4.293875,47.797001,-0.072876,0.006256,0.979919,-0.038733,-0.0344,-0.007593,48.926346,0.55687,-149.741257,,,
729862469.687746,0.088897,4.283819,47.796228,-0.072876,0.006256,0.979919,-0.038733,-0.0344,-0.007593,48.926346,0.55687,-149.741257,,,
729862469.691011,0.077407,4.274283,47.795938,-0.06926,0.007187,0.993912,-0.037231,-0.029036,-0.00406,48.926346,0.55687,-149.741257,,,
729862469.694365,0.077407,4.274283,47.795938,-0.06926,0.007187,0.993912,-0.037231,-0.029036,-0.00406,48.926346,0.55687,-149.741257,,,
729862469.69771,0.067241,4.266865,47.796105,-0.06926,0.007187,0.993912,-0.037231,-0.029036,-0.00406,48.871613,0.784485,-149.55159,,,
729862469.701018,0.0584,4.262836,47.796336,-0.065689,0.000534,1.006317,-0.025297,-0.008558,-0.002743,48.871613,0.784485,-149.55159,,,
729862469.704351,0.0584,4.262836,47.796336,-0.065689,0.000534,1.006317,-0.025297,-0.008558,-0.002743,48.871613,0.784485,-149.55159,,,
729862469.707744,0.053196,4.26167,47.796017,-0.065689,0.000534,1.006317,-0.025297,-0.008558,-0.002743,48.871613,0.784485,-149.55159,,,
729862469.711027,0.051601,4.264764,47.795018,-0.067047,-0.004745,1.023621,0.003201,0.015023,-0.005384,48.871613,0.784485,-149.55159,,,
729862469.714464,0.051601,4.264764,47.795018,-0.067047,-0.004745,1.023621,0.003201,0.015023,-0.005384,48.871613,0.784485,-149.55159,,,
729862469.717709,0.054693,4.269739,47.794081,-0.067047,-0.004745,1.023621,0.003201,0.015023,-0.005384,48.871613,0.784485,-149.55159,,,
729862469.721027,0.062234,4.277432,47.793094,-0.069992,-0.006149,1.027679,0.035305,0.031937,-0.003423,48.871613,0.784485,-149.55159,,,
729862469.724368,0.062234,4.277432,47.793094,-0.069992,-0.006149,1.027679,0.035305,0.031937,-0.003423,48.871613,0.784485,-149.55159,,,
729862469.727771,0.073812,4.286277,47.79167,-0.069992,-0.006149,1.027679,0.035305,0.031937,-0.003423,48.871613,0.784485,-149.55159,,,
729862469.731008,0.088217,4.296072,47.789886,-0.070374,-0.003815,1.019409,0.051541,0.036428,-0.004682,48.871613,0.784485,-149.55159,,,
729862469.734361,0.088217,4.296072,47.789886,-0.070374,-0.003815,1.019409,0.051541,0.036428,-0.004682,48.871613,0.784485,-149.55159,,,
729862469.737687,0.102628,4.305156,47.787139,-0.070374,-0.003815,1.019409,0.051541,0.036428,-0.004682,49.045654,0.541321,-149.604462,,,
729862469.741017,0.116676,4.312629,47.783992,-0.075165,0.001572,0.99707,0.043567,0.0242,-0.008056,49.045654,0.541321,-149.604462,,,
729862469.744368,0.116676,4.312629,47.783992,-0.075165,0.001572,0.99707,0.043567,0.0242,-0.008056,49.045654,0.541321,-149.604462,,,
729862469.747736,0.127496,4.317226,47.781323,-0.075165,0.001572,0.99707,0.043567,0.0242,-0.008056,49.045654,0.541321,-149.604462,,,
729862469.751006,0.127496,4.317226,47.778572,-0.076401,0.007507,0.976822,0.023076,-0.00507,-0.010153,49.045654,0.541321,-149.604462,,,
729862469.75444,0.136248,4.317668,47.778572,-0.076401,0.007507,0.976822,0.023076,-0.00507,-0.010153,49.045654,0.541321,-149.604462,,,
729862469.757697,0.140285,4.313338,47.774845,-0.076401,0.007507,0.976822,0.023076,-0.00507,-0.010153,49.045654,0.541321,-149.604462,,,
729862469.761023,0.141181,4.304644,47.770533,-0.078064,0.011688,0.970963,-0.000876,-0.034619,-0.016014,49.045654,0.541321,-149.604462,,,
729862469.764365,0.141181,4.304644,47.770533,-0.078064,0.011688,0.970963,-0.000876,-0.034619,-0.016014,49.045654,0.541321,-149.604462,,,
729862469.767769,0.139419,4.292544,47.766381,-0.078064,0.011688,0.970963,-0.000876,-0.034619,-0.016014,49.045654,0.541321,-149.604462,,,
729862469.771042,0.139419,4.292544,47.766381,-0.078644,0.007629,0.98349,-0.017149,-0.041371,-0.014356,49.045654,0.541321,-149.604462,,,
729862469.774381,0.135744,4.278889,47.762653,-0.078644,0.007629,0.98349,-0.017149,-0.041371,-0.014356,49.045654,0.541321,-149.604462,,,
729862469.777563,0.129424,4.267205,47.760094,-0.078644,0.007629,0.98349,-0.017149,-0.041371,-0.014356,49.045654,0.541321,-149.604462,,,
729862469.781048,0.121117,4.256682,47.759209,-0.078629,0.006836,0.992584,-0.03215,-0.024491,-0.003813,49.164276,0.613144,-149.674316,,,
729862469.784243,0.121117,4.256682,47.759209,-0.078629,0.006836,0.992584,-0.03215,-0.024491,-0.003813,49.164276,0.613144,-149.674316,,,
729862469.787714,0.111651,4.250847,47.759722,-0.078629,0.006836,0.992584,-0.03215,-0.024491,-0.003813,49.164276,0.613144,-149.674316,,,
729862469.79103,0.111651,4.250847,47.759722,-0.075195,0.006119,1.002686,-0.029675,0.001834,-0.000192,49.164276,0.613144,-149.674316,,,
729862469.794426,0.102129,4.247375,47.760732,-0.075195,0.006119,1.002686,-0.029675,0.001834,-0.000192,49.164276,0.613144,-149.674316,,,
729862469.797709,0.095087,4.248305,47.761212,-0.075195,0.006119,1.002686,-0.029675,0.001834,-0.000192,49.164276,0.613144,-149.674316,,,
729862469.80103,0.095087,4.248305,47.761212,-0.07431,-0.001755,1.016663,-0.005499,0.018315,-0.002119,49.164276,0.613144,-149.674316,,,
729862469.804363,0.090929,4.250666,47.761153,-0.07431,-0.001755,1.016663,-0.005499,0.018315,-0.002119,49.164276,0.613144,-149.674316,,,
729862469.807771,0.091657,4.255543,47.760962,-0.07431,-0.001755,1.016663,-0.005499,0.018315,-0.002119,49.164276,0.613144,-149.674316,,,
729862469.811016,0.091657,4.255543,47.760962,-0.07431,-0.001755,1.022049,0.02649,0.019805,0.001373,49.164276,0.613144,-149.674316,,,
729862469.81438,0.09646,4.25962,47.760931,-0.075912,-0.004013,1.022049,0.02649,0.019805,0.001373,49.164276,0.613144,-149.674316,,,
729862469.817692,0.105704,4.264437,47.760996,-0.075912,-0.004013,1.022049,0.02649,0.019805,0.001373,49.164276,0.613144,-149.674316,,,
729862469.821078,0.105704,4.264437,47.760996,-0.081039,-0.005783,1.017822,0.045084,0.017247,0.00346,48.899796,0.545731,-149.540955,,,
729862469.824385,0.117538,4.268745,47.761169,-0.081039,-0.005783,1.017822,0.045084,0.017247,0.00346,48.899796,0.545731,-149.540955,,,
729862469.827711,0.131472,4.272898,47.761825,-0.081039,-0.005783,1.017822,0.045084,0.017247,0.00346,48.899796,0.545731,-149.540955,,,
729862469.831106,0.131472,4.272898,47.761825,-0.081039,-0.005783,1.017822,0.054136,0.012351,0.008247,48.899796,0.545731,-149.540955,,,
729862469.834421,0.147016,4.276841,47.763072,-0.081589,-0.003082,1.006317,0.054136,0.012351,0.008247,48.899796,0.545731,-149.540955,,,
729862469.837695,0.161862,4.27873,47.765068,-0.081589,-0.003082,1.006317,0.054136,0.012351,0.008247,48.899796,0.545731,-149.540955,,,
729862469.84106,0.161862,4.27873,47.765068,-0.081589,-0.003082,1.006317,0.040958,0.001458,0.01215,48.899796,0.545731,-149.540955,,,
729862469.844373,0.17555,4.279867,47.767762,-0.077789,0.003342,0.991547,0.040958,0.001458,0.01215,48.899796,0.545731,-149.540955,,,
729862469.84776,0.186094,4.27845,47.770571,-0.077789,0.003342,0.991547,0.040958,0.001458,0.01215,48.899796,0.545731,-149.540955,,,
729862469.851016,0.186094,4.27845,47.770571,-0.077789,0.003342,0.991547,0.021684,-0.008993,0.0033,48.899796,0.545731,-149.540955,,,
729862469.854364,0.194222,4.276276,47.772315,-0.070587,0.010315,0.979828,0.021684,-0.008993,0.0033,48.899796,0.545731,-149.540955,,,
729862469.857707,0.198382,4.272226,47.772679,-0.070587,0.010315,0.979828,0.021684,-0.008993,0.0033,48.899796,0.545731,-149.540955,,,
729862469.861025,0.198382,4.272226,47.772679,-0.070587,0.010315,0.979828,-0.006426,-0.014706,-0.004856,49.154861,0.56044,-149.503632,,,
729862469.864358,0.198701,4.268042,47.772179,-0.068558,0.012924,0.973236,-0.006426,-0.014706,-0.004856,49.154861,0.56044,-149.503632,,,
729862469.867694,0.195331,4.26329,47.771818,-0.068558,0.012924,0.973236,-0.006426,-0.014706,-0.004856,49.154861,0.56044,-149.503632,,,
729862469.871084,0.195331,4.26329,47.771818,-0.068558,0.012924,0.973236,-0.02976,-0.011152,-0.001179,49.154861,0.56044,-149.503632,,,
729862469.874367,0.18899,4.259214,47.772235,-0.069656,0.009201,0.970779,-0.02976,-0.011152,-0.001179,49.154861,0.56044,-149.503632,,,
729862469.877712,0.179569,4.255273,47.773789,-0.069656,0.009201,0.970779,-0.02976,-0.011152,-0.001179,49.154861,0.56044,-149.503632,,,
729862469.881035,0.179569,4.255273,47.773789,-0.069656,0.009201,0.970779,-0.02976,-0.011152,-0.001179,49.154861,0.56044,-149.503632,,,
729862469.884431,0.168317,4.251726,47.777075,-0.069534,0.007034,0.975555,-0.041668,-0.006691,0.010017,49.154861,0.56044,-149.503632,,,
729862469.887686,0.156873,4.249226,47.781344,-0.069534,0.007034,0.975555,-0.041668,-0.006691,0.010017,49.154861,0.56044,-149.503632,,,
729862469.891063,0.156873,4.249226,47.781344,-0.069534,0.007034,0.975555,-0.030972,-0.003764,0.00829,49.154861,0.56044,-149.503632,,,
729862469.894354,0.146471,4.247041,47.785252,-0.063461,0.002182,0.984985,-0.030972,-0.003764,0.00829,49.154861,0.56044,-149.503632,,,
729862469.897749,0.138479,4.245341,47.78819,-0.063461,0.002182,0.984985,-0.030972,-0.003764,0.00829,49.154861,0.56044,-149.503632,,,
729862469.901136,0.138479,4.245341,47.78819,-0.063461,0.002182,0.984985,-0.030972,-0.003764,0.00829,48.868561,0.590439,-149.688339,,,
729862469.904353,0.131452,4.244208,47.790036,-0.05806,-0.000214,0.99295,-0.019876,-0.003104,0.001452,48.868561,0.590439,-149.688339,,,
729862469.907689,0.127005,4.242545,47.790268,-0.05806,-0.000214,0.99295,-0.019876,-0.003104,0.001452,48.868561,0.590439,-149.688339,,,
729862469.911088,0.127005,4.242545,47.790268,-0.05806,-0.000214,0.99295,0.003823,0.001515,-0.011283,48.868561,0.590439,-149.688339,,,
729862469.914378,0.12533,4.242601,47.788422,-0.054108,-0.00267,1.001816,0.003823,0.001515,-0.011283,48.868561,0.590439,-149.688339,,,
729862469.917699,0.127963,4.243309,47.78431,-0.054108,-0.00267,1.001816,0.003823,0.001515,-0.011283,48.868561,0.590439,-149.688339,,,
729862469.92109,0.127963,4.243309,47.78431,-0.054108,-0.00267,1.001816,0.003823,0.001515,-0.011283,48.868561,0.590439,-149.688339,,,
729862469.924351,0.133844,4.247474,47.778336,-0.056824,-0.006439,1.01976,0.02739,0.019217,-0.022517,48.868561,0.590439,-149.688339,,,
729862469.927681,0.142716,4.253372,47.77129,-0.056824,-0.006439,1.01976,0.02739,0.019217,-0.022517,48.868561,0.590439,-149.688339,,,
729862469.931038,0.142716,4.253372,47.77129,-0.056824,-0.006439,1.01976,0.02739,0.019217,-0.022517,48.868561,0.590439,-149.688339,,,
729862469.934439,0.154479,4.260606,47.764713,-0.069641,-0.007111,1.022247,0.043811,0.029089,-0.018023,48.868561,0.590439,-149.688339,,,
729862469.937682,0.166518,4.268809,47.759586,-0.069641,-0.007111,1.022247,0.043811,0.029089,-0.018023,48.868561,0.590439,-149.688339,,,
729862469.941093,0.166518,4.268809,47.759586,-0.069641,-0.007111,1.022247,0.043811,0.029089,-0.018023,48.868561,0.590439,-149.688339,,,
729862469.944367,0.178548,4.276101,47.755482,-0.079819,-0.002213,1.00293,0.037761,0.027653,-0.011298,49.006561,0.610855,-149.842896,,,
729862469.947685,0.187172,4.281574,47.751913,-0.079819,-0.002213,1.00293,0.037761,0.027653,-0.011298,49.006561,0.610855,-149.842896,,,
729862469.951038,0.187172,4.281574,47.751913,-0.079819,-0.002213,1.00293,0.037761,0.027653,-0.011298,49.006561,0.610855,-149.842896,,,
729862469.954365,0.193359,4.282988,47.749007,-0.086624,0.005585,0.983047,0.016487,0.002977,-0.008208,49.006561,0.610855,-149.842896,,,
729862469.957683,0.195953,4.28176,47.746846,-0.086624,0.005585,0.983047,0.016487,0.002977,-0.008208,49.006561,0.610855,-149.842896,,,
729862469.961143,0.195953,4.28176,47.746846,-0.086624,0.005585,0.983047,0.016487,0.002977,-0.008208,49.006561,0.610855,-149.842896,,,
729862469.964347,0.195278,4.27752,47.745884,-0.089859,0.005936,0.975769,-0.009216,-0.014958,-0.001752,49.006561,0.610855,-149.842896,,,
729862469.967693,0.191562,4.2714,47.746671,-0.089859,0.005936,0.975769,-0.009216,-0.014958,-0.001752,49.006561,0.610855,-149.842896,,,
729862469.971072,0.191562,4.2714,47.746671,-0.089859,0.005936,0.975769,-0.009216,-0.014958,-0.001752,49.006561,0.610855,-149.842896,,,
729862469.974413,0.185829,4.261879,47.748882,-0.090668,0.007553,0.979523,-0.023637,-0.029977,0.007078,49.006561,0.610855,-149.842896,,,
729862469.977684,0.179205,4.251413,47.752695,-0.090668,0.007553,0.979523,-0.023637,-0.029977,0.007078,49.006561,0.610855,-149.842896,,,
729862469.98107,0.179205,4.251413,47.752695,-0.090668,0.007553,0.979523,-0.023637,-0.029977,0.007078,49.006561,0.610855,-149.842896,,,
729862469.984363,0.171939,4.237014,47.757542,-0.087982,0.00769,0.983307,-0.027398,-0.04232,0.013997,48.839447,0.734314,-149.391769,,,
729862469.987695,0.164926,4.223965,47.762731,-0.087982,0.00769,0.983307,-0.027398,-0.04232,0.013997,48.839447,0.734314,-149.391769,,,
729862469.991068,0.164926,4.223965,47.762731,-0.087982,0.00769,0.983307,-0.027398,-0.04232,0.013997,48.839447,0.734314,-149.391769,,,
729862469.994364,0.15911,4.209004,47.76757,-0.07489,0.006027,0.993851,-0.01624,-0.035625,0.012312,48.839447,0.734314,-149.391769,,,
729862469.997693,0.155269,4.199753,47.771584,-0.07489,0.006027,0.993851,-0.01624,-0.035625,0.012312,48.839447,0.734314,-149.391769,,,
729862470.001043,0.155269,4.199753,47.771584,-0.07489,0.006027,0.993851,-0.01624,-0.035625,0.012312,48.839447,0.734314,-149.391769,,,
729862470.004377,0.152315,4.19192,47.77423,-0.066406,0.00444,1.008148,-0.004846,-0.005329,0.003507,48.839447,0.734314,-149.391769,,,
729862470.007696,0.151732,4.19185,47.77522,-0.066406,0.00444,1.008148,-0.004846,-0.005329,0.003507,48.839447,0.734314,-149.391769,,,
729862470.011135,0.151732,4.19185,47.77522,-0.066406,0.00444,1.008148,-0.004846,-0.005329,0.003507,48.839447,0.734314,-149.391769,,,
729862470.014355,0.151895,4.194623,47.775536,-0.06076,0.006012,1.011703,0.006082,0.023841,-0.000394,48.839447,0.734314,-149.391769,,,
729862470.017689,0.154462,4.20215,47.775364,-0.06076,0.006012,1.011703,0.006082,0.023841,-0.000394,48.839447,0.734314,-149.391769,,,
729862470.021071,0.154462,4.20215,47.775364,-0.06076,0.006012,1.011703,0.006082,0.023841,-0.000394,48.839447,0.734314,-149.391769,,,
729862470.024372,0.158063,4.212488,47.774611,-0.067078,0.005234,1.009262,0.017511,0.039232,-0.003536,49.238464,0.558777,-149.665329,,,
729862470.027693,0.163868,4.222426,47.774115,-0.067078,0.005234,1.009262,0.017511,0.039232,-0.003536,49.238464,0.558777,-149.665329,,,
729862470.031077,0.163868,4.222426,47.774115,-0.067078,0.005234,1.009262,0.017511,0.039232,-0.003536,49.238464,0.558777,-149.665329,,,
729862470.034424,0.172121,4.232256,47.774814,-0.078888,0.002487,1.003204,0.032817,0.026042,0.005997,49.238464,0.558777,-149.665329,,,
729862470.037665,0.181704,4.237313,47.776707,-0.078888,0.002487,1.003204,0.032817,0.026042,0.005997,49.238464,0.558777,-149.665329,,,
729862470.041034,0.181704,4.237313,47.776707,-0.078888,0.002487,1.003204,0.032817,0.026042,0.005997,49.238464,0.558777,-149.665329,,,
729862470.044301,0.190915,4.241457,47.779554,-0.080872,0.005096,0.99324,0.028002,0.000275,0.012281,49.238464,0.558777,-149.665329,,,
729862470.047645,0.198063,4.239684,47.782098,-0.080872,0.005096,0.99324,0.028002,0.000275,0.012281,49.238464,0.558777,-149.665329,,,
729862470.050821,0.198063,4.239684,47.782098,-0.080872,0.005096,0.99324,0.028002,0.000275,0.012281,49.238464,0.558777,-149.665329,,,
729862470.054314,0.202329,4.238939,47.783798,-0.069794,0.011978,0.974136,0.006248,-0.012508,0.004836,49.238464,0.558777,-149.665329,,,
729862470.057632,0.201312,4.234029,47.785271,-0.069794,0.011978,0.974136,0.006248,-0.012508,0.004836,49.238464,0.558777,-149.665329,,,
729862470.060814,0.201312,4.234029,47.785271,-0.069794,0.011978,0.974136,0.006248,-0.012508,0.004836,49.238464,0.558777,-149.665329,,,
729862470.064437,0.194823,4.230771,47.785978,-0.062241,0.01593,0.962341,-0.033883,-0.019052,-0.003431,49.238464,0.558777,-149.665329,,,
729862470.06769,0.182299,4.224903,47.785485,-0.062241,0.01593,0.962341,-0.033883,-0.019052,-0.003431,49.313629,0.724854,-149.448318,,,
729862470.071137,0.182299,4.224903,47.785485,-0.062241,0.01593,0.962341,-0.033883,-0.019052,-0.003431,49.313629,0.724854,-149.448318,,,
729862470.074381,0.166017,4.220184,47.783677,-0.059113,0.017151,0.967239,-0.061484,-0.016231,-0.014579,49.313629,0.724854,-149.448318,,,
729862470.077703,0.147756,4.215934,47.78074,-0.059113,0.017151,0.967239,-0.061484,-0.016231,-0.014579,49.313629,0.724854,-149.448318,,,
729862470.081045,0.147756,4.215934,47.78074,-0.059113,0.017151,0.967239,-0.061484,-0.016231,-0.014579,49.313629,0.724854,-149.448318,,,
729862470.084451,0.131023,4.212662,47.776647,-0.05983,0.006363,0.992462,-0.051241,-0.003029,-0.021906,49.313629,0.724854,-149.448318,,,
729862470.087688,0.117284,4.21192,47.772188,-0.05983,0.006363,0.992462,-0.051241,-0.003029,-0.021906,49.313629,0.724854,-149.448318,,,
729862470.091023,0.117284,4.21192,47.772188,-0.05983,0.006363,0.992462,-0.051241,-0.003029,-0.021906,49.313629,0.724854,-149.448318,,,
729862470.09438,0.107096,4.211124,47.768373,-0.065811,-0.00351,1.01358,-0.028946,0.009358,-0.01578,49.313629,0.724854,-149.448318,,,
729862470.097688,0.10032,4.213765,47.76505,-0.065811,-0.00351,1.01358,-0.028946,0.009358,-0.01578,49.313629,0.724854,-149.448318,,,
