Time (sec),Pitch (deg),Roll (deg),Yaw(deg),X-Acceleration (g),Y-Acceleration (g),Z-Acceleration (g),Pitch Rate (deg/sec),Roll Rate (deg/sec),Yaw Rate (deg/sec),Magnetic Field in X direction (uT),Magnetic Field in Y direction (uT),Magnetic Field in Z Direction (uT),Latitude (deg),Longitude (deg),Altitude (m)
729860388.028853,-1.870131,-3.019033,-27.989022,0.061584,-0.026596,0.981552,-0.024965,-0.049453,-0.040662,78.753662,5.478424,-147.798233,,,
729860388.032154,-1.870131,-3.019033,-27.989022,0.061584,-0.026596,0.981552,-0.024965,-0.049453,-0.040662,78.753662,5.478424,-147.798233,,,
729860388.035499,-1.876211,-3.033298,-27.999666,0.05368,-0.033127,0.993073,-0.02016,-0.045345,-0.034334,78.753662,5.478424,-147.798233,,,
729860388.038818,-1.88205,-3.04209,-28.007445,0.05368,-0.033127,0.993073,-0.02016,-0.045345,-0.034334,78.648743,5.414291,-148.016403,,,
729860388.042167,-1.88205,-3.04209,-28.007445,0.05368,-0.033127,0.993073,-0.02016,-0.045345,-0.034334,78.648743,5.414291,-148.016403,,,
729860388.045496,-1.88799,-3.05154,-28.012281,0.047699,-0.041916,0.99791,-0.022997,-0.02853,-0.012194,78.648743,5.414291,-148.016403,,,
729860388.048825,-1.895916,-3.052098,-28.013794,0.047699,-0.041916,0.99791,-0.022997,-0.02853,-0.012194,78.648743,5.414291,-148.016403,,,
729860388.052254,-1.895916,-3.052098,-28.013794,0.047699,-0.041916,0.99791,-0.022997,-0.02853,-0.012194,78.648743,5.414291,-148.016403,,,
729860388.0555,-1.903118,-3.054651,-28.013065,0.042221,-0.042679,0.997604,-0.024941,-0.001237,0.006567,78.648743,5.414291,-148.016403,,,
729860388.058858,-1.912862,-3.04887,-28.010359,0.042221,-0.042679,0.997604,-0.024941,-0.001237,0.006567,78.648743,5.414291,-148.016403,,,
729860388.06217,-1.912862,-3.04887,-28.010359,0.042221,-0.042679,0.997604,-0.024941,-0.001237,0.006567,78.648743,5.414291,-148.016403,,,
729860388.065522,-1.921824,-3.04584,-28.006792,0.047653,-0.038818,0.995468,-0.030301,0.014585,0.01151,78.648743,5.414291,-148.016403,,,
729860388.068826,-1.933063,-3.037743,-28.003244,0.047653,-0.038818,0.995468,-0.030301,0.014585,0.01151,78.648743,5.414291,-148.016403,,,
729860388.072174,-1.933063,-3.037743,-28.003244,0.047653,-0.038818,0.995468,-0.030301,0.014585,0.01151,78.648743,5.414291,-148.016403,,,
729860388.075505,-1.945535,-3.030964,-28.000788,0.05278,-0.033173,0.988937,-0.045347,0.027663,0.009186,78.648743,5.414291,-148.016403,,,
729860388.078828,-1.959517,-3.022218,-27.999536,0.05278,-0.033173,0.988937,-0.045347,0.027663,0.009186,78.726028,5.5784,-148.252502,,,
729860388.082154,-1.959517,-3.022218,-27.999536,0.05278,-0.033173,0.988937,-0.045347,0.027663,0.009186,78.726028,5.5784,-148.252502,,,
729860388.085489,-1.976511,-3.01177,-27.999457,0.055038,-0.032516,0.987656,-0.059987,0.042301,0.001592,78.726028,5.5784,-148.252502,,,
729860388.088823,-1.993693,-3.001741,-28.000579,0.055038,-0.032516,0.987656,-0.059987,0.042301,0.001592,78.726028,5.5784,-148.252502,,,
729860388.092242,-1.993693,-3.001741,-28.000579,0.055038,-0.032516,0.987656,-0.059987,0.042301,0.001592,78.726028,5.5784,-148.252502,,,
729860388.095479,-2.014172,-2.989462,-28.002147,0.056107,-0.033188,0.986191,-0.073283,0.046979,-0.003438,78.726028,5.5784,-148.252502,,,
729860388.098858,-2.033997,-2.981022,-28.004078,0.056107,-0.033188,0.986191,-0.073283,0.046979,-0.003438,78.726028,5.5784,-148.252502,,,
729860388.102181,-2.033997,-2.981022,-28.004078,0.056107,-0.033188,0.986191,-0.073283,0.046979,-0.003438,78.726028,5.5784,-148.252502,,,
729860388.105584,-2.056082,-2.971894,-28.00612,0.052017,-0.035172,0.984055,-0.07687,0.034673,-0.005812,78.726028,5.5784,-148.252502,,,
729860388.10882,-2.07696,-2.966242,-28.007879,0.052017,-0.035172,0.984055,-0.07687,0.034673,-0.005812,78.726028,5.5784,-148.252502,,,
729860388.112177,-2.07696,-2.966242,-28.007879,0.052017,-0.035172,0.984055,-0.07687,0.034673,-0.005812,78.726028,5.5784,-148.252502,,,
729860388.115491,-2.097384,-2.963509,-28.009792,0.046158,-0.03714,0.985321,-0.068898,0.006354,-0.006893,78.726028,5.5784,-148.252502,,,
729860388.118833,-2.116099,-2.965029,-28.012629,0.046158,-0.03714,0.985321,-0.068898,0.006354,-0.006893,78.840744,5.772598,-148.310974,,,
729860388.122171,-2.116099,-2.965029,-28.012629,0.046158,-0.03714,0.985321,-0.068898,0.006354,-0.006893,78.840744,5.772598,-148.310974,,,
729860388.125518,-2.132146,-2.970101,-28.016015,0.048035,-0.041733,0.992279,-0.054074,-0.017303,-0.013006,78.840744,5.772598,-148.310974,,,
729860388.128828,-2.147223,-2.975305,-28.019876,0.048035,-0.041733,0.992279,-0.054074,-0.017303,-0.013006,78.840744,5.772598,-148.310974,,,
729860388.132154,-2.147223,-2.975305,-28.019876,0.048035,-0.041733,0.992279,-0.054074,-0.017303,-0.013006,78.840744,5.772598,-148.310974,,,
729860388.135489,-2.159262,-2.982637,-28.023883,0.048706,-0.042419,1.002304,-0.040032,-0.021222,-0.013308,78.840744,5.772598,-148.310974,,,
729860388.138832,-2.170507,-2.986855,-28.026944,0.048706,-0.042419,1.002304,-0.040032,-0.021222,-0.013308,78.840744,5.772598,-148.310974,,,
729860388.14226,-2.170507,-2.986855,-28.026944,0.048706,-0.042419,1.002304,-0.040032,-0.021222,-0.013308,78.840744,5.772598,-148.310974,,,
729860388.145507,-2.180959,-2.98984,-28.028607,0.047363,-0.04361,1.006973,-0.034471,-0.006477,-0.003156,78.840744,5.772598,-148.310974,,,
729860388.148831,-2.190828,-2.989209,-28.028772,0.047363,-0.04361,1.006973,-0.034471,-0.006477,-0.003156,78.840744,5.772598,-148.310974,,,
729860388.15217,-2.190828,-2.989209,-28.028772,0.047363,-0.04361,1.006973,-0.034471,-0.006477,-0.003156,78.840744,5.772598,-148.310974,,,
729860388.155501,-2.201996,-2.984441,-28.027821,0.047897,-0.039505,1.004471,-0.040857,0.022914,0.004272,78.840744,5.772598,-148.310974,,,
729860388.15887,-2.213379,-2.976028,-28.026256,0.047897,-0.039505,1.004471,-0.040857,0.022914,0.004272,78.840744,5.772598,-148.310974,,,
729860388.162188,-2.213379,-2.976028,-28.026256,0.047897,-0.039505,1.004471,-0.040857,0.022914,0.004272,78.558777,5.658096,-148.305099,,,
729860388.165492,-2.226493,-2.964231,-28.024629,0.044998,-0.03746,0.998199,-0.045643,0.04614,0.007599,78.558777,5.658096,-148.305099,,,
729860388.168831,-2.239889,-2.952168,-28.023212,0.044998,-0.03746,0.998199,-0.045643,0.04614,0.007599,78.558777,5.658096,-148.305099,,,
729860388.172175,-2.239889,-2.952168,-28.023212,0.044998,-0.03746,0.998199,-0.045643,0.04614,0.007599,78.558777,5.658096,-148.305099,,,
729860388.175517,-2.255529,-2.939755,-28.022803,0.04747,-0.03511,0.991028,-0.055237,0.045259,-0.000382,78.558777,5.658096,-148.305099,,,
729860388.178827,-2.270818,-2.92981,-28.024046,0.04747,-0.03511,0.991028,-0.055237,0.045259,-0.000382,78.558777,5.658096,-148.305099,,,
729860388.182196,-2.270818,-2.92981,-28.024046,0.04747,-0.03511,0.991028,-0.055237,0.045259,-0.000382,78.558777,5.658096,-148.305099,,,
729860388.185504,-2.287224,-2.921001,-28.026884,0.050629,-0.034546,0.98558,-0.058175,0.032766,-0.011365,78.558777,5.658096,-148.305099,,,
729860388.188824,-2.303772,-2.913944,-28.031438,0.050629,-0.034546,0.98558,-0.058175,0.032766,-0.011365,78.558777,5.658096,-148.305099,,,
729860388.19218,-2.303772,-2.913944,-28.031438,0.050629,-0.034546,0.98558,-0.058175,0.032766,-0.011365,78.558777,5.658096,-148.305099,,,
729860388.195542,-2.321695,-2.909397,-28.036982,0.049316,-0.037216,0.986038,-0.063471,0.018801,-0.01716,78.558777,5.658096,-148.305099,,,
729860388.198835,-2.341318,-2.905597,-28.042772,0.049316,-0.037216,0.986038,-0.063471,0.018801,-0.01716,78.558777,5.658096,-148.305099,,,
729860388.202184,-2.341318,-2.905597,-28.042772,0.049316,-0.037216,0.986038,-0.063471,0.018801,-0.01716,78.840317,5.736084,-148.388824,,,
729860388.205498,-2.362886,-2.903545,-28.048501,0.048096,-0.035248,0.985336,-0.07778,0.009221,-0.015767,78.840317,5.736084,-148.388824,,,
729860388.208839,-2.386679,-2.901819,-28.053453,0.048096,-0.035248,0.985336,-0.07778,0.009221,-0.015767,78.840317,5.736084,-148.388824,,,
729860388.212178,-2.386679,-2.901819,-28.053453,0.048096,-0.035248,0.985336,-0.07778,0.009221,-0.015767,78.840317,5.736084,-148.388824,,,
729860388.215572,-2.411814,-2.899852,-28.057451,0.045151,-0.039932,0.988144,-0.086584,0.012322,-0.01056,78.840317,5.736084,-148.388824,,,
729860388.21882,-2.43674,-2.896291,-28.060138,0.045151,-0.039932,0.988144,-0.086584,0.012322,-0.01056,78.840317,5.736084,-148.388824,,,
729860388.222254,-2.43674,-2.896291,-28.060138,0.045151,-0.039932,0.988144,-0.086584,0.012322,-0.01056,78.840317,5.736084,-148.388824,,,
729860388.225513,-2.460668,-2.892897,-28.061314,0.04126,-0.043808,0.999695,-0.081585,0.014653,-0.000919,78.840317,5.736084,-148.388824,,,
729860388.228828,-2.48202,-2.889318,-28.061496,0.04126,-0.043808,0.999695,-0.081585,0.014653,-0.000919,78.840317,5.736084,-148.388824,,,
729860388.232158,-2.48202,-2.889318,-28.061496,0.04126,-0.043808,0.999695,-0.081585,0.014653,-0.000919,78.840317,5.736084,-148.388824,,,
729860388.235566,-2.499144,-2.887804,-28.061103,0.042526,-0.047455,1.014542,-0.055982,0.006024,0.00209,78.840317,5.736084,-148.388824,,,
729860388.238813,-2.509893,-2.887403,-28.060014,0.042526,-0.047455,1.014542,-0.055982,0.006024,0.00209,78.840317,5.736084,-148.388824,,,
729860388.24216,-2.509893,-2.887403,-28.060014,0.042526,-0.047455,1.014542,-0.055982,0.006024,0.00209,78.862778,5.964478,-148.251694,,,
729860388.245487,-2.515462,-2.890058,-28.058798,0.043777,-0.047668,1.027679,-0.014297,-0.007165,0.002271,78.862778,5.964478,-148.251694,,,
729860388.248825,-2.512939,-2.893847,-28.057939,0.043777,-0.047668,1.027679,-0.014297,-0.007165,0.002271,78.862778,5.964478,-148.251694,,,
729860388.252174,-2.512939,-2.893847,-28.057939,0.043777,-0.047668,1.027679,-0.014297,-0.007165,0.002271,78.862778,5.964478,-148.251694,,,
729860388.255501,-2.50555,-2.899709,-28.057948,0.04776,-0.048691,1.03537,0.027582,-0.017646,-0.003478,78.862778,5.964478,-148.251694,,,
729860388.258836,-2.492248,-2.905321,-28.058634,0.04776,-0.048691,1.03537,0.027582,-0.017646,-0.003478,78.862778,5.964478,-148.251694,,,
729860388.262197,-2.492248,-2.905321,-28.058634,0.04776,-0.048691,1.03537,0.027582,-0.017646,-0.003478,78.862778,5.964478,-148.251694,,,
729860388.265575,-2.477575,-2.90942,-28.060092,0.052505,-0.044815,1.034515,0.054691,-0.009531,-0.010583,78.862778,5.964478,-148.251694,,,
729860388.26887,-2.4611,-2.911196,-28.062905,0.052505,-0.044815,1.034515,0.054691,-0.009531,-0.010583,78.862778,5.964478,-148.251694,,,
729860388.272196,-2.4611,-2.911196,-28.062905,0.052505,-0.044815,1.034515,0.054691,-0.009531,-0.010583,78.862778,5.964478,-148.251694,,,
729860388.275504,-2.447245,-2.909803,-28.066457,0.052963,-0.038452,1.020035,0.045007,0.011933,-0.014795,78.862778,5.964478,-148.251694,,,
729860388.278845,-2.436187,-2.905411,-28.069591,0.052963,-0.038452,1.020035,0.045007,0.011933,-0.014795,78.862778,5.964478,-148.251694,,,
729860388.282153,-2.436187,-2.905411,-28.069591,0.052963,-0.038452,1.020035,0.045007,0.011933,-0.014795,78.674667,5.944809,-148.078522,,,
729860388.285502,-2.430674,-2.898326,-28.072327,0.050171,-0.034683,1.000305,0.016047,0.02987,-0.013705,78.674667,5.944809,-148.078522,,,
729860388.288914,-2.428708,-2.888997,-28.074324,0.050171,-0.034683,1.000305,0.016047,0.02987,-0.013705,78.674667,5.944809,-148.078522,,,
729860388.292168,-2.428708,-2.888997,-28.074324,0.050171,-0.034683,1.000305,0.016047,0.02987,-0.013705,78.674667,5.944809,-148.078522,,,
729860388.295509,-2.431522,-2.880017,-28.07397,0.041,-0.039185,0.985153,-0.012896,0.036279,0.000825,78.674667,5.944809,-148.078522,,,
729860388.298841,-2.4384,-2.870517,-28.071732,0.041,-0.039185,0.985153,-0.012896,0.036279,0.000825,78.674667,5.944809,-148.078522,,,
729860388.302251,-2.4384,-2.870517,-28.071732,0.041,-0.039185,0.985153,-0.012896,0.036279,0.000825,78.674667,5.944809,-148.078522,,,
729860388.305518,-2.448356,-2.86526,-28.068663,0.036591,-0.04071,0.977188,-0.0366,0.01466,0.014989,78.674667,5.944809,-148.078522,,,
729860388.308834,-2.459992,-2.862665,-28.064926,0.036591,-0.04071,0.977188,-0.0366,0.01466,0.014989,78.674667,5.944809,-148.078522,,,
729860388.312162,-2.459992,-2.862665,-28.064926,0.036591,-0.04071,0.977188,-0.0366,0.01466,0.014989,78.674667,5.944809,-148.078522,,,
729860388.315491,-2.470231,-2.86722,-28.06189,0.041763,-0.039474,0.978241,-0.033835,-0.019014,0.011733,78.674667,5.944809,-148.078522,,,
729860388.318853,-2.478525,-2.875698,-28.060141,0.041763,-0.039474,0.978241,-0.033835,-0.019014,0.011733,78.674667,5.944809,-148.078522,,,
729860388.322183,-2.478525,-2.875698,-28.060141,0.041763,-0.039474,0.978241,-0.033835,-0.019014,0.011733,78.674667,5.944809,-148.078522,,,
729860388.325507,-2.482172,-2.891008,-28.059643,0.049896,-0.039597,0.988205,-0.009214,-0.056084,0.001178,78.568192,6.253677,-148.044922,,,
729860388.328897,-2.482128,-2.909446,-28.060517,0.049896,-0.039597,0.988205,-0.009214,-0.056084,0.001178,78.568192,6.253677,-148.044922,,,
729860388.332176,-2.482128,-2.909446,-28.060517,0.049896,-0.039597,0.988205,-0.009214,-0.056084,0.001178,78.568192,6.253677,-148.044922,,,
729860388.33551,-2.476868,-2.931778,-28.062751,0.056824,-0.041901,1.001877,0.022446,-0.075621,-0.010725,78.568192,6.253677,-148.044922,,,
729860388.338882,-2.466682,-2.954904,-28.065323,0.056824,-0.041901,1.001877,0.022446,-0.075621,-0.010725,78.568192,6.253677,-148.044922,,,
729860388.342229,-2.466682,-2.954904,-28.065323,0.056824,-0.041901,1.001877,0.022446,-0.075621,-0.010725,78.568192,6.253677,-148.044922,,,
729860388.345498,-2.452107,-2.977384,-28.067518,0.059265,-0.044113,1.012772,0.056243,-0.074549,-0.011966,78.568192,6.253677,-148.044922,,,
729860388.348928,-2.434338,-2.996574,-28.06903,0.059265,-0.044113,1.012772,0.056243,-0.074549,-0.011966,78.568192,6.253677,-148.044922,,,
729860388.352159,-2.434338,-2.996574,-28.06903,0.059265,-0.044113,1.012772,0.056243,-0.074549,-0.011966,78.568192,6.253677,-148.044922,,,
729860388.355574,-2.414871,-3.010521,-28.069637,0.05899,-0.04689,1.017212,0.071197,-0.038065,-0.009151,78.568192,6.253677,-148.044922,,,
729860388.358889,-2.393703,-3.018128,-28.069285,0.05899,-0.04689,1.017212,0.071197,-0.038065,-0.009151,78.568192,6.253677,-148.044922,,,
729860388.362154,-2.393703,-3.018128,-28.069285,0.05899,-0.04689,1.017212,0.071197,-0.038065,-0.009151,78.568192,6.253677,-148.044922,,,
729860388.365502,-2.375149,-3.020833,-28.06806,0.061157,-0.045197,1.010422,0.06307,-1.9e-05,0.001023,78.537155,6.273407,-148.242523,,,
729860388.36885,-2.358828,-3.018319,-28.066606,0.061157,-0.045197,1.010422,0.06307,-1.9e-05,0.001023,78.537155,6.273407,-148.242523,,,
729860388.372172,-2.358828,-3.018319,-28.066606,0.061157,-0.045197,1.010422,0.06307,-1.9e-05,0.001023,78.537155,6.273407,-148.242523,,,
729860388.375498,-2.346827,-3.01531,-28.065855,0.063324,-0.040756,0.991806,0.039042,0.015087,-0.000147,78.537155,6.273407,-148.242523,,,
729860388.378881,-2.338927,-3.008884,-28.066496,0.063324,-0.040756,0.991806,0.039042,0.015087,-0.000147,78.537155,6.273407,-148.242523,,,
729860388.382256,-2.338927,-3.008884,-28.066496,0.063324,-0.040756,0.991806,0.039042,0.015087,-0.000147,78.537155,6.273407,-148.242523,,,
729860388.385491,-2.335372,-3.006055,-28.069769,0.070145,-0.03389,0.97258,0.005192,0.013879,-0.014445,78.537155,6.273407,-148.242523,,,
729860388.388874,-2.336505,-3.000692,-28.075816,0.070145,-0.03389,0.97258,0.005192,0.013879,-0.014445,78.537155,6.273407,-148.242523,,,
729860388.392258,-2.336505,-3.000692,-28.075816,0.070145,-0.03389,0.97258,0.005192,0.013879,-0.014445,78.537155,6.273407,-148.242523,,,
729860388.395504,-2.341608,-2.99717,-28.084269,0.071808,-0.031937,0.968063,-0.021723,0.01701,-0.030396,78.537155,6.273407,-148.242523,,,
729860388.398834,-2.349068,-2.991708,-28.093938,0.071808,-0.031937,0.968063,-0.021723,0.01701,-0.030396,78.537155,6.273407,-148.242523,,,
729860388.402179,-2.349068,-2.991708,-28.093938,0.071808,-0.031937,0.968063,-0.021723,0.01701,-0.030396,78.537155,6.273407,-148.242523,,,
729860388.405497,-2.359321,-2.986597,-28.104008,0.065338,-0.033371,0.973068,-0.039943,0.023764,-0.033417,78.568878,6.121704,-148.146683,,,
729860388.408886,-2.371648,-2.982263,-28.113386,0.065338,-0.033371,0.973068,-0.039943,0.023764,-0.033417,78.568878,6.121704,-148.146683,,,
729860388.412168,-2.371648,-2.982263,-28.113386,0.065338,-0.033371,0.973068,-0.039943,0.023764,-0.033417,78.568878,6.121704,-148.146683,,,
729860388.415496,-2.384124,-2.977448,-28.121469,0.0569,-0.04129,0.983017,-0.044562,0.020772,-0.025291,78.568878,6.121704,-148.146683,,,
729860388.418918,-2.39626,-2.974335,-28.127685,0.0569,-0.04129,0.983017,-0.044562,0.020772,-0.025291,78.568878,6.121704,-148.146683,,,
729860388.422164,-2.39626,-2.974335,-28.127685,0.0569,-0.04129,0.983017,-0.044562,0.020772,-0.025291,78.568878,6.121704,-148.146683,,,
729860388.425504,-2.407469,-2.970419,-28.131898,0.051025,-0.047607,0.991898,-0.037334,0.014587,-0.0143,78.568878,6.121704,-148.146683,,,
729860388.42883,-2.407469,-2.970419,-28.131898,0.051025,-0.047607,0.991898,-0.037334,0.014587,-0.0143,78.568878,6.121704,-148.146683,,,
729860388.432158,-2.418578,-2.968192,-28.135557,0.051025,-0.047607,0.991898,-0.037334,0.014587,-0.0143,78.568878,6.121704,-148.146683,,,
729860388.435493,-2.42804,-2.965768,-28.139241,0.053314,-0.047607,0.997314,-0.029566,0.00854,-0.01222,78.568878,6.121704,-148.146683,,,
729860388.43887,-2.436468,-2.966225,-28.143483,0.053314,-0.047607,0.997314,-0.029566,0.00854,-0.01222,78.568878,6.121704,-148.146683,,,
729860388.442162,-2.436468,-2.966225,-28.143483,0.053314,-0.047607,0.997314,-0.029566,0.00854,-0.01222,78.568878,6.121704,-148.146683,,,
729860388.445567,-2.442534,-2.966514,-28.148816,0.057114,-0.047592,1.00267,-0.017091,0.001076,-0.018826,78.568878,6.121704,-148.146683,,,
729860388.448822,-2.442534,-2.966514,-28.148816,0.057114,-0.047592,1.00267,-0.017091,0.001076,-0.018826,78.742554,6.276947,-148.190628,,,
729860388.452178,-2.4471,-2.969978,-28.155878,0.057114,-0.047592,1.00267,-0.017091,0.001076,-0.018826,78.742554,6.276947,-148.190628,,,
729860388.455515,-2.450239,-2.972475,-28.164431,0.063385,-0.045609,1.003647,-0.009474,-0.006037,-0.032072,78.742554,6.276947,-148.190628,,,
729860388.458891,-2.450239,-2.979395,-28.174106,0.063385,-0.045609,1.003647,-0.009474,-0.006037,-0.032072,78.742554,6.276947,-148.190628,,,
729860388.462169,-2.450792,-2.979395,-28.174106,0.063385,-0.045609,1.003647,-0.009474,-0.006037,-0.032072,78.742554,6.276947,-148.190628,,,
729860388.465496,-2.450942,-2.983276,-28.184443,0.0616,-0.044937,1.001907,-0.001804,-0.011944,-0.036458,78.742554,6.276947,-148.190628,,,
729860388.468943,-2.450942,-2.983276,-28.184443,0.0616,-0.044937,1.001907,-0.001804,-0.011944,-0.036458,78.742554,6.276947,-148.190628,,,
729860388.472172,-2.448137,-2.991881,-28.195468,0.0616,-0.044937,1.001907,-0.001804,-0.011944,-0.036458,78.742554,6.276947,-148.190628,,,
729860388.475525,-2.445516,-2.995678,-28.206735,0.059067,-0.045639,1.005066,0.008697,-0.007182,-0.043418,78.742554,6.276947,-148.190628,,,
729860388.478827,-2.445516,-2.995678,-28.206735,0.059067,-0.045639,1.005066,0.008697,-0.007182,-0.043418,78.742554,6.276947,-148.190628,,,
729860388.482166,-2.4404,-3.002044,-28.21907,0.059067,-0.045639,1.005066,0.008697,-0.007182,-0.043418,78.742554,6.276947,-148.190628,,,
729860388.485499,-2.436824,-3.002407,-28.231436,0.055695,-0.047073,1.003769,0.010209,0.004985,-0.042327,78.742554,6.276947,-148.190628,,,
729860388.488854,-2.436824,-3.002407,-28.231436,0.055695,-0.047073,1.003769,0.010209,0.004985,-0.042327,78.464142,6.325195,-147.978729,,,
729860388.492169,-2.433725,-3.001759,-28.242749,0.055695,-0.047073,1.003769,0.010209,0.004985,-0.042327,78.464142,6.325195,-147.978729,,,
729860388.495567,-2.433404,-2.996958,-28.252682,0.050003,-0.043274,0.995041,-0.002026,0.024903,-0.035099,78.464142,6.325195,-147.978729,,,
729860388.498844,-2.433404,-2.996958,-28.252682,0.050003,-0.043274,0.995041,-0.002026,0.024903,-0.035099,78.464142,6.325195,-147.978729,,,
729860388.502181,-2.435712,-2.989729,-28.261561,0.050003,-0.043274,0.995041,-0.002026,0.024903,-0.035099,78.464142,6.325195,-147.978729,,,
729860388.505515,-2.439292,-2.980063,-28.268561,0.045624,-0.046478,0.988968,-0.016675,0.041544,-0.022107,78.464142,6.325195,-147.978729,,,
729860388.508891,-2.439292,-2.980063,-28.268561,0.045624,-0.046478,0.988968,-0.016675,0.041544,-0.022107,78.464142,6.325195,-147.978729,,,
729860388.512222,-2.44516,-2.968323,-28.27388,0.045624,-0.046478,0.988968,-0.016675,0.041544,-0.022107,78.464142,6.325195,-147.978729,,,
729860388.515497,-2.450869,-2.95528,-28.278119,0.043716,-0.048538,0.987823,-0.019012,0.048247,-0.012513,78.464142,6.325195,-147.978729,,,
729860388.518825,-2.450869,-2.95528,-28.278119,0.043716,-0.048538,0.987823,-0.019012,0.048247,-0.012513,78.464142,6.325195,-147.978729,,,
729860388.522244,-2.458994,-2.943429,-28.281979,0.043716,-0.048538,0.987823,-0.019012,0.048247,-0.012513,78.464142,6.325195,-147.978729,,,
729860388.52551,-2.467111,-2.932702,-28.286147,0.042984,-0.046265,0.986313,-0.026735,0.037016,-0.012336,78.464142,6.325195,-147.978729,,,
729860388.528844,-2.467111,-2.932702,-28.286147,0.042984,-0.046265,0.986313,-0.026735,0.037016,-0.012336,78.688873,6.139633,-147.75589,,,
729860388.532198,-2.474774,-2.927095,-28.290484,0.042984,-0.046265,0.986313,-0.026735,0.037016,-0.012336,78.688873,6.139633,-147.75589,,,
729860388.53551,-2.480152,-2.922848,-28.29512,0.047501,-0.045227,0.98761,-0.014748,0.014598,-0.016099,78.688873,6.139633,-147.75589,,,
729860388.538861,-2.480152,-2.922848,-28.29512,0.047501,-0.045227,0.98761,-0.014748,0.014598,-0.016099,78.688873,6.139633,-147.75589,,,
729860388.542182,-2.483925,-2.925176,-28.300291,0.047501,-0.045227,0.98761,-0.014748,0.014598,-0.016099,78.688873,6.139633,-147.75589,,,
729860388.545502,-2.485317,-2.929426,-28.305614,0.043915,-0.049179,0.994156,-0.00269,-0.012485,-0.0181,78.688873,6.139633,-147.75589,,,
729860388.548867,-2.485317,-2.929426,-28.305614,0.043915,-0.049179,0.994156,-0.00269,-0.012485,-0.0181,78.688873,6.139633,-147.75589,,,
729860388.552181,-2.485437,-2.93888,-28.310793,0.043915,-0.049179,0.994156,-0.00269,-0.012485,-0.0181,78.688873,6.139633,-147.75589,,,
729860388.555524,-2.484859,-2.949597,-28.315485,0.046021,-0.047012,0.988617,0.00068,-0.033682,-0.018638,78.688873,6.139633,-147.75589,,,
729860388.558881,-2.484859,-2.949597,-28.315485,0.046021,-0.047012,0.988617,0.00068,-0.033682,-0.018638,78.688873,6.139633,-147.75589,,,
729860388.562246,-2.484543,-2.962518,-28.321137,0.046021,-0.047012,0.988617,0.00068,-0.033682,-0.018638,78.688873,6.139633,-147.75589,,,
729860388.565506,-2.483919,-2.974031,-28.327368,0.050125,-0.044739,0.985611,0.002054,-0.036768,-0.025284,78.688873,6.139633,-147.75589,,,
729860388.568835,-2.483919,-2.974031,-28.327368,0.050125,-0.044739,0.985611,0.002054,-0.036768,-0.025284,78.666763,6.398621,-148.182114,,,
729860388.572189,-2.483711,-2.984696,-28.333459,0.050125,-0.044739,0.985611,0.002054,-0.036768,-0.025284,78.666763,6.398621,-148.182114,,,
729860388.575541,-2.484238,-2.993631,-28.340111,0.050659,-0.045868,0.99054,-0.000751,-0.029246,-0.021734,78.666763,6.398621,-148.182114,,,
729860388.57889,-2.484238,-2.993631,-28.340111,0.050659,-0.045868,0.99054,-0.000751,-0.029246,-0.021734,78.666763,6.398621,-148.182114,,,
729860388.582167,-2.48646,-2.99912,-28.346811,0.050659,-0.045868,0.99054,-0.000751,-0.029246,-0.021734,78.666763,6.398621,-148.182114,,,
729860388.585497,-2.489264,-3.002679,-28.353199,0.051025,-0.044571,0.988907,-0.00724,-0.004074,-0.021936,78.666763,6.398621,-148.182114,,,
729860388.58891,-2.489264,-3.002679,-28.353199,0.051025,-0.044571,0.988907,-0.00724,-0.004074,-0.021936,78.666763,6.398621,-148.182114,,,
729860388.592194,-2.494431,-3.001802,-28.35927,0.051025,-0.044571,0.988907,-0.00724,-0.004074,-0.021936,78.666763,6.398621,-148.182114,,,
729860388.595499,-2.501364,-2.999141,-28.364932,0.050095,-0.044342,0.989105,-0.025426,0.015761,-0.018176,78.666763,6.398621,-148.182114,,,
729860388.598829,-2.501364,-2.999141,-28.364932,0.050095,-0.044342,0.989105,-0.025426,0.015761,-0.018176,78.666763,6.398621,-148.182114,,,
729860388.602239,-2.511723,-2.991523,-28.369925,0.050095,-0.044342,0.989105,-0.025426,0.015761,-0.018176,78.666763,6.398621,-148.182114,,,
729860388.605494,-2.524673,-2.983454,-28.374761,0.047211,-0.046188,0.984726,-0.049949,0.035252,-0.016626,78.666763,6.398621,-148.182114,,,
729860388.608833,-2.524673,-2.983454,-28.374761,0.047211,-0.046188,0.984726,-0.049949,0.035252,-0.016626,78.666763,6.398621,-148.182114,,,
729860388.612198,-2.54149,-2.97254,-28.379276,0.047211,-0.046188,0.984726,-0.049949,0.035252,-0.016626,78.488525,6.346802,-148.181046,,,
729860388.6155,-2.560419,-2.962564,-28.383369,0.044373,-0.045914,0.980103,-0.068682,0.039362,-0.009384,78.488525,6.346802,-148.181046,,,
729860388.618846,-2.560419,-2.962564,-28.383369,0.044373,-0.045914,0.980103,-0.068682,0.039362,-0.009384,78.488525,6.346802,-148.181046,,,
729860388.622189,-2.581996,-2.951878,-28.387222,0.044373,-0.045914,0.980103,-0.068682,0.039362,-0.009384,78.488525,6.346802,-148.181046,,,
729860388.625507,-2.604005,-2.942789,-28.391349,0.046234,-0.046326,0.979172,-0.074728,0.035044,-0.012695,78.488525,6.346802,-148.181046,,,
729860388.628921,-2.604005,-2.942789,-28.391349,0.046234,-0.046326,0.979172,-0.074728,0.035044,-0.012695,78.488525,6.346802,-148.181046,,,
729860388.63216,-2.624803,-2.93291,-28.395608,0.046234,-0.046326,0.979172,-0.074728,0.035044,-0.012695,78.488525,6.346802,-148.181046,,,
729860388.635503,-2.641729,-2.925093,-28.399901,0.044876,-0.051285,0.993271,-0.058611,0.030467,-0.012464,78.488525,6.346802,-148.181046,,,
729860388.638843,-2.641729,-2.925093,-28.399901,0.044876,-0.051285,0.993271,-0.058611,0.030467,-0.012464,78.488525,6.346802,-148.181046,,,
729860388.642241,-2.65483,-2.919549,-28.40363,0.044876,-0.051285,0.993271,-0.058611,0.030467,-0.012464,78.488525,6.346802,-148.181046,,,
729860388.645492,-2.663087,-2.918848,-28.406357,0.041321,-0.056076,1.008469,-0.024195,0.00205,-0.008501,78.488525,6.346802,-148.181046,,,
729860388.648832,-2.663087,-2.918848,-28.406357,0.041321,-0.056076,1.008469,-0.024195,0.00205,-0.008501,78.488525,6.346802,-148.181046,,,
729860388.652183,-2.66607,-2.922686,-28.408617,0.041321,-0.056076,1.008469,-0.024195,0.00205,-0.008501,78.938477,6.452499,-148.421387,,,
729860388.6555,-2.664356,-2.930709,-28.410981,0.04068,-0.058273,1.009125,0.009952,-0.02788,-0.009516,78.938477,6.452499,-148.421387,,,
729860388.658832,-2.664356,-2.930709,-28.410981,0.04068,-0.058273,1.009125,0.009952,-0.02788,-0.009516,78.938477,6.452499,-148.421387,,,
729860388.662181,-2.658965,-2.942284,-28.413578,0.04068,-0.058273,1.009125,0.009952,-0.02788,-0.009516,78.938477,6.452499,-148.421387,,,
729860388.665531,-2.652731,-2.956045,-28.416755,0.047211,-0.052795,1.005875,0.021179,-0.045383,-0.014402,78.938477,6.452499,-148.421387,,,
729860388.668869,-2.652731,-2.956045,-28.416755,0.047211,-0.052795,1.005875,0.021179,-0.045383,-0.014402,78.938477,6.452499,-148.421387,,,
729860388.672193,-2.646614,-2.970175,-28.421235,0.047211,-0.052795,1.005875,0.021179,-0.045383,-0.014402,78.938477,6.452499,-148.421387,,,
729860388.675517,-2.642277,-2.983807,-28.427242,0.05101,-0.046875,0.997101,0.014424,-0.045392,-0.022416,78.938477,6.452499,-148.421387,,,
729860388.678862,-2.642277,-2.983807,-28.427242,0.05101,-0.046875,0.997101,0.014424,-0.045392,-0.022416,78.938477,6.452499,-148.421387,,,
729860388.682203,-2.641074,-2.99538,-28.433818,0.05101,-0.046875,0.997101,0.014424,-0.045392,-0.022416,78.938477,6.452499,-148.421387,,,
729860388.685502,-2.643944,-3.005603,-28.440336,0.051804,-0.043991,0.984573,-0.013136,-0.031083,-0.025507,78.938477,6.452499,-148.421387,,,
729860388.688849,-2.643944,-3.005603,-28.440336,0.051804,-0.043991,0.984573,-0.013136,-0.031083,-0.025507,78.938477,6.452499,-148.421387,,,
729860388.692173,-2.651848,-3.012125,-28.446883,0.051804,-0.043991,0.984573,-0.013136,-0.031083,-0.025507,78.783279,6.634308,-148.425339,,,
729860388.695534,-2.663893,-3.016989,-28.452974,0.050797,-0.044067,0.974121,-0.041796,-0.010356,-0.018964,78.783279,6.634308,-148.425339,,,
729860388.698829,-2.663893,-3.016989,-28.452974,0.050797,-0.044067,0.974121,-0.041796,-0.010356,-0.018964,78.783279,6.634308,-148.425339,,,
729860388.702217,-2.678554,-3.018313,-28.458616,0.050797,-0.044067,0.974121,-0.041796,-0.010356,-0.018964,78.783279,6.634308,-148.425339,,,
729860388.705492,-2.694473,-3.020033,-28.46381,0.044998,-0.045197,0.976349,-0.05993,-0.001162,-0.015081,78.783279,6.634308,-148.425339,,,
729860388.708838,-2.694473,-3.020033,-28.46381,0.044998,-0.045197,0.976349,-0.05993,-0.001162,-0.015081,78.783279,6.634308,-148.425339,,,
729860388.712172,-2.711071,-3.019717,-28.467525,0.044998,-0.045197,0.976349,-0.05993,-0.001162,-0.015081,78.783279,6.634308,-148.425339,,,
729860388.715505,-2.726275,-3.019202,-28.46959,0.040024,-0.049942,0.986511,-0.052531,0.007642,-0.003827,78.783279,6.634308,-148.425339,,,
729860388.71885,-2.726275,-3.019202,-28.46959,0.040024,-0.049942,0.986511,-0.052531,0.007642,-0.003827,78.783279,6.634308,-148.425339,,,
729860388.722249,-2.740472,-3.015311,-28.469813,0.040024,-0.049942,0.986511,-0.052531,0.007642,-0.003827,78.783279,6.634308,-148.425339,,,
729860388.725526,-2.751457,-3.013063,-28.468763,0.038086,-0.056046,0.997818,-0.038119,0.011524,0.004217,78.783279,6.634308,-148.425339,,,
729860388.728843,-2.751457,-3.013063,-28.468763,0.038086,-0.056046,0.997818,-0.038119,0.011524,0.004217,78.783279,6.634308,-148.425339,,,
729860388.732166,-2.761857,-3.007583,-28.466483,0.038086,-0.056046,0.997818,-0.038119,0.011524,0.004217,78.678223,6.614014,-148.72084,,,
729860388.735501,-2.769212,-3.00284,-28.463795,0.042252,-0.056778,1.006699,-0.024726,0.020557,0.00945,78.678223,6.614014,-148.72084,,,
729860388.738834,-2.769212,-3.00284,-28.463795,0.042252,-0.056778,1.006699,-0.024726,0.020557,0.00945,78.678223,6.614014,-148.72084,,,
729860388.742234,-2.777422,-2.99392,-28.460987,0.042252,-0.056778,1.006699,-0.024726,0.020557,0.00945,78.678223,6.614014,-148.72084,,,
729860388.745505,-2.783131,-2.984644,-28.458248,0.048981,-0.05336,1.008881,-0.016435,0.035694,0.010105,78.678223,6.614014,-148.72084,,,
729860388.748835,-2.783131,-2.984644,-28.458248,0.048981,-0.05336,1.008881,-0.016435,0.035694,0.010105,78.678223,6.614014,-148.72084,,,
729860388.752179,-2.788223,-2.973544,-28.455909,0.048981,-0.05336,1.008881,-0.016435,0.035694,0.010105,78.678223,6.614014,-148.72084,,,
729860388.755503,-2.79357,-2.962478,-28.45427,0.049698,-0.049149,1.00354,-0.017589,0.040514,0.005528,78.678223,6.614014,-148.72084,,,
729860388.758857,-2.79357,-2.962478,-28.45427,0.049698,-0.049149,1.00354,-0.017589,0.040514,0.005528,78.678223,6.614014,-148.72084,,,
729860388.762185,-2.798482,-2.952906,-28.453533,0.049698,-0.049149,1.00354,-0.017589,0.040514,0.005528,78.678223,6.614014,-148.72084,,,
729860388.765499,-2.804642,-2.945822,-28.453933,0.051407,-0.046707,0.992905,-0.021159,0.024192,-0.003433,78.678223,6.614014,-148.72084,,,
729860388.768934,-2.804642,-2.945822,-28.453933,0.051407,-0.046707,0.992905,-0.021159,0.024192,-0.003433,78.678223,6.614014,-148.72084,,,
729860388.772169,-2.810134,-2.942046,-28.455215,0.051407,-0.046707,0.992905,-0.021159,0.024192,-0.003433,78.678223,6.614014,-148.72084,,,
729860388.775515,-2.816838,-2.941972,-28.457395,0.046753,-0.04657,0.984177,-0.023694,-0.002961,-0.008555,78.785141,6.658676,-148.365845,,,
729860388.778849,-2.816838,-2.941972,-28.457395,0.046753,-0.04657,0.984177,-0.023694,-0.002961,-0.008555,78.785141,6.658676,-148.365845,,,
729860388.782189,-2.82372,-2.946523,-28.460201,0.046753,-0.04657,0.984177,-0.023694,-0.002961,-0.008555,78.785141,6.658676,-148.365845,,,
729860388.785518,-2.831732,-2.957089,-28.463543,0.044357,-0.047531,0.97908,-0.029019,-0.038818,-0.012206,78.785141,6.658676,-148.365845,,,
729860388.788838,-2.831732,-2.957089,-28.463543,0.044357,-0.047531,0.97908,-0.029019,-0.038818,-0.012206,78.785141,6.658676,-148.365845,,,
729860388.792224,-2.839961,-2.970475,-28.467192,0.044357,-0.047531,0.97908,-0.029019,-0.038818,-0.012206,78.785141,6.658676,-148.365845,,,
729860388.795494,-2.848743,-2.989072,-28.470402,0.04274,-0.049179,0.975815,-0.031492,-0.061869,-0.011461,78.785141,6.658676,-148.365845,,,
729860388.798836,-2.848743,-2.989072,-28.470402,0.04274,-0.049179,0.975815,-0.031492,-0.061869,-0.011461,78.785141,6.658676,-148.365845,,,
729860388.802168,-2.858944,-3.006787,-28.472851,0.04274,-0.049179,0.975815,-0.031492,-0.061869,-0.011461,78.785141,6.658676,-148.365845,,,
729860388.8055,-2.869291,-3.026863,-28.475416,0.043106,-0.051865,0.982071,-0.037583,-0.06564,-0.005181,78.785141,6.658676,-148.365845,,,
729860388.808953,-2.869291,-3.026863,-28.475416,0.043106,-0.051865,0.982071,-0.037583,-0.06564,-0.005181,78.785141,6.658676,-148.365845,,,
729860388.81216,-2.881132,-3.042151,-28.477253,0.043106,-0.051865,0.982071,-0.037583,-0.06564,-0.005181,78.785141,6.658676,-148.365845,,,
729860388.815512,-2.891141,-3.055529,-28.478126,0.045059,-0.053482,0.992432,-0.032262,-0.040273,-0.000624,78.652084,6.578369,-148.519119,,,
729860388.818931,-2.891141,-3.055529,-28.478126,0.045059,-0.053482,0.992432,-0.032262,-0.040273,-0.000624,78.652084,6.578369,-148.519119,,,
729860388.82218,-2.900757,-3.061779,-28.477767,0.045059,-0.053482,0.992432,-0.032262,-0.040273,-0.000624,78.652084,6.578369,-148.519119,,,
729860388.825503,-2.909705,-3.063366,-28.475969,0.045471,-0.056168,1.009857,-0.029267,0.002983,0.007161,78.652084,6.578369,-148.519119,,,
729860388.828832,-2.909705,-3.063366,-28.475969,0.045471,-0.056168,1.009857,-0.029267,0.002983,0.007161,78.652084,6.578369,-148.519119,,,
729860388.832172,-2.918744,-3.058251,-28.472524,0.045471,-0.056168,1.009857,-0.029267,0.002983,0.007161,78.652084,6.578369,-148.519119,,,
729860388.835499,-2.927637,-3.048795,-28.468274,0.048401,-0.055222,1.017426,-0.029078,0.040818,0.014914,78.652084,6.578369,-148.519119,,,
729860388.83885,-2.927637,-3.048795,-28.468274,0.048401,-0.055222,1.017426,-0.029078,0.040818,0.014914,78.652084,6.578369,-148.519119,,,
729860388.842248,-2.935456,-3.034848,-28.464094,0.048401,-0.055222,1.017426,-0.029078,0.040818,0.014914,78.652084,6.578369,-148.519119,,,
729860388.845499,-2.943066,-3.018476,-28.460268,0.053101,-0.052658,1.016129,-0.026972,0.061917,0.014029,78.652084,6.578369,-148.519119,,,
729860388.848836,-2.943066,-3.018476,-28.460268,0.053101,-0.052658,1.016129,-0.026972,0.061917,0.014029,78.652084,6.578369,-148.519119,,,
729860388.852193,-2.949294,-3.000728,-28.457287,0.053101,-0.052658,1.016129,-0.026972,0.061917,0.014029,78.652084,6.578369,-148.519119,,,
729860388.855508,-2.954845,-2.98499,-28.455241,0.053497,-0.050125,1.015045,-0.016359,0.054254,0.005167,78.661301,6.736893,-148.73378,,,
729860388.858834,-2.954845,-2.98499,-28.455241,0.053497,-0.050125,1.015045,-0.016359,0.054254,0.005167,78.661301,6.736893,-148.73378,,,
729860388.862174,-2.957125,-2.971368,-28.454093,0.053497,-0.050125,1.015045,-0.016359,0.054254,0.005167,78.661301,6.736893,-148.73378,,,
729860388.865506,-2.956894,-2.965161,-28.453516,0.050003,-0.052414,1.008041,0.003778,0.018971,-0.001686,78.661301,6.736893,-148.73378,,,
729860388.868839,-2.956894,-2.965161,-28.453516,0.050003,-0.052414,1.008041,0.003778,0.018971,-0.001686,78.661301,6.736893,-148.73378,,,
729860388.872192,-2.952735,-2.964913,-28.453123,0.050003,-0.052414,1.008041,0.003778,0.018971,-0.001686,78.661301,6.736893,-148.73378,,,
729860388.875529,-2.945724,-2.972983,-28.453789,0.045425,-0.055817,1.00322,0.024653,-0.03038,-0.007452,78.661301,6.736893,-148.73378,,,
729860388.878849,-2.945724,-2.972983,-28.453789,0.045425,-0.055817,1.00322,0.024653,-0.03038,-0.007452,78.661301,6.736893,-148.73378,,,
729860388.882178,-2.936444,-2.985373,-28.454677,0.045425,-0.055817,1.00322,0.024653,-0.03038,-0.007452,78.661301,6.736893,-148.73378,,,
729860388.885506,-2.925225,-3.004756,-28.455408,0.043274,-0.056564,0.999054,0.03962,-0.067414,-0.00626,78.661301,6.736893,-148.73378,,,
729860388.888843,-2.925225,-3.004756,-28.455408,0.043274,-0.056564,0.999054,0.03962,-0.067414,-0.00626,78.661301,6.736893,-148.73378,,,
729860388.892181,-2.914241,-3.025636,-28.455611,0.043274,-0.056564,0.999054,0.03962,-0.067414,-0.00626,78.661301,6.736893,-148.73378,,,
729860388.895542,-2.903657,-3.048908,-28.455321,0.044586,-0.053177,0.992966,0.038412,-0.07841,-0.002432,78.661301,6.736893,-148.73378,,,
729860388.898829,-2.903657,-3.048908,-28.455321,0.044586,-0.053177,0.992966,0.038412,-0.07841,-0.002432,78.528381,6.724548,-148.55986,,,
729860388.902175,-2.895109,-3.068545,-28.454301,0.044586,-0.053177,0.992966,0.038412,-0.07841,-0.002432,78.528381,6.724548,-148.55986,,,
729860388.90551,-2.887427,-3.08681,-28.451278,0.044159,-0.052856,0.991501,0.029099,-0.05827,0.007812,78.528381,6.724548,-148.55986,,,
729860388.908911,-2.887427,-3.08681,-28.451278,0.044159,-0.052856,0.991501,0.029099,-0.05827,0.007812,78.528381,6.724548,-148.55986,,,
729860388.912177,-2.882595,-3.100421,-28.446139,0.044159,-0.052856,0.991501,0.029099,-0.05827,0.007812,78.528381,6.724548,-148.55986,,,
729860388.915512,-2.879362,-3.111398,-28.439885,0.045761,-0.055023,0.992294,0.01156,-0.033766,0.022519,78.528381,6.724548,-148.55986,,,
729860388.918837,-2.879362,-3.111398,-28.439885,0.045761,-0.055023,0.992294,0.01156,-0.033766,0.022519,78.528381,6.724548,-148.55986,,,
729860388.922248,-2.879036,-3.11755,-28.432042,0.045761,-0.055023,0.992294,0.01156,-0.033766,0.022519,78.528381,6.724548,-148.55986,,,
729860388.925547,-2.880248,-3.120492,-28.423357,0.052917,-0.051682,0.990677,-0.003906,-0.004959,0.029257,78.528381,6.724548,-148.55986,,,
729860388.928867,-2.880248,-3.120492,-28.423357,0.052917,-0.051682,0.990677,-0.003906,-0.004959,0.029257,78.528381,6.724548,-148.55986,,,
729860388.932178,-2.881542,-3.119719,-28.414836,0.052917,-0.051682,0.990677,-0.003906,-0.004959,0.029257,78.528381,6.724548,-148.55986,,,
729860388.93551,-2.882723,-3.117537,-28.407316,0.060913,-0.051483,0.993683,-0.000792,0.011909,0.022878,78.528381,6.724548,-148.55986,,,
729860388.938865,-2.882723,-3.117537,-28.407316,0.060913,-0.051483,0.993683,-0.000792,0.011909,0.022878,78.568863,6.804123,-148.075302,,,
729860388.942183,-2.883529,-3.1142,-28.401351,0.060913,-0.051483,0.993683,-0.000792,0.011909,0.022878,78.568863,6.804123,-148.075302,,,
729860388.945511,-2.883455,-3.113059,-28.397547,0.066208,-0.050644,0.996948,0.001836,0.004074,0.00933,78.568863,6.804123,-148.075302,,,
729860388.948837,-2.883455,-3.113059,-28.397547,0.066208,-0.050644,0.996948,0.001836,0.004074,0.00933,78.568863,6.804123,-148.075302,,,
729860388.952175,-2.883286,-3.112942,-28.396333,0.066208,-0.050644,0.996948,0.001836,0.004074,0.00933,78.568863,6.804123,-148.075302,,,
729860388.955503,-2.881723,-3.116393,-28.398074,0.07077,-0.046265,0.992844,0.006291,-0.008721,-0.012083,78.568863,6.804123,-148.075302,,,
729860388.958924,-2.881723,-3.116393,-28.398074,0.07077,-0.046265,0.992844,0.006291,-0.008721,-0.012083,78.568863,6.804123,-148.075302,,,
729860388.96218,-2.881656,-3.119373,-28.402215,0.07077,-0.046265,0.992844,0.006291,-0.008721,-0.012083,78.568863,6.804123,-148.075302,,,
729860388.965503,-2.88112,-3.125809,-28.407872,0.069901,-0.04718,0.988403,0.0025,-0.022154,-0.023964,78.568863,6.804123,-148.075302,,,
729860388.968863,-2.88112,-3.125809,-28.407872,0.069901,-0.04718,0.988403,0.0025,-0.022154,-0.023964,78.568863,6.804123,-148.075302,,,
729860388.972232,-2.882665,-3.13092,-28.413861,0.069901,-0.04718,0.988403,0.0025,-0.022154,-0.023964,78.568863,6.804123,-148.075302,,,
729860388.975495,-2.885596,-3.13931,-28.419608,0.063004,-0.049927,0.982025,-0.012974,-0.028227,-0.020319,78.568863,6.804123,-148.075302,,,
729860388.978833,-2.885596,-3.13931,-28.419608,0.063004,-0.049927,0.982025,-0.012974,-0.028227,-0.020319,78.544006,6.697067,-148.313141,,,
729860388.982178,-2.890792,-3.147206,-28.424123,0.063004,-0.049927,0.982025,-0.012974,-0.028227,-0.020319,78.544006,6.697067,-148.313141,,,
729860388.985511,-2.897282,-3.158207,-28.426457,0.053436,-0.055069,0.978409,-0.02544,-0.035718,-0.005752,78.544006,6.697067,-148.313141,,,
729860388.988849,-2.897282,-3.158207,-28.426457,0.053436,-0.055069,0.978409,-0.02544,-0.035718,-0.005752,78.544006,6.697067,-148.313141,,,
729860388.992177,-2.905489,-3.168954,-28.426934,0.053436,-0.055069,0.978409,-0.02544,-0.035718,-0.005752,78.544006,6.697067,-148.313141,,,
729860388.995509,-2.912127,-3.183194,-28.426299,0.050629,-0.056061,0.981781,-0.021993,-0.045427,0.006072,78.544006,6.697067,-148.313141,,,
729860388.998864,-2.912127,-3.183194,-28.426299,0.050629,-0.056061,0.981781,-0.021993,-0.045427,0.006072,78.544006,6.697067,-148.313141,,,
729860389.002182,-2.917123,-3.197665,-28.424515,0.050629,-0.056061,0.981781,-0.021993,-0.045427,0.006072,78.544006,6.697067,-148.313141,,,
729860389.005502,-2.919592,-3.213641,-28.422808,0.055481,-0.058456,0.994476,-0.00608,-0.052155,0.003769,78.544006,6.697067,-148.313141,,,
729860389.008913,-2.919592,-3.213641,-28.422808,0.055481,-0.058456,0.994476,-0.00608,-0.052155,0.003769,78.544006,6.697067,-148.313141,,,
729860389.012172,-2.919733,-3.229694,-28.421241,0.055481,-0.058456,0.994476,-0.00608,-0.052155,0.003769,78.544006,6.697067,-148.313141,,,
729860389.015504,-2.916859,-3.2439,-28.420627,0.062775,-0.056671,1.007996,0.012193,-0.045381,-0.002866,78.544006,6.697067,-148.313141,,,
729860389.018832,-2.916859,-3.2439,-28.420627,0.062775,-0.056671,1.007996,0.012193,-0.045381,-0.002866,78.48674,6.525269,-148.000824,,,
729860389.022168,-2.911665,-3.25728,-28.42134,0.062775,-0.056671,1.007996,0.012193,-0.045381,-0.002866,78.48674,6.525269,-148.000824,,,
729860389.025508,-2.904937,-3.266752,-28.422438,0.068604,-0.054413,1.014282,0.020995,-0.02887,-0.007019,78.48674,6.525269,-148.000824,,,
729860389.028861,-2.904937,-3.266752,-28.422438,0.068604,-0.054413,1.014282,0.020995,-0.02887,-0.007019,78.48674,6.525269,-148.000824,,,
729860389.032219,-2.897491,-3.275674,-28.423986,0.068604,-0.054413,1.014282,0.020995,-0.02887,-0.007019,78.48674,6.525269,-148.000824,,,
729860389.035504,-2.89088,-3.278932,-28.425464,0.067322,-0.05629,1.009521,0.026317,-0.006536,-0.007883,78.48674,6.525269,-148.000824,,,
729860389.038857,-2.89088,-3.278932,-28.425464,0.067322,-0.05629,1.009521,0.026317,-0.006536,-0.007883,78.48674,6.525269,-148.000824,,,
729860389.04218,-2.884346,-3.283171,-28.426754,0.067322,-0.05629,1.009521,0.026317,-0.006536,-0.007883,78.48674,6.525269,-148.000824,,,
729860389.045505,-2.878719,-3.283284,-28.427335,0.063309,-0.056274,1.003967,0.01945,0.006131,-0.003401,78.48674,6.525269,-148.000824,,,
729860389.048832,-2.878719,-3.283284,-28.427335,0.063309,-0.056274,1.003967,0.01945,0.006131,-0.003401,78.48674,6.525269,-148.000824,,,
729860389.052167,-2.872452,-3.284963,-28.427798,0.063309,-0.056274,1.003967,0.01945,0.006131,-0.003401,78.48674,6.525269,-148.000824,,,
729860389.055501,-2.866244,-3.285633,-28.428574,0.062531,-0.055084,0.99556,0.02307,-0.000312,-0.005206,78.48674,6.525269,-148.000824,,,
729860389.058912,-2.866244,-3.285633,-28.428574,0.062531,-0.055084,0.99556,0.02307,-0.000312,-0.005206,78.48674,6.525269,-148.000824,,,
729860389.062187,-2.861188,-3.287831,-28.430636,0.062531,-0.055084,0.99556,0.02307,-0.000312,-0.005206,78.357132,6.47287,-148.246933,,,
729860389.0655,-2.856723,-3.291033,-28.434539,0.065674,-0.049057,0.992416,0.014639,-0.009547,-0.017204,78.357132,6.47287,-148.246933,,,
729860389.068836,-2.856723,-3.291033,-28.434539,0.065674,-0.049057,0.992416,0.014639,-0.009547,-0.017204,78.357132,6.47287,-148.246933,,,
729860389.072275,-2.855377,-3.295793,-28.439955,0.065674,-0.049057,0.992416,0.014639,-0.009547,-0.017204,78.357132,6.47287,-148.246933,,,
729860389.075503,-2.854413,-3.304374,-28.447036,0.067078,-0.044464,0.98204,0.001311,-0.029591,-0.028678,78.357132,6.47287,-148.246933,,,
729860389.078843,-2.854413,-3.304374,-28.447036,0.067078,-0.044464,0.98204,0.001311,-0.029591,-0.028678,78.357132,6.47287,-148.246933,,,
729860389.082276,-2.856396,-3.3138,-28.455618,0.067078,-0.044464,0.98204,0.001311,-0.029591,-0.028678,78.357132,6.47287,-148.246933,,,
729860389.085499,-2.859079,-3.325618,-28.465301,0.065292,-0.045563,0.975204,-0.010891,-0.036942,-0.033181,78.357132,6.47287,-148.246933,,,
729860389.088854,-2.859079,-3.325618,-28.465301,0.065292,-0.045563,0.975204,-0.010891,-0.036942,-0.033181,78.357132,6.47287,-148.246933,,,
729860389.092234,-2.865175,-3.33838,-28.474423,0.065292,-0.045563,0.975204,-0.010891,-0.036942,-0.033181,78.357132,6.47287,-148.246933,,,
729860389.095572,-2.871736,-3.350399,-28.481671,0.056305,-0.05191,0.977829,-0.02465,-0.039308,-0.022718,78.357132,6.47287,-148.246933,,,
729860389.098837,-2.871736,-3.350399,-28.481671,0.056305,-0.05191,0.977829,-0.02465,-0.039308,-0.022718,78.357132,6.47287,-148.246933,,,
729860389.102175,-2.879832,-3.362908,-28.486677,0.056305,-0.05191,0.977829,-0.02465,-0.039308,-0.022718,78.391785,6.623672,-148.009003,,,
729860389.105506,-2.888536,-3.37363,-28.488063,0.047318,-0.059326,0.983429,-0.030967,-0.033332,0.00021,78.391785,6.623672,-148.009003,,,
729860389.108941,-2.888536,-3.37363,-28.488063,0.047318,-0.059326,0.983429,-0.030967,-0.033332,0.00021,78.391785,6.623672,-148.009003,,,
729860389.112193,-2.898501,-3.386821,-28.485259,0.047318,-0.059326,0.983429,-0.030967,-0.033332,0.00021,78.391785,6.623672,-148.009003,,,
729860389.115529,-2.906874,-3.400089,-28.478957,0.044052,-0.064987,0.993576,-0.026304,-0.044038,0.024771,78.391785,6.623672,-148.009003,,,
729860389.118858,-2.906874,-3.400089,-28.478957,0.044052,-0.064987,0.993576,-0.026304,-0.044038,0.024771,78.391785,6.623672,-148.009003,,,
729860389.122189,-2.913755,-3.417722,-28.470787,0.044052,-0.064987,0.993576,-0.026304,-0.044038,0.024771,78.391785,6.623672,-148.009003,,,
729860389.125547,-2.916047,-3.438982,-28.462353,0.054794,-0.06543,0.99791,-0.000599,-0.078723,0.029058,78.391785,6.623672,-148.009003,,,
729860389.128853,-2.916047,-3.438982,-28.462353,0.054794,-0.06543,0.99791,-0.000599,-0.078723,0.029058,78.391785,6.623672,-148.009003,,,
729860389.132208,-2.914351,-3.46539,-28.455696,0.054794,-0.06543,0.99791,-0.000599,-0.078723,0.029058,78.391785,6.623672,-148.009003,,,
729860389.135565,-2.9071,-3.494878,-28.453066,0.071289,-0.055969,1.003113,0.031363,-0.101836,0.000111,78.391785,6.623672,-148.009003,,,
729860389.138895,-2.9071,-3.494878,-28.453066,0.071289,-0.055969,1.003113,0.031363,-0.101836,0.000111,78.391785,6.623672,-148.009003,,,
729860389.142178,-2.896491,-3.525657,-28.45564,0.071289,-0.055969,1.003113,0.031363,-0.101836,0.000111,78.320953,6.828171,-148.201843,,,
729860389.145548,-2.882985,-3.554776,-28.463047,0.084106,-0.046631,1.009293,0.048039,-0.097454,-0.035831,78.320953,6.828171,-148.201843,,,
729860389.148864,-2.882985,-3.554776,-28.463047,0.084106,-0.046631,1.009293,0.048039,-0.097454,-0.035831,78.320953,6.828171,-148.201843,,,
729860389.152181,-2.866778,-3.583141,-28.474124,0.084106,-0.046631,1.009293,0.048039,-0.097454,-0.035831,78.320953,6.828171,-148.201843,,,
729860389.1555,-2.850361,-3.607648,-28.486784,0.085281,-0.04364,1.007263,0.056884,-0.076654,-0.050314,78.320953,6.828171,-148.201843,,,
729860389.158936,-2.850361,-3.607648,-28.486784,0.085281,-0.04364,1.007263,0.056884,-0.076654,-0.050314,78.320953,6.828171,-148.201843,,,
729860389.162179,-2.832697,-3.628397,-28.499808,0.085281,-0.04364,1.007263,0.056884,-0.076654,-0.050314,78.320953,6.828171,-148.201843,,,
729860389.165572,-2.814892,-3.642468,-28.511819,0.074997,-0.048477,1.005661,0.063017,-0.04051,-0.045526,78.320953,6.828171,-148.201843,,,
729860389.168867,-2.814892,-3.642468,-28.511819,0.074997,-0.048477,1.005661,0.063017,-0.04051,-0.045526,78.320953,6.828171,-148.201843,,,
729860389.172179,-2.797575,-3.649768,-28.52243,0.074997,-0.048477,1.005661,0.063017,-0.04051,-0.045526,78.320953,6.828171,-148.201843,,,
729860389.175525,-2.782239,-3.650743,-28.531769,0.065536,-0.052353,1.000839,0.049806,0.005611,-0.035292,78.320953,6.828171,-148.201843,,,
729860389.178855,-2.782239,-3.650743,-28.531769,0.065536,-0.052353,1.000839,0.049806,0.005611,-0.035292,78.320953,6.828171,-148.201843,,,
729860389.182179,-2.771863,-3.643491,-28.539699,0.065536,-0.052353,1.000839,0.049806,0.005611,-0.035292,78.37677,6.529221,-148.061172,,,
729860389.185549,-2.76527,-3.634435,-28.547289,0.061386,-0.047821,0.984482,0.015861,0.038526,-0.029347,78.37677,6.529221,-148.061172,,,
729860389.188862,-2.76527,-3.634435,-28.547289,0.061386,-0.047821,0.984482,0.015861,0.038526,-0.029347,78.37677,6.529221,-148.061172,,,
729860389.192191,-2.766292,-3.619701,-28.554228,0.061386,-0.047821,0.984482,0.015861,0.038526,-0.029347,78.37677,6.529221,-148.061172,,,
729860389.19559,-2.769228,-3.609277,-28.560824,0.056213,-0.044891,0.964462,-0.018606,0.041058,-0.023192,78.37677,6.529221,-148.061172,,,
729860389.198843,-2.769228,-3.609277,-28.560824,0.056213,-0.044891,0.964462,-0.018606,0.041058,-0.023192,78.37677,6.529221,-148.061172,,,
729860389.202182,-2.778954,-3.598368,-28.567371,0.056213,-0.044891,0.964462,-0.018606,0.041058,-0.023192,78.37677,6.529221,-148.061172,,,
729860389.20551,-2.778954,-3.598368,-28.567371,0.056213,-0.044891,0.964462,-0.018606,0.041058,-0.023192,78.37677,6.529221,-148.061172,,,
729860389.20891,-2.787676,-3.593798,-28.573944,0.053146,-0.043488,0.957825,-0.030962,0.014405,-0.021106,78.37677,6.529221,-148.061172,,,
729860389.212175,-2.798462,-3.594716,-28.580329,0.053146,-0.043488,0.957825,-0.030962,0.014405,-0.021106,78.37677,6.529221,-148.061172,,,
729860389.215607,-2.806619,-3.600325,-28.586839,0.050125,-0.045929,0.967758,-0.029595,-0.020675,-0.019783,78.37677,6.529221,-148.061172,,,
729860389.218834,-2.806619,-3.600325,-28.586839,0.050125,-0.045929,0.967758,-0.029595,-0.020675,-0.019783,78.37677,6.529221,-148.061172,,,
729860389.222177,-2.813093,-3.613734,-28.592886,0.050125,-0.045929,0.967758,-0.029595,-0.020675,-0.019783,78.37677,6.529221,-148.061172,,,
729860389.225507,-2.813093,-3.613734,-28.592886,0.050125,-0.045929,0.967758,-0.007904,-0.054521,-0.016835,78.272385,6.586655,-147.945679,,,
729860389.228854,-2.816567,-3.628864,-28.597726,0.04892,-0.04921,0.982437,-0.007904,-0.054521,-0.016835,78.272385,6.586655,-147.945679,,,
729860389.232181,-2.815522,-3.653102,-28.602003,0.04892,-0.04921,0.982437,-0.007904,-0.054521,-0.016835,78.272385,6.586655,-147.945679,,,
729860389.235515,-2.815522,-3.653102,-28.602003,0.04892,-0.04921,0.982437,0.018591,-0.079705,-0.015361,78.272385,6.586655,-147.945679,,,
729860389.238867,-2.811555,-3.675955,-28.605298,0.049149,-0.05368,0.994293,0.018591,-0.079705,-0.015361,78.272385,6.586655,-147.945679,,,
729860389.242184,-2.802579,-3.703244,-28.608204,0.049149,-0.05368,0.994293,0.018591,-0.079705,-0.015361,78.272385,6.586655,-147.945679,,,
729860389.245537,-2.802579,-3.703244,-28.608204,0.049149,-0.05368,0.994293,0.045383,-0.081214,-0.011488,78.272385,6.586655,-147.945679,,,
729860389.24885,-2.790426,-3.727776,-28.610468,0.053345,-0.052979,1.005783,0.045383,-0.081214,-0.011488,78.272385,6.586655,-147.945679,,,
729860389.252187,-2.775311,-3.751232,-28.612306,0.053345,-0.052979,1.005783,0.045383,-0.081214,-0.011488,78.272385,6.586655,-147.945679,,,
729860389.255563,-2.775311,-3.751232,-28.612306,0.053345,-0.052979,1.005783,0.045383,-0.081214,-0.011488,78.272385,6.586655,-147.945679,,,
729860389.258909,-2.756984,-3.770999,-28.613871,0.060043,-0.054153,1.014145,0.066072,-0.061533,-0.012207,78.272385,6.586655,-147.945679,,,
729860389.262196,-2.737054,-3.786755,-28.616225,0.060043,-0.054153,1.014145,0.066072,-0.061533,-0.012207,78.272385,6.586655,-147.945679,,,
729860389.265574,-2.737054,-3.786755,-28.616225,0.060043,-0.054153,1.014145,0.066072,-0.061533,-0.012207,78.239304,6.383575,-148.118896,,,
729860389.268938,-2.715622,-3.799128,-28.619437,0.06485,-0.049072,1.016479,0.074715,-0.038291,-0.017254,78.239304,6.383575,-148.118896,,,
729860389.272215,-2.693946,-3.80658,-28.623173,0.06485,-0.049072,1.016479,0.074715,-0.038291,-0.017254,78.239304,6.383575,-148.118896,,,
729860389.275573,-2.693946,-3.80658,-28.623173,0.06485,-0.049072,1.016479,0.074715,-0.038291,-0.017254,78.239304,6.383575,-148.118896,,,
729860389.27892,-2.673575,-3.811655,-28.628186,0.065094,-0.044144,1.010162,0.0696,-0.009657,-0.024055,78.239304,6.383575,-148.118896,,,
729860389.2822,-2.655046,-3.812116,-28.633723,0.065094,-0.044144,1.010162,0.0696,-0.009657,-0.024055,78.239304,6.383575,-148.118896,,,
729860389.285608,-2.655046,-3.812116,-28.633723,0.065094,-0.044144,1.010162,0.0696,-0.009657,-0.024055,78.239304,6.383575,-148.118896,,,
729860389.288797,-2.639852,-3.813331,-28.639627,0.061508,-0.040802,0.993149,0.048277,0.003403,-0.026587,78.239304,6.383575,-148.118896,,,
729860389.292208,-2.628049,-3.810432,-28.645564,0.061508,-0.040802,0.993149,0.048277,0.003403,-0.026587,78.239304,6.383575,-148.118896,,,
729860389.295612,-2.628049,-3.810432,-28.645564,0.061508,-0.040802,0.993149,0.048277,0.003403,-0.026587,78.239304,6.383575,-148.118896,,,
729860389.29886,-2.619737,-3.809467,-28.650903,0.059296,-0.039642,0.978516,0.025296,0.008386,-0.019588,78.239304,6.383575,-148.118896,,,
729860389.302189,-2.615859,-3.806094,-28.654563,0.059296,-0.039642,0.978516,0.025296,0.008386,-0.019588,78.239304,6.383575,-148.118896,,,
729860389.30558,-2.615859,-3.806094,-28.654563,0.059296,-0.039642,0.978516,0.025296,0.008386,-0.019588,77.893433,6.378525,-148.098053,,,
729860389.308891,-2.614537,-3.808791,-28.656982,0.051392,-0.040115,0.972183,0.004096,-0.008548,-0.009075,77.893433,6.378525,-148.098053,,,
729860389.312195,-2.616394,-3.812151,-28.658172,0.051392,-0.040115,0.972183,0.004096,-0.008548,-0.009075,77.893433,6.378525,-148.098053,,,
729860389.315586,-2.616394,-3.812151,-28.658172,0.051392,-0.040115,0.972183,0.004096,-0.008548,-0.009075,77.893433,6.378525,-148.098053,,,
729860389.318937,-2.617863,-3.823675,-28.658606,0.047821,-0.043427,0.968582,-0.002952,-0.040746,-0.000799,77.893433,6.378525,-148.098053,,,
729860389.322184,-2.619896,-3.837484,-28.65824,0.047821,-0.043427,0.968582,-0.002952,-0.040746,-0.000799,77.893433,6.378525,-148.098053,,,
729860389.325569,-2.619896,-3.837484,-28.65824,0.047821,-0.043427,0.968582,-0.002952,-0.040746,-0.000799,77.893433,6.378525,-148.098053,,,
729860389.32886,-2.619011,-3.859311,-28.657941,0.049774,-0.046021,0.974319,0.005705,-0.076797,0.000673,77.893433,6.378525,-148.098053,,,
729860389.332187,-2.615617,-3.882744,-28.658338,0.049774,-0.046021,0.974319,0.005705,-0.076797,0.000673,77.893433,6.378525,-148.098053,,,
729860389.335579,-2.615617,-3.882744,-28.658338,0.049774,-0.046021,0.974319,0.005705,-0.076797,0.000673,77.893433,6.378525,-148.098053,,,
729860389.338856,-2.606346,-3.910307,-28.659361,0.058228,-0.048233,0.99353,0.036749,-0.096478,-0.00593,77.893433,6.378525,-148.098053,,,
729860389.342209,-2.592981,-3.938011,-28.660857,0.058228,-0.048233,0.99353,0.036749,-0.096478,-0.00593,77.893433,6.378525,-148.098053,,,
729860389.345606,-2.592981,-3.938011,-28.660857,0.058228,-0.048233,0.99353,0.036749,-0.096478,-0.00593,77.893433,6.378525,-148.098053,,,
729860389.348834,-2.573797,-3.966588,-28.66334,0.065903,-0.048813,1.014191,0.072054,-0.096047,-0.015362,77.7612,6.33168,-148.212524,,,
729860389.352194,-2.549413,-3.992555,-28.666279,0.065903,-0.048813,1.014191,0.072054,-0.096047,-0.015362,77.7612,6.33168,-148.212524,,,
729860389.355527,-2.549413,-3.992555,-28.666279,0.065903,-0.048813,1.014191,0.072054,-0.096047,-0.015362,77.7612,6.33168,-148.212524,,,
729860389.358894,-2.52032,-4.016576,-28.668991,0.072784,-0.049713,1.025986,0.104232,-0.07725,-0.016932,77.7612,6.33168,-148.212524,,,
729860389.362179,-2.487406,-4.034935,-28.671067,0.072784,-0.049713,1.025986,0.104232,-0.07725,-0.016932,77.7612,6.33168,-148.212524,,,
729860389.365511,-2.487406,-4.034935,-28.671067,0.072784,-0.049713,1.025986,0.104232,-0.07725,-0.016932,77.7612,6.33168,-148.212524,,,
729860389.368841,-2.452772,-4.050511,-28.672721,0.072937,-0.050613,1.026016,0.120819,-0.047545,-0.014328,77.7612,6.33168,-148.212524,,,
729860389.372184,-2.417872,-4.059757,-28.673295,0.072937,-0.050613,1.026016,0.120819,-0.047545,-0.014328,77.7612,6.33168,-148.212524,,,
729860389.375529,-2.417872,-4.059757,-28.673295,0.072937,-0.050613,1.026016,0.120819,-0.047545,-0.014328,77.7612,6.33168,-148.212524,,,
729860389.378861,-2.385132,-4.067246,-28.67352,0.070618,-0.044662,1.012222,0.113306,-0.020112,-0.008388,77.7612,6.33168,-148.212524,,,
729860389.382285,-2.355428,-4.070038,-28.673866,0.070618,-0.044662,1.012222,0.113306,-0.020112,-0.008388,77.7612,6.33168,-148.212524,,,
729860389.385579,-2.355428,-4.070038,-28.673866,0.070618,-0.044662,1.012222,0.113306,-0.020112,-0.008388,77.7612,6.33168,-148.212524,,,
729860389.388849,-2.329755,-4.074944,-28.675113,0.071075,-0.037094,0.986313,0.088004,-0.013245,-0.013513,77.835556,5.937332,-148.064819,,,
729860389.39221,-2.307842,-4.076096,-28.677619,0.071075,-0.037094,0.986313,0.088004,-0.013245,-0.013513,77.835556,5.937332,-148.064819,,,
729860389.395523,-2.307842,-4.076096,-28.677619,0.071075,-0.037094,0.986313,0.088004,-0.013245,-0.013513,77.835556,5.937332,-148.064819,,,
729860389.398845,-2.288052,-4.082472,-28.681684,0.07164,-0.030792,0.969025,0.063739,-0.020089,-0.021114,77.835556,5.937332,-148.064819,,,
729860389.402185,-2.271386,-4.085752,-28.687072,0.07164,-0.030792,0.969025,0.063739,-0.020089,-0.021114,77.835556,5.937332,-148.064819,,,
729860389.405526,-2.271386,-4.085752,-28.687072,0.07164,-0.030792,0.969025,0.063739,-0.020089,-0.021114,77.835556,5.937332,-148.064819,,,
729860389.408856,-2.255232,-4.0957,-28.692756,0.067459,-0.033249,0.972168,0.054898,-0.032335,-0.023497,77.835556,5.937332,-148.064819,,,
729860389.412186,-2.240898,-4.105729,-28.69723,0.067459,-0.033249,0.972168,0.054898,-0.032335,-0.023497,77.835556,5.937332,-148.064819,,,
729860389.415513,-2.240898,-4.105729,-28.69723,0.067459,-0.033249,0.972168,0.054898,-0.032335,-0.023497,77.835556,5.937332,-148.064819,,,
729860389.418876,-2.225181,-4.121863,-28.700327,0.059418,-0.038925,0.981018,0.057498,-0.05764,-0.012208,77.835556,5.937332,-148.064819,,,
729860389.422182,-2.210827,-4.139489,-28.701272,0.059418,-0.038925,0.981018,0.057498,-0.05764,-0.012208,77.835556,5.937332,-148.064819,,,
729860389.425568,-2.210827,-4.139489,-28.701272,0.059418,-0.038925,0.981018,0.057498,-0.05764,-0.012208,77.835556,5.937332,-148.064819,,,
729860389.42885,-2.19485,-4.16209,-28.700155,0.057404,-0.040955,0.982986,0.056028,-0.079495,0.000162,77.666595,6.043747,-148.231613,,,
729860389.432186,-2.18048,-4.186289,-28.697215,0.057404,-0.040955,0.982986,0.056028,-0.079495,0.000162,77.666595,6.043747,-148.231613,,,
729860389.435525,-2.18048,-4.186289,-28.697215,0.057404,-0.040955,0.982986,0.056028,-0.079495,0.000162,77.666595,6.043747,-148.231613,,,
729860389.438911,-2.165572,-4.212585,-28.693708,0.060226,-0.042114,0.983963,0.051207,-0.088567,0.006903,77.666595,6.043747,-148.231613,,,
729860389.442177,-2.15383,-4.239526,-28.690486,0.060226,-0.042114,0.983963,0.051207,-0.088567,0.006903,77.666595,6.043747,-148.231613,,,
729860389.445534,-2.15383,-4.239526,-28.690486,0.060226,-0.042114,0.983963,0.051207,-0.088567,0.006903,77.666595,6.043747,-148.231613,,,
729860389.44886,-2.14098,-4.267954,-28.687734,0.068985,-0.033051,0.985062,0.044688,-0.095631,0.003858,77.666595,6.043747,-148.231613,,,
729860389.452186,-2.129831,-4.295672,-28.686048,0.068985,-0.033051,0.985062,0.044688,-0.095631,0.003858,77.666595,6.043747,-148.231613,,,
729860389.455529,-2.129831,-4.295672,-28.686048,0.068985,-0.033051,0.985062,0.044688,-0.095631,0.003858,77.666595,6.043747,-148.231613,,,
729860389.458868,-2.116608,-4.324886,-28.685659,0.07486,-0.032333,0.985641,0.045896,-0.09943,-0.005049,77.666595,6.043747,-148.231613,,,
729860389.462179,-2.102133,-4.354775,-28.686673,0.07486,-0.032333,0.985641,0.045896,-0.09943,-0.005049,77.666595,6.043747,-148.231613,,,
729860389.465514,-2.102133,-4.354775,-28.686673,0.07486,-0.032333,0.985641,0.045896,-0.09943,-0.005049,77.666595,6.043747,-148.231613,,,
729860389.468853,-2.083421,-4.386263,-28.689368,0.081909,-0.034393,0.995667,0.071274,-0.108657,-0.015737,77.608429,5.763443,-148.305634,,,
729860389.472185,-2.058564,-4.417029,-28.693466,0.081909,-0.034393,0.995667,0.071274,-0.108657,-0.015737,77.608429,5.763443,-148.305634,,,
