Time (sec),Pitch (deg),Roll (deg),Yaw(deg),X-Acceleration (g),Y-Acceleration (g),Z-Acceleration (g),Pitch Rate (deg/sec),Roll Rate (deg/sec),Yaw Rate (deg/sec),Magnetic Field in X direction (uT),Magnetic Field in Y direction (uT),Magnetic Field in Z Direction (uT),Latitude (deg),Longitude (deg),Altitude (m)
729860656.883743,-0.657606,-6.247678,-27.563225,0.108292,-0.005753,0.984695,0.01633,0.1193,-0.008804,75.652908,4.573044,-147.878693,,,
729860656.887074,-0.663713,-6.231849,-27.567751,0.100876,0.001343,0.944122,-0.028141,0.048319,-0.017323,75.652908,4.573044,-147.878693,,,
729860656.890411,-0.663713,-6.231849,-27.567751,0.100876,0.001343,0.944122,-0.028141,0.048319,-0.017323,75.652908,4.573044,-147.878693,,,
729860656.893817,-0.676328,-6.228851,-27.574978,0.100876,0.001343,0.944122,-0.028141,0.048319,-0.017323,75.652908,4.573044,-147.878693,,,
729860656.89707,-0.693852,-6.2385,-27.584172,0.093811,0.001465,0.926224,-0.068948,-0.042914,-0.02818,75.652908,4.573044,-147.878693,,,
729860656.900427,-0.693852,-6.2385,-27.584172,0.093811,0.001465,0.926224,-0.068948,-0.042914,-0.02818,75.652908,4.573044,-147.878693,,,
729860656.903751,-0.71429,-6.258549,-27.59391,0.093811,0.001465,0.926224,-0.068948,-0.042914,-0.02818,75.652908,4.573044,-147.878693,,,
729860656.907078,-0.735696,-6.285869,-27.602914,0.092987,-0.00238,0.942215,-0.077169,-0.098114,-0.021911,75.652908,4.573044,-147.878693,,,
729860656.910422,-0.735696,-6.285869,-27.602914,0.092987,-0.00238,0.942215,-0.077169,-0.098114,-0.021911,75.652908,4.573044,-147.878693,,,
729860656.91375,-0.756562,-6.316064,-27.609681,0.092987,-0.00238,0.942215,-0.077169,-0.098114,-0.021911,75.652908,4.573044,-147.878693,,,
729860656.917077,-0.775033,-6.343861,-27.61314,0.093979,-0.012512,0.978134,-0.06239,-0.090668,-0.00232,75.652908,4.573044,-147.878693,,,
729860656.920507,-0.775033,-6.343861,-27.61314,0.093979,-0.012512,0.978134,-0.06239,-0.090668,-0.00232,75.652908,4.573044,-147.878693,,,
729860656.923737,-0.790622,-6.364953,-27.61244,0.093979,-0.012512,0.978134,-0.06239,-0.090668,-0.00232,75.427979,4.959076,-147.858307,,,
729860656.927188,-0.801751,-6.37753,-27.607425,0.097717,-0.019623,1.020828,-0.033824,-0.033807,0.024931,75.427979,4.959076,-147.858307,,,
729860656.930493,-0.801751,-6.37753,-27.607425,0.097717,-0.019623,1.020828,-0.033824,-0.033807,0.024931,75.427979,4.959076,-147.858307,,,
729860656.933762,-0.808517,-6.380859,-27.598893,0.097717,-0.019623,1.020828,-0.033824,-0.033807,0.024931,75.427979,4.959076,-147.858307,,,
729860656.937089,-0.809858,-6.374722,-27.588131,0.110489,-0.021713,1.040131,0.0035,0.033005,0.037994,75.427979,4.959076,-147.858307,,,
729860656.940412,-0.809858,-6.374722,-27.588131,0.110489,-0.021713,1.040131,0.0035,0.033005,0.037994,75.427979,4.959076,-147.858307,,,
729860656.943842,-0.80558,-6.360785,-27.57756,0.110489,-0.021713,1.040131,0.0035,0.033005,0.037994,75.427979,4.959076,-147.858307,,,
729860656.947074,-0.79647,-6.340487,-27.569427,0.131821,-0.018967,1.040894,0.038128,0.080872,0.021705,75.427979,4.959076,-147.858307,,,
729860656.950421,-0.79647,-6.340487,-27.569427,0.131821,-0.018967,1.040894,0.038128,0.080872,0.021705,75.427979,4.959076,-147.858307,,,
729860656.953764,-0.783662,-6.315658,-27.565491,0.131821,-0.018967,1.040894,0.038128,0.080872,0.021705,75.427979,4.959076,-147.858307,,,
729860656.95708,-0.767815,-6.288876,-27.56698,0.144867,-0.01033,1.027145,0.055228,0.097187,-0.017896,75.427979,4.959076,-147.858307,,,
729860656.960474,-0.767815,-6.288876,-27.56698,0.144867,-0.01033,1.027145,0.055228,0.097187,-0.017896,75.427979,4.959076,-147.858307,,,
729860656.963765,-0.750133,-6.262859,-27.573812,0.144867,-0.01033,1.027145,0.055228,0.097187,-0.017896,75.427979,4.959076,-147.858307,,,
729860656.967082,-0.733472,-6.239509,-27.584956,0.142227,-0.001984,1.000687,0.051974,0.084683,-0.049768,75.648941,4.758469,-147.846725,,,
729860656.970502,-0.733472,-6.239509,-27.584956,0.142227,-0.001984,1.000687,0.051974,0.084683,-0.049768,75.648941,4.758469,-147.846725,,,
729860656.973739,-0.719145,-6.219094,-27.59892,0.142227,-0.001984,1.000687,0.051974,0.084683,-0.049768,75.648941,4.758469,-147.846725,,,
729860656.977086,-0.710567,-6.202666,-27.614141,0.125137,-0.003448,0.975739,0.019738,0.058032,-0.056487,75.648941,4.758469,-147.846725,,,
729860656.980429,-0.710567,-6.202666,-27.614141,0.125137,-0.003448,0.975739,0.019738,0.058032,-0.056487,75.648941,4.758469,-147.846725,,,
729860656.983832,-0.708621,-6.188827,-27.629054,0.125137,-0.003448,0.975739,0.019738,0.058032,-0.056487,75.648941,4.758469,-147.846725,,,
729860656.987077,-0.715033,-6.179459,-27.641619,0.104004,-0.004501,0.952698,-0.033878,0.032953,-0.037353,75.648941,4.758469,-147.846725,,,
729860656.990415,-0.715033,-6.179459,-27.641619,0.104004,-0.004501,0.952698,-0.033878,0.032953,-0.037353,75.648941,4.758469,-147.846725,,,
729860656.993758,-0.728768,-6.173795,-27.6509,0.104004,-0.004501,0.952698,-0.033878,0.032953,-0.037353,75.648941,4.758469,-147.846725,,,
729860656.997086,-0.748684,-6.173603,-27.657013,0.088089,-0.007095,0.944199,-0.079136,0.00106,-0.010343,75.648941,4.758469,-147.846725,,,
729860657.000439,-0.748684,-6.173603,-27.657013,0.088089,-0.007095,0.944199,-0.079136,0.00106,-0.010343,75.648941,4.758469,-147.846725,,,
729860657.003752,-0.773596,-6.177964,-27.660344,0.088089,-0.007095,0.944199,-0.079136,0.00106,-0.010343,75.648941,4.758469,-147.846725,,,
729860657.007087,-0.800328,-6.188361,-27.661954,0.086578,-0.011353,0.954834,-0.091134,-0.037285,0.006715,75.649933,4.824036,-148.035446,,,
729860657.010544,-0.800328,-6.188361,-27.661954,0.086578,-0.011353,0.954834,-0.091134,-0.037285,0.006715,75.649933,4.824036,-148.035446,,,
729860657.01376,-0.826101,-6.20201,-27.662718,0.086578,-0.011353,0.954834,-0.091134,-0.037285,0.006715,75.649933,4.824036,-148.035446,,,
729860657.017083,-0.847945,-6.218465,-27.663635,0.097916,-0.016907,0.982437,-0.070481,-0.057478,0.003945,75.649933,4.824036,-148.035446,,,
729860657.020423,-0.847945,-6.218465,-27.663635,0.097916,-0.016907,0.982437,-0.070481,-0.057478,0.003945,75.649933,4.824036,-148.035446,,,
729860657.02375,-0.86374,-6.236647,-27.665975,0.097916,-0.016907,0.982437,-0.070481,-0.057478,0.003945,75.649933,4.824036,-148.035446,,,
729860657.027087,-0.871471,-6.253256,-27.66995,0.114273,-0.018677,1.018723,-0.021521,-0.054025,-0.013719,75.649933,4.824036,-148.035446,,,
729860657.030411,-0.871471,-6.253256,-27.66995,0.114273,-0.018677,1.018723,-0.021521,-0.054025,-0.013719,75.649933,4.824036,-148.035446,,,
729860657.033744,-0.870761,-6.268698,-27.675822,0.114273,-0.018677,1.018723,-0.021521,-0.054025,-0.013719,75.649933,4.824036,-148.035446,,,
729860657.037084,-0.861915,-6.275346,-27.684487,0.133331,-0.020966,1.045471,0.034322,-0.013531,-0.037816,75.649933,4.824036,-148.035446,,,
729860657.040415,-0.861915,-6.275346,-27.684487,0.133331,-0.020966,1.045471,0.034322,-0.013531,-0.037816,75.649933,4.824036,-148.035446,,,
729860657.043753,-0.845352,-6.275532,-27.69541,0.133331,-0.020966,1.045471,0.034322,-0.013531,-0.037816,75.649933,4.824036,-148.035446,,,
729860657.047104,-0.823354,-6.262725,-27.707084,0.134949,-0.022339,1.061813,0.075741,0.059173,-0.049563,75.886932,4.933411,-148.101913,,,
729860657.05042,-0.823354,-6.262725,-27.707084,0.134949,-0.022339,1.061813,0.075741,0.059173,-0.049563,75.886932,4.933411,-148.101913,,,
729860657.05384,-0.797087,-6.240698,-27.718216,0.134949,-0.022339,1.061813,0.075741,0.059173,-0.049563,75.886932,4.933411,-148.101913,,,
729860657.057077,-0.76973,-6.207239,-27.727562,0.122513,-0.023056,1.060623,0.092399,0.129854,-0.041137,75.886932,4.933411,-148.101913,,,
729860657.060506,-0.76973,-6.207239,-27.727562,0.122513,-0.023056,1.060623,0.092399,0.129854,-0.041137,75.886932,4.933411,-148.101913,,,
729860657.063766,-0.74213,-6.167193,-27.734488,0.122513,-0.023056,1.060623,0.092399,0.129854,-0.041137,75.886932,4.933411,-148.101913,,,
729860657.06709,-0.716116,-6.12201,-27.738785,0.10556,-0.020844,1.032166,0.086798,0.16273,-0.023471,75.886932,4.933411,-148.101913,,,
729860657.070432,-0.716116,-6.12201,-27.738785,0.10556,-0.020844,1.032166,0.086798,0.16273,-0.023471,75.886932,4.933411,-148.101913,,,
729860657.073757,-0.692911,-6.075935,-27.741265,0.10556,-0.020844,1.032166,0.086798,0.16273,-0.023471,75.886932,4.933411,-148.101913,,,
729860657.077088,-0.674925,-6.03506,-27.742186,0.090454,-0.0159,0.990967,0.059061,0.139255,-0.007289,75.886932,4.933411,-148.101913,,,
729860657.080431,-0.674925,-6.03506,-27.742186,0.090454,-0.0159,0.990967,0.059061,0.139255,-0.007289,75.886932,4.933411,-148.101913,,,
729860657.083767,-0.662882,-6.000887,-27.742328,0.090454,-0.0159,0.990967,0.059061,0.139255,-0.007289,75.886932,4.933411,-148.101913,,,
729860657.087086,-0.657097,-5.977996,-27.743238,0.078857,-0.011124,0.951797,0.012949,0.075284,-0.008936,76.003265,4.746582,-147.593155,,,
729860657.090416,-0.657097,-5.977996,-27.743238,0.078857,-0.011124,0.951797,0.012949,0.075284,-0.008936,76.003265,4.746582,-147.593155,,,
729860657.093758,-0.657298,-5.96554,-27.745054,0.078857,-0.011124,0.951797,0.012949,0.075284,-0.008936,76.003265,4.746582,-147.593155,,,
729860657.097088,-0.662153,-5.96513,-27.748016,0.07666,-0.007187,0.938232,-0.018776,-0.007672,-0.010139,76.003265,4.746582,-147.593155,,,
729860657.100481,-0.662153,-5.96513,-27.748016,0.07666,-0.007187,0.938232,-0.018776,-0.007672,-0.010139,76.003265,4.746582,-147.593155,,,
729860657.103757,-0.670518,-5.975284,-27.751693,0.07666,-0.007187,0.938232,-0.018776,-0.007672,-0.010139,76.003265,4.746582,-147.593155,,,
729860657.107089,-0.679575,-5.993354,-27.755514,0.078506,-0.009979,0.946045,-0.031289,-0.064736,-0.011014,76.003265,4.746582,-147.593155,,,
729860657.110437,-0.679575,-5.993354,-27.755514,0.078506,-0.009979,0.946045,-0.031289,-0.064736,-0.011014,76.003265,4.746582,-147.593155,,,
729860657.113853,-0.687388,-6.018335,-27.759171,0.078506,-0.009979,0.946045,-0.031289,-0.064736,-0.011014,76.003265,4.746582,-147.593155,,,
729860657.117075,-0.692032,-6.044736,-27.762329,0.084686,-0.012787,0.967133,-0.013619,-0.092477,-0.009559,76.003265,4.746582,-147.593155,,,
729860657.120453,-0.692032,-6.044736,-27.762329,0.084686,-0.012787,0.967133,-0.013619,-0.092477,-0.009559,76.003265,4.746582,-147.593155,,,
729860657.12375,-0.692538,-6.072676,-27.764691,0.084686,-0.012787,0.967133,-0.013619,-0.092477,-0.009559,76.003265,4.746582,-147.593155,,,
729860657.127089,-0.687561,-6.096673,-27.765939,0.092621,-0.017853,0.992386,0.021912,-0.078204,-0.005918,76.003265,4.746582,-147.593155,,,
729860657.130438,-0.687561,-6.096673,-27.765939,0.092621,-0.017853,0.992386,0.021912,-0.078204,-0.005918,75.856186,4.621063,-147.951691,,,
729860657.133754,-0.67759,-6.117691,-27.766269,0.092621,-0.017853,0.992386,0.021912,-0.078204,-0.005918,75.856186,4.621063,-147.951691,,,
729860657.137084,-0.662625,-6.132724,-27.766091,0.100174,-0.017761,1.007431,0.057774,-0.045863,-0.004762,75.856186,4.621063,-147.951691,,,
729860657.140442,-0.662625,-6.132724,-27.766091,0.100174,-0.017761,1.007431,0.057774,-0.045863,-0.004762,75.856186,4.621063,-147.951691,,,
729860657.14375,-0.644552,-6.141565,-27.765638,0.100174,-0.017761,1.007431,0.057774,-0.045863,-0.004762,75.856186,4.621063,-147.951691,,,
729860657.147092,-0.624191,-6.14401,-27.764891,0.106155,-0.017334,1.005829,0.070251,-0.000316,-0.003686,75.856186,4.621063,-147.951691,,,
729860657.150428,-0.624191,-6.14401,-27.764891,0.106155,-0.017334,1.005829,0.070251,-0.000316,-0.003686,75.856186,4.621063,-147.951691,,,
729860657.153816,-0.604806,-6.138873,-27.764252,0.106155,-0.017334,1.005829,0.070251,-0.000316,-0.003686,75.856186,4.621063,-147.951691,,,
729860657.157079,-0.587982,-6.128481,-27.763189,0.108521,-0.011978,0.992706,0.055911,0.046362,-0.006029,75.856186,4.621063,-147.951691,,,
729860657.160427,-0.587982,-6.128481,-27.763189,0.108521,-0.011978,0.992706,0.055911,0.046362,-0.006029,75.856186,4.621063,-147.951691,,,
729860657.163768,-0.576088,-6.110993,-27.761569,0.108521,-0.011978,0.992706,0.055911,0.046362,-0.006029,75.856186,4.621063,-147.951691,,,
729860657.167084,-0.570974,-6.092603,-27.760104,0.105408,-0.003433,0.96434,0.012659,0.069242,0.00379,75.856186,4.621063,-147.951691,,,
729860657.170415,-0.570974,-6.092603,-27.760104,0.105408,-0.003433,0.96434,0.012659,0.069242,0.00379,75.832138,4.606018,-147.932068,,,
729860657.173751,-0.574198,-6.070683,-27.759136,0.105408,-0.003433,0.96434,0.012659,0.069242,0.00379,75.832138,4.606018,-147.932068,,,
729860657.177084,-0.584943,-6.050996,-27.758663,0.100449,0.003464,0.938232,-0.042522,0.071421,0.004456,75.832138,4.606018,-147.932068,,,
729860657.180503,-0.584943,-6.050996,-27.758663,0.100449,0.003464,0.938232,-0.042522,0.071421,0.004456,75.832138,4.606018,-147.932068,,,
729860657.183776,-0.602247,-6.031952,-27.758989,0.100449,0.003464,0.938232,-0.042522,0.071421,0.004456,75.832138,4.606018,-147.932068,,,
729860657.187082,-0.626272,-6.018248,-27.760393,0.100082,0.005783,0.927612,-0.090409,0.050058,0.00021,75.832138,4.606018,-147.932068,,,
729860657.190424,-0.626272,-6.018248,-27.760393,0.100082,0.005783,0.927612,-0.090409,0.050058,0.00021,75.832138,4.606018,-147.932068,,,
729860657.193756,-0.655262,-6.007338,-27.762602,0.100082,0.005783,0.927612,-0.090409,0.050058,0.00021,75.832138,4.606018,-147.932068,,,
729860657.197076,-0.687678,-6.002546,-27.76508,0.094238,0.001389,0.93457,-0.115765,0.014094,0.001819,75.832138,4.606018,-147.932068,,,
729860657.200422,-0.687678,-6.002546,-27.76508,0.094238,0.001389,0.93457,-0.115765,0.014094,0.001819,75.832138,4.606018,-147.932068,,,
729860657.203828,-0.722528,-6.000966,-27.767226,0.094238,0.001389,0.93457,-0.115765,0.014094,0.001819,75.832138,4.606018,-147.932068,,,
729860657.207097,-0.756951,-6.004038,-27.768999,0.092224,-0.007355,0.955811,-0.120806,-0.013697,0.005322,75.832138,4.606018,-147.932068,,,
729860657.210424,-0.756951,-6.004038,-27.768999,0.092224,-0.007355,0.955811,-0.120806,-0.013697,0.005322,76.16098,4.544296,-147.793503,,,
729860657.213756,-0.790112,-6.008944,-27.770004,0.092224,-0.007355,0.955811,-0.120806,-0.013697,0.005322,76.16098,4.544296,-147.793503,,,
729860657.217126,-0.820084,-6.015716,-27.77011,0.097885,-0.016083,0.986237,-0.101554,-0.022914,0.008229,76.16098,4.544296,-147.793503,,,
729860657.220429,-0.820084,-6.015716,-27.77011,0.097885,-0.016083,0.986237,-0.101554,-0.022914,0.008229,76.16098,4.544296,-147.793503,,,
729860657.223836,-0.845215,-6.021884,-27.769266,0.097885,-0.016083,0.986237,-0.101554,-0.022914,0.008229,76.16098,4.544296,-147.793503,,,
729860657.227093,-0.86433,-6.027241,-27.767734,0.102753,-0.024872,1.021133,-0.059445,-0.012613,0.012387,76.16098,4.544296,-147.793503,,,
729860657.230481,-0.86433,-6.027241,-27.767734,0.102753,-0.024872,1.021133,-0.059445,-0.012613,0.012387,76.16098,4.544296,-147.793503,,,
729860657.233744,-0.877179,-6.030541,-27.765565,0.102753,-0.024872,1.021133,-0.059445,-0.012613,0.012387,76.16098,4.544296,-147.793503,,,
729860657.237076,-0.877179,-6.030541,-27.765565,0.102753,-0.024872,1.021133,-0.015077,0.006209,0.009118,76.16098,4.544296,-147.793503,,,
729860657.240416,-0.883777,-6.029997,-27.762855,0.110458,-0.029785,1.045547,-0.015077,0.006209,0.009118,76.16098,4.544296,-147.793503,,,
729860657.243751,-0.883698,-6.02553,-27.759913,0.110458,-0.029785,1.045547,-0.015077,0.006209,0.009118,76.16098,4.544296,-147.793503,,,
729860657.247091,-0.883698,-6.02553,-27.759913,0.118454,-0.030396,1.054413,0.028608,0.039924,0.005316,76.16098,4.544296,-147.793503,,,
729860657.250446,-0.877751,-6.015866,-27.756954,0.118454,-0.030396,1.054413,0.028608,0.039924,0.005316,76.16098,4.544296,-147.793503,,,
729860657.253751,-0.867115,-6.001538,-27.754724,0.118454,-0.030396,1.054413,0.028608,0.039924,0.005316,76.104996,4.699768,-147.516357,,,
729860657.257087,-0.867115,-6.001538,-27.754724,0.117432,-0.024582,1.048676,0.046093,0.063859,-0.000222,76.104996,4.699768,-147.516357,,,
729860657.260441,-0.854979,-5.984013,-27.752949,0.117432,-0.024582,1.048676,0.046093,0.063859,-0.000222,76.104996,4.699768,-147.516357,,,
729860657.263747,-0.841243,-5.96594,-27.751884,0.117432,-0.024582,1.048676,0.046093,0.063859,-0.000222,76.104996,4.699768,-147.516357,,,
729860657.267085,-0.841243,-5.96594,-27.751884,0.117432,-0.024582,1.048676,0.036907,0.058761,-0.007603,76.104996,4.699768,-147.516357,,,
729860657.270486,-0.829696,-5.949419,-27.752187,0.115829,-0.020569,1.018524,0.036907,0.058761,-0.007603,76.104996,4.699768,-147.516357,,,
729860657.273744,-0.81965,-5.936978,-27.753275,0.115829,-0.020569,1.018524,0.036907,0.058761,-0.007603,76.104996,4.699768,-147.516357,,,
729860657.277092,-0.81965,-5.936978,-27.753275,0.115829,-0.020569,1.018524,0.036907,0.058761,-0.007603,76.104996,4.699768,-147.516357,,,
729860657.280432,-0.812842,-5.930083,-27.755616,0.107727,-0.014282,0.98674,0.019404,0.023268,-0.015273,76.104996,4.699768,-147.516357,,,
729860657.283753,-0.807898,-5.930606,-27.759386,0.107727,-0.014282,0.98674,0.019404,0.023268,-0.015273,76.104996,4.699768,-147.516357,,,
729860657.287127,-0.807898,-5.930606,-27.759386,0.107727,-0.014282,0.98674,0.00647,-0.039706,-0.018062,76.104996,4.699768,-147.516357,,,
729860657.290414,-0.805601,-5.940519,-27.764072,0.102692,-0.011612,0.964264,0.00647,-0.039706,-0.018062,76.104996,4.699768,-147.516357,,,
729860657.293759,-0.805282,-5.959137,-27.769499,0.102692,-0.011612,0.964264,0.00647,-0.039706,-0.018062,75.921814,4.826599,-147.704163,,,
729860657.297128,-0.805282,-5.959137,-27.769499,0.102692,-0.011612,0.964264,0.00647,-0.039706,-0.018062,75.921814,4.826599,-147.704163,,,
729860657.300423,-0.806229,-5.986291,-27.775677,0.095673,-0.012833,0.955017,-0.006571,-0.099416,-0.022675,75.921814,4.826599,-147.704163,,,
729860657.303748,-0.808755,-6.019375,-27.782105,0.095673,-0.012833,0.955017,-0.006571,-0.099416,-0.022675,75.921814,4.826599,-147.704163,,,
729860657.307136,-0.808755,-6.019375,-27.782105,0.095673,-0.012833,0.955017,-0.006571,-0.099416,-0.022675,75.921814,4.826599,-147.704163,,,
729860657.31049,-0.811507,-6.056657,-27.787567,0.095566,-0.015564,0.960403,-0.00897,-0.129237,-0.018993,75.921814,4.826599,-147.704163,,,
729860657.313761,-0.813508,-6.094017,-27.791929,0.095566,-0.015564,0.960403,-0.00897,-0.129237,-0.018993,75.921814,4.826599,-147.704163,,,
729860657.317157,-0.813508,-6.094017,-27.791929,0.095566,-0.015564,0.960403,-0.00897,-0.129237,-0.018993,75.921814,4.826599,-147.704163,,,
729860657.320426,-0.812698,-6.12898,-27.795653,0.103745,-0.018707,0.979156,0.005392,-0.118811,-0.014782,75.921814,4.826599,-147.704163,,,
729860657.323762,-0.809474,-6.15944,-27.799293,0.103745,-0.018707,0.979156,0.005392,-0.118811,-0.014782,75.921814,4.826599,-147.704163,,,
729860657.327184,-0.809474,-6.15944,-27.799293,0.103745,-0.018707,0.979156,0.005392,-0.118811,-0.014782,75.921814,4.826599,-147.704163,,,
729860657.330421,-0.801499,-6.182354,-27.80254,0.112152,-0.021729,1.004456,0.029602,-0.067587,-0.013582,75.921814,4.826599,-147.704163,,,
729860657.333786,-0.789433,-6.196231,-27.804795,0.112152,-0.021729,1.004456,0.029602,-0.067587,-0.013582,75.879852,4.575699,-147.668747,,,
729860657.337118,-0.789433,-6.196231,-27.804795,0.112152,-0.021729,1.004456,0.029602,-0.067587,-0.013582,75.879852,4.575699,-147.668747,,,
729860657.340414,-0.772445,-6.200213,-27.806619,0.118622,-0.021622,1.026398,0.063788,-0.002735,-0.015189,75.879852,4.575699,-147.668747,,,
729860657.3438,-0.751567,-6.195545,-27.80873,0.118622,-0.021622,1.026398,0.063788,-0.002735,-0.015189,75.879852,4.575699,-147.668747,,,
729860657.347138,-0.751567,-6.195545,-27.80873,0.118622,-0.021622,1.026398,0.063788,-0.002735,-0.015189,75.879852,4.575699,-147.668747,,,
729860657.350415,-0.727188,-6.182709,-27.810883,0.121826,-0.019867,1.030762,0.082682,0.055607,-0.017221,75.879852,4.575699,-147.668747,,,
729860657.353752,-0.701757,-6.164217,-27.81328,0.121826,-0.019867,1.030762,0.082682,0.055607,-0.017221,75.879852,4.575699,-147.668747,,,
729860657.357135,-0.701757,-6.164217,-27.81328,0.121826,-0.019867,1.030762,0.082682,0.055607,-0.017221,75.879852,4.575699,-147.668747,,,
729860657.360487,-0.676064,-6.142207,-27.815196,0.115921,-0.014587,1.014893,0.088986,0.0845,-0.01657,75.879852,4.575699,-147.668747,,,
729860657.363742,-0.650641,-6.119667,-27.816138,0.115921,-0.014587,1.014893,0.088986,0.0845,-0.01657,75.879852,4.575699,-147.668747,,,
729860657.367149,-0.650641,-6.119667,-27.816138,0.115921,-0.014587,1.014893,0.088986,0.0845,-0.01657,75.879852,4.575699,-147.668747,,,
729860657.370419,-0.626786,-6.09951,-27.817125,0.104111,-0.011475,0.986008,0.081244,0.070065,-0.012296,75.879852,4.575699,-147.668747,,,
729860657.373758,-0.605114,-6.084111,-27.817535,0.104111,-0.011475,0.986008,0.081244,0.070065,-0.012296,75.871323,4.481339,-147.944717,,,
729860657.377141,-0.605114,-6.084111,-27.817535,0.104111,-0.011475,0.986008,0.081244,0.070065,-0.012296,75.871323,4.481339,-147.944717,,,
729860657.380409,-0.586364,-6.077279,-27.817233,0.090652,-0.006271,0.960663,0.060231,0.019259,-0.005575,75.871323,4.481339,-147.944717,,,
729860657.383754,-0.572884,-6.079584,-27.816724,0.090652,-0.006271,0.960663,0.060231,0.019259,-0.005575,75.871323,4.481339,-147.944717,,,
729860657.387121,-0.572884,-6.079584,-27.816724,0.090652,-0.006271,0.960663,0.060231,0.019259,-0.005575,75.871323,4.481339,-147.944717,,,
729860657.390531,-0.56443,-6.09334,-27.816223,0.083694,-0.003098,0.933334,0.029822,-0.053841,-0.000674,75.871323,4.481339,-147.944717,,,
729860657.393764,-0.561975,-6.116924,-27.815051,0.083694,-0.003098,0.933334,0.029822,-0.053841,-0.000674,75.871323,4.481339,-147.944717,,,
729860657.39717,-0.561975,-6.116924,-27.815051,0.083694,-0.003098,0.933334,0.029822,-0.053841,-0.000674,75.871323,4.481339,-147.944717,,,
729860657.400419,-0.564701,-6.149237,-27.813077,0.082642,-0.003265,0.919083,-0.01262,-0.115646,0.007955,75.871323,4.481339,-147.944717,,,
729860657.403755,-0.572752,-6.18751,-27.810912,0.082642,-0.003265,0.919083,-0.01262,-0.115646,0.007955,75.871323,4.481339,-147.944717,,,
729860657.407084,-0.572752,-6.18751,-27.810912,0.082642,-0.003265,0.919083,-0.01262,-0.115646,0.007955,75.871323,4.481339,-147.944717,,,
729860657.410527,-0.584304,-6.229403,-27.808135,0.088013,-0.00412,0.924759,-0.041999,-0.147347,0.014268,75.871323,4.481339,-147.944717,,,
729860657.41375,-0.599497,-6.273152,-27.804991,0.088013,-0.00412,0.924759,-0.041999,-0.147347,0.014268,75.871323,4.481339,-147.944717,,,
729860657.417119,-0.599497,-6.273152,-27.804991,0.088013,-0.00412,0.924759,-0.041999,-0.147347,0.014268,75.83931,4.580734,-147.890472,,,
729860657.420418,-0.615897,-6.315533,-27.802417,0.099762,-0.005737,0.943756,-0.054657,-0.141284,0.011406,75.83931,4.580734,-147.890472,,,
729860657.423765,-0.63258,-6.355163,-27.801005,0.099762,-0.005737,0.943756,-0.054657,-0.141284,0.011406,75.83931,4.580734,-147.890472,,,
729860657.427113,-0.63258,-6.355163,-27.801005,0.099762,-0.005737,0.943756,-0.054657,-0.141284,0.011406,75.83931,4.580734,-147.890472,,,
729860657.430438,-0.646864,-6.38734,-27.80082,0.115875,-0.00882,0.972961,-0.04536,-0.10469,0.004042,75.83931,4.580734,-147.890472,,,
729860657.43377,-0.657197,-6.411306,-27.801508,0.115875,-0.00882,0.972961,-0.04536,-0.10469,0.004042,75.83931,4.580734,-147.890472,,,
729860657.43716,-0.657197,-6.411306,-27.801508,0.115875,-0.00882,0.972961,-0.04536,-0.10469,0.004042,75.83931,4.580734,-147.890472,,,
729860657.440428,-0.661252,-6.424339,-27.80301,0.128891,-0.015961,1.013504,-0.008039,-0.031392,-0.006597,75.83931,4.580734,-147.890472,,,
729860657.443766,-0.659591,-6.426305,-27.805318,0.128891,-0.015961,1.013504,-0.008039,-0.031392,-0.006597,75.83931,4.580734,-147.890472,,,
729860657.44719,-0.659591,-6.426305,-27.805318,0.128891,-0.015961,1.013504,-0.008039,-0.031392,-0.006597,75.83931,4.580734,-147.890472,,,
729860657.450423,-0.653222,-6.418083,-27.807748,0.132843,-0.020935,1.044739,0.024132,0.041751,-0.009783,75.83931,4.580734,-147.890472,,,
729860657.45376,-0.643413,-6.399074,-27.809824,0.132843,-0.020935,1.044739,0.024132,0.041751,-0.009783,75.83931,4.580734,-147.890472,,,
729860657.457108,-0.643413,-6.399074,-27.809824,0.132843,-0.020935,1.044739,0.024132,0.041751,-0.009783,75.746872,4.551987,-147.911209,,,
729860657.460495,-0.631355,-6.374339,-27.811515,0.130295,-0.022675,1.045517,0.045818,0.095595,-0.011014,75.746872,4.551987,-147.911209,,,
729860657.463751,-0.617712,-6.344797,-27.812713,0.130295,-0.022675,1.045517,0.045818,0.095595,-0.011014,75.746872,4.551987,-147.911209,,,
729860657.4671,-0.617712,-6.344797,-27.812713,0.130295,-0.022675,1.045517,0.045818,0.095595,-0.011014,75.746872,4.551987,-147.911209,,,
729860657.470441,-0.603734,-6.317217,-27.813778,0.117294,-0.019775,1.028198,0.049309,0.096948,-0.011431,75.746872,4.551987,-147.911209,,,
729860657.473754,-0.590262,-6.292196,-27.814981,0.117294,-0.019775,1.028198,0.049309,0.096948,-0.011431,75.746872,4.551987,-147.911209,,,
729860657.477117,-0.590262,-6.292196,-27.814981,0.117294,-0.019775,1.028198,0.049309,0.096948,-0.011431,75.746872,4.551987,-147.911209,,,
729860657.48042,-0.578875,-6.275974,-27.816231,0.102066,-0.016327,0.999207,0.039152,0.054764,-0.011667,75.746872,4.551987,-147.911209,,,
729860657.483755,-0.569736,-6.268083,-27.817346,0.102066,-0.016327,0.999207,0.039152,0.054764,-0.011667,75.746872,4.551987,-147.911209,,,
729860657.487177,-0.569736,-6.268083,-27.817346,0.102066,-0.016327,0.999207,0.039152,0.054764,-0.011667,75.746872,4.551987,-147.911209,,,
729860657.490418,-0.564132,-6.273072,-27.818347,0.089828,-0.013199,0.971619,0.016287,-0.023237,-0.008121,75.746872,4.551987,-147.911209,,,
729860657.493762,-0.562406,-6.288438,-27.819049,0.089828,-0.013199,0.971619,0.016287,-0.023237,-0.008121,75.746872,4.551987,-147.911209,,,
729860657.497087,-0.562406,-6.288438,-27.819049,0.089828,-0.013199,0.971619,0.016287,-0.023237,-0.008121,75.603287,4.409607,-147.828278,,,
729860657.500491,-0.564791,-6.313726,-27.81904,0.083511,-0.011093,0.955215,-0.009659,-0.093476,0.00235,75.603287,4.409607,-147.828278,,,
729860657.503752,-0.570094,-6.346449,-27.817477,0.083511,-0.011093,0.955215,-0.009659,-0.093476,0.00235,75.603287,4.409607,-147.828278,,,
729860657.507092,-0.570094,-6.346449,-27.817477,0.083511,-0.011093,0.955215,-0.009659,-0.093476,0.00235,75.603287,4.409607,-147.828278,,,
729860657.510486,-0.577549,-6.383186,-27.813922,0.083664,-0.010315,0.959824,-0.024055,-0.127944,0.015292,75.603287,4.409607,-147.828278,,,
729860657.51375,-0.585676,-6.421475,-27.808394,0.083664,-0.010315,0.959824,-0.024055,-0.127944,0.015292,75.603287,4.409607,-147.828278,,,
729860657.517102,-0.585676,-6.421475,-27.808394,0.083664,-0.010315,0.959824,-0.024055,-0.127944,0.015292,75.603287,4.409607,-147.828278,,,
729860657.52042,-0.593734,-6.45673,-27.800866,0.093124,-0.01297,0.980637,-0.025077,-0.116335,0.029686,75.603287,4.409607,-147.828278,,,
729860657.523782,-0.601345,-6.489822,-27.792034,0.093124,-0.01297,0.980637,-0.025077,-0.116335,0.029686,75.603287,4.409607,-147.828278,,,
729860657.527152,-0.601345,-6.489822,-27.792034,0.093124,-0.01297,0.980637,-0.025077,-0.116335,0.029686,75.603287,4.409607,-147.828278,,,
729860657.530432,-0.606084,-6.516008,-27.783124,0.108368,-0.012787,1.00325,-0.00877,-0.082435,0.030722,75.603287,4.409607,-147.828278,,,
729860657.53383,-0.60751,-6.536526,-27.775181,0.108368,-0.012787,1.00325,-0.00877,-0.082435,0.030722,75.603287,4.409607,-147.828278,,,
729860657.53708,-0.60751,-6.536526,-27.775181,0.108368,-0.012787,1.00325,-0.00877,-0.082435,0.030722,75.513184,4.651901,-147.503204,,,
729860657.540426,-0.604769,-6.548044,-27.768596,0.126068,-0.012787,1.01767,0.016603,-0.029233,0.017853,75.513184,4.651901,-147.503204,,,
729860657.543754,-0.598611,-6.550934,-27.763918,0.126068,-0.012787,1.01767,0.016603,-0.029233,0.017853,75.513184,4.651901,-147.503204,,,
729860657.547115,-0.598611,-6.550934,-27.763918,0.126068,-0.012787,1.01767,0.016603,-0.029233,0.017853,75.513184,4.651901,-147.503204,,,
729860657.550428,-0.589235,-6.545663,-27.761517,0.137085,-0.011795,1.024368,0.034586,0.026745,0.00123,75.513184,4.651901,-147.503204,,,
729860657.553757,-0.579138,-6.53322,-27.760603,0.137085,-0.011795,1.024368,0.034586,0.026745,0.00123,75.513184,4.651901,-147.503204,,,
729860657.557091,-0.579138,-6.53322,-27.760603,0.137085,-0.011795,1.024368,0.034586,0.026745,0.00123,75.513184,4.651901,-147.503204,,,
729860657.560433,-0.568635,-6.516509,-27.759476,0.133194,-0.010529,1.012772,0.038189,0.06272,-0.001559,75.513184,4.651901,-147.503204,,,
729860657.563762,-0.560354,-6.493814,-27.75755,0.133194,-0.010529,1.012772,0.038189,0.06272,-0.001559,75.513184,4.651901,-147.503204,,,
729860657.567165,-0.560354,-6.493814,-27.75755,0.133194,-0.010529,1.012772,0.038189,0.06272,-0.001559,75.513184,4.651901,-147.503204,,,
729860657.57043,-0.554811,-6.472058,-27.755519,0.121033,-0.010422,0.990738,0.018271,0.079616,0.003658,75.513184,4.651901,-147.503204,,,
729860657.573765,-0.552746,-6.447763,-27.752403,0.121033,-0.010422,0.990738,0.018271,0.079616,0.003658,75.513184,4.651901,-147.503204,,,
729860657.577116,-0.552746,-6.447763,-27.752403,0.121033,-0.010422,0.990738,0.018271,0.079616,0.003658,75.513184,4.651901,-147.503204,,,
729860657.580532,-0.55438,-6.431735,-27.748183,0.108093,-0.009552,0.966003,-0.009609,0.055803,0.014698,75.570389,4.42659,-147.873734,,,
729860657.583761,-0.560594,-6.417492,-27.743667,0.108093,-0.009552,0.966003,-0.009609,0.055803,0.014698,75.570389,4.42659,-147.873734,,,
729860657.587116,-0.560594,-6.417492,-27.743667,0.108093,-0.009552,0.966003,-0.009609,0.055803,0.014698,75.570389,4.42659,-147.873734,,,
729860657.590434,-0.570998,-6.415603,-27.739066,0.102051,-0.010696,0.944885,-0.03789,0.003989,0.019137,75.570389,4.42659,-147.873734,,,
729860657.593767,-0.585872,-6.420446,-27.734936,0.102051,-0.010696,0.944885,-0.03789,0.003989,0.019137,75.570389,4.42659,-147.873734,,,
729860657.597094,-0.585872,-6.420446,-27.734936,0.102051,-0.010696,0.944885,-0.03789,0.003989,0.019137,75.570389,4.42659,-147.873734,,,
729860657.600449,-0.603668,-6.437016,-27.731965,0.100082,-0.007126,0.936447,-0.060285,-0.063541,0.015908,75.570389,4.42659,-147.873734,,,
729860657.603765,-0.62218,-6.459825,-27.730116,0.100082,-0.007126,0.936447,-0.060285,-0.063541,0.015908,75.570389,4.42659,-147.873734,,,
729860657.607093,-0.62218,-6.459825,-27.730116,0.100082,-0.007126,0.936447,-0.060285,-0.063541,0.015908,75.570389,4.42659,-147.873734,,,
729860657.610433,-0.638907,-6.488009,-27.729199,0.107834,-0.012009,0.953979,-0.05491,-0.098707,0.006681,75.570389,4.42659,-147.873734,,,
729860657.613766,-0.653053,-6.51741,-27.728862,0.107834,-0.012009,0.953979,-0.05491,-0.098707,0.006681,75.570389,4.42659,-147.873734,,,
729860657.61711,-0.653053,-6.51741,-27.728862,0.107834,-0.012009,0.953979,-0.05491,-0.098707,0.006681,75.570389,4.42659,-147.873734,,,
729860657.620494,-0.664984,-6.544502,-27.728689,0.116867,-0.01915,0.993027,-0.039105,-0.08923,0.004436,75.51619,4.415558,-147.741425,,,
729860657.623779,-0.675073,-6.570923,-27.728243,0.116867,-0.01915,0.993027,-0.039105,-0.08923,0.004436,75.51619,4.415558,-147.741425,,,
729860657.627111,-0.675073,-6.570923,-27.728243,0.116867,-0.01915,0.993027,-0.039105,-0.08923,0.004436,75.51619,4.415558,-147.741425,,,
729860657.63043,-0.683151,-6.58812,-27.727549,0.124588,-0.023972,1.017258,-0.026213,-0.050316,0.001033,75.51619,4.415558,-147.741425,,,
729860657.633759,-0.689081,-6.599987,-27.727359,0.124588,-0.023972,1.017258,-0.026213,-0.050316,0.001033,75.51619,4.415558,-147.741425,,,
729860657.637094,-0.689081,-6.599987,-27.727359,0.124588,-0.023972,1.017258,-0.026213,-0.050316,0.001033,75.51619,4.415558,-147.741425,,,
729860657.640434,-0.692963,-6.599467,-27.727968,0.13208,-0.023743,1.035995,-0.013054,0.01388,-0.004507,75.51619,4.415558,-147.741425,,,
729860657.643758,-0.693208,-6.591594,-27.729498,0.13208,-0.023743,1.035995,-0.013054,0.01388,-0.004507,75.51619,4.415558,-147.741425,,,
729860657.647157,-0.693208,-6.591594,-27.729498,0.13208,-0.023743,1.035995,-0.013054,0.01388,-0.004507,75.51619,4.415558,-147.741425,,,
729860657.650441,-0.688312,-6.576366,-27.731045,0.13353,-0.023132,1.053726,0.020796,0.062248,-0.008768,75.51619,4.415558,-147.741425,,,
729860657.653767,-0.678008,-6.557516,-27.732379,0.13353,-0.023132,1.053726,0.020796,0.062248,-0.008768,75.51619,4.415558,-147.741425,,,
729860657.657093,-0.678008,-6.557516,-27.732379,0.13353,-0.023132,1.053726,0.020796,0.062248,-0.008768,75.51619,4.415558,-147.741425,,,
729860657.660432,-0.663161,-6.537216,-27.733763,0.126083,-0.025787,1.057953,0.056736,0.074958,-0.011061,75.60022,4.630844,-147.788635,,,
729860657.663765,-0.644865,-6.517385,-27.734555,0.126083,-0.025787,1.057953,0.056736,0.074958,-0.011061,75.60022,4.630844,-147.788635,,,
729860657.667108,-0.644865,-6.517385,-27.734555,0.126083,-0.025787,1.057953,0.056736,0.074958,-0.011061,75.60022,4.630844,-147.788635,,,
729860657.67044,-0.62466,-6.501383,-27.734455,0.111862,-0.024246,1.043701,0.071542,0.05585,-0.00904,75.60022,4.630844,-147.788635,,,
729860657.673768,-0.60336,-6.48916,-27.73363,0.111862,-0.024246,1.043701,0.071542,0.05585,-0.00904,75.60022,4.630844,-147.788635,,,
729860657.677101,-0.60336,-6.48916,-27.73363,0.111862,-0.024246,1.043701,0.071542,0.05585,-0.00904,75.60022,4.630844,-147.788635,,,
729860657.680441,-0.582805,-6.483259,-27.732364,0.102386,-0.015854,1.016464,0.071625,0.01864,-0.004368,75.60022,4.630844,-147.788635,,,
729860657.683766,-0.563482,-6.482317,-27.731105,0.102386,-0.015854,1.016464,0.071625,0.01864,-0.004368,75.60022,4.630844,-147.788635,,,
729860657.687147,-0.563482,-6.482317,-27.731105,0.102386,-0.015854,1.016464,0.071625,0.01864,-0.004368,75.60022,4.630844,-147.788635,,,
729860657.690439,-0.545797,-6.485965,-27.730308,0.098526,-0.007935,0.997299,0.060774,-0.012906,-0.004595,75.60022,4.630844,-147.788635,,,
729860657.693768,-0.531635,-6.493553,-27.729745,0.098526,-0.007935,0.997299,0.060774,-0.012906,-0.004595,75.60022,4.630844,-147.788635,,,
729860657.697102,-0.531635,-6.493553,-27.729745,0.098526,-0.007935,0.997299,0.060774,-0.012906,-0.004595,75.60022,4.630844,-147.788635,,,
729860657.700528,-0.520396,-6.504329,-27.728729,0.096527,-0.002701,0.985428,0.036047,-0.039061,0.002533,75.482925,4.51442,-147.603516,,,
729860657.703763,-0.513364,-6.518088,-27.726896,0.096527,-0.002701,0.985428,0.036047,-0.039061,0.002533,75.482925,4.51442,-147.603516,,,
729860657.707099,-0.513364,-6.518088,-27.726896,0.096527,-0.002701,0.985428,0.036047,-0.039061,0.002533,75.482925,4.51442,-147.603516,,,
729860657.710445,-0.508975,-6.532199,-27.723698,0.098312,-0.002548,0.97789,0.01361,-0.046205,0.00766,75.482925,4.51442,-147.603516,,,
729860657.713761,-0.507211,-6.546697,-27.719445,0.098312,-0.002548,0.97789,0.01361,-0.046205,0.00766,75.482925,4.51442,-147.603516,,,
729860657.717111,-0.507211,-6.546697,-27.719445,0.098312,-0.002548,0.97789,0.01361,-0.046205,0.00766,75.482925,4.51442,-147.603516,,,
729860657.720426,-0.50601,-6.557771,-27.714151,0.101761,-0.00589,0.984314,0.007222,-0.033862,0.018568,75.482925,4.51442,-147.603516,,,
729860657.723763,-0.506671,-6.567648,-27.707537,0.101761,-0.00589,0.984314,0.007222,-0.033862,0.018568,75.482925,4.51442,-147.603516,,,
729860657.727177,-0.506671,-6.567648,-27.707537,0.101761,-0.00589,0.984314,0.007222,-0.033862,0.018568,75.482925,4.51442,-147.603516,,,
729860657.730457,-0.506714,-6.574071,-27.699882,0.107376,-0.00972,0.995621,0.00688,-0.019323,0.026126,75.482925,4.51442,-147.603516,,,
729860657.733764,-0.50677,-6.580274,-27.6922,0.107376,-0.00972,0.995621,0.00688,-0.019323,0.026126,75.482925,4.51442,-147.603516,,,
729860657.73715,-0.50677,-6.580274,-27.6922,0.107376,-0.00972,0.995621,0.00688,-0.019323,0.026126,75.482925,4.51442,-147.603516,,,
729860657.740449,-0.50561,-6.584504,-27.685585,0.117111,-0.009445,0.995651,0.008231,-0.013013,0.01918,75.482925,4.51442,-147.603516,,,
729860657.743771,-0.504363,-6.585729,-27.680311,0.117111,-0.009445,0.995651,0.008231,-0.013013,0.01918,75.452835,4.538803,-147.634781,,,
729860657.747113,-0.504363,-6.585729,-27.680311,0.117111,-0.009445,0.995651,0.008231,-0.013013,0.01918,75.452835,4.538803,-147.634781,,,
729860657.750432,-0.5009,-6.583101,-27.677217,0.126892,-0.008331,0.999634,0.015238,0.01547,0.007264,75.452835,4.538803,-147.634781,,,
729860657.753784,-0.496429,-6.573335,-27.675712,0.126892,-0.008331,0.999634,0.015238,0.01547,0.007264,75.452835,4.538803,-147.634781,,,
729860657.757098,-0.496429,-6.573335,-27.675712,0.126892,-0.008331,0.999634,0.015238,0.01547,0.007264,75.452835,4.538803,-147.634781,,,
729860657.760452,-0.488346,-6.562001,-27.674205,0.126053,-0.00882,1.0168,0.031983,0.046569,0.001871,75.452835,4.538803,-147.634781,,,
729860657.763792,-0.477351,-6.545545,-27.67215,0.126053,-0.00882,1.0168,0.031983,0.046569,0.001871,75.452835,4.538803,-147.634781,,,
729860657.767161,-0.477351,-6.545545,-27.67215,0.126053,-0.00882,1.0168,0.031983,0.046569,0.001871,75.452835,4.538803,-147.634781,,,
729860657.770436,-0.46353,-6.530664,-27.669411,0.120148,-0.014801,1.023361,0.051695,0.053622,0.003571,75.452835,4.538803,-147.634781,,,
729860657.773784,-0.447268,-6.513346,-27.6653,0.120148,-0.014801,1.023361,0.051695,0.053622,0.003571,75.452835,4.538803,-147.634781,,,
729860657.777113,-0.447268,-6.513346,-27.6653,0.120148,-0.014801,1.023361,0.051695,0.053622,0.003571,75.452835,4.538803,-147.634781,,,
729860657.780487,-0.429681,-6.500421,-27.660299,0.114059,-0.012207,1.01506,0.064284,0.046352,0.008415,75.452835,4.538803,-147.634781,,,
729860657.783762,-0.410659,-6.487806,-27.655727,0.114059,-0.012207,1.01506,0.064284,0.046352,0.008415,75.570236,4.410522,-147.623672,,,
729860657.787094,-0.410659,-6.487806,-27.655727,0.114059,-0.012207,1.01506,0.064284,0.046352,0.008415,75.570236,4.410522,-147.623672,,,
729860657.790435,-0.39062,-6.480797,-27.652385,0.111191,-0.006516,0.998718,0.072958,0.024266,-0.000117,75.570236,4.410522,-147.623672,,,
729860657.793768,-0.36953,-6.475042,-27.649677,0.111191,-0.006516,0.998718,0.072958,0.024266,-0.000117,75.570236,4.410522,-147.623672,,,
729860657.797111,-0.36953,-6.475042,-27.649677,0.111191,-0.006516,0.998718,0.072958,0.024266,-0.000117,75.570236,4.410522,-147.623672,,,
729860657.800444,-0.348888,-6.475099,-27.647757,0.109833,-0.004242,0.985718,0.0739,0.000405,-0.003207,75.570236,4.410522,-147.623672,,,
729860657.803765,-0.329624,-6.476401,-27.6459,0.109833,-0.004242,0.985718,0.0739,0.000405,-0.003207,75.570236,4.410522,-147.623672,,,
729860657.807129,-0.329624,-6.476401,-27.6459,0.109833,-0.004242,0.985718,0.0739,0.000405,-0.003207,75.570236,4.410522,-147.623672,,,
729860657.810433,-0.312015,-6.482225,-27.643197,0.104828,-0.001877,0.970245,0.060248,-0.019446,-0.00013,75.570236,4.410522,-147.623672,,,
729860657.813876,-0.297315,-6.489328,-27.640357,0.104828,-0.001877,0.970245,0.060248,-0.019446,-0.00013,75.570236,4.410522,-147.623672,,,
729860657.817094,-0.297315,-6.489328,-27.640357,0.104828,-0.001877,0.970245,0.060248,-0.019446,-0.00013,75.570236,4.410522,-147.623672,,,
729860657.820433,-0.284854,-6.497354,-27.636567,0.102539,-0.000885,0.955841,0.041697,-0.023158,0.010082,75.570236,4.410522,-147.623672,,,
729860657.823766,-0.277142,-6.509423,-27.631989,0.102539,-0.000885,0.955841,0.041697,-0.023158,0.010082,75.644592,4.502991,-147.566605,,,
729860657.827109,-0.277142,-6.509423,-27.631989,0.102539,-0.000885,0.955841,0.041697,-0.023158,0.010082,75.644592,4.502991,-147.566605,,,
729860657.830496,-0.273306,-6.517763,-27.627546,0.106445,-0.001633,0.951233,0.015488,-0.027451,0.014752,75.644592,4.502991,-147.566605,,,
729860657.833753,-0.273049,-6.530009,-27.623364,0.106445,-0.001633,0.951233,0.015488,-0.027451,0.014752,75.644592,4.502991,-147.566605,,,
729860657.837127,-0.273049,-6.530009,-27.623364,0.106445,-0.001633,0.951233,0.015488,-0.027451,0.014752,75.644592,4.502991,-147.566605,,,
729860657.840434,-0.274554,-6.539125,-27.620031,0.115829,0.002838,0.946289,-0.006906,-0.029919,0.007446,75.644592,4.502991,-147.566605,,,
729860657.843772,-0.279438,-6.549339,-27.618488,0.115829,0.002838,0.946289,-0.006906,-0.029919,0.007446,75.644592,4.502991,-147.566605,,,
729860657.847116,-0.279438,-6.549339,-27.618488,0.115829,0.002838,0.946289,-0.006906,-0.029919,0.007446,75.644592,4.502991,-147.566605,,,
729860657.850435,-0.285376,-6.557429,-27.618718,0.122162,0.006409,0.948441,-0.01906,-0.025572,-1e-05,75.644592,4.502991,-147.566605,,,
729860657.853765,-0.293887,-6.564772,-27.620445,0.122162,0.006409,0.948441,-0.01906,-0.025572,-1e-05,75.644592,4.502991,-147.566605,,,
729860657.857097,-0.293887,-6.564772,-27.620445,0.122162,0.006409,0.948441,-0.01906,-0.025572,-1e-05,75.644592,4.502991,-147.566605,,,
729860657.860432,-0.302175,-6.57102,-27.623903,0.124496,0.005798,0.954483,-0.029256,-0.018265,-0.008364,75.644592,4.502991,-147.566605,,,
729860657.863813,-0.310545,-6.574204,-27.628328,0.124496,0.005798,0.954483,-0.029256,-0.018265,-0.008364,75.644592,4.502991,-147.566605,,,
729860657.86712,-0.310545,-6.574204,-27.628328,0.124496,0.005798,0.954483,-0.029256,-0.018265,-0.008364,75.507019,4.197891,-147.728119,,,
729860657.870499,-0.317852,-6.574927,-27.633231,0.12471,0.001587,0.966629,-0.027255,0.004355,-0.015271,75.507019,4.197891,-147.728119,,,
729860657.873838,-0.324196,-6.571078,-27.638263,0.12471,0.001587,0.966629,-0.027255,0.004355,-0.015271,75.507019,4.197891,-147.728119,,,
729860657.877115,-0.324196,-6.571078,-27.638263,0.12471,0.001587,0.966629,-0.027255,0.004355,-0.015271,75.507019,4.197891,-147.728119,,,
729860657.880452,-0.32945,-6.56442,-27.642737,0.123077,-0.003189,0.983597,-0.018337,0.030137,-0.014284,75.507019,4.197891,-147.728119,,,
729860657.883813,-0.332932,-6.553235,-27.646682,0.123077,-0.003189,0.983597,-0.018337,0.030137,-0.014284,75.507019,4.197891,-147.728119,,,
729860657.887094,-0.332932,-6.553235,-27.646682,0.123077,-0.003189,0.983597,-0.018337,0.030137,-0.014284,75.507019,4.197891,-147.728119,,,
729860657.890435,-0.335419,-6.540814,-27.649554,0.114975,-0.006775,0.993027,-0.006933,0.048018,-0.009677,75.507019,4.197891,-147.728119,,,
729860657.893786,-0.336432,-6.526655,-27.650988,0.114975,-0.006775,0.993027,-0.006933,0.048018,-0.009677,75.507019,4.197891,-147.728119,,,
729860657.89716,-0.336432,-6.526655,-27.650988,0.114975,-0.006775,0.993027,-0.006933,0.048018,-0.009677,75.507019,4.197891,-147.728119,,,
729860657.900428,-0.33749,-6.515523,-27.650994,0.107132,-0.010117,0.993378,-0.003275,0.040955,0.001366,75.507019,4.197891,-147.728119,,,
729860657.903783,-0.338077,-6.50586,-27.649948,0.107132,-0.010117,0.993378,-0.003275,0.040955,0.001366,75.507019,4.197891,-147.728119,,,
729860657.907096,-0.338077,-6.50586,-27.649948,0.107132,-0.010117,0.993378,-0.003275,0.040955,0.001366,75.51799,4.505569,-147.626648,,,
729860657.910434,-0.338719,-6.500933,-27.647894,0.103653,-0.009171,0.98587,0.002606,0.015843,0.008585,75.51799,4.505569,-147.626648,,,
729860657.91379,-0.33826,-6.501758,-27.645704,0.103653,-0.009171,0.98587,0.002606,0.015843,0.008585,75.51799,4.505569,-147.626648,,,
729860657.917121,-0.33826,-6.501758,-27.645704,0.103653,-0.009171,0.98587,0.002606,0.015843,0.008585,75.51799,4.505569,-147.626648,,,
729860657.920515,-0.339104,-6.506159,-27.644104,0.10643,-0.008072,0.982147,-0.00131,-0.017011,0.002963,75.51799,4.505569,-147.626648,,,
729860657.923827,-0.33891,-6.517924,-27.642982,0.10643,-0.008072,0.982147,-0.00131,-0.017011,0.002963,75.51799,4.505569,-147.626648,,,
729860657.927111,-0.33891,-6.517924,-27.642982,0.10643,-0.008072,0.982147,-0.00131,-0.017011,0.002963,75.51799,4.505569,-147.626648,,,
729860657.93045,-0.339839,-6.531977,-27.642846,0.105545,-0.006271,0.979889,-0.0045,-0.048593,-0.000303,75.51799,4.505569,-147.626648,,,
729860657.933845,-0.339444,-6.552404,-27.643345,0.105545,-0.006271,0.979889,-0.0045,-0.048593,-0.000303,75.51799,4.505569,-147.626648,,,
729860657.937112,-0.339444,-6.552404,-27.643345,0.105545,-0.006271,0.979889,-0.0045,-0.048593,-0.000303,75.51799,4.505569,-147.626648,,,
729860657.940434,-0.33917,-6.573655,-27.643662,0.106964,-0.005936,0.981552,0.002077,-0.073249,-0.002872,75.51799,4.505569,-147.626648,,,
729860657.943806,-0.33748,-6.598687,-27.643676,0.106964,-0.005936,0.981552,0.002077,-0.073249,-0.002872,75.51799,4.505569,-147.626648,,,
729860657.947148,-0.33748,-6.598687,-27.643676,0.106964,-0.005936,0.981552,0.002077,-0.073249,-0.002872,75.368851,4.301178,-147.653091,,,
729860657.950441,-0.336214,-6.621718,-27.643621,0.110718,-0.007095,0.989609,0.004099,-0.077193,-0.00138,75.368851,4.301178,-147.653091,,,
729860657.953762,-0.333877,-6.645256,-27.643895,0.110718,-0.007095,0.989609,0.004099,-0.077193,-0.00138,75.368851,4.301178,-147.653091,,,
729860657.9571,-0.333877,-6.645256,-27.643895,0.110718,-0.007095,0.989609,0.004099,-0.077193,-0.00138,75.368851,4.301178,-147.653091,,,
729860657.960429,-0.3294,-6.665603,-27.644504,0.116699,-0.006363,0.998795,0.017984,-0.067644,-0.005443,75.368851,4.301178,-147.653091,,,
729860657.96381,-0.322542,-6.684616,-27.645806,0.116699,-0.006363,0.998795,0.017984,-0.067644,-0.005443,75.368851,4.301178,-147.653091,,,
729860657.967106,-0.322542,-6.684616,-27.645806,0.116699,-0.006363,0.998795,0.017984,-0.067644,-0.005443,75.368851,4.301178,-147.653091,,,
729860657.97049,-0.315544,-6.701097,-27.648274,0.122116,-0.005676,1.002701,0.02114,-0.051467,-0.013084,75.368851,4.301178,-147.653091,,,
729860657.97376,-0.315544,-6.713512,-27.652228,0.122116,-0.005676,1.002701,0.02114,-0.051467,-0.013084,75.368851,4.301178,-147.653091,,,
729860657.977112,-0.309407,-6.713512,-27.652228,0.122116,-0.005676,1.002701,0.02114,-0.051467,-0.013084,75.368851,4.301178,-147.653091,,,
729860657.980441,-0.303848,-6.724692,-27.657081,0.122437,-0.007309,0.99675,0.014782,-0.031284,-0.021005,75.368851,4.301178,-147.653091,,,
729860657.983763,-0.303848,-6.724692,-27.657081,0.122437,-0.007309,0.99675,0.014782,-0.031284,-0.021005,75.368851,4.301178,-147.653091,,,
729860657.9871,-0.300197,-6.729404,-27.661745,0.122437,-0.007309,0.99675,0.014782,-0.031284,-0.021005,75.345932,4.333969,-147.397003,,,
729860657.990431,-0.297597,-6.73355,-27.665979,0.119888,-0.004318,0.990402,0.001454,-0.007331,-0.018012,75.345932,4.333969,-147.397003,,,
729860657.993774,-0.297597,-6.73355,-27.665979,0.119888,-0.004318,0.990402,0.001454,-0.007331,-0.018012,75.345932,4.333969,-147.397003,,,
729860657.997164,-0.299027,-6.731244,-27.669724,0.119888,-0.004318,0.990402,0.001454,-0.007331,-0.018012,75.345932,4.333969,-147.397003,,,
729860658.000449,-0.302929,-6.72926,-27.673116,0.116348,-0.002914,0.987885,-0.017862,0.010453,-0.012102,75.345932,4.333969,-147.397003,,,
729860658.003764,-0.302929,-6.72926,-27.673116,0.116348,-0.002914,0.987885,-0.017862,0.010453,-0.012102,75.345932,4.333969,-147.397003,,,
729860658.0071,-0.309586,-6.721973,-27.676146,0.116348,-0.002914,0.987885,-0.017862,0.010453,-0.012102,75.345932,4.333969,-147.397003,,,
729860658.010433,-0.318707,-6.71617,-27.678974,0.113617,-0.001328,0.985413,-0.031085,0.024201,-0.008216,75.345932,4.333969,-147.397003,,,
729860658.013782,-0.318707,-6.71617,-27.678974,0.113617,-0.001328,0.985413,-0.031085,0.024201,-0.008216,75.345932,4.333969,-147.397003,,,
729860658.017105,-0.328693,-6.705097,-27.681478,0.113617,-0.001328,0.985413,-0.031085,0.024201,-0.008216,75.345932,4.333969,-147.397003,,,
729860658.020519,-0.338214,-6.69634,-27.683097,0.110748,-0.003677,0.991409,-0.033105,0.035151,-0.002376,75.345932,4.333969,-147.397003,,,
729860658.023755,-0.338214,-6.69634,-27.683097,0.110748,-0.003677,0.991409,-0.033105,0.035151,-0.002376,75.345932,4.333969,-147.397003,,,
729860658.027111,-0.346676,-6.685647,-27.683318,0.110748,-0.003677,0.991409,-0.033105,0.035151,-0.002376,75.345932,4.333969,-147.397003,,,
729860658.030447,-0.352727,-6.679148,-27.682432,0.105789,-0.009216,1.00415,-0.018071,0.025582,0.002082,75.280273,4.210266,-147.548218,,,
729860658.033821,-0.352727,-6.679148,-27.682432,0.105789,-0.009216,1.00415,-0.018071,0.025582,0.002082,75.280273,4.210266,-147.548218,,,
729860658.037102,-0.356163,-6.674457,-27.680605,0.105789,-0.009216,1.00415,-0.018071,0.025582,0.002082,75.280273,4.210266,-147.548218,,,
729860658.040436,-0.356595,-6.673379,-27.678235,0.10524,-0.011017,1.007614,0.001734,0.002287,0.006222,75.280273,4.210266,-147.548218,,,
729860658.043799,-0.356595,-6.673379,-27.678235,0.10524,-0.011017,1.007614,0.001734,0.002287,0.006222,75.280273,4.210266,-147.548218,,,
729860658.047201,-0.354117,-6.677858,-27.675598,0.10524,-0.011017,1.007614,0.001734,0.002287,0.006222,75.280273,4.210266,-147.548218,,,
729860658.050455,-0.348816,-6.685971,-27.673475,0.109222,-0.011292,1.009689,0.023524,-0.031975,0.001452,75.280273,4.210266,-147.548218,,,
729860658.053764,-0.348816,-6.685971,-27.673475,0.109222,-0.011292,1.009689,0.023524,-0.031975,0.001452,75.280273,4.210266,-147.548218,,,
729860658.057137,-0.340823,-6.701266,-27.672645,0.109222,-0.011292,1.009689,0.023524,-0.031975,0.001452,75.280273,4.210266,-147.548218,,,
729860658.06044,-0.329915,-6.719707,-27.673035,0.1147,-0.009628,1.001633,0.039849,-0.066858,-0.008105,75.280273,4.210266,-147.548218,,,
729860658.063784,-0.329915,-6.719707,-27.673035,0.1147,-0.009628,1.001633,0.039849,-0.066858,-0.008105,75.280273,4.210266,-147.548218,,,
729860658.06712,-0.316361,-6.743412,-27.674826,0.1147,-0.009628,1.001633,0.039849,-0.066858,-0.008105,75.280273,4.210266,-147.548218,,,
729860658.070392,-0.301583,-6.766552,-27.678876,0.119522,-0.004318,1.000595,0.051576,-0.078095,-0.020863,75.225891,4.099854,-147.545441,,,
729860658.073788,-0.301583,-6.766552,-27.678876,0.119522,-0.004318,1.000595,0.051576,-0.078095,-0.020863,75.225891,4.099854,-147.545441,,,
729860658.077107,-0.286007,-6.788519,-27.684156,0.119522,-0.004318,1.000595,0.051576,-0.078095,-0.020863,75.225891,4.099854,-147.545441,,,
729860658.08044,-0.271954,-6.807621,-27.688925,0.120453,-0.001312,1.000885,0.044592,-0.057477,-0.023572,75.225891,4.099854,-147.545441,,,
729860658.083792,-0.271954,-6.807621,-27.688925,0.120453,-0.001312,1.000885,0.044592,-0.057477,-0.023572,75.225891,4.099854,-147.545441,,,
729860658.087195,-0.260517,-6.820627,-27.692421,0.120453,-0.001312,1.000885,0.044592,-0.057477,-0.023572,75.225891,4.099854,-147.545441,,,
729860658.090451,-0.252449,-6.82773,-27.693797,0.116165,0.001297,1.001068,0.026986,-0.015156,-0.007033,75.225891,4.099854,-147.545441,,,
729860658.093778,-0.252449,-6.82773,-27.693797,0.116165,0.001297,1.001068,0.026986,-0.015156,-0.007033,75.225891,4.099854,-147.545441,,,
729860658.097126,-0.246784,-6.826236,-27.692518,0.116165,0.001297,1.001068,0.026986,-0.015156,-0.007033,75.225891,4.099854,-147.545441,,,
729860658.10051,-0.244529,-6.821529,-27.688475,0.112259,-0.000107,0.997147,0.004002,0.025745,0.015272,75.225891,4.099854,-147.545441,,,
729860658.103773,-0.244529,-6.821529,-27.688475,0.112259,-0.000107,0.997147,0.004002,0.025745,0.015272,75.225891,4.099854,-147.545441,,,
729860658.107102,-0.245585,-6.809355,-27.681981,0.112259,-0.000107,0.997147,0.004002,0.025745,0.015272,75.225891,4.099854,-147.545441,,,
729860658.110433,-0.247755,-6.800393,-27.67393,0.112991,-0.004471,0.989532,-0.005247,0.034949,0.030215,75.226883,4.317047,-147.332809,,,
729860658.113845,-0.247755,-6.800393,-27.67393,0.112991,-0.004471,0.989532,-0.005247,0.034949,0.030215,75.226883,4.317047,-147.332809,,,
729860658.117118,-0.251063,-6.787678,-27.665126,0.112991,-0.004471,0.989532,-0.005247,0.034949,0.030215,75.226883,4.317047,-147.332809,,,
729860658.12045,-0.25252,-6.783934,-27.655921,0.112823,-0.007065,0.984024,-0.002534,0.014028,0.032309,75.226883,4.317047,-147.332809,,,
729860658.123766,-0.25252,-6.783934,-27.655921,0.112823,-0.007065,0.984024,-0.002534,0.014028,0.032309,75.226883,4.317047,-147.332809,,,
729860658.127172,-0.253285,-6.78153,-27.646835,0.112823,-0.007065,0.984024,-0.002534,0.014028,0.032309,75.226883,4.317047,-147.332809,,,
729860658.130433,-0.249982,-6.789063,-27.638406,0.119034,-0.008316,0.981003,0.015479,-0.027964,0.022475,75.226883,4.317047,-147.332809,,,
729860658.13378,-0.249982,-6.789063,-27.638406,0.119034,-0.008316,0.981003,0.015479,-0.027964,0.022475,75.226883,4.317047,-147.332809,,,
729860658.137109,-0.245189,-6.799791,-27.631685,0.119034,-0.008316,0.981003,0.015479,-0.027964,0.022475,75.226883,4.317047,-147.332809,,,
729860658.140452,-0.236781,-6.817689,-27.626829,0.124542,-0.009689,0.982605,0.033267,-0.062683,0.012192,75.226883,4.317047,-147.332809,,,
729860658.143789,-0.236781,-6.817689,-27.626829,0.124542,-0.009689,0.982605,0.033267,-0.062683,0.012192,75.226883,4.317047,-147.332809,,,
729860658.147128,-0.226988,-6.838137,-27.623592,0.124542,-0.009689,0.982605,0.033267,-0.062683,0.012192,75.226883,4.317047,-147.332809,,,
729860658.150448,-0.215624,-6.860299,-27.622587,0.132721,-0.010681,0.987793,0.040536,-0.075827,-0.002976,75.226883,4.317047,-147.332809,,,
729860658.153845,-0.215624,-6.860299,-27.622587,0.132721,-0.010681,0.987793,0.040536,-0.075827,-0.002976,74.958252,4.216324,-147.829132,,,
729860658.157093,-0.202749,-6.882191,-27.623413,0.132721,-0.010681,0.987793,0.040536,-0.075827,-0.002976,74.958252,4.216324,-147.829132,,,
729860658.160437,-0.188768,-6.901873,-27.625999,0.141541,-0.00798,0.995819,0.049702,-0.063898,-0.016467,74.958252,4.216324,-147.829132,,,
729860658.16378,-0.188768,-6.901873,-27.625999,0.141541,-0.00798,0.995819,0.049702,-0.063898,-0.016467,74.958252,4.216324,-147.829132,,,
729860658.167167,-0.17279,-6.917096,-27.630121,0.141541,-0.00798,0.995819,0.049702,-0.063898,-0.016467,74.958252,4.216324,-147.829132,,,
729860658.170425,-0.156261,-6.928921,-27.635387,0.145966,-0.007034,1.008316,0.055503,-0.035634,-0.029071,74.958252,4.216324,-147.829132,,,
729860658.173768,-0.156261,-6.928921,-27.635387,0.145966,-0.007034,1.008316,0.055503,-0.035634,-0.029071,74.958252,4.216324,-147.829132,,,
729860658.177111,-0.137914,-6.934379,-27.641488,0.145966,-0.007034,1.008316,0.055503,-0.035634,-0.029071,74.958252,4.216324,-147.829132,,,
729860658.180433,-0.11946,-6.938356,-27.64776,0.139191,-0.006668,1.011551,0.063983,-0.004129,-0.030915,74.958252,4.216324,-147.829132,,,
729860658.183778,-0.11946,-6.938356,-27.64776,0.139191,-0.006668,1.011551,0.063983,-0.004129,-0.030915,74.958252,4.216324,-147.829132,,,
729860658.1872,-0.100677,-6.934759,-27.653661,0.139191,-0.006668,1.011551,0.063983,-0.004129,-0.030915,74.958252,4.216324,-147.829132,,,
729860658.190467,-0.081846,-6.930159,-27.658522,0.129333,-0.005249,1.006821,0.064034,0.020427,-0.02603,74.958252,4.216324,-147.829132,,,
729860658.193806,-0.081846,-6.930159,-27.658522,0.129333,-0.005249,1.006821,0.064034,0.020427,-0.02603,75.127045,4.157043,-147.375427,,,
729860658.197148,-0.065067,-6.919848,-27.662184,0.129333,-0.005249,1.006821,0.064034,0.020427,-0.02603,75.127045,4.157043,-147.375427,,,
729860658.200434,-0.04967,-6.909166,-27.664415,0.1194,-0.002304,0.99617,0.050738,0.044868,-0.015044,75.127045,4.157043,-147.375427,,,
729860658.203878,-0.04967,-6.909166,-27.664415,0.1194,-0.002304,0.99617,0.050738,0.044868,-0.015044,75.127045,4.157043,-147.375427,,,
729860658.207088,-0.037076,-6.896261,-27.664884,0.1194,-0.002304,0.99617,0.050738,0.044868,-0.015044,75.127045,4.157043,-147.375427,,,
729860658.210436,-0.025364,-6.883672,-27.664338,0.110489,-0.002808,0.984879,0.04044,0.046129,-0.000367,75.127045,4.157043,-147.375427,,,
729860658.213786,-0.025364,-6.883672,-27.664338,0.110489,-0.002808,0.984879,0.04044,0.046129,-0.000367,75.127045,4.157043,-147.375427,,,
729860658.217194,-0.017732,-6.872545,-27.663076,0.110489,-0.002808,0.984879,0.04044,0.046129,-0.000367,75.127045,4.157043,-147.375427,,,
729860658.220436,-0.010931,-6.86169,-27.661168,0.105804,-0.003357,0.975266,0.025301,0.037399,0.005523,75.127045,4.157043,-147.375427,,,
729860658.223854,-0.010931,-6.86169,-27.661168,0.105804,-0.003357,0.975266,0.025301,0.037399,0.005523,75.127045,4.157043,-147.375427,,,
729860658.227121,-0.008066,-6.856423,-27.659382,0.105804,-0.003357,0.975266,0.025301,0.037399,0.005523,75.127045,4.157043,-147.375427,,,
729860658.230443,-0.005448,-6.849854,-27.657158,0.10498,0.001801,0.974503,0.009087,0.022331,0.008159,75.127045,4.157043,-147.375427,,,
729860658.233767,-0.005448,-6.849854,-27.657158,0.10498,0.001801,0.974503,0.009087,0.022331,0.008159,75.274948,3.951157,-147.429489,,,
729860658.237148,-0.005939,-6.851994,-27.654592,0.10498,0.001801,0.974503,0.009087,0.022331,0.008159,75.274948,3.951157,-147.429489,,,
729860658.240448,-0.005463,-6.851164,-27.652799,0.108002,0.001297,0.975922,0.002887,0.00143,0.002673,75.274948,3.951157,-147.429489,,,
729860658.243852,-0.005463,-6.851164,-27.652799,0.108002,0.001297,0.975922,0.002887,0.00143,0.002673,75.274948,3.951157,-147.429489,,,
729860658.247103,-0.005463,-6.861592,-27.652172,0.108002,0.001297,0.975922,0.002887,0.00143,0.002673,75.274948,3.951157,-147.429489,,,
729860658.250438,-0.003097,-6.866576,-27.653195,0.113586,-0.000458,0.978745,0.007738,-0.015015,-0.008883,75.274948,3.951157,-147.429489,,,
729860658.25378,-0.003097,-6.866576,-27.653195,0.113586,-0.000458,0.978745,0.007738,-0.015015,-0.008883,75.274948,3.951157,-147.429489,,,
729860658.257103,-0.000692,-6.880513,-27.655735,0.113586,-0.000458,0.978745,0.007738,-0.015015,-0.008883,75.274948,3.951157,-147.429489,,,
729860658.260505,0.003785,-6.890503,-27.659056,0.11702,-0.000366,0.983658,0.014923,-0.033078,-0.012881,75.274948,3.951157,-147.429489,,,
729860658.263772,0.003785,-6.890503,-27.659056,0.11702,-0.000366,0.983658,0.014923,-0.033078,-0.012881,75.274948,3.951157,-147.429489,,,
729860658.267118,0.008219,-6.906261,-27.662602,0.11702,-0.000366,0.983658,0.014923,-0.033078,-0.012881,75.274948,3.951157,-147.429489,,,
729860658.27044,0.013623,-6.919815,-27.665927,0.114609,-0.002136,0.981766,0.019256,-0.046774,-0.015378,75.274948,3.951157,-147.429489,,,
729860658.27377,0.013623,-6.919815,-27.665927,0.114609,-0.002136,0.981766,0.019256,-0.046774,-0.015378,74.986221,4.039734,-147.529434,,,
729860658.277124,0.01782,-6.934831,-27.668872,0.114609,-0.002136,0.981766,0.019256,-0.046774,-0.015378,74.986221,4.039734,-147.529434,,,
729860658.280436,0.020298,-6.948404,-27.671482,0.11412,-0.003021,0.977219,0.006252,-0.045836,-0.010623,74.986221,4.039734,-147.529434,,,
729860658.283865,0.020298,-6.948404,-27.671482,0.11412,-0.003021,0.977219,0.006252,-0.045836,-0.010623,74.986221,4.039734,-147.529434,,,
729860658.287118,0.017968,-6.956995,-27.673605,0.11412,-0.003021,0.977219,0.006252,-0.045836,-0.010623,74.986221,4.039734,-147.529434,,,
729860658.290444,0.010895,-6.965346,-27.675579,0.117935,0.001282,0.970993,-0.029667,-0.022853,-0.004873,74.986221,4.039734,-147.529434,,,
729860658.293786,0.010895,-6.965346,-27.675579,0.117935,0.001282,0.970993,-0.029667,-0.022853,-0.004873,74.986221,4.039734,-147.529434,,,
729860658.297177,-0.00125,-6.965626,-27.677714,0.117935,0.001282,0.970993,-0.029667,-0.022853,-0.004873,74.986221,4.039734,-147.529434,,,
729860658.300424,-0.015801,-6.965658,-27.679451,0.118759,0.00087,0.971817,-0.051892,0.008055,0.000436,74.986221,4.039734,-147.529434,,,
729860658.303775,-0.015801,-6.965658,-27.679451,0.118759,0.00087,0.971817,-0.051892,0.008055,0.000436,74.986221,4.039734,-147.529434,,,
729860658.307115,-0.032169,-6.95762,-27.680086,0.118759,0.00087,0.971817,-0.051892,0.008055,0.000436,74.986221,4.039734,-147.529434,,,
729860658.310436,-0.048831,-6.952075,-27.679439,0.116104,-0.004135,0.985031,-0.056645,0.022499,0.008486,74.986221,4.039734,-147.529434,,,
729860658.313782,-0.048831,-6.952075,-27.679439,0.116104,-0.004135,0.985031,-0.056645,0.022499,0.008486,74.986221,4.039734,-147.529434,,,
729860658.317102,-0.063883,-6.942203,-27.677875,0.116104,-0.004135,0.985031,-0.056645,0.022499,0.008486,74.997421,3.996552,-147.316025,,,
729860658.320435,-0.076292,-6.936579,-27.676075,0.117355,-0.007233,0.999039,-0.038423,0.021088,0.0103,74.997421,3.996552,-147.316025,,,
729860658.323768,-0.076292,-6.936579,-27.676075,0.117355,-0.007233,0.999039,-0.038423,0.021088,0.0103,74.997421,3.996552,-147.316025,,,
729860658.327115,-0.083786,-6.929298,-27.674732,0.117355,-0.007233,0.999039,-0.038423,0.021088,0.0103,74.997421,3.996552,-147.316025,,,
729860658.330441,-0.08585,-6.926271,-27.673885,0.117065,-0.009552,1.013718,-0.003367,0.014205,0.000124,74.997421,3.996552,-147.316025,,,
