Time (sec),Pitch (deg),Roll (deg),Yaw(deg),X-Acceleration (g),Y-Acceleration (g),Z-Acceleration (g),Pitch Rate (deg/sec),Roll Rate (deg/sec),Yaw Rate (deg/sec),Magnetic Field in X direction (uT),Magnetic Field in Y direction (uT),Magnetic Field in Z Direction (uT),Latitude (deg),Longitude (deg),Altitude (m)
729860361.461681,-1.429912,-6.80804,-27.50462,0.102661,-0.021744,0.982452,-0.048743,0.002565,0.021352,75.362274,4.832489,-147.767654,,,
729860361.465015,-1.438606,-6.820249,-27.50015,0.110855,-0.026901,0.993927,-0.022899,-0.045791,0.016802,75.362274,4.832489,-147.767654,,,
729860361.468337,-1.438606,-6.820249,-27.50015,0.110855,-0.026901,0.993927,-0.022899,-0.045791,0.016802,75.362274,4.832489,-147.767654,,,
729860361.47169,-1.442085,-6.836984,-27.495956,0.110855,-0.026901,0.993927,-0.022899,-0.045791,0.016802,75.362274,4.832489,-147.767654,,,
729860361.475007,-1.439786,-6.855667,-27.491647,0.119415,-0.027435,1.010757,0.015372,-0.065729,0.012949,75.362274,4.832489,-147.767654,,,
729860361.478355,-1.439786,-6.855667,-27.491647,0.119415,-0.027435,1.010757,0.015372,-0.065729,0.012949,75.362274,4.832489,-147.767654,,,
729860361.481759,-1.43224,-6.875162,-27.487419,0.119415,-0.027435,1.010757,0.015372,-0.065729,0.012949,75.362274,4.832489,-147.767654,,,
729860361.484997,-1.419352,-6.891469,-27.483351,0.127304,-0.031464,1.025269,0.049237,-0.050201,0.00908,75.362274,4.832489,-147.767654,,,
729860361.488341,-1.419352,-6.891469,-27.483351,0.127304,-0.031464,1.025269,0.049237,-0.050201,0.00908,74.991638,4.954651,-147.705093,,,
729860361.49167,-1.402566,-6.903793,-27.479155,0.127304,-0.031464,1.025269,0.049237,-0.050201,0.00908,74.991638,4.954651,-147.705093,,,
729860361.495008,-1.38437,-6.909601,-27.474485,0.135284,-0.02623,1.024811,0.065884,-0.011349,0.007617,74.991638,4.954651,-147.705093,,,
729860361.498336,-1.38437,-6.909601,-27.474485,0.135284,-0.02623,1.024811,0.065884,-0.011349,0.007617,74.991638,4.954651,-147.705093,,,
729860361.501689,-1.36592,-6.908554,-27.469709,0.135284,-0.02623,1.024811,0.065884,-0.011349,0.007617,74.991638,4.954651,-147.705093,,,
729860361.505004,-1.349075,-6.901522,-27.465505,0.139862,-0.022507,1.009476,0.058405,0.031949,0.007042,74.991638,4.954651,-147.705093,,,
729860361.508424,-1.349075,-6.901522,-27.465505,0.139862,-0.022507,1.009476,0.058405,0.031949,0.007042,74.991638,4.954651,-147.705093,,,
729860361.511689,-1.334723,-6.887963,-27.461798,0.139862,-0.022507,1.009476,0.058405,0.031949,0.007042,74.991638,4.954651,-147.705093,,,
729860361.515012,-1.324897,-6.871726,-27.459043,0.141953,-0.017319,0.988953,0.032571,0.064977,0.00293,74.991638,4.954651,-147.705093,,,
729860361.518368,-1.324897,-6.871726,-27.459043,0.141953,-0.017319,0.988953,0.032571,0.064977,0.00293,74.991638,4.954651,-147.705093,,,
729860361.521735,-1.319046,-6.85064,-27.457748,0.141953,-0.017319,0.988953,0.032571,0.064977,0.00293,74.991638,4.954651,-147.705093,,,
729860361.524998,-1.31802,-6.832931,-27.458045,0.140732,-0.014633,0.967468,-0.002015,0.068119,-0.003213,74.991638,4.954651,-147.705093,,,
729860361.528347,-1.31802,-6.832931,-27.458045,0.140732,-0.014633,0.967468,-0.002015,0.068119,-0.003213,74.991638,4.954651,-147.705093,,,
729860361.531709,-1.321147,-6.813445,-27.459992,0.140732,-0.014633,0.967468,-0.002015,0.068119,-0.003213,75.124451,4.806717,-148.144974,,,
729860361.535076,-1.32762,-6.798959,-27.463864,0.133957,-0.013657,0.957062,-0.024662,0.052153,-0.009602,75.124451,4.806717,-148.144974,,,
729860361.538474,-1.32762,-6.798959,-27.463864,0.133957,-0.013657,0.957062,-0.024662,0.052153,-0.009602,75.124451,4.806717,-148.144974,,,
729860361.541682,-1.335717,-6.786526,-27.468598,0.133957,-0.013657,0.957062,-0.024662,0.052153,-0.009602,75.124451,4.806717,-148.144974,,,
729860361.544983,-1.343397,-6.780968,-27.474039,0.128494,-0.018784,0.962631,-0.029599,0.017992,-0.016946,75.124451,4.806717,-148.144974,,,
729860361.548451,-1.343397,-6.780968,-27.474039,0.128494,-0.018784,0.962631,-0.029599,0.017992,-0.016946,75.124451,4.806717,-148.144974,,,
729860361.551685,-1.349425,-6.780044,-27.479498,0.128494,-0.018784,0.962631,-0.029599,0.017992,-0.016946,75.124451,4.806717,-148.144974,,,
729860361.555015,-1.351627,-6.785589,-27.484167,0.123123,-0.026428,0.975189,-0.007237,-0.02074,-0.015891,75.124451,4.806717,-148.144974,,,
729860361.558365,-1.351627,-6.785589,-27.484167,0.123123,-0.026428,0.975189,-0.007237,-0.02074,-0.015891,75.124451,4.806717,-148.144974,,,
729860361.561755,-1.350382,-6.796563,-27.488452,0.123123,-0.026428,0.975189,-0.007237,-0.02074,-0.015891,75.124451,4.806717,-148.144974,,,
729860361.565004,-1.344137,-6.810463,-27.492542,0.122437,-0.027969,0.987717,0.02259,-0.049159,-0.018325,75.124451,4.806717,-148.144974,,,
729860361.568339,-1.344137,-6.810463,-27.492542,0.122437,-0.027969,0.987717,0.02259,-0.049159,-0.018325,75.124451,4.806717,-148.144974,,,
729860361.571691,-1.334728,-6.82863,-27.497035,0.122437,-0.027969,0.987717,0.02259,-0.049159,-0.018325,74.957306,4.823349,-147.786072,,,
729860361.575011,-1.321688,-6.845398,-27.502559,0.126755,-0.023651,0.994629,0.048549,-0.055366,-0.027898,74.957306,4.823349,-147.786072,,,
729860361.57836,-1.321688,-6.845398,-27.502559,0.126755,-0.023651,0.994629,0.048549,-0.055366,-0.027898,74.957306,4.823349,-147.786072,,,
729860361.581685,-1.307163,-6.862968,-27.509489,0.126755,-0.023651,0.994629,0.048549,-0.055366,-0.027898,74.957306,4.823349,-147.786072,,,
729860361.585016,-1.292904,-6.874082,-27.517745,0.130463,-0.016113,0.991013,0.04847,-0.034479,-0.036169,74.957306,4.823349,-147.786072,,,
729860361.58834,-1.292904,-6.874082,-27.517745,0.130463,-0.016113,0.991013,0.04847,-0.034479,-0.036169,74.957306,4.823349,-147.786072,,,
729860361.591697,-1.279014,-6.884356,-27.527303,0.130463,-0.016113,0.991013,0.04847,-0.034479,-0.036169,74.957306,4.823349,-147.786072,,,
729860361.595014,-1.26707,-6.884251,-27.537261,0.129822,-0.015518,0.985291,0.035803,0.01028,-0.041064,74.957306,4.823349,-147.786072,,,
729860361.59842,-1.26707,-6.884251,-27.537261,0.129822,-0.015518,0.985291,0.035803,0.01028,-0.041064,74.957306,4.823349,-147.786072,,,
729860361.601689,-1.256449,-6.882095,-27.54719,0.129822,-0.015518,0.985291,0.035803,0.01028,-0.041064,74.957306,4.823349,-147.786072,,,
729860361.60501,-1.249739,-6.869804,-27.556705,0.123688,-0.018234,0.982697,0.016927,0.050637,-0.033887,74.957306,4.823349,-147.786072,,,
729860361.608299,-1.249739,-6.869804,-27.556705,0.123688,-0.018234,0.982697,0.016927,0.050637,-0.033887,74.957306,4.823349,-147.786072,,,
729860361.611683,-1.245584,-6.856709,-27.565966,0.123688,-0.018234,0.982697,0.016927,0.050637,-0.033887,75.060852,4.799835,-148.12558,,,
729860361.615004,-1.246534,-6.836629,-27.574714,0.116684,-0.019485,0.975494,-0.009341,0.075353,-0.029848,75.060852,4.799835,-148.12558,,,
729860361.618361,-1.246534,-6.836629,-27.574714,0.116684,-0.019485,0.975494,-0.009341,0.075353,-0.029848,75.060852,4.799835,-148.12558,,,
729860361.621725,-1.24975,-6.819282,-27.583205,0.116684,-0.019485,0.975494,-0.009341,0.075353,-0.029848,75.060852,4.799835,-148.12558,,,
729860361.625036,-1.255232,-6.800315,-27.591161,0.105743,-0.022171,0.971344,-0.020921,0.069172,-0.024399,75.060852,4.799835,-148.12558,,,
729860361.628377,-1.255232,-6.800315,-27.591161,0.105743,-0.022171,0.971344,-0.020921,0.069172,-0.024399,75.060852,4.799835,-148.12558,,,
729860361.631702,-1.261864,-6.78609,-27.598119,0.105743,-0.022171,0.971344,-0.020921,0.069172,-0.024399,75.060852,4.799835,-148.12558,,,
729860361.635011,-1.267687,-6.775355,-27.604124,0.098694,-0.024078,0.971756,-0.021201,0.037116,-0.019552,75.060852,4.799835,-148.12558,,,
729860361.638427,-1.267687,-6.775355,-27.604124,0.098694,-0.024078,0.971756,-0.021201,0.037116,-0.019552,75.060852,4.799835,-148.12558,,,
729860361.641692,-1.273861,-6.772123,-27.608936,0.098694,-0.024078,0.971756,-0.021201,0.037116,-0.019552,75.060852,4.799835,-148.12558,,,
729860361.645082,-1.278821,-6.775341,-27.612614,0.092178,-0.02626,0.971573,-0.016115,-0.012283,-0.011394,75.060852,4.799835,-148.12558,,,
729860361.648336,-1.278821,-6.775341,-27.612614,0.092178,-0.02626,0.971573,-0.016115,-0.012283,-0.011394,75.060852,4.799835,-148.12558,,,
729860361.651755,-1.282939,-6.78594,-27.615797,0.092178,-0.02626,0.971573,-0.016115,-0.012283,-0.011394,75.150589,4.824966,-147.945572,,,
729860361.655005,-1.284996,-6.801084,-27.618682,0.092712,-0.024857,0.970428,-0.004028,-0.057002,-0.007767,75.150589,4.824966,-147.945572,,,
729860361.658358,-1.284996,-6.801084,-27.618682,0.092712,-0.024857,0.970428,-0.004028,-0.057002,-0.007767,75.150589,4.824966,-147.945572,,,
729860361.66169,-1.28473,-6.821799,-27.620627,0.092712,-0.024857,0.970428,-0.004028,-0.057002,-0.007767,75.150589,4.824966,-147.945572,,,
729860361.665005,-1.281845,-6.843261,-27.621868,0.09697,-0.024811,0.984283,0.013439,-0.073038,-0.00501,75.150589,4.824966,-147.945572,,,
729860361.668343,-1.281845,-6.843261,-27.621868,0.09697,-0.024811,0.984283,0.013439,-0.073038,-0.00501,75.150589,4.824966,-147.945572,,,
729860361.671692,-1.276043,-6.866376,-27.622975,0.09697,-0.024811,0.984283,0.013439,-0.073038,-0.00501,75.150589,4.824966,-147.945572,,,
729860361.675056,-1.270184,-6.886067,-27.623439,0.101791,-0.026993,0.996521,0.022522,-0.063525,-0.007404,75.150589,4.824966,-147.945572,,,
729860361.678349,-1.270184,-6.886067,-27.623439,0.101791,-0.026993,0.996521,0.022522,-0.063525,-0.007404,75.150589,4.824966,-147.945572,,,
729860361.681739,-1.264837,-6.902332,-27.623786,0.101791,-0.026993,0.996521,0.022522,-0.063525,-0.007404,75.150589,4.824966,-147.945572,,,
729860361.685065,-1.262665,-6.912199,-27.624377,0.112747,-0.023575,0.997406,0.007449,-0.025864,-0.005233,75.150589,4.824966,-147.945572,,,
729860361.688365,-1.262665,-6.912199,-27.624377,0.112747,-0.023575,0.997406,0.007449,-0.025864,-0.005233,75.150589,4.824966,-147.945572,,,
729860361.691659,-1.263485,-6.914603,-27.625376,0.112747,-0.023575,0.997406,0.007449,-0.025864,-0.005233,75.150589,4.824966,-147.945572,,,
729860361.695033,-1.267882,-6.908341,-27.625946,0.113297,-0.023758,0.997238,-0.017139,0.033482,0.000855,75.050079,4.990753,-147.718246,,,
729860361.698361,-1.267882,-6.908341,-27.625946,0.113297,-0.023758,0.997238,-0.017139,0.033482,0.000855,75.050079,4.990753,-147.718246,,,
729860361.701782,-1.275758,-6.892842,-27.624849,0.113297,-0.023758,0.997238,-0.017139,0.033482,0.000855,75.050079,4.990753,-147.718246,,,
729860361.70501,-1.287068,-6.872452,-27.621743,0.107391,-0.02774,1.003174,-0.038728,0.078468,0.017156,75.050079,4.990753,-147.718246,,,
729860361.708343,-1.287068,-6.872452,-27.621743,0.107391,-0.02774,1.003174,-0.038728,0.078468,0.017156,75.050079,4.990753,-147.718246,,,
729860361.711693,-1.300227,-6.844745,-27.615718,0.107391,-0.02774,1.003174,-0.038728,0.078468,0.017156,75.050079,4.990753,-147.718246,,,
729860361.715016,-1.313153,-6.81859,-27.606879,0.097015,-0.036102,1.007904,-0.040671,0.092517,0.036161,75.050079,4.990753,-147.718246,,,
729860361.71836,-1.313153,-6.81859,-27.606879,0.097015,-0.036102,1.007904,-0.040671,0.092517,0.036161,75.050079,4.990753,-147.718246,,,
729860361.721701,-1.325021,-6.78906,-27.595395,0.097015,-0.036102,1.007904,-0.040671,0.092517,0.036161,75.050079,4.990753,-147.718246,,,
729860361.725017,-1.333582,-6.766751,-27.580884,0.093155,-0.040787,1.014572,-0.021058,0.075426,0.054929,75.050079,4.990753,-147.718246,,,
729860361.728343,-1.333582,-6.766751,-27.580884,0.093155,-0.040787,1.014572,-0.021058,0.075426,0.054929,75.050079,4.990753,-147.718246,,,
729860361.731689,-1.338939,-6.745072,-27.564319,0.093155,-0.040787,1.014572,-0.021058,0.075426,0.054929,75.050079,4.990753,-147.718246,,,
729860361.735015,-1.340279,-6.73415,-27.546881,0.08992,-0.039536,1.016617,0.006319,0.034572,0.06097,75.104416,4.99292,-147.862457,,,
729860361.738417,-1.340279,-6.73415,-27.546881,0.08992,-0.039536,1.016617,0.006319,0.034572,0.06097,75.104416,4.99292,-147.862457,,,
729860361.741683,-1.337938,-6.727078,-27.528709,0.08992,-0.039536,1.016617,0.006319,0.034572,0.06097,75.104416,4.99292,-147.862457,,,
729860361.745016,-1.330971,-6.73193,-27.510937,0.096161,-0.037537,1.011871,0.034172,-0.022764,0.05746,75.104416,4.99292,-147.862457,,,
729860361.74836,-1.330971,-6.73193,-27.510937,0.096161,-0.037537,1.011871,0.034172,-0.022764,0.05746,75.104416,4.99292,-147.862457,,,
729860361.751735,-1.320772,-6.741416,-27.494125,0.096161,-0.037537,1.011871,0.034172,-0.022764,0.05746,75.104416,4.99292,-147.862457,,,
729860361.75501,-1.305389,-6.761221,-27.478963,0.105682,-0.033493,1.008255,0.063405,-0.072521,0.040613,75.104416,4.99292,-147.862457,,,
729860361.758373,-1.305389,-6.761221,-27.478963,0.105682,-0.033493,1.008255,0.063405,-0.072521,0.040613,75.104416,4.99292,-147.862457,,,
729860361.761713,-1.283843,-6.784465,-27.465594,0.105682,-0.033493,1.008255,0.063405,-0.072521,0.040613,75.104416,4.99292,-147.862457,,,
729860361.765012,-1.255037,-6.812197,-27.453486,0.117783,-0.034424,1.01767,0.110039,-0.097035,0.028129,75.104416,4.99292,-147.862457,,,
729860361.768373,-1.255037,-6.812197,-27.453486,0.117783,-0.034424,1.01767,0.110039,-0.097035,0.028129,75.104416,4.99292,-147.862457,,,
729860361.7717,-1.220153,-6.840039,-27.442444,0.117783,-0.034424,1.01767,0.110039,-0.097035,0.028129,75.104416,4.99292,-147.862457,,,
729860361.775015,-1.181591,-6.868084,-27.432158,0.123642,-0.034576,1.025238,0.140101,-0.094478,0.015173,74.906113,4.825409,-147.805115,,,
729860361.778362,-1.181591,-6.868084,-27.432158,0.123642,-0.034576,1.025238,0.140101,-0.094478,0.015173,74.906113,4.825409,-147.805115,,,
729860361.781711,-1.142485,-6.891845,-27.422132,0.123642,-0.034576,1.025238,0.140101,-0.094478,0.015173,74.906113,4.825409,-147.805115,,,
729860361.785018,-1.103135,-6.912834,-27.412497,0.12587,-0.028839,1.014954,0.13666,-0.062443,0.017036,74.906113,4.825409,-147.805115,,,
729860361.788455,-1.103135,-6.912834,-27.412497,0.12587,-0.028839,1.014954,0.13666,-0.062443,0.017036,74.906113,4.825409,-147.805115,,,
729860361.791691,-1.068039,-6.923719,-27.402764,0.12587,-0.028839,1.014954,0.13666,-0.062443,0.017036,74.906113,4.825409,-147.805115,,,
729860361.795017,-1.034317,-6.931768,-27.3931,0.127869,-0.023132,0.996536,0.119277,-0.019765,0.018193,74.906113,4.825409,-147.805115,,,
729860361.798358,-1.034317,-6.931768,-27.3931,0.127869,-0.023132,0.996536,0.119277,-0.019765,0.018193,74.906113,4.825409,-147.805115,,,
729860361.801746,-1.008023,-6.929013,-27.38317,0.127869,-0.023132,0.996536,0.119277,-0.019765,0.018193,74.906113,4.825409,-147.805115,,,
729860361.805013,-0.983971,-6.926967,-27.372849,0.125458,-0.018112,0.980988,0.084276,0.013556,0.027845,74.906113,4.825409,-147.805115,,,
729860361.808349,-0.983971,-6.926967,-27.372849,0.125458,-0.018112,0.980988,0.084276,0.013556,0.027845,74.906113,4.825409,-147.805115,,,
729860361.8117,-0.968661,-6.916418,-27.361468,0.125458,-0.018112,0.980988,0.084276,0.013556,0.027845,74.906113,4.825409,-147.805115,,,
729860361.815013,-0.955701,-6.911532,-27.349865,0.120255,-0.014694,0.964554,0.046581,0.018625,0.034388,74.875641,4.461121,-147.596542,,,
729860361.818354,-0.955701,-6.911532,-27.349865,0.120255,-0.014694,0.964554,0.046581,0.018625,0.034388,74.875641,4.461121,-147.596542,,,
729860361.821685,-0.950985,-6.901963,-27.338058,0.120255,-0.014694,0.964554,0.046581,0.018625,0.034388,74.875641,4.461121,-147.596542,,,
729860361.825015,-0.9478,-6.900088,-27.326239,0.117798,-0.011505,0.948334,0.012847,0.004643,0.038476,74.875641,4.461121,-147.596542,,,
729860361.828406,-0.9478,-6.900088,-27.326239,0.117798,-0.011505,0.948334,0.012847,0.004643,0.038476,74.875641,4.461121,-147.596542,,,
729860361.831684,-0.949447,-6.89895,-27.315236,0.117798,-0.011505,0.948334,0.012847,0.004643,0.038476,74.875641,4.461121,-147.596542,,,
729860361.835012,-0.950914,-6.903648,-27.305384,0.122284,-0.009491,0.944702,-0.002389,-0.017085,0.034744,74.875641,4.461121,-147.596542,,,
729860361.838357,-0.950914,-6.903648,-27.305384,0.122284,-0.009491,0.944702,-0.002389,-0.017085,0.034744,74.875641,4.461121,-147.596542,,,
729860361.841739,-0.954457,-6.909604,-27.296753,0.122284,-0.009491,0.944702,-0.002389,-0.017085,0.034744,74.875641,4.461121,-147.596542,,,
729860361.845006,-0.955427,-6.918121,-27.289357,0.128021,-0.008377,0.958664,0.001519,-0.028497,0.021685,74.875641,4.461121,-147.596542,,,
729860361.848356,-0.955427,-6.918121,-27.289357,0.128021,-0.008377,0.958664,0.001519,-0.028497,0.021685,74.875641,4.461121,-147.596542,,,
729860361.851694,-0.955773,-6.927345,-27.2827,0.128021,-0.008377,0.958664,0.001519,-0.028497,0.021685,74.875641,4.461121,-147.596542,,,
729860361.855017,-0.951855,-6.936684,-27.276846,0.130676,-0.011047,0.979401,0.02076,-0.028922,0.015682,74.875641,4.461121,-147.596542,,,
729860361.858362,-0.951855,-6.936684,-27.276846,0.130676,-0.011047,0.979401,0.02076,-0.028922,0.015682,75.057587,4.514801,-147.553146,,,
729860361.861691,-0.946284,-6.945167,-27.271638,0.130676,-0.011047,0.979401,0.02076,-0.028922,0.015682,75.057587,4.514801,-147.553146,,,
729860361.865011,-0.936796,-6.9522,-27.266477,0.132233,-0.01329,0.990768,0.037241,-0.021079,0.011118,75.057587,4.514801,-147.553146,,,
729860361.868369,-0.936796,-6.9522,-27.266477,0.132233,-0.01329,0.990768,0.037241,-0.021079,0.011118,75.057587,4.514801,-147.553146,,,
729860361.8717,-0.925656,-6.957968,-27.261275,0.132233,-0.01329,0.990768,0.037241,-0.021079,0.011118,75.057587,4.514801,-147.553146,,,
729860361.875008,-0.911955,-6.960999,-27.256529,0.134445,-0.013031,0.994186,0.05118,-0.005672,0.011218,75.057587,4.514801,-147.553146,,,
729860361.87841,-0.911955,-6.960999,-27.256529,0.134445,-0.013031,0.994186,0.05118,-0.005672,0.011218,75.057587,4.514801,-147.553146,,,
729860361.88168,-0.897819,-6.961947,-27.252341,0.134445,-0.013031,0.994186,0.05118,-0.005672,0.011218,75.057587,4.514801,-147.553146,,,
729860361.885013,-0.884267,-6.959208,-27.248438,0.134232,-0.011795,0.991394,0.046917,0.016669,0.007139,75.057587,4.514801,-147.553146,,,
729860361.888371,-0.884267,-6.959208,-27.248438,0.134232,-0.011795,0.991394,0.046917,0.016669,0.007139,75.057587,4.514801,-147.553146,,,
729860361.891767,-0.874192,-6.954617,-27.245348,0.134232,-0.011795,0.991394,0.046917,0.016669,0.007139,75.057587,4.514801,-147.553146,,,
729860361.89501,-0.868453,-6.948003,-27.242844,0.128021,-0.006317,0.974274,0.018982,0.02994,0.007534,75.057587,4.514801,-147.553146,,,
729860361.898354,-0.868453,-6.948003,-27.242844,0.128021,-0.006317,0.974274,0.018982,0.02994,0.007534,74.779144,4.326462,-147.696045,,,
729860361.901684,-0.868409,-6.941377,-27.240025,0.128021,-0.006317,0.974274,0.018982,0.02994,0.007534,74.779144,4.326462,-147.696045,,,
729860361.905018,-0.875259,-6.93515,-27.236711,0.121964,-0.004105,0.950287,-0.027331,0.024729,0.01297,74.779144,4.326462,-147.696045,,,
729860361.908357,-0.875259,-6.93515,-27.236711,0.121964,-0.004105,0.950287,-0.027331,0.024729,0.01297,74.779144,4.326462,-147.696045,,,
729860361.911687,-0.889168,-6.931182,-27.233932,0.121964,-0.004105,0.950287,-0.027331,0.024729,0.01297,74.779144,4.326462,-147.696045,,,
729860361.915019,-0.910572,-6.928205,-27.232134,0.119629,-0.003006,0.935623,-0.077367,0.009399,0.017289,74.779144,4.326462,-147.696045,,,
729860361.918398,-0.910572,-6.928205,-27.232134,0.119629,-0.003006,0.935623,-0.077367,0.009399,0.017289,74.779144,4.326462,-147.696045,,,
729860361.92171,-0.937127,-6.927668,-27.231609,0.119629,-0.003006,0.935623,-0.077367,0.009399,0.017289,74.779144,4.326462,-147.696045,,,
729860361.925076,-0.968548,-6.926425,-27.232519,0.123047,-0.003281,0.942383,-0.113003,0.007953,0.011014,74.779144,4.326462,-147.696045,,,
729860361.928354,-0.968548,-6.926425,-27.232519,0.123047,-0.003281,0.942383,-0.113003,0.007953,0.011014,74.779144,4.326462,-147.696045,,,
729860361.931745,-1.002065,-6.924578,-27.234194,0.123047,-0.003281,0.942383,-0.113003,0.007953,0.011014,74.779144,4.326462,-147.696045,,,
729860361.935012,-1.036699,-6.919032,-27.23576,0.124451,-0.010605,0.969604,-0.12231,0.022838,0.008788,74.779144,4.326462,-147.696045,,,
729860361.938346,-1.036699,-6.919032,-27.23576,0.124451,-0.010605,0.969604,-0.12231,0.022838,0.008788,74.869461,4.450653,-147.782135,,,
729860361.941676,-1.069474,-6.912451,-27.236435,0.124451,-0.010605,0.969604,-0.12231,0.022838,0.008788,74.869461,4.450653,-147.782135,,,
729860361.94501,-1.099284,-6.903696,-27.235913,0.123489,-0.020874,1.001053,-0.095972,0.033953,0.017169,74.869461,4.450653,-147.782135,,,
729860361.948349,-1.099284,-6.903696,-27.235913,0.123489,-0.020874,1.001053,-0.095972,0.033953,0.017169,74.869461,4.450653,-147.782135,,,
729860361.951685,-1.122847,-6.895272,-27.233841,0.123489,-0.020874,1.001053,-0.095972,0.033953,0.017169,74.869461,4.450653,-147.782135,,,
729860361.955015,-1.140226,-6.885379,-27.230641,0.12262,-0.02832,1.025085,-0.055427,0.037552,0.016193,74.869461,4.450653,-147.782135,,,
729860361.958417,-1.140226,-6.885379,-27.230641,0.12262,-0.02832,1.025085,-0.055427,0.037552,0.016193,74.869461,4.450653,-147.782135,,,
729860361.961675,-1.150948,-6.876411,-27.227455,0.12262,-0.02832,1.025085,-0.055427,0.037552,0.016193,74.869461,4.450653,-147.782135,,,
729860361.965016,-1.15564,-6.866191,-27.224435,0.126678,-0.028442,1.042419,-0.008549,0.038967,0.010045,74.869461,4.450653,-147.782135,,,
729860361.968353,-1.15564,-6.866191,-27.224435,0.126678,-0.028442,1.042419,-0.008549,0.038967,0.010045,74.869461,4.450653,-147.782135,,,
729860361.971681,-1.154031,-6.857334,-27.222438,0.126678,-0.028442,1.042419,-0.008549,0.038967,0.010045,74.869461,4.450653,-147.782135,,,
729860361.975019,-1.148954,-6.849626,-27.221656,0.128708,-0.02475,1.036011,0.023227,0.027319,-0.002225,74.869461,4.450653,-147.782135,,,
729860361.97835,-1.148954,-6.849626,-27.221656,0.128708,-0.02475,1.036011,0.023227,0.027319,-0.002225,74.869461,4.450653,-147.782135,,,
729860361.981743,-1.14141,-6.845898,-27.222089,0.128708,-0.02475,1.036011,0.023227,0.027319,-0.002225,74.835358,4.585358,-147.566513,,,
729860361.985034,-1.135061,-6.845004,-27.22391,0.12616,-0.018997,1.014755,0.019568,0.002653,-0.010019,74.835358,4.585358,-147.566513,,,
729860361.988356,-1.135061,-6.845004,-27.22391,0.12616,-0.018997,1.014755,0.019568,0.002653,-0.010019,74.835358,4.585358,-147.566513,,,
729860361.991682,-1.130545,-6.847069,-27.227257,0.12616,-0.018997,1.014755,0.019568,0.002653,-0.010019,74.835358,4.585358,-147.566513,,,
729860361.995081,-1.131662,-6.849581,-27.231468,0.121597,-0.014572,0.991226,-0.009493,-0.007576,-0.016265,74.835358,4.585358,-147.566513,,,
729860361.998408,-1.131662,-6.849581,-27.231468,0.121597,-0.014572,0.991226,-0.009493,-0.007576,-0.016265,74.835358,4.585358,-147.566513,,,
729860362.001695,-1.135762,-6.853286,-27.235758,0.121597,-0.014572,0.991226,-0.009493,-0.007576,-0.016265,74.835358,4.585358,-147.566513,,,
729860362.005056,-1.135762,-6.853286,-27.240005,0.121597,-0.014572,0.991226,-0.036524,-0.005625,-0.011732,74.835358,4.585358,-147.566513,,,
729860362.008416,-1.144322,-6.855827,-27.240005,0.116776,-0.01593,0.981918,-0.036524,-0.005625,-0.011732,74.835358,4.585358,-147.566513,,,
729860362.01168,-1.154494,-6.858301,-27.242602,0.116776,-0.01593,0.981918,-0.036524,-0.005625,-0.011732,74.835358,4.585358,-147.566513,,,
729860362.015047,-1.154494,-6.858301,-27.242602,0.110657,-0.022644,0.99086,-0.040471,0.005363,0.003807,74.835358,4.585358,-147.566513,,,
729860362.018348,-1.166079,-6.858218,-27.242819,0.110657,-0.022644,0.99086,-0.040471,0.005363,0.003807,74.835358,4.585358,-147.566513,,,
729860362.021686,-1.175656,-6.856884,-27.240476,0.110657,-0.022644,0.99086,-0.040471,0.005363,0.003807,74.868362,4.55368,-147.565308,,,
729860362.025051,-1.175656,-6.856884,-27.240476,0.110657,-0.022644,0.99086,-0.040471,0.005363,0.003807,74.868362,4.55368,-147.565308,,,
729860362.028358,-1.180814,-6.854221,-27.235419,0.1073,-0.028519,1.010162,-0.011822,0.011246,0.02008,74.868362,4.55368,-147.565308,,,
729860362.031738,-1.180605,-6.850889,-27.228183,0.1073,-0.028519,1.010162,-0.011822,0.011246,0.02008,74.868362,4.55368,-147.565308,,,
729860362.035056,-1.180605,-6.850889,-27.228183,0.1073,-0.028519,1.010162,0.029317,0.016955,0.028489,74.868362,4.55368,-147.565308,,,
729860362.038381,-1.17441,-6.846964,-27.219302,0.10936,-0.031448,1.02829,0.029317,0.016955,0.028489,74.868362,4.55368,-147.565308,,,
729860362.041705,-1.163329,-6.84204,-27.209892,0.10936,-0.031448,1.02829,0.029317,0.016955,0.028489,74.868362,4.55368,-147.565308,,,
729860362.045038,-1.163329,-6.84204,-27.209892,0.10936,-0.031448,1.02829,0.029317,0.016955,0.028489,74.868362,4.55368,-147.565308,,,
729860362.048389,-1.147416,-6.835802,-27.201369,0.121201,-0.029495,1.034149,0.061497,0.025068,0.019731,74.868362,4.55368,-147.565308,,,
729860362.051693,-1.129304,-6.82913,-27.194705,0.121201,-0.029495,1.034149,0.061497,0.025068,0.019731,74.868362,4.55368,-147.565308,,,
729860362.055081,-1.129304,-6.82913,-27.194705,0.121201,-0.029495,1.034149,0.061497,0.025068,0.019731,74.868362,4.55368,-147.565308,,,
729860362.05842,-1.110276,-6.822517,-27.189727,0.128922,-0.021164,1.020309,0.068962,0.026749,0.007444,74.868362,4.55368,-147.565308,,,
729860362.061673,-1.092388,-6.817897,-27.187434,0.128922,-0.021164,1.020309,0.068962,0.026749,0.007444,74.961243,4.743896,-147.750793,,,
729860362.065077,-1.092388,-6.817897,-27.187434,0.128922,-0.021164,1.020309,0.068962,0.026749,0.007444,74.961243,4.743896,-147.750793,,,
729860362.068361,-1.077118,-6.815358,-27.187483,0.128967,-0.012512,0.990967,0.049421,0.010366,-0.009849,74.961243,4.743896,-147.750793,,,
729860362.071682,-1.064661,-6.815536,-27.188764,0.128967,-0.012512,0.990967,0.049421,0.010366,-0.009849,74.961243,4.743896,-147.750793,,,
729860362.07511,-1.064661,-6.815536,-27.188764,0.128967,-0.012512,0.990967,0.049421,0.010366,-0.009849,74.961243,4.743896,-147.750793,,,
729860362.078359,-1.055596,-6.817774,-27.191598,0.126816,-0.007828,0.970901,0.027117,-0.008521,-0.016722,74.961243,4.743896,-147.750793,,,
729860362.081692,-1.049873,-6.822837,-27.195698,0.126816,-0.007828,0.970901,0.027117,-0.008521,-0.016722,74.961243,4.743896,-147.750793,,,
729860362.085076,-1.049873,-6.822837,-27.195698,0.126816,-0.007828,0.970901,0.027117,-0.008521,-0.016722,74.961243,4.743896,-147.750793,,,
729860362.088357,-1.047495,-6.830194,-27.199965,0.119934,-0.008484,0.96283,0.005458,-0.025848,-0.01516,74.961243,4.743896,-147.750793,,,
729860362.09169,-1.04749,-6.838774,-27.204032,0.119934,-0.008484,0.96283,0.005458,-0.025848,-0.01516,74.961243,4.743896,-147.750793,,,
729860362.09507,-1.04749,-6.838774,-27.204032,0.119934,-0.008484,0.96283,0.005458,-0.025848,-0.01516,74.961243,4.743896,-147.750793,,,
729860362.09842,-1.049005,-6.848983,-27.20764,0.117645,-0.015076,0.963608,-0.006227,-0.033333,-0.009839,74.961243,4.743896,-147.750793,,,
729860362.101686,-1.052111,-6.858009,-27.209973,0.117645,-0.015076,0.963608,-0.006227,-0.033333,-0.009839,74.78981,4.790054,-147.569153,,,
729860362.105071,-1.052111,-6.858009,-27.209973,0.117645,-0.015076,0.963608,-0.006227,-0.033333,-0.009839,74.78981,4.790054,-147.569153,,,
729860362.108359,-1.05469,-6.867589,-27.210888,0.117844,-0.015686,0.969391,-0.008275,-0.029115,-0.004375,74.78981,4.790054,-147.569153,,,
729860362.111685,-1.058513,-6.87279,-27.211463,0.117844,-0.015686,0.969391,-0.008275,-0.029115,-0.004375,74.78981,4.790054,-147.569153,,,
729860362.115068,-1.058513,-6.87279,-27.211463,0.117844,-0.015686,0.969391,-0.008275,-0.029115,-0.004375,74.78981,4.790054,-147.569153,,,
729860362.118353,-1.062386,-6.875174,-27.212741,0.121536,-0.016785,0.977036,-0.012746,-0.000943,-0.00269,74.78981,4.790054,-147.569153,,,
729860362.121767,-1.067607,-6.871937,-27.213759,0.121536,-0.016785,0.977036,-0.012746,-0.000943,-0.00269,74.78981,4.790054,-147.569153,,,
729860362.125094,-1.067607,-6.871937,-27.213759,0.121536,-0.016785,0.977036,-0.012746,-0.000943,-0.00269,74.78981,4.790054,-147.569153,,,
729860362.128355,-1.070515,-6.864607,-27.214098,0.124084,-0.01622,0.988525,-0.006172,0.03102,-0.001347,74.78981,4.790054,-147.569153,,,
729860362.131687,-1.071494,-6.853185,-27.213679,0.124084,-0.01622,0.988525,-0.006172,0.03102,-0.001347,74.78981,4.790054,-147.569153,,,
729860362.135078,-1.071494,-6.853185,-27.213679,0.124084,-0.01622,0.988525,-0.006172,0.03102,-0.001347,74.78981,4.790054,-147.569153,,,
729860362.138415,-1.068966,-6.838332,-27.212764,0.122009,-0.018967,0.996246,0.009573,0.057971,0.0007,74.78981,4.790054,-147.569153,,,
729860362.141682,-1.064093,-6.823962,-27.211645,0.122009,-0.018967,0.996246,0.009573,0.057971,0.0007,74.78981,4.790054,-147.569153,,,
729860362.145089,-1.064093,-6.823962,-27.211645,0.122009,-0.018967,0.996246,0.009573,0.057971,0.0007,74.98819,4.481354,-147.774811,,,
729860362.148339,-1.058769,-6.80876,-27.210266,0.121002,-0.017593,0.992218,0.01815,0.052864,0.00142,74.98819,4.481354,-147.774811,,,
729860362.151687,-1.052477,-6.79788,-27.209154,0.121002,-0.017593,0.992218,0.01815,0.052864,0.00142,74.98819,4.481354,-147.774811,,,
729860362.155056,-1.052477,-6.79788,-27.209154,0.121002,-0.017593,0.992218,0.01815,0.052864,0.00142,74.98819,4.481354,-147.774811,,,
729860362.158348,-1.049073,-6.788618,-27.207862,0.118561,-0.015366,0.97403,0.013851,0.030293,0.001556,74.98819,4.481354,-147.774811,,,
729860362.161686,-1.04571,-6.784835,-27.207116,0.118561,-0.015366,0.97403,0.013851,0.030293,0.001556,74.98819,4.481354,-147.774811,,,
729860362.165145,-1.04571,-6.784835,-27.207116,0.118561,-0.015366,0.97403,0.013851,0.030293,0.001556,74.98819,4.481354,-147.774811,,,
729860362.16835,-1.045108,-6.784393,-27.208598,0.118362,-0.009781,0.959976,-0.002585,0.000419,-0.008467,74.98819,4.481354,-147.774811,,,
729860362.171689,-1.046157,-6.788634,-27.212255,0.118362,-0.009781,0.959976,-0.002585,0.000419,-0.008467,74.98819,4.481354,-147.774811,,,
729860362.175055,-1.046157,-6.788634,-27.212255,0.118362,-0.009781,0.959976,-0.002585,0.000419,-0.008467,74.98819,4.481354,-147.774811,,,
729860362.178397,-1.049779,-6.795086,-27.217411,0.119308,-0.009186,0.956757,-0.017867,-0.01983,-0.017957,74.98819,4.481354,-147.774811,,,
729860362.181688,-1.055849,-6.803906,-27.223777,0.119308,-0.009186,0.956757,-0.017867,-0.01983,-0.017957,74.98819,4.481354,-147.774811,,,
729860362.185025,-1.055849,-6.803906,-27.223777,0.119308,-0.009186,0.956757,-0.017867,-0.01983,-0.017957,75.022934,4.588242,-147.716827,,,
729860362.188024,-1.065804,-6.813241,-27.230524,0.118362,-0.010162,0.959595,-0.040697,-0.028821,-0.020675,75.022934,4.588242,-147.716827,,,
729860362.191737,-1.078723,-6.822467,-27.236988,0.118362,-0.010162,0.959595,-0.040697,-0.028821,-0.020675,75.022934,4.588242,-147.716827,,,
729860362.195029,-1.078723,-6.822467,-27.236988,0.118362,-0.010162,0.959595,-0.040697,-0.028821,-0.020675,75.022934,4.588242,-147.716827,,,
729860362.198363,-1.094128,-6.829574,-27.24297,0.11554,-0.014313,0.962173,-0.05866,-0.020768,-0.015174,75.022934,4.588242,-147.716827,,,
729860362.201692,-1.111134,-6.833971,-27.247956,0.11554,-0.014313,0.962173,-0.05866,-0.020768,-0.015174,75.022934,4.588242,-147.716827,,,
729860362.205085,-1.111134,-6.833971,-27.247956,0.11554,-0.014313,0.962173,-0.05866,-0.020768,-0.015174,75.022934,4.588242,-147.716827,,,
729860362.208359,-1.129727,-6.833488,-27.251803,0.111328,-0.018097,0.974701,-0.066676,0.008433,-0.005485,75.022934,4.588242,-147.716827,,,
729860362.211695,-1.148925,-6.828449,-27.254523,0.111328,-0.018097,0.974701,-0.066676,0.008433,-0.005485,75.022934,4.588242,-147.716827,,,
729860362.215017,-1.148925,-6.828449,-27.254523,0.111328,-0.018097,0.974701,-0.066676,0.008433,-0.005485,75.022934,4.588242,-147.716827,,,
729860362.218422,-1.167576,-6.818512,-27.255731,0.109619,-0.020813,0.988144,-0.063009,0.04176,0.005252,75.022934,4.588242,-147.716827,,,
729860362.221685,-1.184193,-6.80557,-27.255067,0.109619,-0.020813,0.988144,-0.063009,0.04176,0.005252,75.022934,4.588242,-147.716827,,,
729860362.225025,-1.184193,-6.80557,-27.255067,0.109619,-0.020813,0.988144,-0.063009,0.04176,0.005252,75.115814,4.657059,-147.761459,,,
729860362.228376,-1.198101,-6.79127,-27.252935,0.106567,-0.023224,0.999451,-0.04529,0.052081,0.012093,75.115814,4.657059,-147.761459,,,
729860362.23169,-1.208178,-6.779059,-27.250486,0.106567,-0.023224,0.999451,-0.04529,0.052081,0.012093,75.115814,4.657059,-147.761459,,,
729860362.23502,-1.208178,-6.779059,-27.250486,0.106567,-0.023224,0.999451,-0.04529,0.052081,0.012093,75.115814,4.657059,-147.761459,,,
729860362.238376,-1.21544,-6.770096,-27.248346,0.108093,-0.02272,1.001266,-0.020516,0.034784,0.009662,75.115814,4.657059,-147.761459,,,
729860362.24169,-1.218924,-6.765739,-27.247234,0.108093,-0.02272,1.001266,-0.020516,0.034784,0.009662,75.115814,4.657059,-147.761459,,,
729860362.245018,-1.218924,-6.765739,-27.247234,0.108093,-0.02272,1.001266,-0.020516,0.034784,0.009662,75.115814,4.657059,-147.761459,,,
729860362.248359,-1.219503,-6.76595,-27.248043,0.112778,-0.022095,0.999619,0.000836,-0.000552,-0.004375,75.115814,4.657059,-147.761459,,,
729860362.251691,-1.215466,-6.771721,-27.250975,0.112778,-0.022095,0.999619,0.000836,-0.000552,-0.004375,75.115814,4.657059,-147.761459,,,
729860362.255087,-1.215466,-6.771721,-27.250975,0.112778,-0.022095,0.999619,0.000836,-0.000552,-0.004375,75.115814,4.657059,-147.761459,,,
729860362.258358,-1.210444,-6.780817,-27.255553,0.115753,-0.016983,1.000107,0.018409,-0.031366,-0.019937,75.115814,4.657059,-147.761459,,,
729860362.261693,-1.202049,-6.794889,-27.260808,0.115753,-0.016983,1.000107,0.018409,-0.031366,-0.019937,75.115814,4.657059,-147.761459,,,
729860362.265018,-1.202049,-6.794889,-27.260808,0.115753,-0.016983,1.000107,0.018409,-0.031366,-0.019937,74.822449,4.716904,-147.740219,,,
729860362.268436,-1.194709,-6.811888,-27.265662,0.112473,-0.017029,0.996246,0.026111,-0.059549,-0.022168,74.822449,4.716904,-147.740219,,,
729860362.271684,-1.187118,-6.832455,-27.270279,0.112473,-0.017029,0.996246,0.026111,-0.059549,-0.022168,74.822449,4.716904,-147.740219,,,
729860362.275034,-1.187118,-6.832455,-27.270279,0.112473,-0.017029,0.996246,0.026111,-0.059549,-0.022168,74.822449,4.716904,-147.740219,,,
729860362.278363,-1.183153,-6.854378,-27.274447,0.107803,-0.018463,0.984253,0.010517,-0.074837,-0.016313,74.822449,4.716904,-147.740219,,,
729860362.281687,-1.182587,-6.874963,-27.278011,0.107803,-0.018463,0.984253,0.010517,-0.074837,-0.016313,74.822449,4.716904,-147.740219,,,
729860362.28511,-1.182587,-6.874963,-27.278011,0.107803,-0.018463,0.984253,0.010517,-0.074837,-0.016313,74.822449,4.716904,-147.740219,,,
729860362.288395,-1.18641,-6.893358,-27.280775,0.107758,-0.017715,0.975632,-0.016847,-0.057068,-0.006629,74.822449,4.716904,-147.740219,,,
729860362.291731,-1.193655,-6.906156,-27.28244,0.107758,-0.017715,0.975632,-0.016847,-0.057068,-0.006629,74.822449,4.716904,-147.740219,,,
729860362.295023,-1.193655,-6.906156,-27.28244,0.107758,-0.017715,0.975632,-0.016847,-0.057068,-0.006629,74.822449,4.716904,-147.740219,,,
729860362.298358,-1.204796,-6.915021,-27.283313,0.111191,-0.013855,0.979721,-0.041529,-0.022952,0.001196,74.822449,4.716904,-147.740219,,,
729860362.301722,-1.218862,-6.916784,-27.283184,0.111191,-0.013855,0.979721,-0.041529,-0.022952,0.001196,74.822449,4.716904,-147.740219,,,
729860362.305023,-1.218862,-6.916784,-27.283184,0.111191,-0.013855,0.979721,-0.041529,-0.022952,0.001196,74.822449,4.716904,-147.740219,,,
729860362.3084,-1.234206,-6.91723,-27.28223,0.114426,-0.017105,0.987106,-0.05343,0.004545,0.006872,74.955917,4.674576,-147.704071,,,
729860362.311694,-1.249436,-6.912515,-27.280742,0.114426,-0.017105,0.987106,-0.05343,0.004545,0.006872,74.955917,4.674576,-147.704071,,,
729860362.315063,-1.249436,-6.912515,-27.280742,0.114426,-0.017105,0.987106,-0.05343,0.004545,0.006872,74.955917,4.674576,-147.704071,,,
729860362.318358,-1.262641,-6.907651,-27.27945,0.117874,-0.020645,0.996323,-0.045549,0.02204,0.009069,74.955917,4.674576,-147.704071,,,
729860362.321716,-1.273405,-6.899518,-27.278421,0.117874,-0.020645,0.996323,-0.045549,0.02204,0.009069,74.955917,4.674576,-147.704071,,,
729860362.325046,-1.273405,-6.899518,-27.278421,0.117874,-0.020645,0.996323,-0.045549,0.02204,0.009069,74.955917,4.674576,-147.704071,,,
729860362.32838,-1.280878,-6.892998,-27.277969,0.122192,-0.022552,1.008499,-0.024058,0.024742,0.002083,74.955917,4.674576,-147.704071,,,
729860362.331693,-1.284829,-6.886314,-27.278449,0.122192,-0.022552,1.008499,-0.024058,0.024742,0.002083,74.955917,4.674576,-147.704071,,,
729860362.335035,-1.284829,-6.886314,-27.278449,0.122192,-0.022552,1.008499,-0.024058,0.024742,0.002083,74.955917,4.674576,-147.704071,,,
729860362.338352,-1.28681,-6.882392,-27.280167,0.125626,-0.021469,1.010345,-0.004418,0.014185,-0.004688,74.955917,4.674576,-147.704071,,,
729860362.341687,-1.285458,-6.879522,-27.283231,0.125626,-0.021469,1.010345,-0.004418,0.014185,-0.004688,74.955917,4.674576,-147.704071,,,
729860362.345124,-1.285458,-6.879522,-27.283231,0.125626,-0.021469,1.010345,-0.004418,0.014185,-0.004688,74.955917,4.674576,-147.704071,,,
729860362.34836,-1.282876,-6.880737,-27.28764,0.124603,-0.018448,1.007126,0.010066,-0.00485,-0.017093,75.129684,4.594177,-147.720535,,,
729860362.351701,-1.277658,-6.882429,-27.292907,0.124603,-0.018448,1.007126,0.010066,-0.00485,-0.017093,75.129684,4.594177,-147.720535,,,
729860362.355036,-1.277658,-6.882429,-27.292907,0.124603,-0.018448,1.007126,0.010066,-0.00485,-0.017093,75.129684,4.594177,-147.720535,,,
729860362.358366,-1.272352,-6.887824,-27.298682,0.123428,-0.017197,0.99939,0.013668,-0.014719,-0.024104,75.129684,4.594177,-147.720535,,,
729860362.361695,-1.267154,-6.892488,-27.304646,0.123428,-0.017197,0.99939,0.013668,-0.014719,-0.024104,75.129684,4.594177,-147.720535,,,
729860362.365038,-1.267154,-6.892488,-27.304646,0.123428,-0.017197,0.99939,0.013668,-0.014719,-0.024104,75.129684,4.594177,-147.720535,,,
729860362.368459,-1.263074,-6.900683,-27.309687,0.114441,-0.020325,0.993729,0.012055,-0.027668,-0.016892,75.129684,4.594177,-147.720535,,,
729860362.371676,-1.259369,-6.907178,-27.313609,0.114441,-0.020325,0.993729,0.012055,-0.027668,-0.016892,75.129684,4.594177,-147.720535,,,
729860362.375042,-1.259369,-6.907178,-27.313609,0.114441,-0.020325,0.993729,0.012055,-0.027668,-0.016892,75.129684,4.594177,-147.720535,,,
729860362.378366,-1.258816,-6.914254,-27.316603,0.111191,-0.022263,0.989365,0.001618,-0.019678,-0.009287,75.129684,4.594177,-147.720535,,,
729860362.381692,-1.258995,-6.918538,-27.318174,0.111191,-0.022263,0.989365,0.001618,-0.019678,-0.009287,75.129684,4.594177,-147.720535,,,
729860362.385091,-1.258995,-6.918538,-27.318174,0.111191,-0.022263,0.989365,0.001618,-0.019678,-0.009287,75.129684,4.594177,-147.720535,,,
729860362.388353,-1.262358,-6.921688,-27.318672,0.112976,-0.022736,0.988281,-0.016022,-0.005253,0.00253,75.049316,4.668274,-147.857697,,,
729860362.391687,-1.267694,-6.921932,-27.317837,0.112976,-0.022736,0.988281,-0.016022,-0.005253,0.00253,75.049316,4.668274,-147.857697,,,
729860362.395043,-1.267694,-6.921932,-27.317837,0.112976,-0.022736,0.988281,-0.016022,-0.005253,0.00253,75.049316,4.668274,-147.857697,,,
729860362.398415,-1.275404,-6.921779,-27.316078,0.114594,-0.022324,0.986923,-0.027935,0.003304,0.010644,75.049316,4.668274,-147.857697,,,
729860362.401688,-1.285998,-6.920863,-27.314157,0.114594,-0.022324,0.986923,-0.027935,0.003304,0.010644,75.049316,4.668274,-147.857697,,,
729860362.40504,-1.285998,-6.920863,-27.314157,0.114594,-0.022324,0.986923,-0.027935,0.003304,0.010644,75.049316,4.668274,-147.857697,,,
729860362.408362,-1.299135,-6.920437,-27.312579,0.122101,-0.020142,0.982224,-0.045623,0.004124,0.010075,75.049316,4.668274,-147.857697,,,
729860362.41169,-1.312808,-6.921124,-27.31212,0.122101,-0.020142,0.982224,-0.045623,0.004124,0.010075,75.049316,4.668274,-147.857697,,,
729860362.415032,-1.312808,-6.921124,-27.31212,0.122101,-0.020142,0.982224,-0.045623,0.004124,0.010075,75.049316,4.668274,-147.857697,,,
729860362.418404,-1.326762,-6.921726,-27.313164,0.129135,-0.021118,0.98143,-0.048242,0.00325,-0.000201,75.049316,4.668274,-147.857697,,,
729860362.421695,-1.339785,-6.92304,-27.315708,0.129135,-0.021118,0.98143,-0.048242,0.00325,-0.000201,75.049316,4.668274,-147.857697,,,
729860362.425094,-1.339785,-6.92304,-27.315708,0.129135,-0.021118,0.98143,-0.048242,0.00325,-0.000201,75.049316,4.668274,-147.857697,,,
729860362.428353,-1.352696,-6.923733,-27.319707,0.132187,-0.02211,0.986938,-0.04357,0.00153,-0.013234,75.049316,4.668274,-147.857697,,,
729860362.431696,-1.363365,-6.924736,-27.324618,0.132187,-0.02211,0.986938,-0.04357,0.00153,-0.013234,74.924988,4.770554,-148.117371,,,
729860362.435029,-1.363365,-6.924736,-27.324618,0.132187,-0.02211,0.986938,-0.04357,0.00153,-0.013234,74.924988,4.770554,-148.117371,,,
729860362.438446,-1.373218,-6.925295,-27.329555,0.133209,-0.026962,0.993301,-0.034169,-0.000374,-0.016233,74.924988,4.770554,-148.117371,,,
729860362.44169,-1.38068,-6.925066,-27.334218,0.133209,-0.026962,0.993301,-0.034169,-0.000374,-0.016233,74.924988,4.770554,-148.117371,,,
729860362.445041,-1.38068,-6.925066,-27.334218,0.133209,-0.026962,0.993301,-0.034169,-0.000374,-0.016233,74.924988,4.770554,-148.117371,,,
729860362.448373,-1.386786,-6.924433,-27.33864,0.130569,-0.02919,1.000397,-0.022325,0.007159,-0.013313,74.924988,4.770554,-148.117371,,,
729860362.451714,-1.390156,-6.921052,-27.342823,0.130569,-0.02919,1.000397,-0.022325,0.007159,-0.013313,74.924988,4.770554,-148.117371,,,
729860362.455031,-1.390156,-6.921052,-27.342823,0.130569,-0.02919,1.000397,-0.022325,0.007159,-0.013313,74.924988,4.770554,-148.117371,,,
729860362.458375,-1.391734,-6.918371,-27.346881,0.128296,-0.031418,1.007675,-0.005017,0.01632,-0.013499,74.924988,4.770554,-148.117371,,,
729860362.4617,-1.391285,-6.912604,-27.349969,0.128296,-0.031418,1.007675,-0.005017,0.01632,-0.013499,74.924988,4.770554,-148.117371,,,
729860362.465026,-1.391285,-6.912604,-27.349969,0.128296,-0.031418,1.007675,-0.005017,0.01632,-0.013499,74.924988,4.770554,-148.117371,,,
729860362.468358,-1.391279,-6.906626,-27.352133,0.126587,-0.028381,1.005035,-0.002366,0.026201,-0.010122,74.924988,4.770554,-148.117371,,,
729860362.471698,-1.392687,-6.897903,-27.354334,0.126587,-0.028381,1.005035,-0.002366,0.026201,-0.010122,74.871506,4.793655,-147.977448,,,
729860362.475035,-1.392687,-6.897903,-27.354334,0.126587,-0.028381,1.005035,-0.002366,0.026201,-0.010122,74.871506,4.793655,-147.977448,,,
729860362.478425,-1.396715,-6.889491,-27.357196,0.126236,-0.02478,0.990982,-0.01752,0.032661,-0.009537,74.871506,4.793655,-147.977448,,,
729860362.481696,-1.40281,-6.880824,-27.360648,0.126236,-0.02478,0.990982,-0.01752,0.032661,-0.009537,74.871506,4.793655,-147.977448,,,
729860362.485035,-1.40281,-6.880824,-27.360648,0.126236,-0.02478,0.990982,-0.01752,0.032661,-0.009537,74.871506,4.793655,-147.977448,,,
729860362.488372,-1.411533,-6.872109,-27.364904,0.126389,-0.021927,0.978958,-0.034987,0.033238,-0.016591,74.871506,4.793655,-147.977448,,,
729860362.491728,-1.421294,-6.865586,-27.370494,0.126389,-0.021927,0.978958,-0.034987,0.033238,-0.016591,74.871506,4.793655,-147.977448,,,
729860362.495052,-1.421294,-6.865586,-27.370494,0.126389,-0.021927,0.978958,-0.034987,0.033238,-0.016591,74.871506,4.793655,-147.977448,,,
729860362.498416,-1.432017,-6.858368,-27.377089,0.124435,-0.021759,0.978989,-0.037468,0.026283,-0.021654,74.871506,4.793655,-147.977448,,,
729860362.501711,-1.441437,-6.855351,-27.384229,0.124435,-0.021759,0.978989,-0.037468,0.026283,-0.021654,74.871506,4.793655,-147.977448,,,
729860362.505138,-1.441437,-6.855351,-27.384229,0.124435,-0.021759,0.978989,-0.037468,0.026283,-0.021654,74.871506,4.793655,-147.977448,,,
729860362.508374,-1.449682,-6.851893,-27.391254,0.120422,-0.026901,0.984451,-0.030546,0.01633,-0.021503,74.871506,4.793655,-147.977448,,,
729860362.511695,-1.455746,-6.853034,-27.397892,0.120422,-0.026901,0.984451,-0.030546,0.01633,-0.021503,74.978943,4.920563,-147.840118,,,
729860362.515035,-1.455746,-6.853034,-27.397892,0.120422,-0.026901,0.984451,-0.030546,0.01633,-0.021503,74.978943,4.920563,-147.840118,,,
729860362.518356,-1.460084,-6.851739,-27.403734,0.117783,-0.028046,0.995941,-0.01323,0.006409,-0.01924,74.978943,4.920563,-147.840118,,,
729860362.521694,-1.463843,-6.852545,-27.4092,0.117783,-0.028046,0.995941,-0.01323,0.006409,-0.01924,74.978943,4.920563,-147.840118,,,
729860362.525047,-1.463843,-6.852545,-27.4092,0.117783,-0.028046,0.995941,-0.01323,0.006409,-0.01924,74.978943,4.920563,-147.840118,,,
729860362.528365,-1.466326,-6.851358,-27.41397,0.116684,-0.028931,1.000565,-0.007984,0.009524,-0.014309,74.978943,4.920563,-147.840118,,,
729860362.531695,-1.469169,-6.851278,-27.418028,0.116684,-0.028931,1.000565,-0.007984,0.009524,-0.014309,74.978943,4.920563,-147.840118,,,
729860362.535039,-1.469169,-6.851278,-27.418028,0.116684,-0.028931,1.000565,-0.007984,0.009524,-0.014309,74.978943,4.920563,-147.840118,,,
729860362.538358,-1.471357,-6.848056,-27.42179,0.117416,-0.031067,0.999664,-0.007376,0.016031,-0.013989,74.978943,4.920563,-147.840118,,,
729860362.541691,-1.47431,-6.84471,-27.425347,0.117416,-0.031067,0.999664,-0.007376,0.016031,-0.013989,74.978943,4.920563,-147.840118,,,
729860362.545036,-1.47431,-6.84471,-27.425347,0.117416,-0.031067,0.999664,-0.007376,0.016031,-0.013989,74.978943,4.920563,-147.840118,,,
729860362.548373,-1.476328,-6.84038,-27.428748,0.116135,-0.02858,0.99501,-0.006554,0.016498,-0.010431,74.978943,4.920563,-147.840118,,,
729860362.551686,-1.477948,-6.837737,-27.431747,0.116135,-0.02858,0.99501,-0.006554,0.016498,-0.010431,75.060394,4.827881,-148.00032,,,
729860362.555095,-1.477948,-6.837737,-27.431747,0.116135,-0.02858,0.99501,-0.006554,0.016498,-0.010431,75.060394,4.827881,-148.00032,,,
729860362.558362,-1.478294,-6.835032,-27.434654,0.113007,-0.027206,0.994675,0.001089,0.010853,-0.01153,75.060394,4.827881,-148.00032,,,
729860362.561691,-1.476653,-6.83562,-27.438152,0.113007,-0.027206,0.994675,0.001089,0.010853,-0.01153,75.060394,4.827881,-148.00032,,,
729860362.565025,-1.476653,-6.83562,-27.438152,0.113007,-0.027206,0.994675,0.001089,0.010853,-0.01153,75.060394,4.827881,-148.00032,,,
729860362.568362,-1.474419,-6.83666,-27.441795,0.111221,-0.026917,0.993881,0.007264,-0.002657,-0.015257,75.060394,4.827881,-148.00032,,,
729860362.571691,-1.470613,-6.841341,-27.445762,0.111221,-0.026917,0.993881,0.007264,-0.002657,-0.015257,75.060394,4.827881,-148.00032,,,
729860362.575041,-1.470613,-6.841341,-27.445762,0.111221,-0.026917,0.993881,0.007264,-0.002657,-0.015257,75.060394,4.827881,-148.00032,,,
729860362.578371,-1.465991,-6.845749,-27.449795,0.113358,-0.025024,0.991425,0.017074,-0.013743,-0.015521,75.060394,4.827881,-148.00032,,,
729860362.581689,-1.460085,-6.851706,-27.453898,0.113358,-0.025024,0.991425,0.017074,-0.013743,-0.015521,75.060394,4.827881,-148.00032,,,
729860362.585038,-1.460085,-6.851706,-27.453898,0.113358,-0.025024,0.991425,0.017074,-0.013743,-0.015521,75.060394,4.827881,-148.00032,,,
729860362.588375,-1.454207,-6.856853,-27.458191,0.114075,-0.023544,0.987488,0.018246,-0.015395,-0.015122,75.060394,4.827881,-148.00032,,,
729860362.591692,-1.450025,-6.860322,-27.462163,0.114075,-0.023544,0.987488,0.018246,-0.015395,-0.015122,75.060394,4.827881,-148.00032,,,
729860362.595125,-1.450025,-6.860322,-27.462163,0.114075,-0.023544,0.987488,0.018246,-0.015395,-0.015122,74.972885,4.782288,-148.224792,,,
729860362.59837,-1.447956,-6.861491,-27.465722,0.109848,-0.024551,0.983536,0.004455,-0.000279,-0.01111,74.972885,4.782288,-148.224792,,,
729860362.601693,-1.44991,-6.859212,-27.468598,0.109848,-0.024551,0.983536,0.004455,-0.000279,-0.01111,74.972885,4.782288,-148.224792,,,
729860362.605045,-1.44991,-6.859212,-27.468598,0.109848,-0.024551,0.983536,0.004455,-0.000279,-0.01111,74.972885,4.782288,-148.224792,,,
729860362.608432,-1.455571,-6.855159,-27.470334,0.108124,-0.023697,0.977264,-0.02533,0.019127,-0.004596,74.972885,4.782288,-148.224792,,,
729860362.611721,-1.466011,-6.848297,-27.470836,0.108124,-0.023697,0.977264,-0.02533,0.019127,-0.004596,74.972885,4.782288,-148.224792,,,
729860362.615043,-1.466011,-6.848297,-27.470836,0.108124,-0.023697,0.977264,-0.02533,0.019127,-0.004596,74.972885,4.782288,-148.224792,,,
729860362.618374,-1.478152,-6.840256,-27.470006,0.106369,-0.025833,0.975204,-0.041987,0.031719,0.007596,74.972885,4.782288,-148.224792,,,
729860362.621733,-1.49247,-6.830076,-27.467874,0.106369,-0.025833,0.975204,-0.041987,0.031719,0.007596,74.972885,4.782288,-148.224792,,,
729860362.625038,-1.49247,-6.830076,-27.467874,0.106369,-0.025833,0.975204,-0.041987,0.031719,0.007596,74.972885,4.782288,-148.224792,,,
729860362.628371,-1.507548,-6.820119,-27.464719,0.103745,-0.029266,0.982971,-0.053293,0.036262,0.016349,74.972885,4.782288,-148.224792,,,
729860362.631798,-1.52284,-6.810548,-27.460349,0.103745,-0.029266,0.982971,-0.053293,0.036262,0.016349,74.972885,4.782288,-148.224792,,,
729860362.635016,-1.52284,-6.810548,-27.460349,0.103745,-0.029266,0.982971,-0.053293,0.036262,0.016349,75.100677,4.921585,-148.157013,,,
729860362.638372,-1.536643,-6.803949,-27.455093,0.103363,-0.031326,0.989594,-0.044323,0.025367,0.021222,75.100677,4.921585,-148.157013,,,
729860362.641787,-1.549168,-6.798749,-27.449471,0.103363,-0.031326,0.989594,-0.044323,0.025367,0.021222,75.100677,4.921585,-148.157013,,,
729860362.645022,-1.549168,-6.798749,-27.449471,0.103363,-0.031326,0.989594,-0.044323,0.025367,0.021222,75.100677,4.921585,-148.157013,,,
729860362.648463,-1.559325,-6.798104,-27.443607,0.106674,-0.03215,0.995087,-0.030767,0.000794,0.023564,75.100677,4.921585,-148.157013,,,
729860362.651688,-1.566523,-6.799606,-27.438013,0.106674,-0.03215,0.995087,-0.030767,0.000794,0.023564,75.100677,4.921585,-148.157013,,,
729860362.655044,-1.566523,-6.799606,-27.438013,0.106674,-0.03215,0.995087,-0.030767,0.000794,0.023564,75.100677,4.921585,-148.157013,,,
729860362.658439,-1.570762,-6.805774,-27.433728,0.114746,-0.030869,0.997849,-0.007903,-0.019958,0.014214,75.100677,4.921585,-148.157013,,,
729860362.661752,-1.570358,-6.81387,-27.430613,0.114746,-0.030869,0.997849,-0.007903,-0.019958,0.014214,75.100677,4.921585,-148.157013,,,
729860362.665034,-1.570358,-6.81387,-27.430613,0.114746,-0.030869,0.997849,-0.007903,-0.019958,0.014214,75.100677,4.921585,-148.157013,,,
729860362.668431,-1.56742,-6.824027,-27.42854,0.121826,-0.031128,1.002243,0.013144,-0.034983,0.004739,75.100677,4.921585,-148.157013,,,
729860362.671747,-1.562018,-6.834224,-27.427449,0.121826,-0.031128,1.002243,0.013144,-0.034983,0.004739,75.100677,4.921585,-148.157013,,,
729860362.675025,-1.562018,-6.834224,-27.427449,0.121826,-0.031128,1.002243,0.013144,-0.034983,0.004739,75.269165,4.545822,-148.195511,,,
729860362.678357,-1.555458,-6.846161,-27.427102,0.125946,-0.028824,0.999512,0.025319,-0.040472,-0.004885,75.269165,4.545822,-148.195511,,,
729860362.68177,-1.54759,-6.855156,-27.427614,0.125946,-0.028824,0.999512,0.025319,-0.040472,-0.004885,75.269165,4.545822,-148.195511,,,
729860362.685114,-1.54759,-6.855156,-27.427614,0.125946,-0.028824,0.999512,0.025319,-0.040472,-0.004885,75.269165,4.545822,-148.195511,,,
729860362.688379,-1.540276,-6.862843,-27.428538,0.127823,-0.029205,0.995056,0.02303,-0.021079,-0.009613,75.269165,4.545822,-148.195511,,,
729860362.691729,-1.534261,-6.864965,-27.429425,0.127823,-0.029205,0.995056,0.02303,-0.021079,-0.009613,75.269165,4.545822,-148.195511,,,
729860362.695041,-1.534261,-6.864965,-27.429425,0.127823,-0.029205,0.995056,0.02303,-0.021079,-0.009613,75.269165,4.545822,-148.195511,,,
729860362.698432,-1.531009,-6.86567,-27.429938,0.129013,-0.029358,0.98967,0.006197,0.003235,-0.004612,75.269165,4.545822,-148.195511,,,
729860362.701767,-1.531504,-6.860418,-27.429354,0.129013,-0.029358,0.98967,0.006197,0.003235,-0.004612,75.269165,4.545822,-148.195511,,,
729860362.705017,-1.531504,-6.860418,-27.429354,0.129013,-0.029358,0.98967,0.006197,0.003235,-0.004612,75.269165,4.545822,-148.195511,,,
729860362.708373,-1.535263,-6.854485,-27.427752,0.124939,-0.026505,0.982559,-0.014928,0.026215,0.00718,75.269165,4.545822,-148.195511,,,
729860362.71175,-1.54254,-6.842819,-27.424904,0.124939,-0.026505,0.982559,-0.014928,0.026215,0.00718,75.269165,4.545822,-148.195511,,,
729860362.715022,-1.54254,-6.842819,-27.424904,0.124939,-0.026505,0.982559,-0.014928,0.026215,0.00718,75.180756,4.809479,-148.216812,,,
729860362.718373,-1.551799,-6.832554,-27.421694,0.123184,-0.024246,0.975967,-0.03187,0.039854,0.012951,75.180756,4.809479,-148.216812,,,
729860362.721717,-1.56342,-6.819817,-27.418201,0.123184,-0.024246,0.975967,-0.03187,0.039854,0.012951,75.180756,4.809479,-148.216812,,,
729860362.725084,-1.56342,-6.819817,-27.418201,0.123184,-0.024246,0.975967,-0.03187,0.039854,0.012951,75.180756,4.809479,-148.216812,,,
729860362.728358,-1.574534,-6.81191,-27.415591,0.12207,-0.02507,0.975296,-0.036565,0.028165,0.011902,75.180756,4.809479,-148.216812,,,
729860362.731729,-1.585328,-6.805684,-27.414781,0.12207,-0.02507,0.975296,-0.036565,0.028165,0.011902,75.180756,4.809479,-148.216812,,,
729860362.735026,-1.585328,-6.805684,-27.414781,0.12207,-0.02507,0.975296,-0.036565,0.028165,0.011902,75.180756,4.809479,-148.216812,,,
729860362.738417,-1.59399,-6.805126,-27.415062,0.124207,-0.022552,0.975403,-0.02943,0.001916,-0.000293,75.180756,4.809479,-148.216812,,,
729860362.741732,-1.601284,-6.808988,-27.41654,0.124207,-0.022552,0.975403,-0.02943,0.001916,-0.000293,75.180756,4.809479,-148.216812,,,
729860362.745027,-1.601284,-6.808988,-27.41654,0.124207,-0.022552,0.975403,-0.02943,0.001916,-0.000293,75.180756,4.809479,-148.216812,,,
729860362.748385,-1.605492,-6.815501,-27.41963,0.128479,-0.024902,0.976929,-0.014381,-0.025643,-0.012453,75.180756,4.809479,-148.216812,,,
729860362.751693,-1.605492,-6.815501,-27.41963,0.128479,-0.024902,0.976929,-0.014381,-0.025643,-0.012453,75.180756,4.809479,-148.216812,,,
729860362.755108,-1.606858,-6.824785,-27.424622,0.128479,-0.024902,0.976929,-0.014381,-0.025643,-0.012453,75.180756,4.809479,-148.216812,,,
729860362.758381,-1.604168,-6.834398,-27.430822,0.129745,-0.023697,0.986588,0.013644,-0.032544,-0.02374,75.154556,4.927063,-148.190475,,,
729860362.761704,-1.604168,-6.834398,-27.436946,0.129745,-0.023697,0.986588,0.013644,-0.032544,-0.02374,75.154556,4.927063,-148.190475,,,
729860362.765103,-1.597522,-6.845712,-27.436946,0.129745,-0.023697,0.986588,0.013644,-0.032544,-0.02374,75.154556,4.927063,-148.190475,,,
729860362.768376,-1.588021,-6.855023,-27.442504,0.126755,-0.028915,0.996704,0.032985,-0.029742,-0.024406,75.154556,4.927063,-148.190475,,,
729860362.771695,-1.588021,-6.855023,-27.442504,0.126755,-0.028915,0.996704,0.032985,-0.029742,-0.024406,75.154556,4.927063,-148.190475,,,
729860362.775029,-1.577229,-6.865087,-27.447224,0.126755,-0.028915,0.996704,0.032985,-0.029742,-0.024406,75.154556,4.927063,-148.190475,,,
729860362.778365,-1.566544,-6.870183,-27.4514,0.126022,-0.030334,0.989548,0.033939,-0.009767,-0.018542,75.154556,4.927063,-148.190475,,,
729860362.78171,-1.566544,-6.870183,-27.4514,0.126022,-0.030334,0.989548,0.033939,-0.009767,-0.018542,75.154556,4.927063,-148.190475,,,
729860362.785043,-1.55861,-6.872603,-27.455257,0.126022,-0.030334,0.989548,0.033939,-0.009767,-0.018542,75.154556,4.927063,-148.190475,,,
729860362.788362,-1.554446,-6.869762,-27.45953,0.126068,-0.023499,0.979156,0.007144,0.016195,-0.019369,75.154556,4.927063,-148.190475,,,
729860362.791798,-1.554446,-6.869762,-27.45953,0.126068,-0.023499,0.979156,0.007144,0.016195,-0.019369,75.154556,4.927063,-148.190475,,,
729860362.795041,-1.555707,-6.864914,-27.464946,0.126068,-0.023499,0.979156,0.007144,0.016195,-0.019369,75.154556,4.927063,-148.190475,,,
729860362.798371,-1.563498,-6.856886,-27.47098,0.126007,-0.016891,0.963287,-0.033523,0.03433,-0.019943,75.336456,4.681137,-148.377289,,,
729860362.801709,-1.563498,-6.856886,-27.47098,0.126007,-0.016891,0.963287,-0.033523,0.03433,-0.019943,75.336456,4.681137,-148.377289,,,
729860362.805103,-1.576128,-6.848617,-27.478071,0.126007,-0.016891,0.963287,-0.033523,0.03433,-0.019943,75.336456,4.681137,-148.377289,,,
729860362.808375,-1.594173,-6.839021,-27.486744,0.12561,-0.01622,0.955185,-0.074038,0.035574,-0.026067,75.336456,4.681137,-148.377289,,,
729860362.811719,-1.594173,-6.839021,-27.486744,0.12561,-0.01622,0.955185,-0.074038,0.035574,-0.026067,75.336456,4.681137,-148.377289,,,
729860362.815038,-1.616487,-6.831612,-27.496513,0.12561,-0.01622,0.955185,-0.074038,0.035574,-0.026067,75.336456,4.681137,-148.377289,,,
729860362.818414,-1.643635,-6.824565,-27.506552,0.120209,-0.017242,0.956268,-0.100967,0.027963,-0.025292,75.336456,4.681137,-148.377289,,,
729860362.821701,-1.643635,-6.824565,-27.506552,0.120209,-0.017242,0.956268,-0.100967,0.027963,-0.025292,75.336456,4.681137,-148.377289,,,
729860362.825037,-1.672492,-6.820652,-27.51625,0.120209,-0.017242,0.956268,-0.100967,0.027963,-0.025292,75.336456,4.681137,-148.377289,,,
729860362.828371,-1.702082,-6.817283,-27.524733,0.109543,-0.024628,0.967728,-0.106362,0.014308,-0.021739,75.336456,4.681137,-148.377289,,,
729860362.831775,-1.702082,-6.817283,-27.524733,0.109543,-0.024628,0.967728,-0.106362,0.014308,-0.021739,75.336456,4.681137,-148.377289,,,
729860362.835031,-1.729445,-6.817825,-27.531568,0.109543,-0.024628,0.967728,-0.106362,0.014308,-0.021739,75.336456,4.681137,-148.377289,,,
729860362.838372,-1.753259,-6.818524,-27.536509,0.102982,-0.034744,0.991394,-0.078795,-0.001916,-0.007649,75.405304,5.229828,-148.190674,,,
729860362.841709,-1.753259,-6.818524,-27.536509,0.102982,-0.034744,0.991394,-0.078795,-0.001916,-0.007649,75.405304,5.229828,-148.190674,,,
729860362.845099,-1.770385,-6.822604,-27.539353,0.102982,-0.034744,0.991394,-0.078795,-0.001916,-0.007649,75.405304,5.229828,-148.190674,,,
729860362.848394,-1.780351,-6.82748,-27.540238,0.104935,-0.042511,1.01236,-0.027512,-0.014363,-0.001143,75.405304,5.229828,-148.190674,,,
729860362.851737,-1.780351,-6.82748,-27.540238,0.104935,-0.042511,1.01236,-0.027512,-0.014363,-0.001143,75.405304,5.229828,-148.190674,,,
729860362.855045,-1.782795,-6.835019,-27.540328,0.104935,-0.042511,1.01236,-0.027512,-0.014363,-0.001143,75.405304,5.229828,-148.190674,,,
729860362.85837,-1.779453,-6.842334,-27.540438,0.110367,-0.040146,1.023254,0.014848,-0.022267,-0.004441,75.405304,5.229828,-148.190674,,,
729860362.861706,-1.779453,-6.842334,-27.540438,0.110367,-0.040146,1.023254,0.014848,-0.022267,-0.004441,75.405304,5.229828,-148.190674,,,
729860362.865058,-1.771225,-6.851776,-27.541615,0.110367,-0.040146,1.023254,0.014848,-0.022267,-0.004441,75.405304,5.229828,-148.190674,,,
729860362.868447,-1.761139,-6.859472,-27.544342,0.120514,-0.035583,1.015869,0.034454,-0.025044,-0.017396,75.405304,5.229828,-148.190674,,,
729860362.871702,-1.761139,-6.859472,-27.544342,0.120514,-0.035583,1.015869,0.034454,-0.025044,-0.017396,75.405304,5.229828,-148.190674,,,
729860362.875049,-1.749412,-6.867218,-27.549666,0.120514,-0.035583,1.015869,0.034454,-0.025044,-0.017396,75.405304,5.229828,-148.190674,,,
729860362.878367,-1.741484,-6.870444,-27.557089,0.127731,-0.030106,0.998734,0.023675,-0.00461,-0.029803,75.405304,5.229828,-148.190674,,,
729860362.881702,-1.741484,-6.870444,-27.557089,0.127731,-0.030106,0.998734,0.023675,-0.00461,-0.029803,75.279037,5.152252,-148.590866,,,
729860362.885056,-1.73515,-6.872646,-27.565386,0.127731,-0.030106,0.998734,0.023675,-0.00461,-0.029803,75.279037,5.152252,-148.590866,,,
729860362.888364,-1.736082,-6.869763,-27.573752,0.124115,-0.026489,0.987152,-0.010888,0.01663,-0.028105,75.279037,5.152252,-148.590866,,,
729860362.891705,-1.736082,-6.869763,-27.573752,0.124115,-0.026489,0.987152,-0.010888,0.01663,-0.028105,75.279037,5.152252,-148.590866,,,
729860362.895094,-1.740858,-6.86634,-27.581609,0.124115,-0.026489,0.987152,-0.010888,0.01663,-0.028105,75.279037,5.152252,-148.590866,,,
729860362.898387,-1.752902,-6.86048,-27.587928,0.114151,-0.029358,0.974609,-0.048094,0.024372,-0.015708,75.279037,5.152252,-148.590866,,,
729860362.901692,-1.752902,-6.86048,-27.587928,0.114151,-0.029358,0.974609,-0.048094,0.024372,-0.015708,75.279037,5.152252,-148.590866,,,
729860362.905033,-1.768108,-6.85415,-27.592368,0.114151,-0.029358,0.974609,-0.048094,0.024372,-0.015708,75.279037,5.152252,-148.590866,,,
