Time (sec),Pitch (deg),Roll (deg),Yaw(deg),X-Acceleration (g),Y-Acceleration (g),Z-Acceleration (g),Pitch Rate (deg/sec),Roll Rate (deg/sec),Yaw Rate (deg/sec),Magnetic Field in X direction (uT),Magnetic Field in Y direction (uT),Magnetic Field in Z Direction (uT),Latitude (deg),Longitude (deg),Altitude (m)
729862563.067593,2.035582,5.341396,39.637621,-0.109726,0.040146,0.977646,-0.079338,-0.043407,0.00942,56.927841,-5.953995,-146.801468,,,
729862563.070789,2.035582,5.341396,39.637621,-0.109726,0.040146,0.977646,-0.079338,-0.043407,0.00942,56.927841,-5.953995,-146.801468,,,
729862563.074117,2.013564,5.330608,39.643964,-0.099167,0.0345,0.998688,-0.07325,-0.028898,0.013859,56.927841,-5.953995,-146.801468,,,
729862563.077459,2.013564,5.323136,39.649728,-0.099167,0.0345,0.998688,-0.07325,-0.028898,0.013859,56.914368,-5.762405,-146.653381,,,
729862563.080841,1.994407,5.323136,39.649728,-0.099167,0.0345,0.998688,-0.07325,-0.028898,0.013859,56.914368,-5.762405,-146.653381,,,
729862563.084104,1.977437,5.316938,39.654128,-0.087875,0.030823,1.019501,-0.046784,-0.000898,0.006197,56.914368,-5.762405,-146.653381,,,
729862563.087401,1.977437,5.316938,39.654128,-0.087875,0.030823,1.019501,-0.046784,-0.000898,0.006197,56.914368,-5.762405,-146.653381,,,
729862563.090792,1.967265,5.318691,39.655965,-0.087875,0.030823,1.019501,-0.046784,-0.000898,0.006197,56.914368,-5.762405,-146.653381,,,
729862563.094119,1.962909,5.319646,39.655752,-0.087631,0.024948,1.04332,-0.000581,0.019633,-0.004689,56.914368,-5.762405,-146.653381,,,
729862563.097452,1.962909,5.319646,39.653546,-0.087631,0.024948,1.04332,-0.000581,0.019633,-0.004689,56.914368,-5.762405,-146.653381,,,
729862563.100782,1.964819,5.324381,39.653546,-0.087631,0.024948,1.04332,-0.000581,0.019633,-0.004689,56.914368,-5.762405,-146.653381,,,
729862563.104174,1.973112,5.325655,39.650593,-0.091827,0.02179,1.038559,0.041076,0.011918,-0.006592,56.914368,-5.762405,-146.653381,,,
729862563.107444,1.973112,5.325655,39.650593,-0.091827,0.02179,1.038559,0.041076,0.011918,-0.006592,56.914368,-5.762405,-146.653381,,,
729862563.110772,1.98767,5.327355,39.648205,-0.091827,0.02179,1.038559,0.041076,0.011918,-0.006592,56.914368,-5.762405,-146.653381,,,
729862563.114104,2.007749,5.325928,39.647061,-0.100983,0.019333,1.031021,0.073079,-0.006694,0.004937,56.914368,-5.762405,-146.653381,,,
729862563.117431,2.007749,5.325928,39.647061,-0.100983,0.019333,1.031021,0.073079,-0.006694,0.004937,56.892426,-6.095551,-146.776627,,,
729862563.120788,2.029105,5.322359,39.647725,-0.100983,0.019333,1.031021,0.073079,-0.006694,0.004937,56.892426,-6.095551,-146.776627,,,
729862563.124102,2.051124,5.318424,39.649339,-0.101334,0.025421,1.008209,0.071615,-0.02026,0.01188,56.892426,-6.095551,-146.776627,,,
729862563.127448,2.051124,5.318424,39.649339,-0.101334,0.025421,1.008209,0.071615,-0.02026,0.01188,56.892426,-6.095551,-146.776627,,,
729862563.130849,2.071246,5.310057,39.651197,-0.101334,0.025421,1.008209,0.071615,-0.02026,0.01188,56.892426,-6.095551,-146.776627,,,
729862563.134098,2.090026,5.301432,39.653457,-0.092209,0.038574,0.988144,0.057402,-0.042095,0.014103,56.892426,-6.095551,-146.776627,,,
729862563.137495,2.090026,5.301432,39.653457,-0.092209,0.038574,0.988144,0.057402,-0.042095,0.014103,56.892426,-6.095551,-146.776627,,,
729862563.140906,2.104659,5.287998,39.655836,-0.092209,0.038574,0.988144,0.057402,-0.042095,0.014103,56.892426,-6.095551,-146.776627,,,
729862563.144112,2.115886,5.277344,39.6578,-0.086884,0.042191,0.976898,0.030463,-0.043235,0.009479,56.892426,-6.095551,-146.776627,,,
729862563.147459,2.115886,5.277344,39.6578,-0.086884,0.042191,0.976898,0.030463,-0.043235,0.009479,56.892426,-6.095551,-146.776627,,,
729862563.150779,2.122234,5.264658,39.660383,-0.086884,0.042191,0.976898,0.030463,-0.043235,0.009479,56.892426,-6.095551,-146.776627,,,
729862563.154106,2.123357,5.254649,39.663752,-0.07962,0.046249,0.968277,-0.005706,-0.033641,0.012022,56.892426,-6.095551,-146.776627,,,
729862563.157533,2.123357,5.254649,39.663752,-0.07962,0.046249,0.968277,-0.005706,-0.033641,0.012022,56.892426,-6.095551,-146.776627,,,
729862563.160786,2.119372,5.245236,39.668048,-0.07962,0.046249,0.968277,-0.005706,-0.033641,0.012022,56.864075,-6.00528,-146.60791,,,
729862563.164106,2.109933,5.238532,39.672454,-0.077957,0.049225,0.964539,-0.040672,-0.012455,0.00951,56.864075,-6.00528,-146.60791,,,
729862563.167451,2.109933,5.238532,39.672454,-0.077957,0.049225,0.964539,-0.040672,-0.012455,0.00951,56.864075,-6.00528,-146.60791,,,
729862563.170849,2.09727,5.235649,39.676709,-0.077957,0.049225,0.964539,-0.040672,-0.012455,0.00951,56.864075,-6.00528,-146.60791,,,
729862563.174096,2.08146,5.234044,39.680426,-0.07811,0.047485,0.971924,-0.055511,0.002111,0.004194,56.864075,-6.00528,-146.60791,,,
729862563.177432,2.08146,5.234044,39.680426,-0.07811,0.047485,0.971924,-0.055511,0.002111,0.004194,56.864075,-6.00528,-146.60791,,,
729862563.18079,2.064613,5.23478,39.683319,-0.07811,0.047485,0.971924,-0.055511,0.002111,0.004194,56.864075,-6.00528,-146.60791,,,
729862563.184106,2.045854,5.236785,39.685831,-0.080215,0.04071,0.979172,-0.060535,0.015235,0.000828,56.864075,-6.00528,-146.60791,,,
729862563.187449,2.045854,5.236785,39.685831,-0.080215,0.04071,0.979172,-0.060535,0.015235,0.000828,56.864075,-6.00528,-146.60791,,,
729862563.19079,2.030125,5.241215,39.687283,-0.080215,0.04071,0.979172,-0.060535,0.015235,0.000828,56.864075,-6.00528,-146.60791,,,
729862563.194103,2.018198,5.247489,39.687496,-0.086975,0.033325,1.006805,-0.023766,0.024153,-0.004343,56.864075,-6.00528,-146.60791,,,
729862563.197511,2.018198,5.247489,39.687496,-0.086975,0.033325,1.006805,-0.023766,0.024153,-0.004343,56.864075,-6.00528,-146.60791,,,
729862563.200776,2.015494,5.254627,39.687078,-0.086975,0.033325,1.006805,-0.023766,0.024153,-0.004343,57.100967,-5.898773,-146.578476,,,
729862563.2041,2.021252,5.263957,39.686667,-0.100372,0.015472,1.044922,0.041231,0.03261,0.001906,57.100967,-5.898773,-146.578476,,,
729862563.20745,2.021252,5.263957,39.686667,-0.100372,0.015472,1.044922,0.041231,0.03261,0.001906,57.100967,-5.898773,-146.578476,,,
729862563.210823,2.036393,5.272381,39.686777,-0.100372,0.015472,1.044922,0.041231,0.03261,0.001906,57.100967,-5.898773,-146.578476,,,
729862563.214096,2.057801,5.279683,39.687318,-0.106735,0.015579,1.038651,0.084208,0.023126,0.009027,57.100967,-5.898773,-146.578476,,,
729862563.217454,2.057801,5.279683,39.687318,-0.106735,0.015579,1.038651,0.084208,0.023126,0.009027,57.100967,-5.898773,-146.578476,,,
729862563.220785,2.082529,5.285107,39.688342,-0.106735,0.015579,1.038651,0.084208,0.023126,0.009027,57.100967,-5.898773,-146.578476,,,
729862563.224098,2.108417,5.288293,39.689291,-0.101227,0.028793,1.011978,0.089077,0.009784,0.008874,57.100967,-5.898773,-146.578476,,,
729862563.227448,2.108417,5.288293,39.689291,-0.101227,0.028793,1.011978,0.089077,0.009784,0.008874,57.100967,-5.898773,-146.578476,,,
729862563.230781,2.131822,5.2894,39.689073,-0.101227,0.028793,1.011978,0.089077,0.009784,0.008874,57.100967,-5.898773,-146.578476,,,
729862563.234109,2.150805,5.288093,39.687033,-0.094482,0.040771,0.985046,0.05493,-0.000631,-0.007304,57.100967,-5.898773,-146.578476,,,
729862563.2375,2.150805,5.288093,39.687033,-0.094482,0.040771,0.985046,0.05493,-0.000631,-0.007304,57.100967,-5.898773,-146.578476,,,
729862563.240765,2.163405,5.287538,39.683869,-0.094482,0.040771,0.985046,0.05493,-0.000631,-0.007304,57.038086,-6.078674,-146.595795,,,
729862563.2441,2.171176,5.285942,39.681616,-0.100189,0.045059,0.97142,0.014668,0.000584,-0.004975,57.038086,-6.078674,-146.595795,,,
729862563.247443,2.171176,5.285942,39.681616,-0.100189,0.045059,0.97142,0.014668,0.000584,-0.004975,57.038086,-6.078674,-146.595795,,,
729862563.250822,2.172567,5.285128,39.681816,-0.100189,0.045059,0.97142,0.014668,0.000584,-0.004975,57.038086,-6.078674,-146.595795,,,
729862563.254099,2.170237,5.282633,39.684871,-0.1082,0.048157,0.969742,-0.019125,-0.001637,0.011558,57.038086,-6.078674,-146.595795,,,
729862563.257442,2.170237,5.282633,39.684871,-0.1082,0.048157,0.969742,-0.019125,-0.001637,0.011558,57.038086,-6.078674,-146.595795,,,
729862563.260779,2.163203,5.280734,39.690643,-0.1082,0.048157,0.969742,-0.019125,-0.001637,0.011558,57.038086,-6.078674,-146.595795,,,
729862563.264102,2.153117,5.276797,39.699029,-0.110825,0.045609,0.969818,-0.045394,-0.006326,0.027064,57.038086,-6.078674,-146.595795,,,
729862563.267461,2.153117,5.276797,39.699029,-0.110825,0.045609,0.969818,-0.045394,-0.006326,0.027064,57.038086,-6.078674,-146.595795,,,
729862563.27079,2.139361,5.273897,39.708554,-0.110825,0.045609,0.969818,-0.045394,-0.006326,0.027064,57.038086,-6.078674,-146.595795,,,
729862563.274103,2.123953,5.269506,39.71849,-0.1017,0.044281,0.968689,-0.055904,-0.010238,0.028694,57.038086,-6.078674,-146.595795,,,
729862563.277516,2.123953,5.269506,39.71849,-0.1017,0.044281,0.968689,-0.055904,-0.010238,0.028694,57.038086,-6.078674,-146.595795,,,
729862563.280765,2.108221,5.26526,39.727921,-0.1017,0.044281,0.968689,-0.055904,-0.010238,0.028694,56.732224,-5.900772,-146.64476,,,
729862563.284105,2.090423,5.261435,39.736171,-0.09169,0.041916,0.982056,-0.057606,-0.008663,0.020315,56.732224,-5.900772,-146.64476,,,
729862563.287453,2.090423,5.261435,39.736171,-0.09169,0.041916,0.982056,-0.057606,-0.008663,0.020315,56.732224,-5.900772,-146.64476,,,
729862563.290842,2.075294,5.259587,39.742963,-0.09169,0.041916,0.982056,-0.057606,-0.008663,0.020315,56.732224,-5.900772,-146.64476,,,
729862563.294094,2.062187,5.261612,39.748516,-0.089554,0.032104,1.007538,-0.026463,0.00847,0.014843,56.732224,-5.900772,-146.64476,,,
729862563.297448,2.062187,5.261612,39.748516,-0.089554,0.032104,1.007538,-0.026463,0.00847,0.014843,56.732224,-5.900772,-146.64476,,,
729862563.300795,2.058331,5.263545,39.753464,-0.089554,0.032104,1.007538,-0.026463,0.00847,0.014843,56.732224,-5.900772,-146.64476,,,
729862563.304101,2.06037,5.267141,39.757827,-0.091095,0.019623,1.034531,0.021279,0.012904,0.015379,56.732224,-5.900772,-146.64476,,,
729862563.307448,2.06037,5.267141,39.757827,-0.091095,0.019623,1.034531,0.021279,0.012904,0.015379,56.732224,-5.900772,-146.64476,,,
729862563.310777,2.06964,5.270726,39.761772,-0.091095,0.019623,1.034531,0.021279,0.012904,0.015379,56.732224,-5.900772,-146.64476,,,
729862563.314105,2.083794,5.275432,39.76536,-0.091644,0.019073,1.031891,0.054113,0.017464,0.016031,56.732224,-5.900772,-146.64476,,,
729862563.31752,2.083794,5.275432,39.76536,-0.091644,0.019073,1.031891,0.054113,0.017464,0.016031,56.732224,-5.900772,-146.64476,,,
729862563.32078,2.100697,5.279008,39.769354,-0.091644,0.019073,1.031891,0.054113,0.017464,0.016031,56.732224,-5.900772,-146.64476,,,
729862563.324105,2.118529,5.281985,39.774484,-0.094589,0.029526,1.005997,0.055375,0.006735,0.024272,56.64061,-5.973358,-146.411331,,,
729862563.327451,2.118529,5.281985,39.774484,-0.094589,0.029526,1.005997,0.055375,0.006735,0.024272,56.64061,-5.973358,-146.411331,,,
729862563.330845,2.13314,5.281138,39.780871,-0.094589,0.029526,1.005997,0.055375,0.006735,0.024272,56.64061,-5.973358,-146.411331,,,
729862563.334093,2.143427,5.278615,39.787998,-0.089966,0.04216,0.971558,0.018495,-0.019155,0.026584,56.64061,-5.973358,-146.411331,,,
729862563.337449,2.143427,5.278615,39.787998,-0.089966,0.04216,0.971558,0.018495,-0.019155,0.026584,56.64061,-5.973358,-146.411331,,,
729862563.340791,2.146253,5.271394,39.79584,-0.089966,0.04216,0.971558,0.018495,-0.019155,0.026584,56.64061,-5.973358,-146.411331,,,
729862563.344121,2.144387,5.264913,39.804129,-0.07959,0.044693,0.960815,-0.019647,-0.030783,0.026876,56.64061,-5.973358,-146.411331,,,
729862563.34743,2.144387,5.264913,39.804129,-0.07959,0.044693,0.960815,-0.019647,-0.030783,0.026876,56.64061,-5.973358,-146.411331,,,
729862563.350783,2.137914,5.254439,39.812678,-0.07959,0.044693,0.960815,-0.019647,-0.030783,0.026876,56.64061,-5.973358,-146.411331,,,
729862563.354095,2.130433,5.245208,39.82068,-0.073303,0.041718,0.972488,-0.030696,-0.03388,0.022445,56.64061,-5.973358,-146.411331,,,
729862563.357529,2.130433,5.245208,39.82068,-0.073303,0.041718,0.972488,-0.030696,-0.03388,0.022445,56.64061,-5.973358,-146.411331,,,
729862563.360783,2.122017,5.235305,39.827493,-0.073303,0.041718,0.972488,-0.030696,-0.03388,0.022445,56.64061,-5.973358,-146.411331,,,
729862563.364106,2.115594,5.22808,39.832454,-0.059372,0.035355,0.990417,-0.019744,-0.018801,0.010671,56.752975,-5.909729,-146.084259,,,
729862563.367442,2.115594,5.22808,39.832454,-0.059372,0.035355,0.990417,-0.019744,-0.018801,0.010671,56.752975,-5.909729,-146.084259,,,
729862563.370838,2.111116,5.224033,39.835275,-0.059372,0.035355,0.990417,-0.019744,-0.018801,0.010671,56.752975,-5.909729,-146.084259,,,
729862563.374089,2.108403,5.22465,39.835339,-0.047256,0.033569,1.006897,-0.004716,0.015746,-0.007329,56.752975,-5.909729,-146.084259,,,
729862563.377427,2.108403,5.22465,39.835339,-0.047256,0.033569,1.006897,-0.004716,0.015746,-0.007329,56.752975,-5.909729,-146.084259,,,
729862563.380794,2.108021,5.231746,39.832173,-0.047256,0.033569,1.006897,-0.004716,0.015746,-0.007329,56.752975,-5.909729,-146.084259,,,
729862563.384098,2.107764,5.244224,39.826901,-0.046829,0.032791,1.008759,0.010483,0.055808,-0.020811,56.752975,-5.909729,-146.084259,,,
729862563.387458,2.107764,5.244224,39.826901,-0.046829,0.032791,1.008759,0.010483,0.055808,-0.020811,56.752975,-5.909729,-146.084259,,,
729862563.390788,2.110061,5.261302,39.820266,-0.046829,0.032791,1.008759,0.010483,0.055808,-0.020811,56.752975,-5.909729,-146.084259,,,
729862563.394105,2.110305,5.28028,39.811403,-0.055069,0.035385,0.99852,0.012854,0.073618,-0.036405,56.752975,-5.909729,-146.084259,,,
729862563.397521,2.110305,5.28028,39.811403,-0.055069,0.035385,0.99852,0.012854,0.073618,-0.036405,56.752975,-5.909729,-146.084259,,,
729862563.400783,2.113386,5.302024,39.799693,-0.055069,0.035385,0.99852,0.012854,0.073618,-0.036405,56.752975,-5.909729,-146.084259,,,
729862563.404108,2.115034,5.324614,39.785343,-0.069962,0.036316,0.990479,0.013672,0.079203,-0.054796,56.730698,-5.969818,-146.207428,,,
729862563.407447,2.115034,5.324614,39.785343,-0.069962,0.036316,0.990479,0.013672,0.079203,-0.054796,56.730698,-5.969818,-146.207428,,,
729862563.410848,2.116413,5.346868,39.769523,-0.069962,0.036316,0.990479,0.013672,0.079203,-0.054796,56.730698,-5.969818,-146.207428,,,
729862563.414098,2.116135,5.367401,39.75391,-0.088287,0.039215,0.9785,-0.001453,0.067046,-0.054713,56.730698,-5.969818,-146.207428,,,
729862563.417457,2.116135,5.367401,39.75391,-0.088287,0.039215,0.9785,-0.001453,0.067046,-0.054713,56.730698,-5.969818,-146.207428,,,
729862563.420786,2.112566,5.383159,39.739993,-0.088287,0.039215,0.9785,-0.001453,0.067046,-0.054713,56.730698,-5.969818,-146.207428,,,
729862563.424106,2.107526,5.390005,39.728832,-0.108688,0.039505,0.963654,-0.022013,0.017072,-0.037755,56.730698,-5.969818,-146.207428,,,
729862563.427448,2.107526,5.390005,39.728832,-0.108688,0.039505,0.963654,-0.022013,0.017072,-0.037755,56.730698,-5.969818,-146.207428,,,
729862563.430788,2.09909,5.390656,39.720465,-0.108688,0.039505,0.963654,-0.022013,0.017072,-0.037755,56.730698,-5.969818,-146.207428,,,
729862563.434105,2.089653,5.381344,39.714325,-0.121094,0.040909,0.961624,-0.036258,-0.032129,-0.024227,56.730698,-5.969818,-146.207428,,,
729862563.437498,2.089653,5.381344,39.714325,-0.121094,0.040909,0.961624,-0.036258,-0.032129,-0.024227,56.730698,-5.969818,-146.207428,,,
729862563.440783,2.078758,5.368699,39.709564,-0.121094,0.040909,0.961624,-0.036258,-0.032129,-0.024227,56.730698,-5.969818,-146.207428,,,
729862563.444107,2.067744,5.346437,39.70672,-0.118973,0.035843,0.972015,-0.038654,-0.065615,-0.012147,56.730698,-5.969818,-146.207428,,,
729862563.447449,2.067744,5.346437,39.70672,-0.118973,0.035843,0.972015,-0.038654,-0.065615,-0.012147,56.917068,-5.812164,-146.164368,,,
729862563.450843,2.056661,5.326471,39.705272,-0.118973,0.035843,0.972015,-0.038654,-0.065615,-0.012147,56.917068,-5.812164,-146.164368,,,
729862563.454097,2.046863,5.299967,39.704791,-0.10997,0.036194,0.984604,-0.028972,-0.062284,-0.00624,56.917068,-5.812164,-146.164368,,,
729862563.457531,2.046863,5.299967,39.704791,-0.10997,0.036194,0.984604,-0.028972,-0.062284,-0.00624,56.917068,-5.812164,-146.164368,,,
729862563.460807,2.038167,5.283613,39.704546,-0.10997,0.036194,0.984604,-0.028972,-0.062284,-0.00624,56.917068,-5.812164,-146.164368,,,
729862563.464115,2.030453,5.265451,39.705189,-0.100815,0.03537,1.00177,-0.020348,-0.025508,-0.000996,56.917068,-5.812164,-146.164368,,,
729862563.467461,2.030453,5.265451,39.705189,-0.100815,0.03537,1.00177,-0.020348,-0.025508,-0.000996,56.917068,-5.812164,-146.164368,,,
729862563.470798,2.024998,5.260414,39.705987,-0.100815,0.03537,1.00177,-0.020348,-0.025508,-0.000996,56.917068,-5.812164,-146.164368,,,
729862563.47411,2.020822,5.254881,39.706696,-0.093307,0.032394,1.008484,-0.010702,0.012365,-0.002168,56.917068,-5.812164,-146.164368,,,
729862563.477513,2.020822,5.254881,39.706696,-0.093307,0.032394,1.008484,-0.010702,0.012365,-0.002168,56.917068,-5.812164,-146.164368,,,
729862563.480786,2.018122,5.260057,39.706803,-0.093307,0.032394,1.008484,-0.010702,0.012365,-0.002168,56.917068,-5.812164,-146.164368,,,
729862563.484107,2.015683,5.264807,39.706797,-0.091919,0.035782,0.996979,-0.009537,0.035881,-0.003858,56.917068,-5.812164,-146.164368,,,
729862563.487453,2.015683,5.264807,39.706797,-0.091919,0.035782,0.996979,-0.009537,0.035881,-0.003858,56.828979,-6.012726,-145.970703,,,
729862563.490799,2.012882,5.274556,39.706526,-0.091919,0.035782,0.996979,-0.009537,0.035881,-0.003858,56.828979,-6.012726,-145.970703,,,
729862563.494115,2.009995,5.282225,39.706398,-0.092651,0.037582,0.984146,-0.013004,0.029874,-0.003431,56.828979,-6.012726,-145.970703,,,
729862563.497456,2.009995,5.282225,39.706398,-0.092651,0.037582,0.984146,-0.013004,0.029874,-0.003431,56.828979,-6.012726,-145.970703,,,
729862563.500784,2.005882,5.288834,39.70584,-0.092651,0.037582,0.984146,-0.013004,0.029874,-0.003431,56.828979,-6.012726,-145.970703,,,
729862563.504217,2.001337,5.295176,39.70418,-0.09053,0.038788,0.97438,-0.019379,0.012904,-0.011151,56.828979,-6.012726,-145.970703,,,
729862563.507455,2.001337,5.295176,39.70418,-0.09053,0.038788,0.97438,-0.019379,0.012904,-0.011151,56.828979,-6.012726,-145.970703,,,
729862563.510792,1.994925,5.296999,39.701806,-0.09053,0.038788,0.97438,-0.019379,0.012904,-0.011151,56.828979,-6.012726,-145.970703,,,
729862563.514102,1.988736,5.301005,39.697974,-0.085373,0.036407,0.974548,-0.022503,-0.005094,-0.020494,56.828979,-6.012726,-145.970703,,,
729862563.517513,1.988736,5.301005,39.697974,-0.085373,0.036407,0.974548,-0.022503,-0.005094,-0.020494,56.828979,-6.012726,-145.970703,,,
729862563.520789,1.981109,5.297915,39.693088,-0.085373,0.036407,0.974548,-0.022503,-0.005094,-0.020494,56.828979,-6.012726,-145.970703,,,
729862563.524108,1.972769,5.297705,39.687705,-0.083755,0.037704,0.9758,-0.030011,-0.021151,-0.023385,56.828979,-6.012726,-145.970703,,,
729862563.527438,1.972769,5.297705,39.687705,-0.083755,0.037704,0.9758,-0.030011,-0.021151,-0.023385,56.693329,-5.826141,-146.406311,,,
729862563.530775,1.962709,5.290814,39.682552,-0.083755,0.037704,0.9758,-0.030011,-0.021151,-0.023385,56.693329,-5.826141,-146.406311,,,
729862563.534103,1.951865,5.288126,39.677705,-0.080627,0.035141,0.978149,-0.037033,-0.022023,-0.020864,56.693329,-5.826141,-146.406311,,,
729862563.537434,1.951865,5.288126,39.677705,-0.080627,0.035141,0.978149,-0.037033,-0.022023,-0.020864,56.693329,-5.826141,-146.406311,,,
729862563.540875,1.940377,5.282151,39.673183,-0.080627,0.035141,0.978149,-0.037033,-0.022023,-0.020864,56.693329,-5.826141,-146.406311,,,
729862563.544096,1.929469,5.280229,39.668639,-0.077362,0.031097,0.996414,-0.034368,-0.006833,-0.02032,56.693329,-5.826141,-146.406311,,,
729862563.54745,1.929469,5.280229,39.668639,-0.077362,0.031097,0.996414,-0.034368,-0.006833,-0.02032,56.693329,-5.826141,-146.406311,,,
729862563.55079,1.919434,5.278489,39.664078,-0.077362,0.031097,0.996414,-0.034368,-0.006833,-0.02032,56.693329,-5.826141,-146.406311,,,
729862563.554101,1.910233,5.278532,39.659079,-0.081207,0.026382,1.011642,-0.026339,0.002919,-0.022618,56.693329,-5.826141,-146.406311,,,
729862563.55746,1.910233,5.278532,39.659079,-0.081207,0.026382,1.011642,-0.026339,0.002919,-0.022618,56.693329,-5.826141,-146.406311,,,
729862563.560767,1.903253,5.279446,39.653767,-0.081207,0.026382,1.011642,-0.026339,0.002919,-0.022618,56.693329,-5.826141,-146.406311,,,
729862563.564187,1.898704,5.280867,39.648389,-0.086334,0.025604,1.017273,-0.010021,0.007377,-0.021627,56.693329,-5.826141,-146.406311,,,
729862563.567461,1.898704,5.280867,39.648389,-0.086334,0.025604,1.017273,-0.010021,0.007377,-0.021627,57.078201,-6.04155,-146.459366,,,
729862563.570778,1.896678,5.28211,39.642526,-0.086334,0.025604,1.017273,-0.010021,0.007377,-0.021627,57.078201,-6.04155,-146.459366,,,
729862563.574145,1.898312,5.282956,39.636032,-0.089325,0.026764,1.021225,0.011284,0.00243,-0.024045,57.078201,-6.04155,-146.459366,,,
729862563.577432,1.898312,5.282956,39.636032,-0.089325,0.026764,1.021225,0.011284,0.00243,-0.024045,57.078201,-6.04155,-146.459366,,,
729862563.580778,1.902343,5.282342,39.628138,-0.089325,0.026764,1.021225,0.011284,0.00243,-0.024045,57.078201,-6.04155,-146.459366,,,
729862563.584108,1.910241,5.281088,39.619162,-0.094147,0.026962,1.024261,0.033114,-0.00341,-0.029537,57.078201,-6.04155,-146.459366,,,
729862563.587456,1.910241,5.281088,39.619162,-0.094147,0.026962,1.024261,0.033114,-0.00341,-0.029537,57.078201,-6.04155,-146.459366,,,
729862563.590839,1.919185,5.279548,39.610398,-0.094147,0.026962,1.024261,0.033114,-0.00341,-0.029537,57.078201,-6.04155,-146.459366,,,
729862563.594102,1.929687,5.277229,39.602922,-0.102951,0.030807,1.020645,0.038778,-0.002939,-0.020215,57.078201,-6.04155,-146.459366,,,
729862563.597446,1.929687,5.277229,39.602922,-0.102951,0.030807,1.020645,0.038778,-0.002939,-0.020215,57.078201,-6.04155,-146.459366,,,
729862563.600902,1.939733,5.275785,39.597426,-0.102951,0.030807,1.020645,0.038778,-0.002939,-0.020215,57.078201,-6.04155,-146.459366,,,
729862563.604182,1.949313,5.272553,39.594391,-0.109497,0.037766,1.004074,0.02982,-0.006489,-0.004075,57.078201,-6.04155,-146.459366,,,
729862563.607511,1.949313,5.272553,39.594391,-0.109497,0.037766,1.004074,0.02982,-0.006489,-0.004075,57.078201,-6.04155,-146.459366,,,
729862563.61077,1.956888,5.269685,39.593431,-0.109497,0.037766,1.004074,0.02982,-0.006489,-0.004075,57.067078,-6.096283,-146.612366,,,
729862563.614106,1.964012,5.264453,39.593568,-0.107559,0.03833,0.993362,0.02306,-0.010703,0.002574,57.067078,-6.096283,-146.612366,,,
729862563.617437,1.964012,5.264453,39.593568,-0.107559,0.03833,0.993362,0.02306,-0.010703,0.002574,57.067078,-6.096283,-146.612366,,,
729862563.620823,1.969832,5.260432,39.593828,-0.107559,0.03833,0.993362,0.02306,-0.010703,0.002574,57.067078,-6.096283,-146.612366,,,
729862563.624156,1.97399,5.252739,39.594089,-0.100342,0.041504,0.992157,0.013587,-0.017729,0.001021,57.067078,-6.096283,-146.612366,,,
729862563.627445,1.97399,5.252739,39.594089,-0.100342,0.041504,0.992157,0.013587,-0.017729,0.001021,57.067078,-6.096283,-146.612366,,,
729862563.630913,1.977298,5.245898,39.594607,-0.100342,0.041504,0.992157,0.013587,-0.017729,0.001021,57.067078,-6.096283,-146.612366,,,
729862563.634129,1.978654,5.234222,39.594999,-0.098892,0.040665,0.985489,0.007853,-0.033426,-0.001033,57.067078,-6.096283,-146.612366,,,
729862563.637491,1.978654,5.234222,39.594999,-0.098892,0.040665,0.985489,0.007853,-0.033426,-0.001033,57.067078,-6.096283,-146.612366,,,
729862563.640886,1.980343,5.223092,39.595065,-0.098892,0.040665,0.985489,0.007853,-0.033426,-0.001033,57.067078,-6.096283,-146.612366,,,
729862563.644184,1.981571,5.209037,39.595894,-0.10051,0.039017,0.986404,0.013234,-0.043061,0.004451,57.067078,-6.096283,-146.612366,,,
729862563.647443,1.981571,5.209037,39.595894,-0.10051,0.039017,0.986404,0.013234,-0.043061,0.004451,57.067078,-6.096283,-146.612366,,,
729862563.650784,1.986692,5.195267,39.5982,-0.10051,0.039017,0.986404,0.013234,-0.043061,0.004451,57.175003,-5.900665,-146.755508,,,
729862563.654106,1.992719,5.180005,39.601669,-0.099518,0.031754,0.998108,0.02703,-0.047634,0.013598,57.175003,-5.900665,-146.755508,,,
729862563.657541,1.992719,5.180005,39.601669,-0.099518,0.031754,0.998108,0.02703,-0.047634,0.013598,57.175003,-5.900665,-146.755508,,,
729862563.660787,2.000746,5.165458,39.606036,-0.099518,0.031754,0.998108,0.02703,-0.047634,0.013598,57.175003,-5.900665,-146.755508,,,
729862563.664112,2.00844,5.151952,39.611201,-0.090714,0.031815,0.998215,0.032308,-0.040888,0.019696,57.175003,-5.900665,-146.755508,,,
729862563.667492,2.00844,5.151952,39.611201,-0.090714,0.031815,0.998215,0.032308,-0.040888,0.019696,57.175003,-5.900665,-146.755508,,,
729862563.670776,2.018134,5.140564,39.615364,-0.090714,0.031815,0.998215,0.032308,-0.040888,0.019696,57.175003,-5.900665,-146.755508,,,
729862563.674112,2.026471,5.134225,39.61782,-0.078568,0.036957,1.000336,0.03104,-0.017553,0.008088,57.175003,-5.900665,-146.755508,,,
729862563.677437,2.026471,5.134225,39.61782,-0.078568,0.036957,1.000336,0.03104,-0.017553,0.008088,57.175003,-5.900665,-146.755508,,,
729862563.680775,2.035122,5.131238,39.619269,-0.078568,0.036957,1.000336,0.03104,-0.017553,0.008088,57.175003,-5.900665,-146.755508,,,
729862563.684111,2.042576,5.13704,39.619411,-0.071136,0.036713,1.000702,0.023051,0.018419,-0.000937,57.175003,-5.900665,-146.755508,,,
729862563.687454,2.042576,5.13704,39.619411,-0.071136,0.036713,1.000702,0.023051,0.018419,-0.000937,57.175003,-5.900665,-146.755508,,,
729862563.690774,2.047822,5.143647,39.61857,-0.071136,0.036713,1.000702,0.023051,0.018419,-0.000937,56.976074,-5.901962,-146.077118,,,
729862563.694104,2.051052,5.158578,39.616534,-0.074371,0.038757,0.995438,0.007336,0.04873,-0.009709,56.976074,-5.901962,-146.077118,,,
729862563.697438,2.051052,5.158578,39.616534,-0.074371,0.038757,0.995438,0.007336,0.04873,-0.009709,56.976074,-5.901962,-146.077118,,,
729862563.700774,2.052127,5.172849,39.613465,-0.074371,0.038757,0.995438,0.007336,0.04873,-0.009709,56.976074,-5.901962,-146.077118,,,
729862563.704108,2.053565,5.190333,39.609585,-0.084198,0.036774,0.995956,0.004288,0.053969,-0.015062,56.976074,-5.901962,-146.077118,,,
729862563.70751,2.053565,5.190333,39.609585,-0.084198,0.036774,0.995956,0.004288,0.053969,-0.015062,56.976074,-5.901962,-146.077118,,,
729862563.710782,2.055364,5.204299,39.605355,-0.084198,0.036774,0.995956,0.004288,0.053969,-0.015062,56.976074,-5.901962,-146.077118,,,
729862563.714166,2.060267,5.217278,39.601427,-0.099014,0.02977,0.998764,0.02042,0.035087,-0.011049,56.976074,-5.901962,-146.077118,,,
729862563.717445,2.060267,5.217278,39.601427,-0.099014,0.02977,0.998764,0.02042,0.035087,-0.011049,56.976074,-5.901962,-146.077118,,,
729862563.720846,2.066875,5.223641,39.598661,-0.099014,0.02977,0.998764,0.02042,0.035087,-0.011049,56.976074,-5.901962,-146.077118,,,
729862563.724094,2.076933,5.224953,39.596837,-0.110443,0.026138,0.997192,0.039496,-0.013086,-0.002221,56.976074,-5.901962,-146.077118,,,
729862563.727448,2.076933,5.224953,39.596837,-0.110443,0.026138,0.997192,0.039496,-0.013086,-0.002221,56.976074,-5.901962,-146.077118,,,
729862563.730768,2.08908,5.215909,39.596426,-0.110443,0.026138,0.997192,0.039496,-0.013086,-0.002221,56.963593,-6.113617,-146.061691,,,
729862563.734103,2.08908,5.215909,39.596426,-0.110443,0.026138,0.988266,0.053413,-0.074364,0.006713,56.963593,-6.113617,-146.061691,,,
729862563.737447,2.102815,5.200089,39.597047,-0.111496,0.026993,0.988266,0.053413,-0.074364,0.006713,56.963593,-6.113617,-146.061691,,,
729862563.740798,2.117294,5.175749,39.598076,-0.111496,0.026993,0.988266,0.053413,-0.074364,0.006713,56.963593,-6.113617,-146.061691,,,
729862563.744143,2.129516,5.149143,39.599598,-0.100708,0.036209,0.981857,0.044186,-0.094615,0.009442,56.963593,-6.113617,-146.061691,,,
729862563.747506,2.129516,5.149143,39.599598,-0.100708,0.036209,0.981857,0.044186,-0.094615,0.009442,56.963593,-6.113617,-146.061691,,,
729862563.750779,2.140914,5.12197,39.601845,-0.100708,0.036209,0.981857,0.044186,-0.094615,0.009442,56.963593,-6.113617,-146.061691,,,
729862563.754109,2.140914,5.12197,39.601845,-0.100708,0.036209,0.981857,0.022785,-0.071063,0.014029,56.963593,-6.113617,-146.061691,,,
729862563.757486,2.149041,5.096612,39.605088,-0.088181,0.040436,0.981537,0.022785,-0.071063,0.014029,56.963593,-6.113617,-146.061691,,,
729862563.760836,2.153632,5.078846,39.609365,-0.088181,0.040436,0.981537,0.022785,-0.071063,0.014029,56.963593,-6.113617,-146.061691,,,
729862563.764087,2.153632,5.078846,39.609365,-0.080948,0.041595,0.985245,-0.005343,-0.017344,0.015364,56.963593,-6.113617,-146.061691,,,
729862563.767453,2.154068,5.06513,39.614323,-0.080948,0.041595,0.985245,-0.005343,-0.017344,0.015364,56.963593,-6.113617,-146.061691,,,
729862563.770876,2.151408,5.062893,39.618958,-0.080948,0.041595,0.985245,-0.005343,-0.017344,0.015364,56.963593,-6.113617,-146.061691,,,
729862563.7741,2.151408,5.062893,39.618958,-0.080948,0.041595,0.985245,-0.017573,0.030372,0.012522,56.785706,-6.109711,-145.954498,,,
729862563.777451,2.146983,5.064654,39.623455,-0.078323,0.041199,0.990295,-0.017573,0.030372,0.012522,56.785706,-6.109711,-145.954498,,,
729862563.7808,2.142173,5.075058,39.626855,-0.078323,0.041199,0.990295,-0.017573,0.030372,0.012522,56.785706,-6.109711,-145.954498,,,
729862563.784104,2.142173,5.075058,39.626855,-0.07634,0.039215,1.001053,-0.009568,0.059547,0.001789,56.785706,-6.109711,-145.954498,,,
729862563.787506,2.138508,5.088022,39.628676,-0.07634,0.039215,1.001053,-0.009568,0.059547,0.001789,56.785706,-6.109711,-145.954498,,,
729862563.790776,2.135921,5.105353,39.628472,-0.07634,0.039215,1.001053,-0.009568,0.059547,0.001789,56.785706,-6.109711,-145.954498,,,
729862563.794177,2.135921,5.105353,39.628472,-0.07634,0.039215,1.001053,-0.004519,0.06753,-0.007872,56.785706,-6.109711,-145.954498,,,
729862563.797449,2.133047,5.125009,39.626785,-0.078934,0.038696,1.002182,-0.004519,0.06753,-0.007872,56.785706,-6.109711,-145.954498,,,
729862563.800848,2.13197,5.143705,39.624971,-0.078934,0.038696,1.002182,-0.004519,0.06753,-0.007872,56.785706,-6.109711,-145.954498,,,
729862563.804114,2.13197,5.143705,39.624971,-0.078934,0.038696,1.002182,-0.000214,0.065013,-0.007944,56.785706,-6.109711,-145.954498,,,
729862563.807454,2.130002,5.165798,39.622947,-0.096176,0.034897,0.99942,-0.000214,0.065013,-0.007944,56.785706,-6.109711,-145.954498,,,
729862563.810785,2.12972,5.182702,39.621986,-0.096176,0.034897,0.99942,-0.000214,0.065013,-0.007944,56.785706,-6.109711,-145.954498,,,
729862563.81389,2.12972,5.182702,39.621986,-0.096176,0.034897,0.99942,-0.000214,0.065013,-0.007944,57.081573,-5.784943,-146.294601,,,
729862563.817469,2.128158,5.200075,39.622591,-0.111298,0.035507,0.990585,0.00063,0.036164,0.00437,57.081573,-5.784943,-146.294601,,,
729862563.820765,2.127935,5.206028,39.625021,-0.111298,0.035507,0.990585,0.00063,0.036164,0.00437,57.081573,-5.784943,-146.294601,,,
729862563.824101,2.127935,5.206028,39.625021,-0.111298,0.035507,0.990585,0.00063,0.036164,0.00437,57.081573,-5.784943,-146.294601,,,
729862563.827519,2.127144,5.207094,39.628254,-0.117661,0.038284,0.97789,-0.001145,-0.0181,0.010624,57.081573,-5.784943,-146.294601,,,
729862563.830785,2.126494,5.197176,39.63205,-0.117661,0.038284,0.97789,-0.001145,-0.0181,0.010624,57.081573,-5.784943,-146.294601,,,
729862563.834203,2.126494,5.197176,39.63205,-0.117661,0.038284,0.97789,0.003025,-0.057946,0.014745,57.081573,-5.784943,-146.294601,,,
729862563.837444,2.127051,5.181731,39.636373,-0.107162,0.039276,0.980194,0.003025,-0.057946,0.014745,57.081573,-5.784943,-146.294601,,,
729862563.840768,2.128703,5.163193,39.640916,-0.107162,0.039276,0.980194,0.003025,-0.057946,0.014745,57.081573,-5.784943,-146.294601,,,
729862563.844117,2.128703,5.163193,39.640916,-0.107162,0.039276,0.980194,0.003025,-0.057946,0.014745,57.081573,-5.784943,-146.294601,,,
729862563.847437,2.132291,5.142777,39.645405,-0.096039,0.03479,0.998611,0.013054,-0.062471,0.014903,57.081573,-5.784943,-146.294601,,,
729862563.850851,2.13718,5.125378,39.649803,-0.096039,0.03479,0.998611,0.013054,-0.062471,0.014903,57.081573,-5.784943,-146.294601,,,
729862563.854165,2.13718,5.125378,39.649803,-0.096039,0.03479,0.998611,0.021891,-0.03571,0.016665,56.938477,-6.281387,-146.201538,,,
729862563.857429,2.144038,5.109587,39.654419,-0.08371,0.036438,1.01149,0.021891,-0.03571,0.016665,56.938477,-6.281387,-146.201538,,,
729862563.860779,2.150626,5.101494,39.658605,-0.08371,0.036438,1.01149,0.021891,-0.03571,0.016665,56.938477,-6.281387,-146.201538,,,
729862563.864101,2.150626,5.101494,39.658605,-0.08371,0.036438,1.01149,0.021891,-0.03571,0.016665,56.938477,-6.281387,-146.201538,,,
729862563.867453,2.156843,5.097709,39.661695,-0.072968,0.039566,1.014282,0.019042,0.0108,0.008092,56.938477,-6.281387,-146.201538,,,
729862563.870774,2.161591,5.103217,39.66329,-0.072968,0.039566,1.014282,0.019042,0.0108,0.008092,56.938477,-6.281387,-146.201538,,,
729862563.874123,2.161591,5.103217,39.66329,-0.072968,0.039566,1.014282,0.019042,0.0108,0.008092,56.938477,-6.281387,-146.201538,,,
729862563.877513,2.165398,5.111007,39.664288,-0.072296,0.038132,1.004868,0.011243,0.044844,0.002539,56.938477,-6.281387,-146.201538,,,
729862563.88076,2.167785,5.123996,39.665174,-0.072296,0.038132,1.004868,0.011243,0.044844,0.002539,56.938477,-6.281387,-146.201538,,,
729862563.88419,2.167785,5.123996,39.665174,-0.072296,0.038132,1.004868,0.011243,0.044844,0.002539,56.938477,-6.281387,-146.201538,,,
729862563.887458,2.168737,5.137193,39.665863,-0.079422,0.040878,0.989914,0.004692,0.044336,0.0007,56.938477,-6.281387,-146.201538,,,
729862563.890775,2.169071,5.148269,39.665808,-0.079422,0.040878,0.989914,0.004692,0.044336,0.0007,56.938477,-6.281387,-146.201538,,,
729862563.894143,2.169071,5.148269,39.665808,-0.079422,0.040878,0.989914,0.004692,0.044336,0.0007,56.94249,-5.990005,-146.261383,,,
729862563.897445,2.165965,5.160252,39.664985,-0.084351,0.043289,0.971786,-0.016538,0.024687,-0.005611,56.94249,-5.990005,-146.261383,,,
729862563.900773,2.15997,5.165338,39.663832,-0.084351,0.043289,0.971786,-0.016538,0.024687,-0.005611,56.94249,-5.990005,-146.261383,,,
729862563.904166,2.15997,5.165338,39.663832,-0.084351,0.043289,0.971786,-0.016538,0.024687,-0.005611,56.94249,-5.990005,-146.261383,,,
729862563.907431,2.151444,5.174008,39.662519,-0.086899,0.040802,0.963516,-0.034227,0.009572,-0.006815,56.94249,-5.990005,-146.261383,,,
729862563.910772,2.139849,5.175584,39.662287,-0.086899,0.040802,0.963516,-0.034227,0.009572,-0.006815,56.94249,-5.990005,-146.261383,,,
729862563.914144,2.139849,5.175584,39.662287,-0.086899,0.040802,0.963516,-0.034227,0.009572,-0.006815,56.94249,-5.990005,-146.261383,,,
729862563.91752,2.127935,5.179882,39.662811,-0.089752,0.036469,0.970169,-0.03989,-0.002049,-0.00092,56.94249,-5.990005,-146.261383,,,
729862563.920767,2.117425,5.176542,39.66438,-0.089752,0.036469,0.970169,-0.03989,-0.002049,-0.00092,56.94249,-5.990005,-146.261383,,,
729862563.924155,2.117425,5.176542,39.66438,-0.089752,0.036469,0.970169,-0.03989,-0.002049,-0.00092,56.94249,-5.990005,-146.261383,,,
729862563.927447,2.109536,5.170953,39.666923,-0.088303,0.030457,0.98494,-0.020677,-0.029603,0.008187,56.94249,-5.990005,-146.261383,,,
729862563.930775,2.10597,5.160611,39.66971,-0.088303,0.030457,0.98494,-0.020677,-0.029603,0.008187,56.94249,-5.990005,-146.261383,,,
729862563.934147,2.10597,5.160611,39.66971,-0.088303,0.030457,0.98494,-0.020677,-0.029603,0.008187,56.94249,-5.990005,-146.261383,,,
729862563.937458,2.106921,5.148673,39.671093,-0.078537,0.026154,1.005722,0.013618,-0.036293,0.001314,56.722809,-5.938705,-146.182465,,,
729862563.94077,2.113445,5.137828,39.67075,-0.078537,0.026154,1.005722,0.013618,-0.036293,0.001314,56.722809,-5.938705,-146.182465,,,
729862563.944231,2.113445,5.137828,39.67075,-0.078537,0.026154,1.005722,0.013618,-0.036293,0.001314,56.722809,-5.938705,-146.182465,,,
729862563.94744,2.125169,5.125716,39.669202,-0.06958,0.024765,1.01857,0.048579,-0.024242,-0.004797,56.722809,-5.938705,-146.182465,,,
729862563.951821,2.140055,5.119703,39.666812,-0.06958,0.024765,1.01857,0.048579,-0.024242,-0.004797,56.722809,-5.938705,-146.182465,,,
729862563.953978,2.140055,5.119703,39.666812,-0.06958,0.024765,1.01857,0.048579,-0.024242,-0.004797,56.722809,-5.938705,-146.182465,,,
729862563.957528,2.156871,5.113436,39.664588,-0.068329,0.027023,1.019501,0.061432,-0.000119,-0.003495,56.722809,-5.938705,-146.182465,,,
729862563.960763,2.173878,5.11426,39.662192,-0.068329,0.027023,1.019501,0.061432,-0.000119,-0.003495,56.722809,-5.938705,-146.182465,,,
729862563.964105,2.173878,5.11426,39.662192,-0.068329,0.027023,1.019501,0.061432,-0.000119,-0.003495,56.722809,-5.938705,-146.182465,,,
729862563.967444,2.190035,5.115253,39.659526,-0.069595,0.03595,0.999756,0.053136,0.016579,-0.006801,56.722809,-5.938705,-146.182465,,,
729862563.970769,2.202839,5.11966,39.656014,-0.069595,0.03595,0.999756,0.053136,0.016579,-0.006801,56.722809,-5.938705,-146.182465,,,
729862563.974119,2.202839,5.11966,39.656014,-0.069595,0.03595,0.999756,0.053136,0.016579,-0.006801,56.722809,-5.938705,-146.182465,,,
729862563.97745,2.211832,5.122726,39.651967,-0.074921,0.044449,0.975861,0.021222,0.01232,-0.013609,56.847977,-5.723602,-146.195114,,,
729862563.980774,2.214756,5.125074,39.647258,-0.074921,0.044449,0.975861,0.021222,0.01232,-0.013609,56.847977,-5.723602,-146.195114,,,
729862563.984169,2.214756,5.125074,39.647258,-0.074921,0.044449,0.975861,0.021222,0.01232,-0.013609,56.847977,-5.723602,-146.195114,,,
729862563.987437,2.213762,5.126333,39.641548,-0.080063,0.049133,0.965027,-0.009379,0.005657,-0.023421,56.847977,-5.723602,-146.195114,,,
729862563.990782,2.209257,5.127253,39.636041,-0.080063,0.049133,0.965027,-0.009379,0.005657,-0.023421,56.847977,-5.723602,-146.195114,,,
729862563.994112,2.209257,5.127253,39.636041,-0.080063,0.049133,0.965027,-0.009379,0.005657,-0.023421,56.847977,-5.723602,-146.195114,,,
729862563.997516,2.20316,5.127755,39.631853,-0.092041,0.04071,0.974457,-0.021038,0.000474,-0.015156,56.847977,-5.723602,-146.195114,,,
729862564.000769,2.195906,5.126394,39.629317,-0.092041,0.04071,0.974457,-0.021038,0.000474,-0.015156,56.847977,-5.723602,-146.195114,,,
729862564.004118,2.195906,5.126394,39.629317,-0.092041,0.04071,0.974457,-0.021038,0.000474,-0.015156,56.847977,-5.723602,-146.195114,,,
729862564.007465,2.186055,5.124282,39.62792,-0.102478,0.041168,0.978302,-0.034049,-0.007563,-0.008314,56.847977,-5.723602,-146.195114,,,
729862564.010767,2.175598,5.120881,39.627523,-0.102478,0.041168,0.978302,-0.034049,-0.007563,-0.008314,56.847977,-5.723602,-146.195114,,,
729862564.014116,2.175598,5.120881,39.627523,-0.102478,0.041168,0.978302,-0.034049,-0.007563,-0.008314,56.847977,-5.723602,-146.195114,,,
729862564.017445,2.163683,5.114935,39.628167,-0.102783,0.041504,0.975342,-0.034536,-0.012842,-0.00149,56.830795,-5.968353,-146.092957,,,
729862564.020778,2.154346,5.109922,39.629645,-0.102783,0.041504,0.975342,-0.034536,-0.012842,-0.00149,56.830795,-5.968353,-146.092957,,,
729862564.024186,2.154346,5.109922,39.629645,-0.102783,0.041504,0.975342,-0.034536,-0.012842,-0.00149,56.830795,-5.968353,-146.092957,,,
729862564.027506,2.144805,5.099855,39.63141,-0.097412,0.036362,0.98024,-0.023638,-0.02118,0.000515,56.830795,-5.968353,-146.092957,,,
729862564.03077,2.138723,5.091063,39.632282,-0.097412,0.036362,0.98024,-0.023638,-0.02118,0.000515,56.830795,-5.968353,-146.092957,,,
729862564.033982,2.138723,5.091063,39.632282,-0.097412,0.036362,0.98024,-0.023638,-0.02118,0.000515,56.830795,-5.968353,-146.092957,,,
729862564.037533,2.133166,5.075701,39.632266,-0.089783,0.034866,0.98288,-0.008536,-0.039501,-0.005362,56.830795,-5.968353,-146.092957,,,
729862564.040765,2.132251,5.063515,39.630897,-0.089783,0.034866,0.98288,-0.008536,-0.039501,-0.005362,56.830795,-5.968353,-146.092957,,,
729862564.04412,2.132251,5.063515,39.630897,-0.089783,0.034866,0.98288,-0.008536,-0.039501,-0.005362,56.830795,-5.968353,-146.092957,,,
729862564.04746,2.133175,5.048657,39.628411,-0.082764,0.029694,0.998428,0.008138,-0.03185,-0.01267,56.830795,-5.968353,-146.092957,,,
729862564.050767,2.135348,5.041189,39.624463,-0.082764,0.029694,0.998428,0.008138,-0.03185,-0.01267,56.830795,-5.968353,-146.092957,,,
729862564.05411,2.135348,5.041189,39.624463,-0.082764,0.029694,0.998428,0.008138,-0.03185,-0.01267,56.830795,-5.968353,-146.092957,,,
729862564.057445,2.138712,5.035399,39.620434,-0.07724,0.029526,1.007446,0.01111,-0.00129,-0.01366,56.830795,-5.968353,-146.092957,,,
729862564.060769,2.141521,5.036172,39.616735,-0.07724,0.029526,1.007446,0.01111,-0.00129,-0.01366,56.725937,-5.971237,-146.319077,,,
729862564.064181,2.141521,5.036172,39.616735,-0.07724,0.029526,1.007446,0.01111,-0.00129,-0.01366,56.725937,-5.971237,-146.319077,,,
729862564.067446,2.146567,5.038194,39.613583,-0.083145,0.027267,1.007111,0.01393,0.018092,-0.009953,56.725937,-5.971237,-146.319077,,,
729862564.070771,2.150076,5.043333,39.611772,-0.083145,0.027267,1.007111,0.01393,0.018092,-0.009953,56.725937,-5.971237,-146.319077,,,
729862564.074117,2.150076,5.043333,39.611772,-0.083145,0.027267,1.007111,0.01393,0.018092,-0.009953,56.725937,-5.971237,-146.319077,,,
729862564.077502,2.153575,5.04915,39.611811,-0.095886,0.030685,1.001617,0.006226,0.019704,0.002381,56.725937,-5.971237,-146.319077,,,
729862564.080768,2.15485,5.052588,39.614061,-0.095886,0.030685,1.001617,0.006226,0.019704,0.002381,56.725937,-5.971237,-146.319077,,,
729862564.0841,2.15485,5.052588,39.614061,-0.095886,0.030685,1.001617,0.006226,0.019704,0.002381,56.725937,-5.971237,-146.319077,,,
729862564.087451,2.15564,5.055716,39.618597,-0.103317,0.034683,0.984695,-0.0018,-0.001759,0.018399,56.725937,-5.971237,-146.319077,,,
729862564.090775,2.153992,5.051931,39.62469,-0.103317,0.034683,0.984695,-0.0018,-0.001759,0.018399,56.725937,-5.971237,-146.319077,,,
729862564.094118,2.153992,5.051931,39.62469,-0.103317,0.034683,0.984695,-0.0018,-0.001759,0.018399,56.725937,-5.971237,-146.319077,,,
729862564.097463,2.151011,5.047779,39.631224,-0.098129,0.037994,0.972504,-0.016419,-0.02823,0.021109,56.725937,-5.971237,-146.319077,,,
729862564.100773,2.146142,5.037466,39.638338,-0.098129,0.037994,0.972504,-0.016419,-0.02823,0.021109,56.894287,-6.01651,-146.360916,,,
729862564.104187,2.146142,5.037466,39.638338,-0.098129,0.037994,0.972504,-0.016419,-0.02823,0.021109,56.894287,-6.01651,-146.360916,,,
729862564.107442,2.140518,5.027854,39.645377,-0.092957,0.038254,0.97438,-0.022745,-0.041782,0.020736,56.894287,-6.01651,-146.360916,,,
729862564.110773,2.134223,5.014549,39.65278,-0.092957,0.038254,0.97438,-0.022745,-0.041782,0.020736,56.894287,-6.01651,-146.360916,,,
729862564.114133,2.134223,5.014549,39.65278,-0.092957,0.038254,0.97438,-0.022745,-0.041782,0.020736,56.894287,-6.01651,-146.360916,,,
729862564.117435,2.1278,5.001476,39.660817,-0.084457,0.035934,0.984436,-0.022811,-0.047022,0.025445,56.894287,-6.01651,-146.360916,,,
729862564.120817,2.122364,4.987087,39.668834,-0.084457,0.035934,0.984436,-0.022811,-0.047022,0.025445,56.894287,-6.01651,-146.360916,,,
729862564.124126,2.122364,4.987087,39.668834,-0.084457,0.035934,0.984436,-0.022811,-0.047022,0.025445,56.894287,-6.01651,-146.360916,,,
729862564.127452,2.117724,4.973079,39.675672,-0.074783,0.034607,0.99646,-0.010578,-0.041176,0.018136,56.894287,-6.01651,-146.360916,,,
729862564.13077,2.116219,4.960534,39.680166,-0.074783,0.034607,0.99646,-0.010578,-0.041176,0.018136,56.894287,-6.01651,-146.360916,,,
729862564.134111,2.116219,4.960534,39.680166,-0.074783,0.034607,0.99646,-0.010578,-0.041176,0.018136,56.894287,-6.01651,-146.360916,,,
729862564.137444,2.115351,4.946873,39.682415,-0.061951,0.031708,1.002029,0.0024,-0.036809,0.003085,56.894287,-6.01651,-146.360916,,,
729862564.140774,2.116278,4.937094,39.682134,-0.061951,0.031708,1.002029,0.0024,-0.036809,0.003085,56.621399,-6.000824,-146.410767,,,
729862564.144157,2.116278,4.937094,39.682134,-0.061951,0.031708,1.002029,0.0024,-0.036809,0.003085,56.621399,-6.000824,-146.410767,,,
729862564.14744,2.115833,4.93036,39.67934,-0.055115,0.03421,1.002335,0.003926,-0.007575,-0.014701,56.621399,-6.000824,-146.410767,,,
729862564.150778,2.115304,4.93086,39.674546,-0.055115,0.03421,1.002335,0.003926,-0.007575,-0.014701,56.621399,-6.000824,-146.410767,,,
729862564.154133,2.115304,4.93086,39.674546,-0.055115,0.03421,1.002335,0.003926,-0.007575,-0.014701,56.621399,-6.000824,-146.410767,,,
729862564.1575,2.112667,4.938098,39.668316,-0.06337,0.038406,1.010529,-0.002883,0.030663,-0.024893,56.621399,-6.000824,-146.410767,,,
729862564.16077,2.11015,4.94745,39.662765,-0.06337,0.038406,1.010529,-0.002883,0.030663,-0.024893,56.621399,-6.000824,-146.410767,,,
729862564.164119,2.11015,4.94745,39.662765,-0.06337,0.038406,1.010529,-0.002883,0.030663,-0.024893,56.621399,-6.000824,-146.410767,,,
729862564.167455,2.105746,4.961832,39.659157,-0.085205,0.036621,1.001846,-0.014057,0.042561,-0.011423,56.621399,-6.000824,-146.410767,,,
729862564.170769,2.100412,4.973708,39.658346,-0.085205,0.036621,1.001846,-0.014057,0.042561,-0.011423,56.621399,-6.000824,-146.410767,,,
729862564.174114,2.100412,4.973708,39.658346,-0.085205,0.036621,1.001846,-0.014057,0.042561,-0.011423,56.621399,-6.000824,-146.410767,,,
729862564.177434,2.094512,4.988066,39.659966,-0.103241,0.039276,0.998047,-0.020806,0.040743,0.0057,56.621399,-6.000824,-146.410767,,,
729862564.180768,2.08907,4.99654,39.663273,-0.103241,0.039276,0.998047,-0.020806,0.040743,0.0057,56.640625,-5.893051,-146.537704,,,
729862564.18417,2.08907,4.99654,39.663273,-0.103241,0.039276,0.998047,-0.020806,0.040743,0.0057,56.640625,-5.893051,-146.537704,,,
729862564.187445,2.084692,5.001718,39.667414,-0.10675,0.040955,0.995789,-0.016791,0.004649,0.012366,56.640625,-5.893051,-146.537704,,,
729862564.19077,2.080564,4.998638,39.672248,-0.10675,0.040955,0.995789,-0.016791,0.004649,0.012366,56.640625,-5.893051,-146.537704,,,
729862564.19412,2.080564,4.998638,39.672248,-0.10675,0.040955,0.995789,-0.016791,0.004649,0.012366,56.640625,-5.893051,-146.537704,,,
729862564.197497,2.077404,4.989043,39.677684,-0.101181,0.044815,0.988297,-0.010523,-0.041915,0.017145,56.640625,-5.893051,-146.537704,,,
729862564.20077,2.074272,4.974929,39.683074,-0.101181,0.044815,0.988297,-0.010523,-0.041915,0.017145,56.640625,-5.893051,-146.537704,,,
729862564.204121,2.074272,4.974929,39.683074,-0.101181,0.044815,0.988297,-0.010523,-0.041915,0.017145,56.640625,-5.893051,-146.537704,,,
729862564.207465,2.071116,4.958481,39.687923,-0.090012,0.046249,0.995483,-0.009733,-0.046138,0.013029,56.640625,-5.893051,-146.537704,,,
729862564.210783,2.068848,4.945427,39.691804,-0.090012,0.046249,0.995483,-0.009733,-0.046138,0.013029,56.640625,-5.893051,-146.537704,,,
729862564.214117,2.068848,4.945427,39.691804,-0.090012,0.046249,0.995483,-0.009733,-0.046138,0.013029,56.640625,-5.893051,-146.537704,,,
729862564.217458,2.066755,4.931283,39.695443,-0.078354,0.045319,1.00827,-0.00486,-0.024593,0.010719,56.640625,-5.893051,-146.537704,,,
729862564.220775,2.065456,4.926501,39.698791,-0.078354,0.045319,1.00827,-0.00486,-0.024593,0.010719,56.640625,-5.893051,-146.537704,,,
729862564.224209,2.065456,4.926501,39.698791,-0.078354,0.045319,1.00827,-0.00486,-0.024593,0.010719,56.801468,-5.817856,-146.453537,,,
729862564.227454,2.063545,4.922343,39.702065,-0.069504,0.044022,1.018188,-0.004503,0.02131,0.008743,56.801468,-5.817856,-146.453537,,,
729862564.23078,2.062792,4.930443,39.704407,-0.069504,0.044022,1.018188,-0.004503,0.02131,0.008743,56.801468,-5.817856,-146.453537,,,
729862564.234121,2.062792,4.930443,39.704407,-0.069504,0.044022,1.018188,-0.004503,0.02131,0.008743,56.801468,-5.817856,-146.453537,,,
729862564.237515,2.062636,4.937793,39.705088,-0.067856,0.044098,1.020126,-0.000909,0.052326,-0.003891,56.801468,-5.817856,-146.453537,,,
729862564.240767,2.062434,4.953577,39.7034,-0.067856,0.044098,1.020126,-0.000909,0.052326,-0.003891,56.801468,-5.817856,-146.453537,,,
729862564.24411,2.062434,4.953577,39.7034,-0.067856,0.044098,1.020126,-0.000909,0.052326,-0.003891,56.801468,-5.817856,-146.453537,,,
729862564.247434,2.063696,4.969303,39.700255,-0.082077,0.039871,1.018112,0.009675,0.060576,-0.013496,56.801468,-5.817856,-146.453537,,,
729862564.250771,2.066462,4.985394,39.696593,-0.082077,0.039871,1.018112,0.009675,0.060576,-0.013496,56.801468,-5.817856,-146.453537,,,
729862564.25411,2.066462,4.985394,39.696593,-0.082077,0.039871,1.018112,0.009675,0.060576,-0.013496,56.801468,-5.817856,-146.453537,,,
729862564.257439,2.070792,5.00162,39.69401,-0.095078,0.037888,1.012421,0.01719,0.04448,-0.004653,56.801468,-5.817856,-146.453537,,,
729862564.260775,2.076254,5.010656,39.693705,-0.095078,0.037888,1.012421,0.01719,0.04448,-0.004653,56.801468,-5.817856,-146.453537,,,
729862564.264102,2.076254,5.010656,39.693705,-0.095078,0.037888,1.012421,0.01719,0.04448,-0.004653,56.750137,-5.798309,-146.478851,,,
729862564.267475,2.083469,5.016404,39.695153,-0.103394,0.035553,0.994751,0.024733,-0.004443,0.009153,56.750137,-5.798309,-146.478851,,,
729862564.270772,2.090166,5.010556,39.698193,-0.103394,0.035553,0.994751,0.024733,-0.004443,0.009153,56.750137,-5.798309,-146.478851,,,
729862564.274186,2.090166,5.010556,39.698193,-0.103394,0.035553,0.994751,0.024733,-0.004443,0.009153,56.750137,-5.798309,-146.478851,,,
729862564.277448,2.097717,5.000651,39.701014,-0.098053,0.038742,0.976791,0.023469,-0.054622,0.008307,56.750137,-5.798309,-146.478851,,,
729862564.280773,2.103013,4.982138,39.702512,-0.098053,0.038742,0.976791,0.023469,-0.054622,0.008307,56.750137,-5.798309,-146.478851,,,
729862564.283972,2.103013,4.982138,39.702512,-0.098053,0.038742,0.976791,0.023469,-0.054622,0.008307,56.750137,-5.798309,-146.478851,,,
729862564.287534,2.107561,4.963336,39.702227,-0.078522,0.044846,0.97522,0.010731,-0.065678,-0.004951,56.750137,-5.798309,-146.478851,,,
729862564.290766,2.109741,4.946714,39.699696,-0.078522,0.044846,0.97522,0.010731,-0.065678,-0.004951,56.750137,-5.798309,-146.478851,,,
729862564.294122,2.109741,4.946714,39.699696,-0.078522,0.044846,0.97522,0.010731,-0.065678,-0.004951,56.750137,-5.798309,-146.478851,,,
729862564.297444,2.111717,4.936581,39.695662,-0.063965,0.043991,0.994156,0.001807,-0.012558,-0.016581,56.750137,-5.798309,-146.478851,,,
729862564.30077,2.111579,4.937601,39.690935,-0.063965,0.043991,0.994156,0.001807,-0.012558,-0.016581,56.750137,-5.798309,-146.478851,,,
729862564.304104,2.111579,4.937601,39.690935,-0.063965,0.043991,0.994156,0.001807,-0.012558,-0.016581,56.631683,-5.779541,-146.586395,,,
729862564.307452,2.112908,4.944813,39.686072,-0.063141,0.039169,1.016708,0.005405,0.051927,-0.018042,56.631683,-5.779541,-146.586395,,,
729862564.310768,2.113883,4.962053,39.680891,-0.063141,0.039169,1.016708,0.005405,0.051927,-0.018042,56.631683,-5.779541,-146.586395,,,
729862564.314169,2.113883,4.962053,39.680891,-0.063141,0.039169,1.016708,0.005405,0.051927,-0.018042,56.631683,-5.779541,-146.586395,,,
729862564.317444,2.116812,4.97929,39.676082,-0.070953,0.037292,1.014404,0.01229,0.080615,-0.015907,56.631683,-5.779541,-146.586395,,,
729862564.320784,2.119812,5.002172,39.671357,-0.070953,0.037292,1.014404,0.01229,0.080615,-0.015907,56.631683,-5.779541,-146.586395,,,
729862564.324114,2.119812,5.002172,39.671357,-0.070953,0.037292,1.014404,0.01229,0.080615,-0.015907,56.631683,-5.779541,-146.586395,,,
729862564.327519,2.123382,5.021115,39.665798,-0.082794,0.03833,1.001129,0.0133,0.068128,-0.022197,56.631683,-5.779541,-146.586395,,,
729862564.330759,2.127247,5.037018,39.659422,-0.082794,0.03833,1.001129,0.0133,0.068128,-0.022197,56.631683,-5.779541,-146.586395,,,
729862564.334128,2.127247,5.037018,39.659422,-0.082794,0.03833,1.001129,0.0133,0.068128,-0.022197,56.631683,-5.779541,-146.586395,,,
729862564.337461,2.131934,5.047042,39.652884,-0.089294,0.03685,0.987274,0.019196,0.022533,-0.022657,56.631683,-5.779541,-146.586395,,,
729862564.340776,2.13688,5.049603,39.646733,-0.089294,0.03685,0.987274,0.019196,0.022533,-0.022657,56.631683,-5.779541,-146.586395,,,
729862564.344165,2.13688,5.049603,39.646733,-0.089294,0.03685,0.987274,0.019196,0.022533,-0.022657,56.70546,-6.031006,-146.422684,,,
729862564.347431,2.140923,5.048703,39.640842,-0.095856,0.036362,0.978424,0.01408,-0.018848,-0.02062,56.70546,-6.031006,-146.422684,,,
729862564.35077,2.143283,5.041154,39.635499,-0.095856,0.036362,0.978424,0.01408,-0.018848,-0.02062,56.70546,-6.031006,-146.422684,,,
729862564.354185,2.143283,5.041154,39.635499,-0.095856,0.036362,0.978424,0.01408,-0.018848,-0.02062,56.70546,-6.031006,-146.422684,,,
729862564.357436,2.142061,5.034887,39.631083,-0.092209,0.040176,0.968933,-0.011554,-0.030932,-0.015535,56.70546,-6.031006,-146.422684,,,
729862564.36078,2.135673,5.027497,39.62705,-0.092209,0.040176,0.968933,-0.011554,-0.030932,-0.015535,56.70546,-6.031006,-146.422684,,,
729862564.364118,2.135673,5.027497,39.62705,-0.092209,0.040176,0.968933,-0.011554,-0.030932,-0.015535,56.70546,-6.031006,-146.422684,,,
729862564.367512,2.125161,5.024442,39.623174,-0.085266,0.044464,0.969513,-0.047496,0.002178,-0.017753,56.70546,-6.031006,-146.422684,,,
729862564.370765,2.109431,5.027914,39.619843,-0.085266,0.044464,0.969513,-0.047496,0.002178,-0.017753,56.70546,-6.031006,-146.422684,,,
729862564.374107,2.109431,5.027914,39.619843,-0.085266,0.044464,0.969513,-0.047496,0.002178,-0.017753,56.70546,-6.031006,-146.422684,,,
729862564.377445,2.093111,5.033114,39.617947,-0.091385,0.040375,0.985809,-0.060405,0.041963,-0.009863,56.70546,-6.031006,-146.422684,,,
729862564.380775,2.076334,5.046694,39.61742,-0.091385,0.040375,0.985809,-0.060405,0.041963,-0.009863,56.70546,-6.031006,-146.422684,,,
729862564.384126,2.076334,5.046694,39.61742,-0.091385,0.040375,0.985809,-0.060405,0.041963,-0.009863,56.70546,-6.031006,-146.422684,,,
729862564.387461,2.062107,5.059253,39.617575,-0.098709,0.029297,1.005524,-0.046371,0.071132,-0.005214,56.702026,-5.874146,-146.550842,,,
729862564.390767,2.050071,5.079351,39.617994,-0.098709,0.029297,1.005524,-0.046371,0.071132,-0.005214,56.702026,-5.874146,-146.550842,,,
729862564.394195,2.050071,5.079351,39.617994,-0.098709,0.029297,1.005524,-0.046371,0.071132,-0.005214,56.702026,-5.874146,-146.550842,,,
729862564.397435,2.041386,5.094601,39.618995,-0.101791,0.025681,1.008698,-0.025124,0.067264,-0.000332,56.702026,-5.874146,-146.550842,,,
729862564.40078,2.035689,5.110516,39.620553,-0.101791,0.025681,1.008698,-0.025124,0.067264,-0.000332,56.702026,-5.874146,-146.550842,,,
729862564.404128,2.035689,5.110516,39.620553,-0.101791,0.025681,1.008698,-0.025124,0.067264,-0.000332,56.702026,-5.874146,-146.550842,,,
729862564.407504,2.03312,5.119384,39.622832,-0.107437,0.02121,0.995895,-0.005447,0.031661,0.006047,56.702026,-5.874146,-146.550842,,,
729862564.410763,2.033642,5.124585,39.62507,-0.107437,0.02121,0.995895,-0.005447,0.031661,0.006047,56.702026,-5.874146,-146.550842,,,
729862564.414115,2.033642,5.124585,39.62507,-0.107437,0.02121,0.995895,-0.005447,0.031661,0.006047,56.702026,-5.874146,-146.550842,,,
729862564.41745,2.03848,5.122897,39.627501,-0.101257,0.025742,0.986298,0.021387,-0.015464,0.009764,56.702026,-5.874146,-146.550842,,,
729862564.420806,2.045263,5.114727,39.629934,-0.101257,0.025742,0.986298,0.021387,-0.015464,0.009764,56.702026,-5.874146,-146.550842,,,
729862564.424143,2.045263,5.114727,39.629934,-0.101257,0.025742,0.986298,0.021387,-0.015464,0.009764,56.702026,-5.874146,-146.550842,,,
729862564.427446,2.053092,5.103408,39.631125,-0.087967,0.024567,0.983536,0.029439,-0.047288,0.002172,56.85231,-5.820892,-146.60762,,,
729862564.430855,2.060655,5.089021,39.630542,-0.087967,0.024567,0.983536,0.029439,-0.047288,0.002172,56.85231,-5.820892,-146.60762,,,
729862564.434135,2.060655,5.089021,39.630542,-0.087967,0.024567,0.983536,0.029439,-0.047288,0.002172,56.85231,-5.820892,-146.60762,,,
729862564.437445,2.067694,5.076658,39.629265,-0.078629,0.030838,0.987137,0.022522,-0.043298,-0.002968,56.85231,-5.820892,-146.60762,,,
729862564.440771,2.072589,5.065161,39.628376,-0.078629,0.030838,0.987137,0.022522,-0.043298,-0.002968,56.85231,-5.820892,-146.60762,,,
729862564.44421,2.072589,5.065161,39.628376,-0.078629,0.030838,0.987137,0.022522,-0.043298,-0.002968,56.85231,-5.820892,-146.60762,,,
729862564.447453,2.076196,5.056707,39.627443,-0.068741,0.036163,0.988815,0.00539,-0.022917,-0.004734,56.85231,-5.820892,-146.60762,,,
729862564.450776,2.075276,5.051931,39.625471,-0.068741,0.036163,0.988815,0.00539,-0.022917,-0.004734,56.85231,-5.820892,-146.60762,,,
729862564.454123,2.075276,5.051931,39.625471,-0.068741,0.036163,0.988815,0.00539,-0.022917,-0.004734,56.85231,-5.820892,-146.60762,,,
729862564.457516,2.071188,5.053102,39.621917,-0.0616,0.040237,0.988174,-0.02246,0.016011,-0.018136,56.85231,-5.820892,-146.60762,,,
729862564.460811,2.062855,5.059858,39.616556,-0.0616,0.040237,0.988174,-0.02246,0.016011,-0.018136,56.85231,-5.820892,-146.60762,,,
729862564.464128,2.062855,5.059858,39.616556,-0.0616,0.040237,0.988174,-0.02246,0.016011,-0.018136,56.85231,-5.820892,-146.60762,,,
729862564.467444,2.052278,5.072025,39.609641,-0.073669,0.036728,0.995361,-0.032146,0.041154,-0.02938,56.752548,-5.869919,-146.41124,,,
729862564.470769,2.04172,5.084151,39.603716,-0.073669,0.036728,0.995361,-0.032146,0.041154,-0.02938,56.752548,-5.869919,-146.41124,,,
729862564.47413,2.04172,5.084151,39.603716,-0.073669,0.036728,0.995361,-0.032146,0.041154,-0.02938,56.752548,-5.869919,-146.41124,,,
729862564.477441,2.030165,5.099248,39.600832,-0.094482,0.030014,0.998657,-0.032393,0.049086,-0.007628,56.752548,-5.869919,-146.41124,,,
729862564.480791,2.020828,5.112081,39.601842,-0.094482,0.030014,0.998657,-0.032393,0.049086,-0.007628,56.752548,-5.869919,-146.41124,,,
729862564.484177,2.020828,5.112081,39.601842,-0.094482,0.030014,0.998657,-0.032393,0.049086,-0.007628,56.752548,-5.869919,-146.41124,,,
729862564.487458,2.011381,5.12743,39.606214,-0.105698,0.026962,1.000244,-0.021555,0.044036,0.017618,56.752548,-5.869919,-146.41124,,,
729862564.49082,2.006695,5.138243,39.613049,-0.105698,0.026962,1.000244,-0.021555,0.044036,0.017618,56.752548,-5.869919,-146.41124,,,
729862564.494121,2.006695,5.138243,39.613049,-0.105698,0.026962,1.000244,-0.021555,0.044036,0.017618,56.752548,-5.869919,-146.41124,,,
729862564.497455,2.003113,5.148931,39.620859,-0.104767,0.028549,0.995621,-0.005877,0.024988,0.026507,56.752548,-5.869919,-146.41124,,,
729862564.500806,2.003052,5.152593,39.628564,-0.104767,0.028549,0.995621,-0.005877,0.024988,0.026507,56.752548,-5.869919,-146.41124,,,
729862564.504102,2.003052,5.152593,39.628564,-0.104767,0.028549,0.995621,-0.005877,0.024988,0.026507,56.752548,-5.869919,-146.41124,,,
729862564.507476,2.003523,5.152373,39.634796,-0.091934,0.031754,0.98259,0.008865,-0.005745,0.017645,56.752548,-5.869919,-146.41124,,,
729862564.51085,2.00766,5.148395,39.638231,-0.091934,0.031754,0.98259,0.008865,-0.005745,0.017645,56.846161,-5.669418,-146.059769,,,
729862564.514113,2.00766,5.148395,39.638231,-0.091934,0.031754,0.98259,0.008865,-0.005745,0.017645,56.846161,-5.669418,-146.059769,,,
729862564.517452,2.013585,5.140745,39.638398,-0.083038,0.034882,0.987137,0.029246,-0.021365,-0.003724,56.846161,-5.669418,-146.059769,,,
729862564.520802,2.022376,5.133657,39.636319,-0.083038,0.034882,0.987137,0.029246,-0.021365,-0.003724,56.846161,-5.669418,-146.059769,,,
729862564.524125,2.022376,5.133657,39.636319,-0.083038,0.034882,0.987137,0.029246,-0.021365,-0.003724,56.846161,-5.669418,-146.059769,,,
729862564.527458,2.031578,5.123441,39.634204,-0.080154,0.034332,0.990494,0.031882,-0.020519,-0.004528,56.846161,-5.669418,-146.059769,,,
729862564.530772,2.039966,5.118585,39.633241,-0.080154,0.034332,0.990494,0.031882,-0.020519,-0.004528,56.846161,-5.669418,-146.059769,,,
729862564.534109,2.039966,5.118585,39.633241,-0.080154,0.034332,0.990494,0.031882,-0.020519,-0.004528,56.846161,-5.669418,-146.059769,,,
