Time (sec),Pitch (deg),Roll (deg),Yaw(deg),X-Acceleration (g),Y-Acceleration (g),Z-Acceleration (g),Pitch Rate (deg/sec),Roll Rate (deg/sec),Yaw Rate (deg/sec),Magnetic Field in X direction (uT),Magnetic Field in Y direction (uT),Magnetic Field in Z Direction (uT),Latitude (deg),Longitude (deg),Altitude (m)
729861146.984778,0.101905,3.234401,54.567097,-0.048889,0.001083,1.004883,-0.001977,-0.003851,-0.015126,67.140747,21.180695,-147.424576,,,
729861146.988076,0.101905,3.234401,54.567097,-0.048889,0.001083,1.004883,-0.001977,-0.003851,-0.015126,67.140747,21.180695,-147.424576,,,
729861146.991324,0.101678,3.232304,54.562963,-0.05127,-0.001328,1.008804,-0.001977,-0.003851,-0.015126,67.140747,21.180695,-147.424576,,,
729861146.994657,0.10377,3.230545,54.558673,-0.05127,-0.001328,1.008804,0.012294,-0.001793,-0.015409,67.318558,21.052185,-147.630447,,,
729861146.99803,0.10377,3.230545,54.558673,-0.05127,-0.001328,1.008804,0.012294,-0.001793,-0.015409,67.318558,21.052185,-147.630447,,,
729861147.001393,0.107959,3.228054,54.553952,-0.049576,0.004028,1.00737,0.012294,-0.001793,-0.015409,67.318558,21.052185,-147.630447,,,
729861147.004642,0.113724,3.22554,54.548095,-0.049576,0.004028,1.00737,0.022949,-0.007301,-0.022717,67.318558,21.052185,-147.630447,,,
729861147.007999,0.113724,3.22554,54.548095,-0.049576,0.004028,1.00737,0.022949,-0.007301,-0.022717,67.318558,21.052185,-147.630447,,,
729861147.011326,0.120707,3.222039,54.541269,-0.047882,0.00441,1.004807,0.022949,-0.007301,-0.022717,67.318558,21.052185,-147.630447,,,
729861147.014707,0.126735,3.219588,54.533538,-0.047882,0.00441,1.004807,0.022881,-0.005221,-0.029076,67.318558,21.052185,-147.630447,,,
729861147.01806,0.126735,3.219588,54.533538,-0.047882,0.00441,1.004807,0.022881,-0.005221,-0.029076,67.318558,21.052185,-147.630447,,,
729861147.021326,0.132174,3.217501,54.524656,-0.053925,0.004684,1.005066,0.022881,-0.005221,-0.029076,67.318558,21.052185,-147.630447,,,
729861147.024661,0.133249,3.217057,54.515527,-0.053925,0.004684,1.005066,0.000567,0.002759,-0.032025,67.318558,21.052185,-147.630447,,,
729861147.028042,0.133249,3.217057,54.515527,-0.053925,0.004684,1.005066,0.000567,0.002759,-0.032025,67.318558,21.052185,-147.630447,,,
729861147.031325,0.13261,3.217092,54.506639,-0.055038,0.009064,0.998886,0.000567,0.002759,-0.032025,67.318558,21.052185,-147.630447,,,
729861147.034734,0.12944,3.218674,54.498317,-0.055038,0.009064,0.998886,-0.010598,0.010207,-0.028703,67.104828,20.896545,-147.435196,,,
729861147.037974,0.12944,3.218674,54.498317,-0.055038,0.009064,0.998886,-0.010598,0.010207,-0.028703,67.104828,20.896545,-147.435196,,,
729861147.041393,0.12573,3.219318,54.491443,-0.059448,0.010269,1.000626,-0.010598,0.010207,-0.028703,67.104828,20.896545,-147.435196,,,
729861147.04465,0.119336,3.221791,54.485778,-0.059448,0.010269,1.000626,-0.021523,0.011871,-0.020863,67.104828,20.896545,-147.435196,,,
729861147.048,0.119336,3.221791,54.485778,-0.059448,0.010269,1.000626,-0.021523,0.011871,-0.020863,67.104828,20.896545,-147.435196,,,
729861147.051368,0.11385,3.222092,54.481195,-0.067154,0.007751,1.005539,-0.021523,0.011871,-0.020863,67.104828,20.896545,-147.435196,,,
729861147.054647,0.107949,3.223496,54.478059,-0.067154,0.007751,1.005539,-0.018349,0.005759,-0.010582,67.104828,20.896545,-147.435196,,,
729861147.058006,0.107949,3.223496,54.478059,-0.067154,0.007751,1.005539,-0.018349,0.005759,-0.010582,67.104828,20.896545,-147.435196,,,
729861147.061331,0.103662,3.220879,54.475994,-0.070969,0.007309,1.004776,-0.018349,0.005759,-0.010582,67.104828,20.896545,-147.435196,,,
729861147.064688,0.101075,3.218199,54.474226,-0.070969,0.007309,1.004776,-0.006189,-0.011067,-0.007789,67.104828,20.896545,-147.435196,,,
729861147.068082,0.101075,3.218199,54.474226,-0.070969,0.007309,1.004776,-0.006189,-0.011067,-0.007789,67.104828,20.896545,-147.435196,,,
729861147.071322,0.099545,3.21209,54.472107,-0.065125,0.003159,1.004776,-0.006189,-0.011067,-0.007789,67.104828,20.896545,-147.435196,,,
729861147.074665,0.100648,3.205503,54.469335,-0.065125,0.003159,1.004776,0.008268,-0.023062,-0.011596,67.185349,20.83287,-147.570541,,,
729861147.07799,0.100648,3.205503,54.469335,-0.065125,0.003159,1.004776,0.008268,-0.023062,-0.011596,67.185349,20.83287,-147.570541,,,
729861147.081346,0.103995,3.196776,54.464997,-0.055984,0.006104,1.002563,0.008268,-0.023062,-0.011596,67.185349,20.83287,-147.570541,,,
729861147.084781,0.10909,3.189678,54.459063,-0.055984,0.006104,1.002563,0.021829,-0.022802,-0.021952,67.185349,20.83287,-147.570541,,,
729861147.088002,0.10909,3.189678,54.459063,-0.055984,0.006104,1.002563,0.021829,-0.022802,-0.021952,67.185349,20.83287,-147.570541,,,
729861147.09106,0.115871,3.181465,54.452392,-0.051331,0.004303,1.003922,0.021829,-0.022802,-0.021952,67.185349,20.83287,-147.570541,,,
729861147.094421,0.122757,3.179065,54.445352,-0.051331,0.004303,1.003922,0.025952,0.002046,-0.02418,67.185349,20.83287,-147.570541,,,
729861147.098027,0.122757,3.179065,54.445352,-0.051331,0.004303,1.003922,0.025952,0.002046,-0.02418,67.185349,20.83287,-147.570541,,,
729861147.101435,0.129386,3.180141,54.438033,-0.050522,0.003052,1.006226,0.025952,0.002046,-0.02418,67.185349,20.83287,-147.570541,,,
729861147.104655,0.134234,3.186018,54.431014,-0.050522,0.003052,1.006226,0.016303,0.029299,-0.022562,67.185349,20.83287,-147.570541,,,
729861147.107992,0.134234,3.186018,54.431014,-0.050522,0.003052,1.006226,0.016303,0.029299,-0.022562,67.185349,20.83287,-147.570541,,,
729861147.111353,0.137546,3.194569,54.42536,-0.052124,0.005417,0.998749,0.016303,0.029299,-0.022562,67.185349,20.83287,-147.570541,,,
729861147.114662,0.137044,3.206219,54.420741,-0.052124,0.005417,0.998749,-0.004655,0.048897,-0.016564,67.185349,20.83287,-147.570541,,,
729861147.118131,0.137044,3.206219,54.420741,-0.052124,0.005417,0.998749,-0.004655,0.048897,-0.016564,67.057892,21.008072,-147.566574,,,
729861147.121303,0.135917,3.220219,54.416345,-0.051376,0.005951,0.993362,-0.004655,0.048897,-0.016564,67.057892,21.008072,-147.566574,,,
729861147.124656,0.132333,3.234122,54.411866,-0.051376,0.005951,0.993362,-0.011819,0.051816,-0.01757,67.057892,21.008072,-147.566574,,,
729861147.128034,0.132333,3.234122,54.411866,-0.051376,0.005951,0.993362,-0.011819,0.051816,-0.01757,67.057892,21.008072,-147.566574,,,
729861147.131314,0.129519,3.250298,54.406851,-0.056107,0.001358,1.001892,-0.011819,0.051816,-0.01757,67.057892,21.008072,-147.566574,,,
729861147.134662,0.126068,3.262856,54.401037,-0.056107,0.001358,1.001892,-0.009129,0.042228,-0.022971,67.057892,21.008072,-147.566574,,,
729861147.137982,0.126068,3.262856,54.401037,-0.056107,0.001358,1.001892,-0.009129,0.042228,-0.022971,67.057892,21.008072,-147.566574,,,
729861147.141355,0.124903,3.275887,54.394839,-0.061554,-0.004013,1.008026,-0.009129,0.042228,-0.022971,67.057892,21.008072,-147.566574,,,
729861147.144651,0.124508,3.281232,54.389042,-0.061554,-0.004013,1.008026,0.00255,0.014703,-0.019607,67.057892,21.008072,-147.566574,,,
729861147.147983,0.124508,3.281232,54.389042,-0.061554,-0.004013,1.008026,0.00255,0.014703,-0.019607,67.057892,21.008072,-147.566574,,,
729861147.151316,0.126206,3.285361,54.383517,-0.065979,-0.007828,1.011459,0.00255,0.014703,-0.019607,67.057892,21.008072,-147.566574,,,
729861147.154655,0.129322,3.283615,54.377903,-0.065979,-0.007828,1.011459,0.014724,-0.008268,-0.019491,67.057892,21.008072,-147.566574,,,
729861147.157981,0.129322,3.283615,54.377903,-0.065979,-0.007828,1.011459,0.014724,-0.008268,-0.019491,67.052719,20.543015,-147.51326,,,
729861147.161349,0.134043,3.279719,54.372115,-0.068665,-0.007904,1.012131,0.014724,-0.008268,-0.019491,67.052719,20.543015,-147.51326,,,
729861147.164659,0.13956,3.274474,54.366455,-0.068665,-0.007904,1.012131,0.023691,-0.016887,-0.01808,67.052719,20.543015,-147.51326,,,
729861147.167983,0.13956,3.274474,54.366455,-0.068665,-0.007904,1.012131,0.023691,-0.016887,-0.01808,67.052719,20.543015,-147.51326,,,
729861147.171327,0.146968,3.267629,54.361317,-0.068573,-0.00679,1.011536,0.023691,-0.016887,-0.01808,67.052719,20.543015,-147.51326,,,
729861147.174655,0.155866,3.262228,54.356481,-0.068573,-0.00679,1.011536,0.03704,-0.015467,-0.015247,67.052719,20.543015,-147.51326,,,
729861147.178048,0.155866,3.262228,54.356481,-0.068573,-0.00679,1.011536,0.03704,-0.015467,-0.015247,67.052719,20.543015,-147.51326,,,
729861147.181321,0.167579,3.256196,54.352228,-0.064148,-0.006271,1.017899,0.03704,-0.015467,-0.015247,67.052719,20.543015,-147.51326,,,
729861147.184656,0.182285,3.252895,54.348574,-0.064148,-0.006271,1.017899,0.057676,-0.008103,-0.009868,67.052719,20.543015,-147.51326,,,
729861147.187979,0.182285,3.252895,54.348574,-0.064148,-0.006271,1.017899,0.057676,-0.008103,-0.009868,67.052719,20.543015,-147.51326,,,
729861147.191403,0.199507,3.249403,54.345879,-0.065231,-0.008163,1.01474,0.057676,-0.008103,-0.009868,67.052719,20.543015,-147.51326,,,
729861147.194648,0.216669,3.248884,54.344601,-0.065231,-0.008163,1.01474,0.059434,0.004273,0.00016,67.052719,20.543015,-147.51326,,,
729861147.198005,0.216669,3.248884,54.344601,-0.065231,-0.008163,1.01474,0.059434,0.004273,0.00016,67.190872,20.466751,-147.131042,,,
729861147.201341,0.234077,3.248464,54.344279,-0.063446,-0.000916,1.001511,0.059434,0.004273,0.00016,67.190872,20.466751,-147.131042,,,
729861147.204687,0.250218,3.249824,54.344476,-0.063446,-0.000916,1.001511,0.053655,0.007319,0.003553,67.190872,20.466751,-147.131042,,,
729861147.20806,0.250218,3.249824,54.344476,-0.063446,-0.000916,1.001511,0.053655,0.007319,0.003553,67.190872,20.466751,-147.131042,,,
729861147.211328,0.265141,3.250239,54.345271,-0.05896,0.003647,0.988403,0.053655,0.007319,0.003553,67.190872,20.466751,-147.131042,,,
729861147.214658,0.27957,3.24971,54.34643,-0.05896,0.003647,0.988403,0.047783,-0.003487,0.005775,67.190872,20.466751,-147.131042,,,
729861147.218021,0.27957,3.24971,54.34643,-0.05896,0.003647,0.988403,0.047783,-0.003487,0.005775,67.190872,20.466751,-147.131042,,,
729861147.221352,0.290606,3.247725,54.347699,-0.054718,0.003113,0.975403,0.047783,-0.003487,0.005775,67.190872,20.466751,-147.131042,,,
729861147.224653,0.30043,3.244747,54.348255,-0.054718,0.003113,0.975403,0.030854,-0.006591,-0.000112,67.190872,20.466751,-147.131042,,,
729861147.228094,0.30043,3.244747,54.348255,-0.054718,0.003113,0.975403,0.030854,-0.006591,-0.000112,67.190872,20.466751,-147.131042,,,
729861147.231332,0.305587,3.244666,54.348046,-0.052872,0.006866,0.971268,0.030854,-0.006591,-0.000112,67.190872,20.466751,-147.131042,,,
729861147.234662,0.309118,3.243143,54.347915,-0.052872,0.006866,0.971268,0.004821,-0.002346,-0.001115,67.190872,20.466751,-147.131042,,,
729861147.237982,0.309118,3.243143,54.347915,-0.052872,0.006866,0.971268,0.004821,-0.002346,-0.001115,66.833405,20.190567,-147.603165,,,
729861147.24135,0.306217,3.244379,54.347327,-0.049438,0.010727,0.962906,0.004821,-0.002346,-0.001115,66.833405,20.190567,-147.603165,,,
729861147.244652,0.302265,3.243323,54.346338,-0.049438,0.010727,0.962906,-0.017754,0.000712,-0.005267,66.833405,20.190567,-147.603165,,,
729861147.247984,0.302265,3.243323,54.346338,-0.049438,0.010727,0.962906,-0.017754,0.000712,-0.005267,66.833405,20.190567,-147.603165,,,
729861147.251323,0.293632,3.246018,54.344965,-0.048264,0.011078,0.964493,-0.017754,0.000712,-0.005267,66.833405,20.190567,-147.603165,,,
729861147.25465,0.285822,3.246622,54.342442,-0.048264,0.011078,0.964493,-0.026921,0.008844,-0.013912,66.833405,20.190567,-147.603165,,,
729861147.257997,0.285822,3.246622,54.342442,-0.048264,0.011078,0.964493,-0.026921,0.008844,-0.013912,66.833405,20.190567,-147.603165,,,
729861147.261331,0.27563,3.251805,54.338957,-0.050262,0.006516,0.980103,-0.026921,0.008844,-0.013912,66.833405,20.190567,-147.603165,,,
729861147.264654,0.266797,3.257667,54.335286,-0.050262,0.006516,0.980103,-0.029472,0.026256,-0.015372,66.833405,20.190567,-147.603165,,,
729861147.26805,0.266797,3.257667,54.335286,-0.050262,0.006516,0.980103,-0.029472,0.026256,-0.015372,66.833405,20.190567,-147.603165,,,
729861147.271313,0.256817,3.266997,54.331693,-0.056351,-0.00325,0.993149,-0.029472,0.026256,-0.015372,66.833405,20.190567,-147.603165,,,
729861147.274654,0.252521,3.274311,54.328036,-0.056351,-0.00325,0.993149,-0.005501,0.02464,-0.014498,66.833405,20.190567,-147.603165,,,
729861147.278007,0.252521,3.274311,54.328036,-0.056351,-0.00325,0.993149,-0.005501,0.02464,-0.014498,66.833405,20.190567,-147.603165,,,
729861147.281397,0.251575,3.281349,54.32509,-0.063721,-0.008438,1.003265,-0.005501,0.02464,-0.014498,67.005646,20.342041,-147.407242,,,
729861147.284646,0.256355,3.283903,54.32352,-0.063721,-0.008438,1.003265,0.025492,0.005777,-0.00321,67.005646,20.342041,-147.407242,,,
729861147.287997,0.256355,3.283903,54.32352,-0.063721,-0.008438,1.003265,0.025492,0.005777,-0.00321,67.005646,20.342041,-147.407242,,,
729861147.291414,0.26449,3.284985,54.322079,-0.066452,-0.009415,1.006546,0.025492,0.005777,-0.00321,67.005646,20.342041,-147.407242,,,
729861147.294653,0.273707,3.283268,54.320385,-0.066452,-0.009415,1.006546,0.031166,-0.007934,-0.004687,67.005646,20.342041,-147.407242,,,
729861147.298,0.273707,3.283268,54.320385,-0.066452,-0.009415,1.006546,0.031166,-0.007934,-0.004687,67.005646,20.342041,-147.407242,,,
729861147.30133,0.281527,3.278623,54.31868,-0.060867,-0.004837,0.990707,0.031166,-0.007934,-0.004687,67.005646,20.342041,-147.407242,,,
729861147.304656,0.287897,3.271217,54.316554,-0.060867,-0.004837,0.990707,0.020499,-0.028523,-0.008203,67.005646,20.342041,-147.407242,,,
729861147.308058,0.287897,3.271217,54.316554,-0.060867,-0.004837,0.990707,0.020499,-0.028523,-0.008203,67.005646,20.342041,-147.407242,,,
729861147.311322,0.292742,3.261425,54.314067,-0.056366,0.001038,0.979553,0.020499,-0.028523,-0.008203,67.005646,20.342041,-147.407242,,,
729861147.314654,0.295906,3.251763,54.311548,-0.056366,0.001038,0.979553,0.009424,-0.031277,-0.00903,67.005646,20.342041,-147.407242,,,
729861147.317993,0.295906,3.251763,54.311548,-0.056366,0.001038,0.979553,0.009424,-0.031277,-0.00903,67.005646,20.342041,-147.407242,,,
729861147.321367,0.299084,3.241585,54.309254,-0.056229,-0.001114,0.989517,0.009424,-0.031277,-0.00903,66.861404,20.426773,-147.309509,,,
729861147.324648,0.300807,3.233807,54.307645,-0.056229,-0.001114,0.989517,0.006004,-0.02231,-0.004357,66.861404,20.426773,-147.309509,,,
729861147.32801,0.300807,3.233807,54.307645,-0.056229,-0.001114,0.989517,0.006004,-0.02231,-0.004357,66.861404,20.426773,-147.309509,,,
729861147.331328,0.303077,3.225661,54.307549,-0.058548,-0.003235,0.997711,0.006004,-0.02231,-0.004357,66.861404,20.426773,-147.309509,,,
729861147.334646,0.303951,3.220153,54.308588,-0.058548,-0.003235,0.997711,0.003494,-0.014374,0.003479,66.861404,20.426773,-147.309509,,,
729861147.338001,0.303951,3.220153,54.308588,-0.058548,-0.003235,0.997711,0.003494,-0.014374,0.003479,66.861404,20.426773,-147.309509,,,
729861147.341323,0.306089,3.21397,54.31074,-0.059738,-0.003296,0.996414,0.003494,-0.014374,0.003479,66.861404,20.426773,-147.309509,,,
729861147.344655,0.309,3.210185,54.314465,-0.059738,-0.003296,0.996414,0.012765,-0.008583,0.015054,66.861404,20.426773,-147.309509,,,
729861147.348037,0.309,3.210185,54.314465,-0.059738,-0.003296,0.996414,0.012765,-0.008583,0.015054,66.861404,20.426773,-147.309509,,,
729861147.351327,0.313685,3.206572,54.318834,-0.060791,-0.004059,1.003983,0.012765,-0.008583,0.015054,66.861404,20.426773,-147.309509,,,
729861147.354652,0.323384,3.203093,54.323779,-0.060791,-0.004059,1.003983,0.04028,-0.010388,0.020572,66.861404,20.426773,-147.309509,,,
729861147.357994,0.323384,3.203093,54.323779,-0.060791,-0.004059,1.003983,0.04028,-0.010388,0.020572,66.861404,20.426773,-147.309509,,,
729861147.361325,0.336031,3.200177,54.328828,-0.057281,-0.008255,1.015976,0.04028,-0.010388,0.020572,66.949112,20.201187,-146.971771,,,
729861147.364706,0.359184,3.19323,54.33325,-0.057281,-0.008255,1.015976,0.097442,-0.027526,0.01932,66.949112,20.201187,-146.971771,,,
729861147.368047,0.359184,3.19323,54.33325,-0.057281,-0.008255,1.015976,0.097442,-0.027526,0.01932,66.949112,20.201187,-146.971771,,,
729861147.371349,0.390557,3.184738,54.337042,-0.054352,-0.014587,1.034531,0.097442,-0.027526,0.01932,66.949112,20.201187,-146.971771,,,
729861147.374656,0.437721,3.167521,54.339093,-0.054352,-0.014587,1.034531,0.189209,-0.069705,0.011994,66.949112,20.201187,-146.971771,,,
729861147.378031,0.437721,3.167521,54.339093,-0.054352,-0.014587,1.034531,0.189209,-0.069705,0.011994,66.949112,20.201187,-146.971771,,,
729861147.381325,0.497213,3.143632,54.338152,-0.049835,-0.017273,1.055267,0.189209,-0.069705,0.011994,66.949112,20.201187,-146.971771,,,
729861147.384657,0.572425,3.109499,54.332839,-0.049835,-0.017273,1.055267,0.28559,-0.130449,-0.013545,66.949112,20.201187,-146.971771,,,
729861147.388044,0.572425,3.109499,54.332839,-0.049835,-0.017273,1.055267,0.28559,-0.130449,-0.013545,66.949112,20.201187,-146.971771,,,
729861147.391313,0.657626,3.069814,54.322219,-0.032486,-0.008881,1.052963,0.28559,-0.130449,-0.013545,66.949112,20.201187,-146.971771,,,
729861147.39465,0.748623,3.026881,54.305971,-0.032486,-0.008881,1.052963,0.32103,-0.1494,-0.05143,66.949112,20.201187,-146.971771,,,
729861147.397987,0.748623,3.026881,54.305971,-0.032486,-0.008881,1.052963,0.32103,-0.1494,-0.05143,66.949112,20.201187,-146.971771,,,
729861147.401357,0.836221,2.984779,54.284932,-0.016907,0.003128,1.013596,0.32103,-0.1494,-0.05143,66.949112,20.201187,-146.971771,,,
729861147.404645,0.918738,2.94408,54.26095,-0.016907,0.003128,1.013596,0.276677,-0.13516,-0.074796,66.59256,19.892502,-147.187485,,,
729861147.408003,0.918738,2.94408,54.26095,-0.016907,0.003128,1.013596,0.276677,-0.13516,-0.074796,66.59256,19.892502,-147.187485,,,
729861147.411425,0.98893,2.907997,54.235892,-0.019608,0.025772,0.96962,0.276677,-0.13516,-0.074796,66.59256,19.892502,-147.187485,,,
729861147.414653,1.049988,2.876019,54.212381,-0.019608,0.025772,0.96962,0.196095,-0.096757,-0.068528,66.59256,19.892502,-147.187485,,,
729861147.417997,1.049988,2.876019,54.212381,-0.019608,0.025772,0.96962,0.196095,-0.096757,-0.068528,66.59256,19.892502,-147.187485,,,
729861147.421345,1.09787,2.853514,54.192457,-0.028839,0.04277,0.959915,0.196095,-0.096757,-0.068528,66.59256,19.892502,-147.187485,,,
729861147.424655,1.139345,2.837894,54.177204,-0.028839,0.04277,0.959915,0.133887,-0.038225,-0.039372,66.59256,19.892502,-147.187485,,,
729861147.427998,1.139345,2.837894,54.177204,-0.028839,0.04277,0.959915,0.133887,-0.038225,-0.039372,66.59256,19.892502,-147.187485,,,
729861147.431402,1.170961,2.830552,54.165992,-0.034546,0.03833,0.963913,0.133887,-0.038225,-0.039372,66.59256,19.892502,-147.187485,,,
729861147.434644,1.200244,2.824348,54.157224,-0.034546,0.03833,0.963913,0.101137,-0.018509,-0.024184,66.59256,19.892502,-147.187485,,,
729861147.438064,1.200244,2.824348,54.157224,-0.034546,0.03833,0.963913,0.101137,-0.018509,-0.024184,66.59256,19.892502,-147.187485,,,
729861147.44132,1.229185,2.81774,54.148389,-0.032684,0.032532,0.975754,0.101137,-0.018509,-0.024184,66.59256,19.892502,-147.187485,,,
729861147.444662,1.269365,2.806057,54.138038,-0.032684,0.032532,0.975754,0.162865,-0.045904,-0.031915,66.611511,19.290268,-146.861404,,,
729861147.447994,1.269365,2.806057,54.138038,-0.032684,0.032532,0.975754,0.162865,-0.045904,-0.031915,66.611511,19.290268,-146.861404,,,
729861147.451375,1.319619,2.794127,54.12626,-0.041595,0.010223,1.029846,0.162865,-0.045904,-0.031915,66.611511,19.290268,-146.861404,,,
729861147.454663,1.388602,2.78543,54.113463,-0.041595,0.010223,1.029846,0.272734,-0.019299,-0.03389,66.611511,19.290268,-146.861404,,,
729861147.457994,1.388602,2.78543,54.113463,-0.041595,0.010223,1.029846,0.272734,-0.019299,-0.03389,66.611511,19.290268,-146.861404,,,
729861147.461326,1.475101,2.779427,54.099458,-0.035248,-0.012695,1.089798,0.272734,-0.019299,-0.03389,66.611511,19.290268,-146.861404,,,
729861147.464649,1.587978,2.771676,54.083013,-0.035248,-0.012695,1.089798,0.440468,-0.031814,-0.042902,66.611511,19.290268,-146.861404,,,
729861147.467998,1.587978,2.771676,54.083013,-0.035248,-0.012695,1.089798,0.440468,-0.031814,-0.042902,66.611511,19.290268,-146.861404,,,
729861147.471324,1.723722,2.759977,54.063793,-0.011353,-0.008881,1.099945,0.440468,-0.031814,-0.042902,66.611511,19.290268,-146.861404,,,
729861147.474655,1.884726,2.747363,54.041401,-0.011353,-0.008881,1.099945,0.605893,-0.045025,-0.057138,66.611511,19.290268,-146.861404,,,
729861147.47804,1.884726,2.747363,54.041401,-0.011353,-0.008881,1.099945,0.605893,-0.045025,-0.057138,66.611511,19.290268,-146.861404,,,
729861147.48132,2.065833,2.733705,54.014954,-0.017838,-0.011414,1.111313,0.605893,-0.045025,-0.057138,66.611511,19.290268,-146.861404,,,
729861147.484652,2.26539,2.723724,53.984317,-0.017838,-0.011414,1.111313,0.728091,-0.031123,-0.080421,66.337875,18.12114,-146.787964,,,
729861147.487995,2.26539,2.723724,53.984317,-0.017838,-0.011414,1.111313,0.728091,-0.031123,-0.080421,66.337875,18.12114,-146.787964,,,
729861147.491329,2.478976,2.717191,53.95053,-0.020142,-0.00264,1.101288,0.728091,-0.031123,-0.080421,66.337875,18.12114,-146.787964,,,
729861147.49465,2.706413,2.717534,53.915562,-0.020142,-0.00264,1.101288,0.821041,0.007149,-0.083964,66.337875,18.12114,-146.787964,,,
729861147.497983,2.706413,2.717534,53.915562,-0.020142,-0.00264,1.101288,0.821041,0.007149,-0.083964,66.337875,18.12114,-146.787964,,,
729861147.501318,2.945645,2.722723,53.881356,-0.023819,0.005325,1.090027,0.821041,0.007149,-0.083964,66.337875,18.12114,-146.787964,,,
729861147.504675,3.192684,2.732215,53.849461,-0.023819,0.005325,1.090027,0.874664,0.036674,-0.065024,66.337875,18.12114,-146.787964,,,
729861147.508022,3.192684,2.732215,53.849461,-0.023819,0.005325,1.090027,0.874664,0.036674,-0.065024,66.337875,18.12114,-146.787964,,,
729861147.511316,3.442048,2.744574,53.820768,-0.038086,0.021423,1.057434,0.874664,0.036674,-0.065024,66.337875,18.12114,-146.787964,,,
729861147.51465,3.688504,2.7578,53.795377,-0.038086,0.021423,1.057434,0.853406,0.04295,-0.042628,66.337875,18.12114,-146.787964,,,
729861147.518081,3.688504,2.7578,53.795377,-0.038086,0.021423,1.057434,0.853406,0.04295,-0.042628,66.337875,18.12114,-146.787964,,,
729861147.521342,3.926782,2.77065,53.772881,-0.047653,0.044632,1.000946,0.853406,0.04295,-0.042628,66.337875,18.12114,-146.787964,,,
729861147.524659,4.153122,2.782931,53.752508,-0.047653,0.044632,1.000946,0.769688,0.039054,-0.031541,66.403625,16.239044,-146.076385,,,
729861147.527995,4.153122,2.782931,53.752508,-0.047653,0.044632,1.000946,0.769688,0.039054,-0.031541,66.403625,16.239044,-146.076385,,,
729861147.531396,4.365462,2.792818,53.733438,-0.054214,0.078613,0.967392,0.769688,0.039054,-0.031541,66.403625,16.239044,-146.076385,,,
729861147.534641,4.563066,2.798746,53.714457,-0.054214,0.078613,0.967392,0.667175,0.010707,-0.035669,66.403625,16.239044,-146.076385,,,
729861147.537992,4.563066,2.798746,53.714457,-0.054214,0.078613,0.967392,0.667175,0.010707,-0.035669,66.403625,16.239044,-146.076385,,,
729861147.541332,4.746115,2.799958,53.695841,-0.064468,0.110458,0.945389,0.667175,0.010707,-0.035669,66.403625,16.239044,-146.076385,,,
729861147.544651,4.914775,2.795296,53.678305,-0.064468,0.110458,0.945389,0.566726,-0.030311,-0.033091,66.403625,16.239044,-146.076385,,,
729861147.547992,4.914775,2.795296,53.678305,-0.064468,0.110458,0.945389,0.566726,-0.030311,-0.033091,66.403625,16.239044,-146.076385,,,
729861147.551323,5.069894,2.783147,53.661842,-0.082886,0.119736,0.93338,0.566726,-0.030311,-0.033091,66.403625,16.239044,-146.076385,,,
729861147.55465,5.212511,2.76468,53.647342,-0.082886,0.119736,0.93338,0.479114,-0.073718,-0.023876,66.403625,16.239044,-146.076385,,,
729861147.558055,5.212511,2.76468,53.647342,-0.082886,0.119736,0.93338,0.479114,-0.073718,-0.023876,66.403625,16.239044,-146.076385,,,
729861147.561323,5.343334,2.743098,53.635279,-0.09436,0.117935,0.935669,0.479114,-0.073718,-0.023876,66.403625,16.239044,-146.076385,,,
729861147.564652,5.461183,2.721914,53.62632,-0.09436,0.117935,0.935669,0.387837,-0.069405,-0.006942,66.403625,16.239044,-146.076385,,,
729861147.567999,5.461183,2.721914,53.62632,-0.09436,0.117935,0.935669,0.387837,-0.069405,-0.006942,66.325302,15.386368,-145.710983,,,
729861147.571398,5.567022,2.703846,53.621947,-0.098785,0.120926,0.941696,0.387837,-0.069405,-0.006942,66.325302,15.386368,-145.710983,,,
729861147.574648,5.66314,2.690615,53.623408,-0.098785,0.120926,0.941696,0.318342,-0.032101,0.030065,66.325302,15.386368,-145.710983,,,
729861147.578024,5.66314,2.690615,53.623408,-0.098785,0.120926,0.941696,0.318342,-0.032101,0.030065,66.325302,15.386368,-145.710983,,,
729861147.581321,5.751505,2.683043,53.63148,-0.108002,0.118546,0.956451,0.318342,-0.032101,0.030065,66.325302,15.386368,-145.710983,,,
729861147.58466,5.833608,2.679656,53.647199,-0.108002,0.118546,0.956451,0.27235,0.002228,0.080956,66.325302,15.386368,-145.710983,,,
729861147.587988,5.833608,2.679656,53.647199,-0.108002,0.118546,0.956451,0.27235,0.002228,0.080956,66.325302,15.386368,-145.710983,,,
729861147.591327,5.909526,2.678105,53.670016,-0.108643,0.118057,0.964539,0.27235,0.002228,0.080956,66.325302,15.386368,-145.710983,,,
729861147.594656,5.980452,2.677613,53.697473,-0.108643,0.118057,0.964539,0.236177,0.012882,0.111424,66.325302,15.386368,-145.710983,,,
729861147.597981,5.980452,2.677613,53.697473,-0.108643,0.118057,0.964539,0.236177,0.012882,0.111424,66.325302,15.386368,-145.710983,,,
729861147.601325,6.049447,2.677706,53.727398,-0.094208,0.123199,0.967667,0.236177,0.012882,0.111424,66.325302,15.386368,-145.710983,,,
729861147.604688,6.118536,2.678524,53.757886,-0.094208,0.123199,0.967667,0.236694,0.018336,0.115267,66.325302,15.386368,-145.710983,,,
729861147.608074,6.118536,2.678524,53.757886,-0.094208,0.123199,0.967667,0.236694,0.018336,0.115267,66.122772,15.067169,-145.428452,,,
729861147.611316,6.188076,2.679991,53.787861,-0.0811,0.116638,0.988602,0.236694,0.018336,0.115267,66.122772,15.067169,-145.428452,,,
729861147.614646,6.256956,2.681289,53.817022,-0.0811,0.116638,0.988602,0.232418,0.016548,0.109424,66.122772,15.067169,-145.428452,,,
729861147.618009,6.256956,2.681289,53.817022,-0.0811,0.116638,0.988602,0.232418,0.016548,0.109424,66.122772,15.067169,-145.428452,,,
729861147.621325,6.323842,2.681046,53.844736,-0.075851,0.113281,0.982117,0.232418,0.016548,0.109424,66.122772,15.067169,-145.428452,,,
729861147.624648,6.388822,2.678149,53.870806,-0.075851,0.113281,0.982117,0.219764,-0.003223,0.097469,66.122772,15.067169,-145.428452,,,
729861147.628002,6.388822,2.678149,53.870806,-0.075851,0.113281,0.982117,0.219764,-0.003223,0.097469,66.122772,15.067169,-145.428452,,,
729861147.631336,6.453382,2.672147,53.896353,-0.073578,0.121445,0.979477,0.219764,-0.003223,0.097469,66.122772,15.067169,-145.428452,,,
729861147.63465,6.519489,2.664224,53.921358,-0.073578,0.121445,0.979477,0.230786,-0.017066,0.094129,66.122772,15.067169,-145.428452,,,
729861147.638004,6.519489,2.664224,53.921358,-0.073578,0.121445,0.979477,0.230786,-0.017066,0.094129,66.122772,15.067169,-145.428452,,,
729861147.641325,6.586912,2.656257,53.945159,-0.069183,0.120544,0.998993,0.230786,-0.017066,0.094129,66.122772,15.067169,-145.428452,,,
729861147.644668,6.654685,2.648766,53.968189,-0.069183,0.120544,0.998993,0.233547,-0.014408,0.088841,66.122772,15.067169,-145.428452,,,
729861147.647989,6.654685,2.648766,53.968189,-0.069183,0.120544,0.998993,0.233547,-0.014408,0.088841,66.141342,14.338562,-145.415451,,,
729861147.651326,6.722968,2.6412,53.990374,-0.067856,0.112823,1.006775,0.233547,-0.014408,0.088841,66.141342,14.338562,-145.415451,,,
729861147.654711,6.793543,2.632948,54.011655,-0.067856,0.112823,1.006775,0.249861,-0.019976,0.083225,66.141342,14.338562,-145.415451,,,
729861147.658088,6.793543,2.632948,54.011655,-0.067856,0.112823,1.006775,0.249861,-0.019976,0.083225,66.141342,14.338562,-145.415451,,,
729861147.661356,6.867783,2.623122,54.032829,-0.06189,0.110641,1.01445,0.249861,-0.019976,0.083225,66.141342,14.338562,-145.415451,,,
729861147.664696,6.946342,2.61243,54.054587,-0.06189,0.110641,1.01445,0.249861,-0.025543,0.088517,66.141342,14.338562,-145.415451,,,
729861147.668026,6.946342,2.61243,54.054587,-0.06189,0.110641,1.01445,0.279807,-0.025543,0.088517,66.141342,14.338562,-145.415451,,,
729861147.67132,7.029112,2.602795,54.076619,-0.063278,0.108505,1.024841,0.279807,-0.025543,0.088517,66.141342,14.338562,-145.415451,,,
729861147.674713,7.116292,2.593979,54.098365,-0.063278,0.108505,1.024841,0.310663,-0.020081,0.08778,66.141342,14.338562,-145.415451,,,
729861147.67804,7.116292,2.593979,54.098365,-0.063278,0.108505,1.024841,0.310663,-0.020081,0.08778,66.141342,14.338562,-145.415451,,,
729861147.681326,7.210028,2.583402,54.120671,-0.058105,0.106613,1.029556,0.310663,-0.020081,0.08778,66.141342,14.338562,-145.415451,,,
729861147.684716,7.210028,2.583402,54.144323,-0.058105,0.106613,1.029556,0.367528,-0.033098,0.099509,66.141342,14.338562,-145.415451,,,
729861147.687986,7.311981,2.570781,54.144323,-0.058105,0.106613,1.029556,0.367528,-0.033098,0.099509,65.92514,13.722977,-144.751755,,,
729861147.691323,7.424117,2.557078,54.168397,-0.046646,0.098724,1.04866,0.367528,-0.033098,0.099509,65.92514,13.722977,-144.751755,,,
729861147.694669,7.424117,2.557078,54.168397,-0.046646,0.098724,1.04866,0.367528,-0.033098,0.099509,65.92514,13.722977,-144.751755,,,
729861147.698091,7.547378,2.543054,54.191846,-0.046646,0.098724,1.04866,0.445248,-0.035759,0.098498,65.92514,13.722977,-144.751755,,,
729861147.701323,7.681755,2.528014,54.215067,-0.042068,0.096115,1.064407,0.445248,-0.035759,0.098498,65.92514,13.722977,-144.751755,,,
729861147.704714,7.681755,2.528014,54.215067,-0.042068,0.096115,1.064407,0.445248,-0.035759,0.098498,65.92514,13.722977,-144.751755,,,
729861147.708053,7.829086,2.511185,54.237739,-0.042068,0.096115,1.064407,0.535678,-0.048571,0.098417,65.92514,13.722977,-144.751755,,,
729861147.711312,7.991665,2.492145,54.258885,-0.029709,0.097092,1.075439,0.535678,-0.048571,0.098417,65.92514,13.722977,-144.751755,,,
729861147.714684,7.991665,2.492145,54.258885,-0.029709,0.097092,1.075439,0.535678,-0.048571,0.098417,65.92514,13.722977,-144.751755,,,
729861147.717999,8.170687,2.470034,54.27838,-0.029709,0.097092,1.075439,0.650708,-0.071383,0.091567,65.92514,13.722977,-144.751755,,,
729861147.721322,8.366674,2.443944,54.296243,-0.022995,0.093445,1.092316,0.650708,-0.071383,0.091567,65.92514,13.722977,-144.751755,,,
729861147.724727,8.366674,2.443944,54.296243,-0.022995,0.093445,1.092316,0.650708,-0.071383,0.091567,65.92514,13.722977,-144.751755,,,
729861147.728018,8.580514,2.414695,54.311005,-0.022995,0.093445,1.092316,0.775988,-0.096388,0.074769,65.92514,13.722977,-144.751755,,,
729861147.731323,8.813259,2.383208,54.321839,-0.014008,0.09465,1.104553,0.775988,-0.096388,0.074769,65.651947,12.555923,-144.091827,,,
729861147.734657,8.813259,2.383208,54.321839,-0.014008,0.09465,1.104553,0.775988,-0.096388,0.074769,65.651947,12.555923,-144.091827,,,
729861147.738068,9.063613,2.350701,54.329618,-0.014008,0.09465,1.104553,0.899544,-0.106749,0.057936,65.651947,12.555923,-144.091827,,,
729861147.741332,9.32866,2.319126,54.334437,-0.007797,0.101501,1.10817,0.899544,-0.106749,0.057936,65.651947,12.555923,-144.091827,,,
729861147.744686,9.32866,2.319126,54.334437,-0.007797,0.101501,1.10817,0.899544,-0.106749,0.057936,65.651947,12.555923,-144.091827,,,
729861147.747993,9.606833,2.289854,54.336864,-0.007797,0.101501,1.10817,0.991652,-0.093578,0.044247,65.651947,12.555923,-144.091827,,,
729861147.751319,9.897452,2.263488,54.338945,-0.009903,0.113419,1.09761,0.991652,-0.093578,0.044247,65.651947,12.555923,-144.091827,,,
729861147.754687,9.897452,2.263488,54.338945,-0.009903,0.113419,1.09761,0.991652,-0.093578,0.044247,65.651947,12.555923,-144.091827,,,
729861147.757991,10.199351,2.241332,54.341826,-0.009903,0.113419,1.09761,1.069598,-0.063488,0.052022,65.651947,12.555923,-144.091827,,,
729861147.761315,10.509762,2.22409,54.345765,-0.014587,0.129272,1.085526,1.069598,-0.063488,0.052022,65.651947,12.555923,-144.091827,,,
729861147.764724,10.509762,2.22409,54.345765,-0.014587,0.129272,1.085526,1.069598,-0.063488,0.052022,65.651947,12.555923,-144.091827,,,
729861147.767982,10.825395,2.209934,54.351607,-0.014587,0.129272,1.085526,1.10505,-0.039724,0.065801,65.651947,12.555923,-144.091827,,,
729861147.771318,11.142966,2.196143,54.359152,-0.015305,0.153259,1.047226,1.10505,-0.039724,0.065801,65.324677,10.464691,-142.926025,,,
729861147.774706,11.142966,2.196143,54.359152,-0.015305,0.153259,1.047226,1.10505,-0.039724,0.065801,65.324677,10.464691,-142.926025,,,
729861147.778043,11.462252,2.182782,54.366637,-0.015305,0.153259,1.047226,1.117018,-0.036918,0.065279,65.324677,10.464691,-142.926025,,,
729861147.78131,11.785066,2.170502,54.373141,-0.011505,0.175568,1.025238,1.117018,-0.036918,0.065279,65.324677,10.464691,-142.926025,,,
729861147.784699,11.785066,2.170502,54.373141,-0.011505,0.175568,1.025238,1.117018,-0.036918,0.065279,65.324677,10.464691,-142.926025,,,
729861147.787992,12.111652,2.159435,54.378208,-0.011505,0.175568,1.025238,1.143666,-0.030679,0.056094,65.324677,10.464691,-142.926025,,,
729861147.791318,12.442056,2.14826,54.381961,-0.014465,0.190018,1.029312,1.143666,-0.030679,0.056094,65.324677,10.464691,-142.926025,,,
729861147.794664,12.442056,2.14826,54.381961,-0.014465,0.190018,1.029312,1.143666,-0.030679,0.056094,65.324677,10.464691,-142.926025,,,
729861147.798,12.776705,2.134411,54.385006,-0.014465,0.190018,1.029312,1.17292,-0.050639,0.051912,65.324677,10.464691,-142.926025,,,
729861147.801314,13.116554,2.116462,54.387716,-0.029404,0.194839,1.015686,1.17292,-0.050639,0.051912,65.324677,10.464691,-142.926025,,,
729861147.804753,13.116554,2.116462,54.387716,-0.029404,0.194839,1.015686,1.17292,-0.050639,0.051912,65.324677,10.464691,-142.926025,,,
729861147.807981,13.463949,2.096492,54.39055,-0.029404,0.194839,1.015686,1.224928,-0.064823,0.053991,65.324677,10.464691,-142.926025,,,
729861147.811323,13.820142,2.077051,54.394547,-0.0392,0.197464,1.033508,1.224928,-0.064823,0.053991,65.183212,8.257965,-142.009506,,,
729861147.814661,13.820142,2.077051,54.394547,-0.0392,0.197464,1.033508,1.224928,-0.064823,0.053991,65.183212,8.257965,-142.009506,,,
729861147.818035,14.182836,2.059602,54.400509,-0.0392,0.197464,1.033508,1.270191,-0.047948,0.068187,65.183212,8.257965,-142.009506,,,
729861147.821314,14.548831,2.043577,54.409106,-0.044754,0.205978,1.025131,1.270191,-0.047948,0.068187,65.183212,8.257965,-142.009506,,,
729861147.824803,14.548831,2.043577,54.409106,-0.044754,0.205978,1.025131,1.270191,-0.047948,0.068187,65.183212,8.257965,-142.009506,,,
729861147.828003,14.91642,2.027609,54.421475,-0.044754,0.205978,1.025131,1.280321,-0.041008,0.093177,65.183212,8.257965,-142.009506,,,
729861147.831321,15.284396,2.009619,54.437784,-0.049881,0.225952,0.983948,1.280321,-0.041008,0.093177,65.183212,8.257965,-142.009506,,,
729861147.834654,15.284396,2.009619,54.437784,-0.049881,0.225952,0.983948,1.280321,-0.041008,0.093177,65.183212,8.257965,-142.009506,,,
729861147.838008,15.650043,1.989523,54.457784,-0.049881,0.225952,0.983948,1.263199,-0.048655,0.11634,65.183212,8.257965,-142.009506,,,
729861147.841318,16.009728,1.968449,54.480518,-0.054688,0.255875,0.947418,1.263199,-0.048655,0.11634,65.183212,8.257965,-142.009506,,,
729861147.844788,16.009728,1.968449,54.480518,-0.054688,0.255875,0.947418,1.263199,-0.048655,0.11634,65.183212,8.257965,-142.009506,,,
729861147.847991,16.359412,1.947685,54.504239,-0.054688,0.255875,0.947418,1.193342,-0.044145,0.119447,65.183212,8.257965,-142.009506,,,
729861147.851406,16.694852,1.926556,54.528867,-0.050705,0.291199,0.889252,1.193342,-0.044145,0.119447,64.841583,5.850967,-140.971497,,,
729861147.854668,16.694852,1.926556,54.528867,-0.050705,0.291199,0.889252,1.193342,-0.044145,0.119447,64.841583,5.850967,-140.971497,,,
729861147.858062,17.013138,1.903249,54.55437,-0.050705,0.291199,0.889252,1.073739,-0.0571,0.12022,64.841583,5.850967,-140.971497,,,
729861147.861324,17.312871,1.877646,54.579993,-0.049561,0.322372,0.841125,1.073739,-0.0571,0.12022,64.841583,5.850967,-140.971497,,,
729861147.864674,17.312871,1.877646,54.579993,-0.049561,0.322372,0.841125,1.073739,-0.0571,0.12022,64.841583,5.850967,-140.971497,,,
729861147.868001,17.594364,1.851089,54.605606,-0.049561,0.322372,0.841125,0.946795,-0.06335,0.114952,64.841583,5.850967,-140.971497,,,
729861147.871326,17.857965,1.824746,54.631252,-0.048889,0.346619,0.832153,0.946795,-0.06335,0.114952,64.841583,5.850967,-140.971497,,,
729861147.874484,17.857965,1.824746,54.631252,-0.048889,0.346619,0.832153,0.946795,-0.06335,0.114952,64.841583,5.850967,-140.971497,,,
729861147.878031,18.103753,1.800336,54.656993,-0.048889,0.346619,0.832153,0.822791,-0.049325,0.110764,64.841583,5.850967,-140.971497,,,
729861147.88132,18.332649,1.779903,54.683409,-0.05101,0.353073,0.837067,0.822791,-0.049325,0.110764,64.841583,5.850967,-140.971497,,,
729861147.884719,18.332649,1.779903,54.683409,-0.05101,0.353073,0.837067,0.822791,-0.049325,0.110764,64.841583,5.850967,-140.971497,,,
729861147.887989,18.546406,1.765303,54.711067,-0.05101,0.353073,0.837067,0.717146,-0.005671,0.115092,64.841583,5.850967,-140.971497,,,
729861147.89133,18.745963,1.758071,54.741315,-0.056198,0.346527,0.852295,0.717146,-0.005671,0.115092,64.841583,5.850967,-140.971497,,,
729861147.894671,18.745963,1.758071,54.741315,-0.056198,0.346527,0.852295,0.717146,-0.005671,0.115092,64.381699,4.397461,-139.836853,,,
729861147.898066,18.931494,1.759625,54.774899,-0.056198,0.346527,0.852295,0.618738,0.063324,0.133789,64.381699,4.397461,-139.836853,,,
729861147.901393,19.100735,1.768256,54.812231,-0.06015,0.344147,0.854218,0.618738,0.063324,0.133789,64.381699,4.397461,-139.836853,,,
729861147.904685,19.100735,1.768256,54.812231,-0.06015,0.344147,0.854218,0.618738,0.063324,0.133789,64.381699,4.397461,-139.836853,,,
729861147.908087,19.25157,1.781495,54.853465,-0.06015,0.344147,0.854218,0.489713,0.104728,0.155599,64.381699,4.397461,-139.836853,,,
729861147.911331,19.385321,1.797465,54.898719,-0.063171,0.355591,0.827118,0.489713,0.104728,0.155599,64.381699,4.397461,-139.836853,,,
729861147.914692,19.385321,1.797465,54.898719,-0.063171,0.355591,0.827118,0.489713,0.104728,0.155599,64.381699,4.397461,-139.836853,,,
729861147.918013,19.502591,1.815716,54.947377,-0.063171,0.355591,0.827118,0.37415,0.128843,0.174445,64.381699,4.397461,-139.836853,,,
729861147.921328,19.601883,1.836863,54.998025,-0.064301,0.367096,0.826187,0.37415,0.128843,0.174445,64.381699,4.397461,-139.836853,,,
729861147.92467,19.601883,1.836863,54.998025,-0.064301,0.367096,0.826187,0.37415,0.128843,0.174445,64.381699,4.397461,-139.836853,,,
729861147.928008,19.681253,1.859032,55.049673,-0.064301,0.367096,0.826187,0.235071,0.138544,0.176692,64.381699,4.397461,-139.836853,,,
729861147.931327,19.740034,1.876447,55.101596,-0.057388,0.377258,0.793686,0.235071,0.138544,0.176692,64.381699,4.397461,-139.836853,,,
729861147.934657,19.740034,1.876447,55.101596,-0.057388,0.377258,0.793686,0.235071,0.138544,0.176692,64.35289,3.737228,-139.587646,,,
729861147.938009,19.781491,1.884253,55.15219,-0.057388,0.377258,0.793686,0.114668,0.068511,0.164066,64.35289,3.737228,-139.587646,,,
729861147.941328,19.810689,1.880381,55.199288,-0.053284,0.378479,0.785049,0.114668,0.068511,0.164066,64.35289,3.737228,-139.587646,,,
729861147.944731,19.810689,1.880381,55.199288,-0.053284,0.378479,0.785049,0.114668,0.068511,0.164066,64.35289,3.737228,-139.587646,,,
729861147.948001,19.829649,1.866082,55.241407,-0.053284,0.378479,0.785049,0.044541,-0.015966,0.129199,64.35289,3.737228,-139.587646,,,
729861147.951349,19.839698,1.846468,55.277418,-0.049377,0.364075,0.825974,0.044541,-0.015966,0.129199,64.35289,3.737228,-139.587646,,,
729861147.954657,19.839698,1.846468,55.277418,-0.049377,0.364075,0.825974,0.044541,-0.015966,0.129199,64.35289,3.737228,-139.587646,,,
729861147.95806,19.844216,1.825401,55.308088,-0.049377,0.364075,0.825974,0.007266,-0.038904,0.092993,64.35289,3.737228,-139.587646,,,
729861147.96132,19.849479,1.803514,55.336125,-0.044937,0.327713,0.88533,0.007266,-0.038904,0.092993,64.35289,3.737228,-139.587646,,,
729861147.964664,19.849479,1.803514,55.336125,-0.044937,0.327713,0.88533,0.007266,-0.038904,0.092993,64.35289,3.737228,-139.587646,,,
729861147.968008,19.861896,1.781342,55.364105,-0.044937,0.327713,0.88533,0.057172,-0.041192,0.094212,64.35289,3.737228,-139.587646,,,
729861147.971327,19.884683,1.760793,55.394321,-0.047562,0.299301,0.960022,0.057172,-0.041192,0.094212,64.35289,3.737228,-139.587646,,,
729861147.974658,19.884683,1.760793,55.394321,-0.047562,0.299301,0.960022,0.057172,-0.041192,0.094212,64.380768,3.674698,-139.34343,,,
729861147.978006,19.917213,1.746661,55.427392,-0.047562,0.299301,0.960022,0.124557,0.010208,0.115035,64.380768,3.674698,-139.34343,,,
729861147.981323,19.956939,1.743062,55.463327,-0.048233,0.291611,0.989105,0.124557,0.010208,0.115035,64.380768,3.674698,-139.34343,,,
729861147.984654,19.956939,1.743062,55.463327,-0.048233,0.291611,0.989105,0.124557,0.010208,0.115035,64.380768,3.674698,-139.34343,,,
729861147.988006,20.001109,1.750965,55.502193,-0.048233,0.291611,0.989105,0.154933,0.097284,0.135152,64.380768,3.674698,-139.34343,,,
729861147.99135,20.046876,1.767518,55.54361,-0.037277,0.309891,0.959976,0.154933,0.097284,0.135152,64.380768,3.674698,-139.34343,,,
729861147.994755,20.046876,1.767518,55.54361,-0.037277,0.309891,0.959976,0.154933,0.097284,0.135152,64.380768,3.674698,-139.34343,,,
729861147.997998,20.09252,1.787417,55.587555,-0.037277,0.309891,0.959976,0.15348,0.126657,0.151739,64.380768,3.674698,-139.34343,,,
729861148.001329,20.136271,1.805582,55.633907,-0.033005,0.329865,0.915207,0.15348,0.126657,0.151739,64.380768,3.674698,-139.34343,,,
729861148.004671,20.136271,1.805582,55.633907,-0.033005,0.329865,0.915207,0.15348,0.126657,0.151739,64.380768,3.674698,-139.34343,,,
729861148.008145,20.176404,1.818489,55.681866,-0.033005,0.329865,0.915207,0.127892,0.093927,0.161544,64.380768,3.674698,-139.34343,,,
729861148.011307,20.212581,1.824044,55.730195,-0.031891,0.339645,0.882965,0.127892,0.093927,0.161544,64.380768,3.674698,-139.34343,,,
729861148.014678,20.212581,1.824044,55.730195,-0.031891,0.339645,0.882965,0.127892,0.093927,0.161544,64.380768,3.674698,-139.34343,,,
729861148.018011,20.248265,1.82207,55.777592,-0.031891,0.339645,0.882965,0.124663,0.039231,0.155327,63.91861,3.396606,-138.94252,,,
729861148.021321,20.288236,1.812941,55.82336,-0.025146,0.331787,0.905838,0.124663,0.039231,0.155327,63.91861,3.396606,-138.94252,,,
729861148.024716,20.288236,1.812941,55.82336,-0.025146,0.331787,0.905838,0.124663,0.039231,0.155327,63.91861,3.396606,-138.94252,,,
729861148.027983,20.33351,1.797412,55.866775,-0.025146,0.331787,0.905838,0.162154,-0.011004,0.141064,63.91861,3.396606,-138.94252,,,
729861148.031323,20.383402,1.775121,55.907694,-0.019363,0.314438,0.937851,0.162154,-0.011004,0.141064,63.91861,3.396606,-138.94252,,,
729861148.034743,20.383402,1.775121,55.907694,-0.019363,0.314438,0.937851,0.162154,-0.011004,0.141064,63.91861,3.396606,-138.94252,,,
729861148.038007,20.438747,1.745257,55.946422,-0.019363,0.314438,0.937851,0.2007,-0.06902,0.127731,63.91861,3.396606,-138.94252,,,
729861148.041374,20.500921,1.707581,55.983026,-0.011292,0.313675,0.941711,0.2007,-0.06902,0.127731,63.91861,3.396606,-138.94252,,,
729861148.044663,20.500921,1.707581,55.983026,-0.011292,0.313675,0.941711,0.2007,-0.06902,0.127731,63.91861,3.396606,-138.94252,,,
729861148.048068,20.571486,1.662914,56.018454,-0.011292,0.313675,0.941711,0.259574,-0.120477,0.121499,63.91861,3.396606,-138.94252,,,
729861148.051309,20.652377,1.613798,56.053711,-0.008652,0.312439,0.967575,0.259574,-0.120477,0.121499,63.91861,3.396606,-138.94252,,,
729861148.054663,20.652377,1.613798,56.053711,-0.008652,0.312439,0.967575,0.259574,-0.120477,0.121499,63.91861,3.396606,-138.94252,,,
729861148.058039,20.744949,1.561566,56.089467,-0.008652,0.312439,0.967575,0.34106,-0.140769,0.126462,63.716125,3.026978,-138.533966,,,
729861148.061314,20.851746,1.505962,56.126316,-0.00531,0.299698,0.993866,0.34106,-0.140769,0.126462,63.716125,3.026978,-138.533966,,,
729861148.064664,20.851746,1.505962,56.126316,-0.00531,0.299698,0.993866,0.34106,-0.140769,0.126462,63.716125,3.026978,-138.533966,,,
729861148.067993,20.980671,1.446028,56.164913,-0.00531,0.299698,0.993866,0.486452,-0.1623,0.139137,63.716125,3.026978,-138.533966,,,
729861148.071321,21.133067,1.384332,56.205252,-0.000946,0.279083,1.047623,0.486452,-0.1623,0.139137,63.716125,3.026978,-138.533966,,,
729861148.074728,21.133067,1.384332,56.205252,-0.000946,0.279083,1.047623,0.486452,-0.1623,0.139137,63.716125,3.026978,-138.533966,,,
729861148.077996,21.31195,1.321066,56.247371,-0.000946,0.279083,1.047623,0.664642,-0.165746,0.152635,63.716125,3.026978,-138.533966,,,
729861148.08132,21.517614,1.256669,56.290156,0.010666,0.266235,1.082825,0.664642,-0.165746,0.152635,63.716125,3.026978,-138.533966,,,
729861148.084656,21.517614,1.256669,56.290156,0.010666,0.266235,1.082825,0.664642,-0.165746,0.152635,63.716125,3.026978,-138.533966,,,
729861148.088059,21.751788,1.19246,56.331686,0.010666,0.266235,1.082825,0.863703,-0.166813,0.146784,63.716125,3.026978,-138.533966,,,
729861148.091356,22.016101,1.129097,56.370444,0.028793,0.272491,1.09996,0.863703,-0.166813,0.146784,63.716125,3.026978,-138.533966,,,
729861148.094661,22.016101,1.129097,56.370444,0.028793,0.272491,1.09996,0.863703,-0.166813,0.146784,63.716125,3.026978,-138.533966,,,
729861148.09799,22.310621,1.067274,56.406176,0.028793,0.272491,1.09996,1.074723,-0.163055,0.128859,63.113708,1.916443,-137.967957,,,
729861148.101323,22.632504,1.006856,56.438673,0.036667,0.283371,1.106155,1.074723,-0.163055,0.128859,63.113708,1.916443,-137.967957,,,
729861148.104669,22.632504,1.006856,56.438673,0.036667,0.283371,1.106155,1.074723,-0.163055,0.128859,63.113708,1.916443,-137.967957,,,
729861148.108043,22.976897,0.948244,56.467683,0.036667,0.283371,1.106155,1.232095,-0.15889,0.106473,63.113708,1.916443,-137.967957,,,
729861148.111315,23.337553,0.89341,56.493406,0.041367,0.307129,1.060944,1.232095,-0.15889,0.106473,63.113708,1.916443,-137.967957,,,
729861148.11474,23.337553,0.89341,56.493406,0.041367,0.307129,1.060944,1.232095,-0.15889,0.106473,63.113708,1.916443,-137.967957,,,
729861148.118014,23.708761,0.841462,56.517106,0.041367,0.307129,1.060944,1.305929,-0.143617,0.091989,63.113708,1.916443,-137.967957,,,
729861148.121326,24.086354,0.788635,56.540675,0.037476,0.339172,0.992096,1.305929,-0.143617,0.091989,63.113708,1.916443,-137.967957,,,
729861148.124725,24.086354,0.788635,56.540675,0.037476,0.339172,0.992096,1.305929,-0.143617,0.091989,63.113708,1.916443,-137.967957,,,
729861148.128065,24.468519,0.732053,56.56548,0.037476,0.339172,0.992096,1.337683,-0.165581,0.097358,63.113708,1.916443,-137.967957,,,
729861148.131322,24.85472,0.669909,56.592273,0.031235,0.373062,0.944214,1.337683,-0.165581,0.097358,63.113708,1.916443,-137.967957,,,
729861148.1347,24.85472,0.669909,56.592273,0.031235,0.373062,0.944214,1.337683,-0.165581,0.097358,63.113708,1.916443,-137.967957,,,
729861148.137992,25.245325,0.60112,56.619788,0.031235,0.373062,0.944214,1.368401,-0.208901,0.098834,62.818466,-0.239273,-136.429413,,,
729861148.141371,25.640169,0.52526,56.646084,0.036133,0.401657,0.926056,1.368401,-0.208901,0.098834,62.818466,-0.239273,-136.429413,,,
729861148.144669,25.640169,0.52526,56.646084,0.036133,0.401657,0.926056,1.368401,-0.208901,0.098834,62.818466,-0.239273,-136.429413,,,
729861148.148015,26.038977,0.442623,56.670008,0.036133,0.401657,0.926056,1.396247,-0.262509,0.079983,62.818466,-0.239273,-136.429413,,,
729861148.151324,26.440993,0.353538,56.691078,0.039642,0.411316,0.913162,1.396247,-0.262509,0.079983,62.818466,-0.239273,-136.429413,,,
729861148.154729,26.440993,0.353538,56.691078,0.039642,0.411316,0.913162,1.396247,-0.262509,0.079983,62.818466,-0.239273,-136.429413,,,
729861148.158035,26.8454,0.259481,56.708589,0.039642,0.411316,0.913162,1.413124,-0.307641,0.053219,62.818466,-0.239273,-136.429413,,,
729861148.161315,27.25197,0.16184,56.722897,0.04184,0.419266,0.896378,1.413124,-0.307641,0.053219,62.818466,-0.239273,-136.429413,,,
729861148.164667,27.25197,0.16184,56.722897,0.04184,0.419266,0.896378,1.413124,-0.307641,0.053219,62.818466,-0.239273,-136.429413,,,
729861148.168042,27.659097,0.061931,56.736313,0.04184,0.419266,0.896378,1.417017,-0.326013,0.042715,62.818466,-0.239273,-136.429413,,,
729861148.17131,28.065691,-0.039096,56.750625,0.040421,0.432449,0.878647,1.417017,-0.326013,0.042715,62.818466,-0.239273,-136.429413,,,
729861148.174712,28.065691,-0.039096,56.750625,0.040421,0.432449,0.878647,1.417017,-0.326013,0.042715,62.818466,-0.239273,-136.429413,,,
729861148.177994,28.469788,-0.140048,56.766765,0.040421,0.432449,0.878647,1.399666,-0.319129,0.04894,62.818466,-0.239273,-136.429413,,,
729861148.181319,28.866838,-0.239776,56.785862,0.036621,0.456223,0.84375,1.399666,-0.319129,0.04894,62.065887,-2.492813,-134.690765,,,
729861148.184666,28.866838,-0.239776,56.785862,0.036621,0.456223,0.84375,1.399666,-0.319129,0.04894,62.065887,-2.492813,-134.690765,,,
729861148.188004,29.253189,-0.335185,56.807061,0.036621,0.456223,0.84375,1.32517,-0.281492,0.057176,62.065887,-2.492813,-134.690765,,,
729861148.191357,29.626452,-0.421075,56.828236,0.043839,0.492828,0.811066,1.32517,-0.281492,0.057176,62.065887,-2.492813,-134.690765,,,
729861148.194736,29.626452,-0.421075,56.828236,0.043839,0.492828,0.811066,1.32517,-0.281492,0.057176,62.065887,-2.492813,-134.690765,,,
729861148.198006,29.987542,-0.492847,56.84754,0.043839,0.492828,0.811066,1.240262,-0.189143,0.042737,62.065887,-2.492813,-134.690765,,,
729861148.201325,30.337861,-0.548178,56.862986,0.052444,0.52327,0.825348,1.240262,-0.189143,0.042737,62.065887,-2.492813,-134.690765,,,
729861148.204682,30.337861,-0.548178,56.862986,0.052444,0.52327,0.825348,1.240262,-0.189143,0.042737,62.065887,-2.492813,-134.690765,,,
729861148.208067,30.677727,-0.586639,56.872945,0.052444,0.52327,0.825348,1.166942,-0.090868,0.008347,62.065887,-2.492813,-134.690765,,,
729861148.211384,31.007388,-0.610398,56.876259,0.053024,0.537796,0.83783,1.166942,-0.090868,0.008347,62.065887,-2.492813,-134.690765,,,
729861148.214748,31.007388,-0.610398,56.876259,0.053024,0.537796,0.83783,1.166942,-0.090868,0.008347,62.065887,-2.492813,-134.690765,,,
729861148.217998,31.326961,-0.621195,56.870803,0.053024,0.537796,0.83783,1.095907,-0.032438,-0.043709,62.065887,-2.492813,-134.690765,,,
729861148.22132,31.637383,-0.621522,56.856327,0.039993,0.547653,0.820053,1.095907,-0.032438,-0.043709,62.10672,-4.474121,-133.130234,,,
729861148.224732,31.637383,-0.621522,56.856327,0.039993,0.547653,0.820053,1.095907,-0.032438,-0.043709,62.10672,-4.474121,-133.130234,,,
729861148.228004,31.938776,-0.612053,56.832426,0.039993,0.547653,0.820053,1.032256,0.000381,-0.098171,62.10672,-4.474121,-133.130234,,,
729861148.231394,32.229084,-0.594409,56.799118,0.022141,0.565918,0.804932,1.032256,0.000381,-0.098171,62.10672,-4.474121,-133.130234,,,
729861148.234712,32.229084,-0.594409,56.799118,0.022141,0.565918,0.804932,1.032256,0.000381,-0.098171,62.10672,-4.474121,-133.130234,,,
729861148.238006,32.506711,-0.572637,56.757553,0.022141,0.565918,0.804932,0.943267,-0.003026,-0.144337,62.10672,-4.474121,-133.130234,,,
729861148.241326,32.771881,-0.550734,56.709443,0.009216,0.581909,0.777405,0.943267,-0.003026,-0.144337,62.10672,-4.474121,-133.130234,,,
729861148.24467,32.771881,-0.550734,56.709443,0.009216,0.581909,0.777405,0.943267,-0.003026,-0.144337,62.10672,-4.474121,-133.130234,,,
729861148.248081,33.026868,-0.531857,56.656325,0.009216,0.581909,0.777405,0.87207,-0.044704,-0.171241,62.10672,-4.474121,-133.130234,,,
729861148.251378,33.273184,-0.518319,56.599169,-0.005188,0.581284,0.767426,0.87207,-0.044704,-0.171241,62.10672,-4.474121,-133.130234,,,
729861148.254672,33.273184,-0.518319,56.599169,-0.005188,0.581284,0.767426,0.87207,-0.044704,-0.171241,62.10672,-4.474121,-133.130234,,,
729861148.257915,33.510246,-0.510391,56.538468,-0.005188,0.581284,0.767426,0.807298,-0.09916,-0.189824,62.10672,-4.474121,-133.130234,,,
729861148.261396,33.737343,-0.507587,56.475388,-0.016617,0.575928,0.764099,0.807298,-0.09916,-0.189824,62.190201,-5.947113,-132.412186,,,
729861148.264656,33.737343,-0.507587,56.475388,-0.016617,0.575928,0.764099,0.807298,-0.09916,-0.189824,62.190201,-5.947113,-132.412186,,,
729861148.268008,33.955802,-0.508077,56.411257,-0.016617,0.575928,0.764099,0.746975,-0.127932,-0.194114,62.190201,-5.947113,-132.412186,,,
729861148.271322,34.1684,-0.511697,56.348227,-0.029556,0.566879,0.779083,0.746975,-0.127932,-0.194114,62.190201,-5.947113,-132.412186,,,
729861148.274641,34.1684,-0.511697,56.348227,-0.029556,0.566879,0.779083,0.746975,-0.127932,-0.194114,62.190201,-5.947113,-132.412186,,,
729861148.277999,34.37759,-0.52181,56.28928,-0.029556,0.566879,0.779083,0.723335,-0.158785,-0.169392,62.190201,-5.947113,-132.412186,,,
729861148.281324,34.585241,-0.53954,56.235673,-0.038803,0.556839,0.795425,0.723335,-0.158785,-0.169392,62.190201,-5.947113,-132.412186,,,
729861148.284669,34.585241,-0.53954,56.235673,-0.038803,0.556839,0.795425,0.723335,-0.158785,-0.169392,62.190201,-5.947113,-132.412186,,,
729861148.288039,34.791788,-0.560045,56.186944,-0.038803,0.556839,0.795425,0.715732,-0.160202,-0.14084,62.190201,-5.947113,-132.412186,,,
729861148.291257,34.791788,-0.560045,56.186944,-0.035873,0.552124,0.827209,0.715732,-0.160202,-0.14084,62.190201,-5.947113,-132.412186,,,
729861148.294371,34.996916,-0.57864,56.144187,-0.035873,0.552124,0.827209,0.715732,-0.160202,-0.14084,62.190201,-5.947113,-132.412186,,,
729861148.298031,35.202998,-0.592747,56.108442,-0.035873,0.552124,0.827209,0.722618,-0.102054,-0.100537,62.190201,-5.947113,-132.412186,,,
729861148.301328,35.412376,-0.60122,56.079509,-0.034882,0.546127,0.862122,0.722618,-0.102054,-0.100537,62.190201,-5.947113,-132.412186,,,
729861148.304658,35.412376,-0.60122,56.079509,-0.034882,0.546127,0.862122,0.722618,-0.102054,-0.100537,62.132324,-7.365433,-131.156067,,,
729861148.307936,35.626838,-0.605596,56.057474,-0.034882,0.546127,0.862122,0.758359,-0.046511,-0.061338,62.132324,-7.365433,-131.156067,,,
729861148.31137,35.845754,-0.610302,56.04219,-0.034805,0.548767,0.862671,0.758359,-0.046511,-0.061338,62.132324,-7.365433,-131.156067,,,
729861148.314659,35.845754,-0.610302,56.04219,-0.034805,0.548767,0.862671,0.758359,-0.046511,-0.061338,62.132324,-7.365433,-131.156067,,,
729861148.317992,36.067919,-0.619076,56.03202,-0.034805,0.548767,0.862671,0.781122,-0.054576,-0.032495,62.132324,-7.365433,-131.156067,,,
729861148.321358,36.293309,-0.634565,56.024787,-0.036545,0.560349,0.830032,0.781122,-0.054576,-0.032495,62.132324,-7.365433,-131.156067,,,
729861148.324591,36.293309,-0.634565,56.024787,-0.036545,0.560349,0.830032,0.781122,-0.054576,-0.032495,62.132324,-7.365433,-131.156067,,,
729861148.328023,36.520217,-0.660357,56.019498,-0.036545,0.560349,0.830032,0.791693,-0.118738,-0.021911,62.132324,-7.365433,-131.156067,,,
729861148.331353,36.520217,-0.698669,56.015522,-0.034439,0.575821,0.793411,0.791693,-0.118738,-0.021911,62.132324,-7.365433,-131.156067,,,
729861148.334702,36.747127,-0.698669,56.015522,-0.034439,0.575821,0.793411,0.791693,-0.118738,-0.021911,62.132324,-7.365433,-131.156067,,,
729861148.33799,36.97453,-0.74847,56.012958,-0.034439,0.575821,0.793411,0.79507,-0.19321,-0.014989,62.132324,-7.365433,-131.156067,,,
729861148.341237,36.97453,-0.74847,56.012958,-0.0392,0.576431,0.786758,0.79507,-0.19321,-0.014989,62.132324,-7.365433,-131.156067,,,
729861148.344682,37.202732,-0.810299,56.014009,-0.0392,0.576431,0.786758,0.79507,-0.19321,-0.014989,61.825531,-8.540726,-130.177444,,,
729861148.347998,37.431608,-0.884698,56.019729,-0.0392,0.576431,0.786758,0.799872,-0.261394,0.008972,61.825531,-8.540726,-130.177444,,,
729861148.351408,37.663056,-0.973448,56.030704,-0.031006,0.580734,0.786331,0.799872,-0.261394,0.008972,61.825531,-8.540726,-130.177444,,,
729861148.354723,37.663056,-0.973448,56.030704,-0.031006,0.580734,0.786331,0.799872,-0.261394,0.008972,61.825531,-8.540726,-130.177444,,,
729861148.357999,37.897209,-1.076766,56.047117,-0.031006,0.580734,0.786331,0.819149,-0.339645,0.03592,61.825531,-8.540726,-130.177444,,,
729861148.361332,37.897209,-1.076766,56.068923,-0.018768,0.582092,0.784592,0.819149,-0.339645,0.03592,61.825531,-8.540726,-130.177444,,,
729861148.364765,38.133247,-1.192656,56.068923,-0.018768,0.582092,0.784592,0.819149,-0.339645,0.03592,61.825531,-8.540726,-130.177444,,,
729861148.367983,38.373522,-1.316,56.094455,-0.018768,0.582092,0.784592,0.849179,-0.375203,0.052066,61.825531,-8.540726,-130.177444,,,
729861148.371333,38.373522,-1.316,56.094455,-0.001694,0.583649,0.802765,0.849179,-0.375203,0.052066,61.825531,-8.540726,-130.177444,,,
729861148.374595,38.619223,-1.43999,56.12231,-0.001694,0.583649,0.802765,0.849179,-0.375203,0.052066,61.825531,-8.540726,-130.177444,,,
729861148.377999,38.868317,-1.559647,56.151679,-0.001694,0.583649,0.802765,0.873151,-0.33793,0.055775,61.825531,-8.540726,-130.177444,,,
729861148.38133,38.868317,-1.559647,56.151679,0.01825,0.592545,0.810394,0.873151,-0.33793,0.055775,61.825531,-8.540726,-130.177444,,,
729861148.38467,39.119116,-1.673294,56.182644,0.01825,0.592545,0.810394,0.873151,-0.33793,0.055775,61.488235,-9.831039,-128.922485,,,
729861148.388078,39.372322,-1.782609,56.217365,0.01825,0.592545,0.810394,0.890706,-0.290571,0.071824,61.488235,-9.831039,-128.922485,,,
729861148.39123,39.372322,-1.782609,56.217365,0.01825,0.592545,0.810394,0.890706,-0.290571,0.071824,61.488235,-9.831039,-128.922485,,,
729861148.394686,39.629091,-1.88876,56.257124,0.026688,0.594559,0.801498,0.890706,-0.290571,0.071824,61.488235,-9.831039,-128.922485,,,
729861148.397993,39.889772,-1.992366,56.302311,0.026688,0.594559,0.801498,0.91906,-0.247898,0.096065,61.488235,-9.831039,-128.922485,,,
729861148.401379,39.889772,-1.992366,56.302311,0.033585,0.597183,0.790436,0.91906,-0.247898,0.096065,61.488235,-9.831039,-128.922485,,,
729861148.404666,40.15264,-2.094972,56.352715,0.033585,0.597183,0.790436,0.91906,-0.247898,0.096065,61.488235,-9.831039,-128.922485,,,
729861148.407893,40.416931,-2.195847,56.40564,0.033585,0.597183,0.790436,0.929684,-0.223403,0.105038,61.488235,-9.831039,-128.922485,,,
729861148.41141,40.416931,-2.195847,56.40564,0.033585,0.597183,0.790436,0.929684,-0.223403,0.105038,61.488235,-9.831039,-128.922485,,,
729861148.414721,40.682201,-2.292427,56.458745,0.045532,0.615128,0.768188,0.929684,-0.223403,0.105038,61.488235,-9.831039,-128.922485,,,
729861148.418005,40.944748,-2.380775,56.509464,0.045532,0.615128,0.768188,0.910321,-0.175829,0.089363,61.488235,-9.831039,-128.922485,,,
729861148.421342,40.944748,-2.380775,56.509464,0.045532,0.615128,0.768188,0.910321,-0.175829,0.089363,61.488235,-9.831039,-128.922485,,,
729861148.424606,41.198746,-2.457735,56.555018,0.06189,0.644653,0.732086,0.910321,-0.175829,0.089363,61.022659,-10.979675,-127.17392,,,
729861148.428004,41.439122,-2.523651,56.594108,0.06189,0.644653,0.732086,0.814001,-0.127807,0.056794,61.022659,-10.979675,-127.17392,,,
729861148.431336,41.439122,-2.523651,56.594108,0.06189,0.644653,0.732086,0.814001,-0.127807,0.056794,61.022659,-10.979675,-127.17392,,,
729861148.434665,41.66334,-2.578982,56.625368,0.077637,0.691849,0.673538,0.814001,-0.127807,0.056794,61.022659,-10.979675,-127.17392,,,
729861148.438051,41.871196,-2.622474,56.646517,0.077637,0.691849,0.673538,0.697588,-0.091869,0.007756,61.022659,-10.979675,-127.17392,,,
729861148.441282,41.871196,-2.622474,56.646517,0.077637,0.691849,0.673538,0.697588,-0.091869,0.007756,61.022659,-10.979675,-127.17392,,,
729861148.444685,42.062129,-2.654019,56.655351,0.082306,0.733734,0.652695,0.697588,-0.091869,0.007756,61.022659,-10.979675,-127.17392,,,
729861148.448012,42.234658,-2.673507,56.649578,0.082306,0.733734,0.652695,0.565808,-0.076282,-0.062213,61.022659,-10.979675,-127.17392,,,
