Time (sec),Pitch (deg),Roll (deg),Yaw(deg),X-Acceleration (g),Y-Acceleration (g),Z-Acceleration (g),Pitch Rate (deg/sec),Roll Rate (deg/sec),Yaw Rate (deg/sec),Magnetic Field in X direction (uT),Magnetic Field in Y direction (uT),Magnetic Field in Z Direction (uT),Latitude (deg),Longitude (deg),Altitude (m)
729862264.303276,0.291455,4.512193,48.065694,-0.079376,-0.000839,0.992416,-0.038493,-0.037381,-0.015448,60.954865,8.662598,-152.864273,,,
729862264.30639,0.2873,4.497144,48.058557,-0.067993,-0.008804,1.017441,0.001884,-0.029224,-0.029993,60.954865,8.662598,-152.864273,,,
729862264.309978,0.2873,4.497144,48.058557,-0.067993,-0.008804,1.017441,0.001884,-0.029224,-0.029993,60.954865,8.662598,-152.864273,,,
729862264.313358,0.289548,4.491059,48.049689,-0.067993,-0.008804,1.017441,0.001884,-0.029224,-0.029993,60.976288,8.761398,-153.060501,,,
729862264.316599,0.297256,4.484676,48.040082,-0.066772,-0.013382,1.041122,0.039462,0.01743,-0.032487,60.976288,8.761398,-153.060501,,,
729862264.319954,0.297256,4.484676,48.040082,-0.066772,-0.013382,1.041122,0.039462,0.01743,-0.032487,60.976288,8.761398,-153.060501,,,
729862264.323006,0.31009,4.492167,48.031494,-0.066772,-0.013382,1.041122,0.039462,0.01743,-0.032487,60.976288,8.761398,-153.060501,,,
729862264.32664,0.32756,4.50125,48.024954,-0.069107,-0.009247,1.036942,0.062465,0.060807,-0.016598,60.976288,8.761398,-153.060501,,,
729862264.329943,0.32756,4.50125,48.024954,-0.069107,-0.009247,1.036942,0.062465,0.060807,-0.016598,60.976288,8.761398,-153.060501,,,
729862264.333288,0.345493,4.519326,48.018302,-0.069107,-0.009247,1.036942,0.062465,0.060807,-0.016598,60.976288,8.761398,-153.060501,,,
729862264.336606,0.365084,4.536992,48.010397,-0.068817,-0.001678,1.012863,0.064883,0.076089,-0.025187,60.976288,8.761398,-153.060501,,,
729862264.339682,0.365084,4.536992,48.010397,-0.068817,-0.001678,1.012863,0.064883,0.076089,-0.025187,60.976288,8.761398,-153.060501,,,
729862264.343387,0.381808,4.557096,48.001101,-0.068817,-0.001678,1.012863,0.064883,0.076089,-0.025187,60.976288,8.761398,-153.060501,,,
729862264.346647,0.396632,4.573259,47.989908,-0.071976,0.006531,0.983414,0.04111,0.059623,-0.040307,60.976288,8.761398,-153.060501,,,
729862264.350014,0.396632,4.573259,47.989908,-0.071976,0.006531,0.983414,0.04111,0.059623,-0.040307,60.976288,8.761398,-153.060501,,,
729862264.353278,0.404497,4.587706,47.977239,-0.071976,0.006531,0.983414,0.04111,0.059623,-0.040307,61.07254,8.662262,-152.829437,,,
729862264.356348,0.407097,4.598778,47.964581,-0.079575,0.014435,0.95575,-0.003652,0.028465,-0.043689,61.07254,8.662262,-152.829437,,,
729862264.359979,0.407097,4.598778,47.964581,-0.079575,0.014435,0.95575,-0.003652,0.028465,-0.043689,61.07254,8.662262,-152.829437,,,
729862264.363364,0.402296,4.603621,47.95282,-0.079575,0.014435,0.95575,-0.003652,0.028465,-0.043689,61.07254,8.662262,-152.829437,,,
729862264.366602,0.392641,4.605307,47.942975,-0.090683,0.013763,0.944855,-0.039945,-0.01048,-0.033139,61.07254,8.662262,-152.829437,,,
729862264.369935,0.392641,4.605307,47.942975,-0.090683,0.013763,0.944855,-0.039945,-0.01048,-0.033139,61.07254,8.662262,-152.829437,,,
729862264.373065,0.378688,4.599289,47.936163,-0.090683,0.013763,0.944855,-0.039945,-0.01048,-0.033139,61.07254,8.662262,-152.829437,,,
729862264.376457,0.360984,4.590379,47.931837,-0.095749,0.007645,0.95192,-0.062966,-0.034319,-0.017568,61.07254,8.662262,-152.829437,,,
729862264.380003,0.360984,4.590379,47.931837,-0.095749,0.007645,0.95192,-0.062966,-0.034319,-0.017568,61.07254,8.662262,-152.829437,,,
729862264.383288,0.341932,4.579892,47.929273,-0.095749,0.007645,0.95192,-0.062966,-0.034319,-0.017568,61.07254,8.662262,-152.829437,,,
729862264.386609,0.320706,4.568363,47.927884,-0.089325,0.007416,0.974625,-0.067266,-0.02396,-0.009835,61.07254,8.662262,-152.829437,,,
729862264.38977,0.320706,4.568363,47.927884,-0.089325,0.007416,0.974625,-0.067266,-0.02396,-0.009835,61.07254,8.662262,-152.829437,,,
729862264.393301,0.301608,4.563115,47.927657,-0.089325,0.007416,0.974625,-0.067266,-0.02396,-0.009835,61.256561,8.970871,-153.039383,,,
729862264.396599,0.282247,4.557691,47.928632,-0.084,-0.000305,0.995544,-0.053714,0.002994,-0.000519,61.256561,8.970871,-153.039383,,,
729862264.400037,0.282247,4.557691,47.928632,-0.084,-0.000305,0.995544,-0.053714,0.002994,-0.000519,61.256561,8.970871,-153.039383,,,
729862264.403263,0.269093,4.559392,47.93056,-0.084,-0.000305,0.995544,-0.053714,0.002994,-0.000519,61.256561,8.970871,-153.039383,,,
729862264.406361,0.259231,4.560168,47.932168,-0.07692,-0.003387,1.009445,-0.01584,0.020951,0.000199,61.256561,8.970871,-153.039383,,,
729862264.409985,0.259231,4.560168,47.932168,-0.07692,-0.003387,1.009445,-0.01584,0.020951,0.000199,61.256561,8.970871,-153.039383,,,
729862264.41336,0.258588,4.566241,47.931679,-0.07692,-0.003387,1.009445,-0.01584,0.020951,0.000199,61.256561,8.970871,-153.039383,,,
729862264.416597,0.264434,4.57212,47.929043,-0.073715,-0.005676,1.03096,0.037132,0.039392,-0.010673,61.256561,8.970871,-153.039383,,,
729862264.419961,0.264434,4.57212,47.929043,-0.073715,-0.005676,1.03096,0.037132,0.039392,-0.010673,61.256561,8.970871,-153.039383,,,
729862264.423008,0.277591,4.584082,47.925025,-0.073715,-0.005676,1.03096,0.037132,0.039392,-0.010673,61.256561,8.970871,-153.039383,,,
729862264.426639,0.294801,4.596377,47.920977,-0.081345,-0.006256,1.032227,0.065832,0.054134,-0.00859,61.256561,8.970871,-153.039383,,,
729862264.429933,0.294801,4.596377,47.920977,-0.081345,-0.006256,1.032227,0.065832,0.054134,-0.00859,61.256561,8.970871,-153.039383,,,
729862264.433272,0.31319,4.610542,47.918461,-0.081345,-0.006256,1.032227,0.065832,0.054134,-0.00859,61.472473,8.920532,-153.15509,,,
729862264.436695,0.33085,4.623023,47.917666,-0.08873,0.005081,0.992203,0.053512,0.043843,0.002387,61.472473,8.920532,-153.15509,,,
729862264.439723,0.33085,4.623023,47.917666,-0.08873,0.005081,0.992203,0.053512,0.043843,0.002387,61.472473,8.920532,-153.15509,,,
729862264.443019,0.343448,4.632971,47.918286,-0.08873,0.005081,0.992203,0.053512,0.043843,0.002387,61.472473,8.920532,-153.15509,,,
729862264.44665,0.351035,4.641959,47.91919,-0.087463,0.017883,0.960526,0.010903,0.018033,0.001042,61.472473,8.920532,-153.15509,,,
729862264.449948,0.351035,4.641959,47.91919,-0.087463,0.017883,0.960526,0.010903,0.018033,0.001042,61.472473,8.920532,-153.15509,,,
729862264.453331,0.350054,4.64441,47.919262,-0.087463,0.017883,0.960526,0.010903,0.018033,0.001042,61.472473,8.920532,-153.15509,,,
729862264.456705,0.342326,4.645054,47.91931,-0.087021,0.023666,0.94278,-0.037703,-0.020469,-0.002887,61.472473,8.920532,-153.15509,,,
729862264.459963,0.342326,4.645054,47.91931,-0.087021,0.023666,0.94278,-0.037703,-0.020469,-0.002887,61.472473,8.920532,-153.15509,,,
729862264.463376,0.327837,4.635434,47.920166,-0.087021,0.023666,0.94278,-0.037703,-0.020469,-0.002887,61.472473,8.920532,-153.15509,,,
729862264.466594,0.306638,4.622197,47.922205,-0.087677,0.021774,0.937164,-0.086537,-0.060495,0.001594,61.472473,8.920532,-153.15509,,,
729862264.469957,0.306638,4.622197,47.922205,-0.087677,0.021774,0.937164,-0.086537,-0.060495,0.001594,61.472473,8.920532,-153.15509,,,
729862264.47305,0.279047,4.603247,47.925434,-0.087677,0.021774,0.937164,-0.086537,-0.060495,0.001594,61.472473,8.920532,-153.15509,,,
729862264.47672,0.245992,4.58518,47.930199,-0.080368,0.018921,0.950836,-0.123031,-0.060959,0.009537,61.535095,9.253906,-153.616562,,,
729862264.479964,0.245992,4.58518,47.930199,-0.080368,0.018921,0.950836,-0.123031,-0.060959,0.009537,61.535095,9.253906,-153.616562,,,
729862264.48327,0.209755,4.569413,47.936057,-0.080368,0.018921,0.950836,-0.123031,-0.060959,0.009537,61.535095,9.253906,-153.616562,,,
729862264.4866,0.171499,4.55838,47.941164,-0.06723,0.013458,0.981827,-0.131788,-0.025789,0.00367,61.535095,9.253906,-153.616562,,,
729862264.489657,0.171499,4.55838,47.941164,-0.06723,0.013458,0.981827,-0.131788,-0.025789,0.00367,61.535095,9.253906,-153.616562,,,
729862264.49331,0.135539,4.553121,47.944698,-0.06723,0.013458,0.981827,-0.131788,-0.025789,0.00367,61.535095,9.253906,-153.616562,,,
729862264.496595,0.104482,4.551671,47.946266,-0.058792,0.005051,1.017181,-0.090899,0.013715,-0.006924,61.535095,9.253906,-153.616562,,,
729862264.499995,0.104482,4.551671,47.946266,-0.058792,0.005051,1.017181,-0.090899,0.013715,-0.006924,61.535095,9.253906,-153.616562,,,
729862264.503266,0.082987,4.558179,47.945794,-0.058792,0.005051,1.017181,-0.090899,0.013715,-0.006924,61.535095,9.253906,-153.616562,,,
729862264.506356,0.070965,4.570343,47.943979,-0.062149,-0.007568,1.058365,-0.019069,0.057566,-0.010551,61.535095,9.253906,-153.616562,,,
729862264.509976,0.070965,4.570343,47.943979,-0.062149,-0.007568,1.058365,-0.019069,0.057566,-0.010551,61.535095,9.253906,-153.616562,,,
729862264.513364,0.07053,4.588824,47.941641,-0.062149,-0.007568,1.058365,-0.019069,0.057566,-0.010551,61.535095,9.253906,-153.616562,,,
729862264.51661,0.07997,4.611761,47.939219,-0.075378,-0.015854,1.072998,0.049566,0.081872,-0.005613,61.303192,9.468735,-153.607834,,,
729862264.519959,0.07997,4.611761,47.939219,-0.075378,-0.015854,1.072998,0.049566,0.081872,-0.005613,61.303192,9.468735,-153.607834,,,
729862264.523011,0.09701,4.634163,47.936419,-0.075378,-0.015854,1.072998,0.049566,0.081872,-0.005613,61.303192,9.468735,-153.607834,,,
729862264.526643,0.119838,4.656044,47.932621,-0.080414,-0.008423,1.052475,0.084723,0.069958,-0.009659,61.303192,9.468735,-153.607834,,,
729862264.529927,0.119838,4.656044,47.932621,-0.080414,-0.008423,1.052475,0.084723,0.069958,-0.009659,61.303192,9.468735,-153.607834,,,
729862264.533276,0.143559,4.673026,47.927442,-0.080414,-0.008423,1.052475,0.084723,0.069958,-0.009659,61.303192,9.468735,-153.607834,,,
729862264.536603,0.167175,4.686219,47.92112,-0.08522,0.001358,1.015198,0.075379,0.034698,-0.018278,61.303192,9.468735,-153.607834,,,
729862264.539677,0.167175,4.686219,47.92112,-0.08522,0.001358,1.015198,0.075379,0.034698,-0.018278,61.303192,9.468735,-153.607834,,,
729862264.543388,0.185852,4.692548,47.914463,-0.08522,0.001358,1.015198,0.075379,0.034698,-0.018278,61.303192,9.468735,-153.607834,,,
729862264.546602,0.200726,4.693941,47.90823,-0.089737,0.013351,0.98317,0.038981,-0.009707,-0.018326,61.303192,9.468735,-153.607834,,,
729862264.550036,0.200726,4.693941,47.90823,-0.089737,0.013351,0.98317,0.038981,-0.009707,-0.018326,61.303192,9.468735,-153.607834,,,
729862264.553285,0.208394,4.687381,47.902894,-0.089737,0.013351,0.98317,0.038981,-0.009707,-0.018326,61.303192,9.468735,-153.607834,,,
729862264.556346,0.211129,4.676257,47.89836,-0.089142,0.018173,0.969131,-0.003506,-0.047093,-0.01624,61.440598,9.47345,-153.364075,,,
729862264.559982,0.211129,4.676257,47.89836,-0.089142,0.018173,0.969131,-0.003506,-0.047093,-0.01624,61.440598,9.47345,-153.364075,,,
729862264.563345,0.206988,4.660544,47.894489,-0.089142,0.018173,0.969131,-0.003506,-0.047093,-0.01624,61.440598,9.47345,-153.364075,,,
729862264.566604,0.199639,4.642084,47.891123,-0.088043,0.016159,0.9776,-0.03145,-0.058516,-0.01501,61.440598,9.47345,-153.364075,,,
729862264.57008,0.199639,4.642084,47.891123,-0.088043,0.016159,0.9776,-0.03145,-0.058516,-0.01501,61.440598,9.47345,-153.364075,,,
729862264.573121,0.189905,4.623771,47.888387,-0.088043,0.016159,0.9776,-0.03145,-0.058516,-0.01501,61.440598,9.47345,-153.364075,,,
729862264.576673,0.180714,4.602606,47.886815,-0.087509,0.008682,1.000275,-0.030381,-0.059497,-0.006883,61.440598,9.47345,-153.364075,,,
729862264.579935,0.180714,4.602606,47.886815,-0.087509,0.008682,1.000275,-0.030381,-0.059497,-0.006883,61.440598,9.47345,-153.364075,,,
729862264.583302,0.17272,4.58631,47.886897,-0.087509,0.008682,1.000275,-0.030381,-0.059497,-0.006883,61.440598,9.47345,-153.364075,,,
729862264.586607,0.166046,4.570411,47.888683,-0.086288,0.003525,1.016068,-0.018716,-0.035617,0.00592,61.440598,9.47345,-153.364075,,,
729862264.589672,0.166046,4.570411,47.888683,-0.086288,0.003525,1.016068,-0.018716,-0.035617,0.00592,61.440598,9.47345,-153.364075,,,
729862264.593311,0.160891,4.562377,47.891806,-0.086288,0.003525,1.016068,-0.018716,-0.035617,0.00592,61.440598,9.47345,-153.364075,,,
729862264.596602,0.15521,4.55901,47.895533,-0.077652,0.003845,1.017014,-0.014876,0.007403,0.01039,61.299088,9.220795,-153.492233,,,
729862264.600013,0.15521,4.55901,47.895533,-0.077652,0.003845,1.017014,-0.014876,0.007403,0.01039,61.299088,9.220795,-153.492233,,,
729862264.603288,0.152128,4.563153,47.89937,-0.077652,0.003845,1.017014,-0.014876,0.007403,0.01039,61.299088,9.220795,-153.492233,,,
729862264.60637,0.150108,4.572365,47.902385,-0.071487,0.007385,1.019333,-0.001123,0.047078,0.005742,61.299088,9.220795,-153.492233,,,
729862264.610018,0.150108,4.572365,47.902385,-0.071487,0.007385,1.019333,-0.001123,0.047078,0.005742,61.299088,9.220795,-153.492233,,,
729862264.613269,0.151945,4.586277,47.90399,-0.071487,0.007385,1.019333,-0.001123,0.047078,0.005742,61.299088,9.220795,-153.492233,,,
729862264.616745,0.15724,4.602845,47.903827,-0.071884,0.004807,1.020935,0.025449,0.063594,-0.004418,61.299088,9.220795,-153.492233,,,
729862264.619998,0.15724,4.602845,47.903827,-0.071884,0.004807,1.020935,0.025449,0.063594,-0.004418,61.299088,9.220795,-153.492233,,,
729862264.623015,0.16539,4.619725,47.901428,-0.071884,0.004807,1.020935,0.025449,0.063594,-0.004418,61.299088,9.220795,-153.492233,,,
729862264.626732,0.175814,4.636747,47.897183,-0.078125,0.003754,1.010117,0.037092,0.052339,-0.01639,61.299088,9.220795,-153.492233,,,
729862264.62993,0.175814,4.636747,47.897183,-0.078125,0.003754,1.010117,0.037092,0.052339,-0.01639,61.299088,9.220795,-153.492233,,,
729862264.633276,0.186741,4.648959,47.891242,-0.078125,0.003754,1.010117,0.037092,0.052339,-0.01639,61.299088,9.220795,-153.492233,,,
729862264.636639,0.202454,4.659942,47.884369,-0.084244,0.002213,1.002853,0.056607,0.02492,-0.021254,61.299088,9.220795,-153.492233,,,
729862264.639729,0.202454,4.659942,47.884369,-0.084244,0.002213,1.002853,0.056607,0.02492,-0.021254,61.449875,9.243149,-153.229401,,,
729862264.643361,0.219256,4.664108,47.877615,-0.084244,0.002213,1.002853,0.056607,0.02492,-0.021254,61.449875,9.243149,-153.229401,,,
729862264.6466,0.240443,4.667512,47.871361,-0.094711,-0.003067,1.008759,0.073741,0.002016,-0.016301,61.449875,9.243149,-153.229401,,,
729862264.64994,0.240443,4.667512,47.871361,-0.094711,-0.003067,1.008759,0.073741,0.002016,-0.016301,61.449875,9.243149,-153.229401,,,
729862264.653286,0.261109,4.666846,47.866789,-0.094711,-0.003067,1.008759,0.073741,0.002016,-0.016301,61.449875,9.243149,-153.229401,,,
729862264.656338,0.281998,4.667522,47.864838,-0.099411,0.00032,1.005722,0.067382,0.000206,0.001539,61.449875,9.243149,-153.229401,,,
729862264.659967,0.281998,4.667522,47.864838,-0.099411,0.00032,1.005722,0.067382,0.000206,0.001539,61.449875,9.243149,-153.229401,,,
729862264.663297,0.299294,4.666746,47.865418,-0.099411,0.00032,1.005722,0.067382,0.000206,0.001539,61.449875,9.243149,-153.229401,,,
729862264.666597,0.313045,4.666861,47.868197,-0.091522,0.003464,0.991852,0.043049,-0.003527,0.014953,61.449875,9.243149,-153.229401,,,
729862264.669986,0.313045,4.666861,47.868197,-0.091522,0.003464,0.991852,0.043049,-0.003527,0.014953,61.449875,9.243149,-153.229401,,,
729862264.673012,0.323272,4.664442,47.871435,-0.091522,0.003464,0.991852,0.043049,-0.003527,0.014953,61.449875,9.243149,-153.229401,,,
729862264.67666,0.328132,4.660197,47.873508,-0.082947,0.012146,0.980103,0.010017,-0.008069,0.004108,61.449875,9.243149,-153.229401,,,
729862264.679932,0.328132,4.660197,47.873508,-0.082947,0.012146,0.980103,0.010017,-0.008069,0.004108,61.633209,9.122986,-153.023834,,,
729862264.683273,0.328553,4.657792,47.874437,-0.082947,0.012146,0.980103,0.010017,-0.008069,0.004108,61.633209,9.122986,-153.023834,,,
729862264.686599,0.325126,4.650477,47.874674,-0.08046,0.015228,0.972595,-0.018978,-0.002078,-0.003289,61.633209,9.122986,-153.023834,,,
729862264.689678,0.325126,4.650477,47.874674,-0.08046,0.015228,0.972595,-0.018978,-0.002078,-0.003289,61.633209,9.122986,-153.023834,,,
729862264.693329,0.318205,4.649627,47.87471,-0.08046,0.015228,0.972595,-0.018978,-0.002078,-0.003289,61.633209,9.122986,-153.023834,,,
729862264.696596,0.309607,4.644511,47.874974,-0.080994,0.011688,0.982971,-0.03116,0.011779,-0.002926,61.633209,9.122986,-153.023834,,,
729862264.699995,0.309607,4.644511,47.874974,-0.080994,0.011688,0.982971,-0.03116,0.011779,-0.002926,61.633209,9.122986,-153.023834,,,
729862264.703278,0.300436,4.648228,47.875029,-0.080994,0.011688,0.982971,-0.03116,0.011779,-0.002926,61.633209,9.122986,-153.023834,,,
729862264.706415,0.300436,4.651002,47.874812,-0.084427,0.006256,1.000381,-0.027435,0.025527,-0.004678,61.633209,9.122986,-153.023834,,,
729862264.709978,0.291195,4.651002,47.874812,-0.084427,0.006256,1.000381,-0.027435,0.025527,-0.004678,61.633209,9.122986,-153.023834,,,
729862264.713375,0.284526,4.658889,47.874563,-0.084427,0.006256,1.000381,-0.027435,0.025527,-0.004678,61.633209,9.122986,-153.023834,,,
729862264.716602,0.279996,4.669362,47.874763,-0.087372,0.00322,1.005112,-0.010684,0.040358,-0.000119,61.633209,9.122986,-153.023834,,,
729862264.719932,0.279996,4.669362,47.874763,-0.087372,0.00322,1.005112,-0.010684,0.040358,-0.000119,61.457825,9.214386,-152.794373,,,
729862264.723006,0.278379,4.680812,47.874989,-0.087372,0.00322,1.005112,-0.010684,0.040358,-0.000119,61.457825,9.214386,-152.794373,,,
729862264.726641,0.278306,4.696808,47.873718,-0.083939,0.002777,1.002945,0.01408,0.039471,-0.008383,61.457825,9.214386,-152.794373,,,
729862264.729941,0.278306,4.696808,47.873718,-0.083939,0.002777,1.002945,0.01408,0.039471,-0.008383,61.457825,9.214386,-152.794373,,,
729862264.733285,0.284315,4.706772,47.870888,-0.083939,0.002777,1.002945,0.01408,0.039471,-0.008383,61.457825,9.214386,-152.794373,,,
729862264.736603,0.293611,4.724452,47.867012,-0.083649,-0.006821,1.011566,0.047699,0.035621,-0.01264,61.457825,9.214386,-152.794373,,,
729862264.739726,0.293611,4.724452,47.867012,-0.083649,-0.006821,1.011566,0.047699,0.035621,-0.01264,61.457825,9.214386,-152.794373,,,
729862264.743358,0.309104,4.734095,47.861982,-0.083649,-0.006821,1.011566,0.047699,0.035621,-0.01264,61.457825,9.214386,-152.794373,,,
729862264.746594,0.327679,4.749975,47.856533,-0.09288,-0.008011,1.020828,0.075315,0.034903,-0.012985,61.457825,9.214386,-152.794373,,,
729862264.750034,0.327679,4.749975,47.856533,-0.09288,-0.008011,1.020828,0.075315,0.034903,-0.012985,61.457825,9.214386,-152.794373,,,
729862264.753289,0.349761,4.759491,47.852214,-0.09288,-0.008011,1.020828,0.075315,0.034903,-0.012985,61.457825,9.214386,-152.794373,,,
729862264.756356,0.349761,4.759491,47.852214,-0.09288,-0.008011,1.020828,0.081809,0.036353,0.003916,61.457825,9.214386,-152.794373,,,
729862264.75996,0.373929,4.770969,47.850212,-0.102921,-0.007751,1.01416,0.081809,0.036353,0.003916,61.545319,9.008179,-152.531555,,,
729862264.763355,0.39625,4.78014,47.850608,-0.102921,-0.007751,1.01416,0.081809,0.036353,0.003916,61.545319,9.008179,-152.531555,,,
729862264.766609,0.418084,4.786505,47.852854,-0.110092,-0.000183,0.991043,0.061586,0.022444,0.015161,61.545319,9.008179,-152.531555,,,
729862264.769995,0.418084,4.786505,47.852854,-0.110092,-0.000183,0.991043,0.061586,0.022444,0.015161,61.545319,9.008179,-152.531555,,,
729862264.773034,0.43367,4.790045,47.857213,-0.110092,-0.000183,0.991043,0.061586,0.022444,0.015161,61.545319,9.008179,-152.531555,,,
729862264.776715,0.44606,4.788956,47.8637,-0.110199,0.011124,0.962189,0.027189,-0.007442,0.027152,61.545319,9.008179,-152.531555,,,
729862264.779963,0.44606,4.788956,47.8637,-0.110199,0.011124,0.962189,0.027189,-0.007442,0.027152,61.545319,9.008179,-152.531555,,,
729862264.78328,0.450931,4.783301,47.872099,-0.110199,0.011124,0.962189,0.027189,-0.007442,0.027152,61.545319,9.008179,-152.531555,,,
729862264.786622,0.449218,4.77161,47.882705,-0.108582,0.014297,0.943573,-0.018878,-0.045906,0.038664,61.545319,9.008179,-152.531555,,,
729862264.789673,0.449218,4.77161,47.882705,-0.108582,0.014297,0.943573,-0.018878,-0.045906,0.038664,61.545319,9.008179,-152.531555,,,
729862264.793315,0.442444,4.756015,47.895409,-0.108582,0.014297,0.943573,-0.018878,-0.045906,0.038664,61.545319,9.008179,-152.531555,,,
729862264.796603,0.429557,4.740486,47.909843,-0.099655,0.018997,0.939529,-0.056533,-0.05673,0.047774,61.545319,9.008179,-152.531555,,,
729862264.800031,0.429557,4.740486,47.909843,-0.099655,0.018997,0.939529,-0.056533,-0.05673,0.047774,61.545319,9.008179,-152.531555,,,
729862264.803262,0.412092,4.723988,47.924827,-0.099655,0.018997,0.939529,-0.056533,-0.05673,0.047774,61.248215,9.241409,-152.250748,,,
729862264.806489,0.412092,4.723988,47.924827,-0.074326,0.019501,0.953308,-0.084042,-0.036113,0.034155,61.248215,9.241409,-152.250748,,,
729862264.810031,0.389874,4.710897,47.938188,-0.074326,0.019501,0.953308,-0.084042,-0.036113,0.034155,61.248215,9.241409,-152.250748,,,
729862264.813359,0.365213,4.702147,47.949415,-0.074326,0.019501,0.953308,-0.084042,-0.036113,0.034155,61.248215,9.241409,-152.250748,,,
729862264.816649,0.337496,4.698337,47.958148,-0.057175,0.012268,0.978882,-0.089476,-0.001324,0.016297,61.248215,9.241409,-152.250748,,,
729862264.819952,0.337496,4.698337,47.958148,-0.057175,0.012268,0.978882,-0.089476,-0.001324,0.016297,61.248215,9.241409,-152.250748,,,
729862264.823009,0.314078,4.699219,47.964433,-0.057175,0.012268,0.978882,-0.089476,-0.001324,0.016297,61.248215,9.241409,-152.250748,,,
729862264.826629,0.314078,4.706903,47.969331,-0.061279,0.002243,1.010712,-0.055749,0.03092,0.00944,61.248215,9.241409,-152.250748,,,
729862264.829949,0.292847,4.706903,47.969331,-0.061279,0.002243,1.010712,-0.055749,0.03092,0.00944,61.248215,9.241409,-152.250748,,,
729862264.833293,0.280395,4.716088,47.973704,-0.061279,0.002243,1.010712,-0.055749,0.03092,0.00944,61.248215,9.241409,-152.250748,,,
729862264.836598,0.280395,4.716088,47.978531,-0.069153,-0.007309,1.029373,0.00072,0.057253,0.017435,61.248215,9.241409,-152.250748,,,
729862264.839759,0.274119,4.733852,47.978531,-0.069153,-0.007309,1.029373,0.00072,0.057253,0.017435,61.248215,9.241409,-152.250748,,,
729862264.843311,0.279533,4.75026,47.983127,-0.069153,-0.007309,1.029373,0.00072,0.057253,0.017435,61.421463,9.203964,-152.359146,,,
729862264.846611,0.279533,4.75026,47.986421,-0.070847,-0.011429,1.03833,0.061825,0.062821,0.013685,61.421463,9.203964,-152.359146,,,
729862264.850034,0.292574,4.774028,47.986421,-0.070847,-0.011429,1.03833,0.061825,0.062821,0.013685,61.421463,9.203964,-152.359146,,,
729862264.853294,0.312341,4.790427,47.988224,-0.070847,-0.011429,1.03833,0.061825,0.062821,0.013685,61.421463,9.203964,-152.359146,,,
729862264.856401,0.312341,4.790427,47.988224,-0.070847,-0.011429,1.03833,0.075117,0.040921,0.00279,61.421463,9.203964,-152.359146,,,
729862264.859968,0.334385,4.810853,47.988263,-0.066376,-0.001816,1.0103,0.075117,0.040921,0.00279,61.421463,9.203964,-152.359146,,,
729862264.863352,0.355434,4.819373,47.987103,-0.066376,-0.001816,1.0103,0.075117,0.040921,0.00279,61.421463,9.203964,-152.359146,,,
729862264.866646,0.355434,4.819373,47.987103,-0.062546,0.011246,0.978531,0.06266,0.008505,-0.009641,61.421463,9.203964,-152.359146,,,
729862264.869954,0.375622,4.830337,47.98427,-0.062546,0.011246,0.978531,0.06266,0.008505,-0.009641,61.421463,9.203964,-152.359146,,,
729862264.873033,0.39214,4.829429,47.979698,-0.062546,0.011246,0.978531,0.06266,0.008505,-0.009641,61.421463,9.203964,-152.359146,,,
729862264.876728,0.406037,4.831314,47.973644,-0.060562,0.015884,0.967834,0.036282,-0.015661,-0.021922,61.421463,9.203964,-152.359146,,,
729862264.87995,0.406037,4.831314,47.973644,-0.060562,0.015884,0.967834,0.036282,-0.015661,-0.021922,61.421463,9.203964,-152.359146,,,
729862264.883276,0.413344,4.82547,47.965951,-0.060562,0.015884,0.967834,0.036282,-0.015661,-0.021922,61.371201,9.217804,-152.570312,,,
729862264.886535,0.413344,4.82547,47.965951,-0.060562,0.015884,0.967834,0.002137,-0.020795,-0.029359,61.371201,9.217804,-152.570312,,,
729862264.889671,0.417317,4.81918,47.957604,-0.058853,0.018723,0.963303,0.002137,-0.020795,-0.029359,61.371201,9.217804,-152.570312,,,
729862264.893302,0.41369,4.812648,47.95027,-0.058853,0.018723,0.963303,0.002137,-0.020795,-0.029359,61.371201,9.217804,-152.570312,,,
729862264.896644,0.41369,4.812648,47.95027,-0.058853,0.018723,0.963303,-0.040772,-0.011934,-0.030989,61.371201,9.217804,-152.570312,,,
729862264.900027,0.404857,4.802367,47.943257,-0.058105,0.018463,0.959518,-0.040772,-0.011934,-0.030989,61.371201,9.217804,-152.570312,,,
729862264.903286,0.389635,4.800005,47.935924,-0.058105,0.018463,0.959518,-0.040772,-0.011934,-0.030989,61.371201,9.217804,-152.570312,,,
729862264.906433,0.389635,4.800005,47.935924,-0.058105,0.018463,0.959518,-0.040772,-0.011934,-0.030989,61.371201,9.217804,-152.570312,,,
729862264.90996,0.368915,4.796147,47.928041,-0.058746,0.020355,0.973007,-0.076994,0.018398,-0.038099,61.371201,9.217804,-152.570312,,,
729862264.913359,0.344856,4.802485,47.919293,-0.058746,0.020355,0.973007,-0.076994,0.018398,-0.038099,61.371201,9.217804,-152.570312,,,
729862264.916629,0.344856,4.802485,47.919293,-0.058746,0.020355,0.991776,-0.080628,0.038119,-0.038518,61.371201,9.217804,-152.570312,,,
729862264.919961,0.318763,4.806843,47.910558,-0.065826,0.013214,0.991776,-0.080628,0.038119,-0.038518,61.371201,9.217804,-152.570312,,,
729862264.923,0.296554,4.8171,47.901719,-0.065826,0.013214,0.991776,-0.080628,0.038119,-0.038518,61.371201,9.217804,-152.570312,,,
729862264.926658,0.296554,4.8171,47.901719,-0.065826,0.013214,0.991776,-0.043273,0.038137,-0.03522,61.520508,9.18306,-152.150909,,,
729862264.929931,0.277787,4.823403,47.89291,-0.084015,0.000992,1.020996,-0.043273,0.038137,-0.03522,61.520508,9.18306,-152.150909,,,
729862264.933266,0.268699,4.8329,47.884359,-0.084015,0.000992,1.020996,-0.043273,0.038137,-0.03522,61.520508,9.18306,-152.150909,,,
729862264.936632,0.268699,4.8329,47.884359,-0.084015,0.000992,1.020996,-0.043273,0.038137,-0.03522,61.520508,9.18306,-152.150909,,,
729862264.939685,0.267752,4.8365,47.876792,-0.097687,-0.009308,1.041733,0.020338,0.021443,-0.023114,61.520508,9.18306,-152.150909,,,
729862264.943308,0.278472,4.839357,47.87001,-0.097687,-0.009308,1.041733,0.020338,0.021443,-0.023114,61.520508,9.18306,-152.150909,,,
729862264.946629,0.278472,4.839357,47.87001,-0.097687,-0.009308,1.041733,0.020338,0.021443,-0.023114,61.520508,9.18306,-152.150909,,,
729862264.950042,0.299169,4.833456,47.86344,-0.100571,-0.011932,1.042648,0.086467,-0.012225,-0.016191,61.520508,9.18306,-152.150909,,,
729862264.953267,0.325397,4.826969,47.85685,-0.100571,-0.011932,1.042648,0.086467,-0.012225,-0.016191,61.520508,9.18306,-152.150909,,,
729862264.956319,0.325397,4.826969,47.85685,-0.100571,-0.011932,1.042648,0.086467,-0.012225,-0.016191,61.520508,9.18306,-152.150909,,,
729862264.959989,0.356516,4.812442,47.849205,-0.0905,0.000519,1.020065,0.11361,-0.035516,-0.021412,61.520508,9.18306,-152.150909,,,
729862264.963347,0.387409,4.801216,47.839938,-0.0905,0.000519,1.020065,0.11361,-0.035516,-0.021412,61.520508,9.18306,-152.150909,,,
729862264.966627,0.387409,4.801216,47.839938,-0.0905,0.000519,1.020065,0.11361,-0.035516,-0.021412,61.583038,8.827484,-152.178253,,,
729862264.969956,0.417421,4.784463,47.829194,-0.077744,0.015244,0.996124,0.095674,-0.031521,-0.033601,61.583038,8.827484,-152.178253,,,
729862264.973046,0.440793,4.775919,47.817386,-0.077744,0.015244,0.996124,0.095674,-0.031521,-0.033601,61.583038,8.827484,-152.178253,,,
729862264.976757,0.440793,4.775919,47.817386,-0.077744,0.015244,0.996124,0.095674,-0.031521,-0.033601,61.583038,8.827484,-152.178253,,,
729862264.979966,0.458961,4.765812,47.80491,-0.07341,0.024872,0.978119,0.049476,0.001308,-0.042549,61.583038,8.827484,-152.178253,,,
729862264.983275,0.467743,4.768264,47.792536,-0.07341,0.024872,0.978119,0.049476,0.001308,-0.042549,61.583038,8.827484,-152.178253,,,
729862264.986675,0.467743,4.768264,47.792536,-0.07341,0.024872,0.978119,0.049476,0.001308,-0.042549,61.583038,8.827484,-152.178253,,,
729862264.98968,0.470331,4.769783,47.78154,-0.082382,0.028595,0.966675,-0.00672,0.035814,-0.037998,61.583038,8.827484,-152.178253,,,
729862264.993305,0.463777,4.779987,47.772716,-0.082382,0.028595,0.966675,-0.00672,0.035814,-0.037998,61.583038,8.827484,-152.178253,,,
729862264.996625,0.463777,4.779987,47.772716,-0.082382,0.028595,0.966675,-0.00672,0.035814,-0.037998,61.583038,8.827484,-152.178253,,,
729862265.000029,0.451832,4.78527,47.767632,-0.093765,0.028336,0.951416,-0.053441,0.035071,-0.016079,61.583038,8.827484,-152.178253,,,
729862265.003267,0.432222,4.793127,47.765403,-0.093765,0.028336,0.951416,-0.053441,0.035071,-0.016079,61.583038,8.827484,-152.178253,,,
729862265.006436,0.432222,4.793127,47.765403,-0.093765,0.028336,0.951416,-0.053441,0.035071,-0.016079,61.546738,8.72229,-152.320694,,,
729862265.010053,0.40661,4.796874,47.764702,-0.099487,0.025146,0.944214,-0.093011,0.016487,-0.00885,61.546738,8.72229,-152.320694,,,
729862265.013265,0.379534,4.798668,47.764977,-0.099487,0.025146,0.944214,-0.093011,0.016487,-0.00885,61.546738,8.72229,-152.320694,,,
729862265.016644,0.379534,4.798668,47.764977,-0.099487,0.025146,0.944214,-0.093011,0.016487,-0.00885,61.546738,8.72229,-152.320694,,,
729862265.019932,0.351803,4.797993,47.765591,-0.098984,0.01709,0.964767,-0.086704,-0.013605,-0.005889,61.546738,8.72229,-152.320694,,,
729862265.023008,0.330666,4.791256,47.76649,-0.098984,0.01709,0.964767,-0.086704,-0.013605,-0.005889,61.546738,8.72229,-152.320694,,,
729862265.026702,0.330666,4.791256,47.76649,-0.098984,0.01709,0.964767,-0.086704,-0.013605,-0.005889,61.546738,8.72229,-152.320694,,,
729862265.029919,0.315544,4.784366,47.766883,-0.095276,-0.002335,1.005249,-0.029955,-0.03672,-0.004528,61.546738,8.72229,-152.320694,,,
729862265.033156,0.311685,4.772738,47.766028,-0.095276,-0.002335,1.005249,-0.029955,-0.03672,-0.004528,61.546738,8.72229,-152.320694,,,
729862265.036663,0.311685,4.772738,47.766028,-0.095276,-0.002335,1.005249,-0.029955,-0.03672,-0.004528,61.546738,8.72229,-152.320694,,,
729862265.039769,0.316284,4.764027,47.76342,-0.082413,-0.010284,1.036285,0.036818,-0.027976,-0.011188,61.546738,8.72229,-152.320694,,,
729862265.043305,0.330432,4.756354,47.757897,-0.082413,-0.010284,1.036285,0.036818,-0.027976,-0.011188,61.546738,8.72229,-152.320694,,,
729862265.046647,0.330432,4.756354,47.757897,-0.082413,-0.010284,1.036285,0.036818,-0.027976,-0.011188,61.619919,8.60936,-152.718689,,,
729862265.050031,0.352631,4.750612,47.749713,-0.072647,-0.012131,1.0513,0.090069,-0.011277,-0.02545,61.619919,8.60936,-152.718689,,,
729862265.053271,0.379957,4.748555,47.739928,-0.072647,-0.012131,1.0513,0.090069,-0.011277,-0.02545,61.619919,8.60936,-152.718689,,,
729862265.05634,0.379957,4.748555,47.739928,-0.072647,-0.012131,1.0513,0.090069,-0.011277,-0.02545,61.619919,8.60936,-152.718689,,,
729862265.059988,0.412166,4.747794,47.72944,-0.076813,-0.010712,1.036713,0.113651,0.008459,-0.028442,61.619919,8.60936,-152.718689,,,
729862265.06327,0.443138,4.75023,47.719498,-0.076813,-0.010712,1.036713,0.113651,0.008459,-0.028442,61.619919,8.60936,-152.718689,,,
729862265.066657,0.443138,4.75023,47.719498,-0.076813,-0.010712,1.036713,0.113651,0.008459,-0.028442,61.619919,8.60936,-152.718689,,,
729862265.069937,0.475587,4.752476,47.710669,-0.081604,-0.003372,1.006348,0.109016,0.008923,-0.021077,61.619919,8.60936,-152.718689,,,
729862265.073043,0.504769,4.752151,47.70313,-0.081604,-0.003372,1.006348,0.109016,0.008923,-0.021077,61.619919,8.60936,-152.718689,,,
729862265.076717,0.504769,4.752151,47.70313,-0.081604,-0.003372,1.006348,0.109016,0.008923,-0.021077,61.619919,8.60936,-152.718689,,,
729862265.079956,0.533162,4.749301,47.69612,-0.080124,0.003769,0.980133,0.088935,-0.024831,-0.018828,61.619919,8.60936,-152.718689,,,
729862265.083281,0.556048,4.738627,47.688509,-0.080124,0.003769,0.980133,0.088935,-0.024831,-0.018828,61.619919,8.60936,-152.718689,,,
729862265.086718,0.556048,4.738627,47.688509,-0.080124,0.003769,0.980133,0.088935,-0.024831,-0.018828,61.619919,8.60936,-152.718689,,,
729862265.089668,0.575577,4.7267,47.680423,-0.075638,0.012726,0.95871,0.054689,-0.0597,-0.024765,61.665161,8.257874,-152.358536,,,
729862265.093311,0.587121,4.706966,47.672345,-0.075638,0.012726,0.95871,0.054689,-0.0597,-0.024765,61.665161,8.257874,-152.358536,,,
729862265.096609,0.587121,4.706966,47.672345,-0.075638,0.012726,0.95871,0.054689,-0.0597,-0.024765,61.665161,8.257874,-152.358536,,,
729862265.099997,0.593052,4.688106,47.663991,-0.071625,0.01683,0.942276,0.008972,-0.079924,-0.030271,61.665161,8.257874,-152.358536,,,
729862265.103267,0.591229,4.665105,47.656469,-0.071625,0.01683,0.942276,0.008972,-0.079924,-0.030271,61.665161,8.257874,-152.358536,,,
729862265.106396,0.591229,4.665105,47.656469,-0.071625,0.01683,0.942276,0.008972,-0.079924,-0.030271,61.665161,8.257874,-152.358536,,,
729862265.110054,0.582541,4.646859,47.649942,-0.068604,0.018173,0.946686,-0.034233,-0.065808,-0.026647,61.665161,8.257874,-152.358536,,,
729862265.113265,0.569706,4.630453,47.643705,-0.068604,0.018173,0.946686,-0.034233,-0.065808,-0.026647,61.665161,8.257874,-152.358536,,,
729862265.11663,0.569706,4.630453,47.643705,-0.068604,0.018173,0.946686,-0.034233,-0.065808,-0.026647,61.665161,8.257874,-152.358536,,,
729862265.119959,0.551427,4.621136,47.637774,-0.065247,0.017258,0.964539,-0.059902,-0.019468,-0.026519,61.665161,8.257874,-152.358536,,,
729862265.123004,0.533079,4.618331,47.631873,-0.065247,0.017258,0.964539,-0.059902,-0.019468,-0.026519,61.665161,8.257874,-152.358536,,,
729862265.126683,0.533079,4.618331,47.631873,-0.065247,0.017258,0.964539,-0.059902,-0.019468,-0.026519,61.665161,8.257874,-152.358536,,,
729862265.129929,0.512531,4.620096,47.625724,-0.063873,0.011688,0.982971,-0.06129,0.027054,-0.028482,61.596481,7.957306,-152.322571,,,
729862265.133269,0.496484,4.629587,47.618918,-0.063873,0.011688,0.982971,-0.06129,0.027054,-0.028482,61.596481,7.957306,-152.322571,,,
729862265.136616,0.496484,4.629587,47.618918,-0.063873,0.011688,0.982971,-0.06129,0.027054,-0.028482,61.596481,7.957306,-152.322571,,,
729862265.139706,0.482982,4.641247,47.610349,-0.063492,0.004196,1.001709,-0.0297,0.05468,-0.038332,61.596481,7.957306,-152.322571,,,
729862265.143324,0.47631,4.657067,47.5991,-0.063492,0.004196,1.001709,-0.0297,0.05468,-0.038332,61.596481,7.957306,-152.322571,,,
729862265.146627,0.47631,4.657067,47.5991,-0.063492,0.004196,1.001709,-0.0297,0.05468,-0.038332,61.596481,7.957306,-152.322571,,,
729862265.150034,0.473193,4.673998,47.585149,-0.071396,-0.000305,1.015121,0.005406,0.064931,-0.054453,61.596481,7.957306,-152.322571,,,
729862265.153269,0.475751,4.691963,47.569564,-0.071396,-0.000305,1.015121,0.005406,0.064931,-0.054453,61.596481,7.957306,-152.322571,,,
729862265.15634,0.475751,4.691963,47.569564,-0.071396,-0.000305,1.015121,0.005406,0.064931,-0.054453,61.596481,7.957306,-152.322571,,,
729862265.160004,0.481322,4.709274,47.553694,-0.087585,-0.003403,1.012863,0.0309,0.059063,-0.054373,61.596481,7.957306,-152.322571,,,
729862265.163268,0.489012,4.723408,47.537818,-0.087585,-0.003403,1.012863,0.0309,0.059063,-0.054373,61.596481,7.957306,-152.322571,,,
729862265.166621,0.489012,4.723408,47.537818,-0.087585,-0.003403,1.012863,0.0309,0.059063,-0.054373,61.596481,7.957306,-152.322571,,,
729862265.169942,0.496772,4.732907,47.522606,-0.095245,-0.003082,0.996613,0.029095,0.031395,-0.049946,61.610138,7.967224,-152.282928,,,
729862265.17304,0.501871,4.739071,47.507913,-0.095245,-0.003082,0.996613,0.029095,0.031395,-0.049946,61.610138,7.967224,-152.282928,,,
729862265.176736,0.501871,4.739071,47.507913,-0.095245,-0.003082,0.996613,0.029095,0.031395,-0.049946,61.610138,7.967224,-152.282928,,,
729862265.179961,0.503287,4.739553,47.493703,-0.09877,0.003265,0.976868,-0.003423,0.001477,-0.049345,61.610138,7.967224,-152.282928,,,
729862265.183279,0.498933,4.738271,47.480665,-0.09877,0.003265,0.976868,-0.003423,0.001477,-0.049345,61.610138,7.967224,-152.282928,,,
729862265.186608,0.498933,4.738271,47.480665,-0.09877,0.003265,0.976868,-0.003423,0.001477,-0.049345,61.610138,7.967224,-152.282928,,,
729862265.189691,0.49031,4.733413,47.469186,-0.102997,0.009125,0.964691,-0.042277,-0.009601,-0.041802,61.610138,7.967224,-152.282928,,,
729862265.193307,0.474998,4.728514,47.460003,-0.102997,0.009125,0.964691,-0.042277,-0.009601,-0.041802,61.610138,7.967224,-152.282928,,,
729862265.196607,0.474998,4.728514,47.460003,-0.102997,0.009125,0.964691,-0.042277,-0.009601,-0.041802,61.610138,7.967224,-152.282928,,,
729862265.200043,0.457064,4.71772,47.453696,-0.107407,0.008224,0.966034,-0.071294,-0.026054,-0.024314,61.610138,7.967224,-152.282928,,,
729862265.20327,0.434768,4.7084,47.449742,-0.107407,0.008224,0.966034,-0.071294,-0.026054,-0.024314,61.610138,7.967224,-152.282928,,,
729862265.206395,0.434768,4.7084,47.449742,-0.107407,0.008224,0.966034,-0.071294,-0.026054,-0.024314,61.610138,7.967224,-152.282928,,,
729862265.209989,0.411163,4.691294,47.448082,-0.105042,0.004532,0.972366,-0.088195,-0.041821,-0.009946,61.297867,8.088303,-151.9841,,,
729862265.213398,0.384957,4.677789,47.448159,-0.105042,0.004532,0.972366,-0.088195,-0.041821,-0.009946,61.297867,8.088303,-151.9841,,,
729862265.21663,0.384957,4.677789,47.448159,-0.105042,0.004532,0.972366,-0.088195,-0.041821,-0.009946,61.297867,8.088303,-151.9841,,,
729862265.219973,0.358004,4.657163,47.448507,-0.093536,0.003067,0.977188,-0.093249,-0.050154,-0.008678,61.297867,8.088303,-151.9841,,,
729862265.223022,0.331683,4.641779,47.447756,-0.093536,0.003067,0.977188,-0.093249,-0.050154,-0.008678,61.297867,8.088303,-151.9841,,,
729862265.226742,0.331683,4.641779,47.447756,-0.093536,0.003067,0.977188,-0.093249,-0.050154,-0.008678,61.297867,8.088303,-151.9841,,,
729862265.229958,0.306927,4.623441,47.445641,-0.087372,-0.001297,0.996841,-0.07664,-0.044841,-0.016896,61.297867,8.088303,-151.9841,,,
729862265.23328,0.286784,4.611249,47.442686,-0.087372,-0.001297,0.996841,-0.07664,-0.044841,-0.016896,61.297867,8.088303,-151.9841,,,
729862265.23663,0.286784,4.611249,47.442686,-0.087372,-0.001297,0.996841,-0.07664,-0.044841,-0.016896,61.297867,8.088303,-151.9841,,,
729862265.239698,0.270794,4.602986,47.438938,-0.084305,-0.004776,1.023407,-0.03854,-0.022137,-0.019276,61.297867,8.088303,-151.9841,,,
729862265.243316,0.262209,4.598025,47.434342,-0.084305,-0.004776,1.023407,-0.03854,-0.022137,-0.019276,61.297867,8.088303,-151.9841,,,
729862265.246634,0.262209,4.598025,47.434342,-0.084305,-0.004776,1.023407,-0.03854,-0.022137,-0.019276,61.297867,8.088303,-151.9841,,,
729862265.250033,0.258567,4.60166,47.429121,-0.081955,-0.01207,1.039658,0.005499,0.00597,-0.019808,61.297867,8.088303,-151.9841,,,
729862265.25327,0.262669,4.604198,47.423421,-0.081955,-0.01207,1.039658,0.005499,0.00597,-0.019808,61.291138,7.805725,-152.072113,,,
729862265.257738,0.271755,4.615092,47.417806,-0.086807,-0.013275,1.043549,0.043253,0.023188,-0.015863,61.291138,7.805725,-152.072113,,,
729862265.25983,0.271755,4.615092,47.417806,-0.086807,-0.013275,1.043549,0.043253,0.023188,-0.015863,61.291138,7.805725,-152.072113,,,
729862265.263296,0.28554,4.621062,47.413197,-0.086807,-0.013275,1.043549,0.043253,0.023188,-0.015863,61.291138,7.805725,-152.072113,,,
729862265.266603,0.28554,4.621062,47.413197,-0.086807,-0.013275,1.043549,0.043253,0.023188,-0.015863,61.291138,7.805725,-152.072113,,,
729862265.269951,0.303701,4.63363,47.40991,-0.095978,-0.009232,1.025681,0.06909,0.014541,-0.004222,61.291138,7.805725,-152.072113,,,
729862265.273069,0.322764,4.635302,47.407935,-0.095978,-0.009232,1.025681,0.06909,0.014541,-0.004222,61.291138,7.805725,-152.072113,,,
729862265.276649,0.322764,4.635302,47.407935,-0.095978,-0.009232,1.025681,0.06909,0.014541,-0.004222,61.291138,7.805725,-152.072113,,,
729862265.27997,0.340798,4.644882,47.40673,-0.094315,-0.003098,0.99585,0.057875,-0.005909,0.000752,61.291138,7.805725,-152.072113,,,
729862265.283294,0.354498,4.640599,47.405672,-0.094315,-0.003098,0.99585,0.057875,-0.005909,0.000752,61.291138,7.805725,-152.072113,,,
729862265.286681,0.354498,4.640599,47.405672,-0.094315,-0.003098,0.99585,0.057875,-0.005909,0.000752,61.291138,7.805725,-152.072113,,,
729862265.289672,0.361757,4.643071,47.403651,-0.08284,0.008881,0.970306,0.015656,-0.031236,-0.008982,61.291138,7.805725,-152.072113,,,
729862265.29331,0.361843,4.632047,47.400354,-0.08284,0.008881,0.970306,0.015656,-0.031236,-0.008982,61.302017,7.90509,-152.029236,,,
729862265.296609,0.361843,4.632047,47.400354,-0.08284,0.008881,0.970306,0.015656,-0.031236,-0.008982,61.302017,7.90509,-152.029236,,,
729862265.299955,0.353602,4.624538,47.395589,-0.072205,0.016342,0.95372,-0.038038,-0.044966,-0.023405,61.302017,7.90509,-152.029236,,,
729862265.303271,0.337874,4.610926,47.390157,-0.072205,0.016342,0.95372,-0.038038,-0.044966,-0.023405,61.302017,7.90509,-152.029236,,,
729862265.30636,0.337874,4.610926,47.390157,-0.072205,0.016342,0.95372,-0.038038,-0.044966,-0.023405,61.302017,7.90509,-152.029236,,,
729862265.31003,0.314675,4.600996,47.384614,-0.072281,0.016724,0.955719,-0.083336,-0.036021,-0.02767,61.302017,7.90509,-152.029236,,,
729862265.313268,0.28762,4.590825,47.380243,-0.072281,0.016724,0.955719,-0.083336,-0.036021,-0.02767,61.302017,7.90509,-152.029236,,,
729862265.316608,0.28762,4.590825,47.380243,-0.072281,0.016724,0.955719,-0.083336,-0.036021,-0.02767,61.302017,7.90509,-152.029236,,,
729862265.319956,0.256136,4.583777,47.378079,-0.077103,0.011719,0.973175,-0.106534,-0.020562,-0.014065,61.302017,7.90509,-152.029236,,,
729862265.323002,0.226192,4.577641,47.377464,-0.077103,0.011719,0.973175,-0.106534,-0.020562,-0.014065,61.302017,7.90509,-152.029236,,,
729862265.326701,0.226192,4.577641,47.377464,-0.077103,0.011719,0.973175,-0.106534,-0.020562,-0.014065,61.302017,7.90509,-152.029236,,,
729862265.329947,0.197201,4.572488,47.377626,-0.083664,0.003433,0.99649,-0.087606,-0.0131,-0.007094,61.302017,7.90509,-152.029236,,,
729862265.333268,0.175061,4.568008,47.377761,-0.083664,0.003433,0.99649,-0.087606,-0.0131,-0.007094,61.568649,8.044724,-152.436081,,,
729862265.336614,0.175061,4.568008,47.377761,-0.083664,0.003433,0.99649,-0.087606,-0.0131,-0.007094,61.568649,8.044724,-152.436081,,,
729862265.339757,0.157591,4.565079,47.37732,-0.084488,-0.004578,1.022629,-0.03931,-0.006075,-0.007252,61.568649,8.044724,-152.436081,,,
729862265.343327,0.150729,4.562989,47.375899,-0.084488,-0.004578,1.022629,-0.03931,-0.006075,-0.007252,61.568649,8.044724,-152.436081,,,
729862265.346718,0.150729,4.562989,47.375899,-0.084488,-0.004578,1.022629,-0.03931,-0.006075,-0.007252,61.568649,8.044724,-152.436081,,,
729862265.349991,0.150905,4.564562,47.373796,-0.082169,-0.013565,1.042603,0.020287,0.000899,-0.007173,61.568649,8.044724,-152.436081,,,
729862265.353254,0.159213,4.564683,47.370857,-0.082169,-0.013565,1.042603,0.020287,0.000899,-0.007173,61.568649,8.044724,-152.436081,,,
729862265.356605,0.159213,4.564683,47.370857,-0.082169,-0.013565,1.042603,0.020287,0.000899,-0.007173,61.568649,8.044724,-152.436081,,,
729862265.359946,0.170488,4.570463,47.366845,-0.079666,-0.010544,1.033798,0.048537,0.014876,-0.01232,61.568649,8.044724,-152.436081,,,
729862265.363271,0.18426,4.575754,47.361991,-0.079666,-0.010544,1.033798,0.048537,0.014876,-0.01232,61.568649,8.044724,-152.436081,,,
729862265.366716,0.18426,4.575754,47.361991,-0.079666,-0.010544,1.033798,0.048537,0.014876,-0.01232,61.568649,8.044724,-152.436081,,,
729862265.369961,0.19748,4.586888,47.356753,-0.079086,-0.001038,1.018097,0.042166,0.042402,-0.015464,61.568649,8.044724,-152.436081,,,
729862265.373034,0.207833,4.599421,47.351733,-0.079086,-0.001038,1.018097,0.042166,0.042402,-0.015464,61.568649,8.044724,-152.436081,,,
729862265.376653,0.207833,4.599421,47.351733,-0.079086,-0.001038,1.018097,0.042166,0.042402,-0.015464,61.61319,7.940247,-152.388779,,,
729862265.38003,0.216288,4.612833,47.347986,-0.085022,0.003738,0.998947,0.017594,0.054303,-0.008495,61.61319,7.940247,-152.388779,,,
729862265.383265,0.218824,4.627073,47.346494,-0.085022,0.003738,0.998947,0.017594,0.054303,-0.008495,61.61319,7.940247,-152.388779,,,
729862265.386666,0.218824,4.627073,47.346494,-0.085022,0.003738,0.998947,0.017594,0.054303,-0.008495,61.61319,7.940247,-152.388779,,,
729862265.389685,0.218666,4.6383,47.346907,-0.095108,0.009079,0.983292,-0.01492,0.04373,0.002105,61.61319,7.940247,-152.388779,,,
729862265.393306,0.211648,4.648789,47.348837,-0.095108,0.009079,0.983292,-0.01492,0.04373,0.002105,61.61319,7.940247,-152.388779,,,
729862265.396609,0.211648,4.648789,47.348837,-0.095108,0.009079,0.983292,-0.01492,0.04373,0.002105,61.61319,7.940247,-152.388779,,,
729862265.399956,0.201823,4.654033,47.352505,-0.09874,0.012741,0.974167,-0.044107,0.01257,0.011812,61.61319,7.940247,-152.388779,,,
729862265.403276,0.188357,4.652711,47.357661,-0.09874,0.012741,0.974167,-0.044107,0.01257,0.011812,61.61319,7.940247,-152.388779,,,
729862265.406373,0.188357,4.652711,47.357661,-0.09874,0.012741,0.974167,-0.044107,0.01257,0.011812,61.61319,7.940247,-152.388779,,,
729862265.410053,0.174231,4.643318,47.36333,-0.10025,0.010406,0.971512,-0.050573,-0.046345,0.014884,61.61319,7.940247,-152.388779,,,
729862265.413266,0.159856,4.625784,47.369924,-0.10025,0.010406,0.971512,-0.050573,-0.046345,0.014884,61.61319,7.940247,-152.388779,,,
729862265.416698,0.159856,4.625784,47.369924,-0.10025,0.010406,0.971512,-0.050573,-0.046345,0.014884,61.375412,7.876404,-152.395706,,,
729862265.41996,0.145986,4.604075,47.377577,-0.095596,0.008835,0.980682,-0.042074,-0.081747,0.022981,61.375412,7.876404,-152.395706,,,
729862265.423005,0.135476,4.578798,47.385761,-0.095596,0.008835,0.980682,-0.042074,-0.081747,0.022981,61.375412,7.876404,-152.395706,,,
729862265.426657,0.135476,4.578798,47.385761,-0.095596,0.008835,0.980682,-0.042074,-0.081747,0.022981,61.375412,7.876404,-152.395706,,,
729862265.430031,0.126656,4.552002,47.393626,-0.088364,0.001373,1.009384,-0.013987,-0.091031,0.022988,61.375412,7.876404,-152.395706,,,
729862265.433269,0.127432,4.524952,47.401231,-0.088364,0.001373,1.009384,-0.013987,-0.091031,0.022988,61.375412,7.876404,-152.395706,,,
729862265.436683,0.127432,4.524952,47.401231,-0.088364,0.001373,1.009384,-0.013987,-0.091031,0.022988,61.375412,7.876404,-152.395706,,,
729862265.439709,0.133855,4.4992,47.408202,-0.076004,-0.005981,1.033997,0.040339,-0.079762,0.022759,61.375412,7.876404,-152.395706,,,
729862265.443332,0.148657,4.478871,47.413156,-0.076004,-0.005981,1.033997,0.040339,-0.079762,0.022759,61.375412,7.876404,-152.395706,,,
729862265.446655,0.148657,4.478871,47.413156,-0.076004,-0.005981,1.033997,0.040339,-0.079762,0.022759,61.375412,7.876404,-152.395706,,,
729862265.449953,0.167954,4.466429,47.416828,-0.062012,-0.006058,1.04686,0.077262,-0.021695,0.016654,61.375412,7.876404,-152.395706,,,
729862265.453269,0.191585,4.464777,47.419604,-0.062012,-0.006058,1.04686,0.077262,-0.021695,0.016654,61.375412,7.876404,-152.395706,,,
729862265.456355,0.191585,4.464777,47.419604,-0.062012,-0.006058,1.04686,0.077262,-0.021695,0.016654,61.149307,8.010025,-152.59668,,,
729862265.459997,0.216927,4.473515,47.422408,-0.059372,-0.006058,1.043488,0.089861,0.042839,0.017915,61.149307,8.010025,-152.59668,,,
729862265.46326,0.242959,4.487669,47.426193,-0.059372,-0.006058,1.043488,0.089861,0.042839,0.017915,61.149307,8.010025,-152.59668,,,
729862265.466709,0.242959,4.487669,47.426193,-0.059372,-0.006058,1.043488,0.089861,0.042839,0.017915,61.149307,8.010025,-152.59668,,,
729862265.469945,0.268778,4.509962,47.430424,-0.06781,0.000977,1.024231,0.08476,0.067326,0.020795,61.149307,8.010025,-152.59668,,,
729862265.473092,0.292166,4.52742,47.434714,-0.06781,0.000977,1.024231,0.08476,0.067326,0.020795,61.149307,8.010025,-152.59668,,,
729862265.476704,0.292166,4.52742,47.434714,-0.06781,0.000977,1.024231,0.08476,0.067326,0.020795,61.149307,8.010025,-152.59668,,,
729862265.480034,0.313514,4.549406,47.438938,-0.075378,0.007553,0.99202,0.060672,0.045357,0.01878,61.149307,8.010025,-152.59668,,,
729862265.483293,0.328927,4.557311,47.443494,-0.075378,0.007553,0.99202,0.060672,0.045357,0.01878,61.149307,8.010025,-152.59668,,,
729862265.486615,0.328927,4.557311,47.443494,-0.075378,0.007553,0.99202,0.060672,0.045357,0.01878,61.149307,8.010025,-152.59668,,,
729862265.489689,0.340372,4.563143,47.448758,-0.080688,0.013565,0.955582,0.027236,-0.020438,0.021416,61.149307,8.010025,-152.59668,,,
729862265.49331,0.345568,4.551513,47.454798,-0.080688,0.013565,0.955582,0.027236,-0.020438,0.021416,61.149307,8.010025,-152.59668,,,
729862265.496604,0.345568,4.551513,47.454798,-0.080688,0.013565,0.955582,0.027236,-0.020438,0.021416,61.403839,7.903854,-152.322464,,,
729862265.499955,0.344961,4.535048,47.461539,-0.080887,0.019806,0.932755,-0.016187,-0.083805,0.023042,61.403839,7.903854,-152.322464,,,
729862265.503276,0.337407,4.507259,47.469257,-0.080887,0.019806,0.932755,-0.016187,-0.083805,0.023042,61.403839,7.903854,-152.322464,,,
729862265.506379,0.337407,4.507259,47.469257,-0.080887,0.019806,0.932755,-0.016187,-0.083805,0.023042,61.403839,7.903854,-152.322464,,,
729862265.509982,0.324478,4.477366,47.477233,-0.069809,0.023254,0.933014,-0.051841,-0.113298,0.02213,61.403839,7.903854,-152.322464,,,
729862265.513275,0.308113,4.443972,47.484354,-0.069809,0.023254,0.933014,-0.051841,-0.113298,0.02213,61.403839,7.903854,-152.322464,,,
729862265.516699,0.308113,4.443972,47.484354,-0.069809,0.023254,0.933014,-0.051841,-0.113298,0.02213,61.403839,7.903854,-152.322464,,,
729862265.519956,0.289035,4.411805,47.489107,-0.047363,0.018951,0.955246,-0.063051,-0.104903,0.004775,61.403839,7.903854,-152.322464,,,
729862265.523068,0.271955,4.383721,47.490954,-0.047363,0.018951,0.955246,-0.063051,-0.104903,0.004775,61.403839,7.903854,-152.322464,,,
729862265.526667,0.271955,4.383721,47.490954,-0.047363,0.018951,0.955246,-0.063051,-0.104903,0.004775,61.403839,7.903854,-152.322464,,,
729862265.529952,0.256598,4.359852,47.489991,-0.036591,0.009018,0.992493,-0.043044,-0.056361,-0.013357,61.403839,7.903854,-152.322464,,,
729862265.533268,0.244791,4.348581,47.486309,-0.036591,0.009018,0.992493,-0.043044,-0.056361,-0.013357,61.403839,7.903854,-152.322464,,,
729862265.536617,0.244791,4.348581,47.486309,-0.036591,0.009018,0.992493,-0.043044,-0.056361,-0.013357,61.403839,7.903854,-152.322464,,,
729862265.539719,0.235114,4.344524,47.481442,-0.041138,0.002014,1.014496,-0.020893,0.018428,-0.020059,61.083267,7.949234,-152.442169,,,
729862265.543359,0.23109,4.353705,47.475618,-0.041138,0.002014,1.014496,-0.020893,0.018428,-0.020059,61.083267,7.949234,-152.442169,,,
729862265.546646,0.23109,4.353705,47.475618,-0.041138,0.002014,1.014496,-0.020893,0.018428,-0.020059,61.083267,7.949234,-152.442169,,,
729862265.549961,0.231828,4.368978,47.468009,-0.045273,-0.007324,1.028503,0.015656,0.07681,-0.02983,61.083267,7.949234,-152.442169,,,
729862265.553291,0.236726,4.39256,47.459021,-0.045273,-0.007324,1.028503,0.015656,0.07681,-0.02983,61.083267,7.949234,-152.442169,,,
729862265.556341,0.236726,4.39256,47.459021,-0.045273,-0.007324,1.028503,0.015656,0.07681,-0.02983,61.083267,7.949234,-152.442169,,,
729862265.559974,0.244092,4.418025,47.448511,-0.059692,-0.006546,1.022263,0.032434,0.09357,-0.039187,61.083267,7.949234,-152.442169,,,
729862265.563292,0.252297,4.442841,47.436354,-0.059692,-0.006546,1.022263,0.032434,0.09357,-0.039187,61.083267,7.949234,-152.442169,,,
729862265.566671,0.252297,4.442841,47.436354,-0.059692,-0.006546,1.022263,0.032434,0.09357,-0.039187,61.083267,7.949234,-152.442169,,,
729862265.569957,0.260387,4.465558,47.423765,-0.072464,-0.004395,0.994202,0.027228,0.072277,-0.042634,61.083267,7.949234,-152.442169,,,
729862265.573072,0.265025,4.483015,47.411431,-0.072464,-0.004395,0.994202,0.027228,0.072277,-0.042634,61.083267,7.949234,-152.442169,,,
729862265.57665,0.265025,4.483015,47.411431,-0.072464,-0.004395,0.994202,0.027228,0.072277,-0.042634,61.083267,7.949234,-152.442169,,,
729862265.580036,0.266308,4.496285,47.399927,-0.086044,0.00148,0.968826,-0.005021,0.032382,-0.039309,61.230545,7.810181,-152.566742,,,
729862265.583302,0.262093,4.50093,47.389639,-0.086044,0.00148,0.968826,-0.005021,0.032382,-0.039309,61.230545,7.810181,-152.566742,,,
729862265.586626,0.262093,4.50093,47.389639,-0.086044,0.00148,0.968826,-0.005021,0.032382,-0.039309,61.230545,7.810181,-152.566742,,,
729862265.589689,0.255131,4.497265,47.380412,-0.094971,0.006516,0.95491,-0.035359,-0.026958,-0.034224,61.230545,7.810181,-152.566742,,,
729862265.59339,0.242335,4.485659,47.372347,-0.094971,0.006516,0.95491,-0.035359,-0.026958,-0.034224,61.230545,7.810181,-152.566742,,,
729862265.596615,0.242335,4.485659,47.372347,-0.094971,0.006516,0.95491,-0.035359,-0.026958,-0.034224,61.230545,7.810181,-152.566742,,,
729862265.599966,0.227416,4.464554,47.365153,-0.097321,0.008835,0.9561,-0.060755,-0.067265,-0.030132,61.230545,7.810181,-152.566742,,,
729862265.603271,0.208223,4.443447,47.358601,-0.097321,0.008835,0.9561,-0.060755,-0.067265,-0.030132,61.230545,7.810181,-152.566742,,,
729862265.606378,0.208223,4.443447,47.358601,-0.097321,0.008835,0.9561,-0.060755,-0.067265,-0.030132,61.230545,7.810181,-152.566742,,,
729862265.609994,0.188179,4.414772,47.352817,-0.091263,0.005066,0.975327,-0.072098,-0.068955,-0.025809,61.230545,7.810181,-152.566742,,,
729862265.613329,0.167324,4.394984,47.347763,-0.091263,0.005066,0.975327,-0.072098,-0.068955,-0.025809,61.230545,7.810181,-152.566742,,,
729862265.616704,0.167324,4.394984,47.347763,-0.091263,0.005066,0.975327,-0.072098,-0.068955,-0.025809,61.230545,7.810181,-152.566742,,,
729862265.619948,0.147876,4.369206,47.343552,-0.085938,-0.000214,1.001724,-0.064052,-0.048748,-0.019436,61.142761,7.772263,-152.696671,,,
729862265.623043,0.147876,4.369206,47.343552,-0.085938,-0.000214,1.001724,-0.064052,-0.048748,-0.019436,61.142761,7.772263,-152.696671,,,
729862265.626647,0.130362,4.357497,47.339823,-0.085938,-0.000214,1.001724,-0.064052,-0.048748,-0.019436,61.142761,7.772263,-152.696671,,,
729862265.630017,0.114302,4.343782,47.335567,-0.077652,-0.005112,1.022141,-0.046748,-0.003626,-0.021912,61.142761,7.772263,-152.696671,,,
729862265.633283,0.10112,4.346492,47.330668,-0.077652,-0.005112,1.022141,-0.046748,-0.003626,-0.021912,61.142761,7.772263,-152.696671,,,
729862265.636613,0.10112,4.346492,47.330668,-0.077652,-0.005112,1.022141,-0.046748,-0.003626,-0.021912,61.142761,7.772263,-152.696671,,,
729862265.639699,0.088685,4.35378,47.325095,-0.075562,-0.005127,1.039459,-0.035004,0.059689,-0.025777,61.142761,7.772263,-152.696671,,,
729862265.643387,0.079501,4.37167,47.318901,-0.075562,-0.005127,1.039459,-0.035004,0.059689,-0.025777,61.142761,7.772263,-152.696671,,,
729862265.646621,0.079501,4.37167,47.318901,-0.075562,-0.005127,1.039459,-0.035004,0.059689,-0.025777,61.142761,7.772263,-152.696671,,,
729862265.649965,0.072915,4.389512,47.313152,-0.084595,-0.008835,1.038345,-0.013357,0.067833,-0.021027,61.142761,7.772263,-152.696671,,,
729862265.653351,0.070605,4.406213,47.307821,-0.084595,-0.008835,1.038345,-0.013357,0.067833,-0.021027,61.142761,7.772263,-152.696671,,,
729862265.656351,0.070605,4.406213,47.307821,-0.084595,-0.008835,1.038345,-0.013357,0.067833,-0.021027,61.142761,7.772263,-152.696671,,,
729862265.659985,0.072567,4.419554,47.30268,-0.09613,-0.014236,1.030273,0.017088,0.034378,-0.017254,61.263748,7.971161,-152.730225,,,
729862265.663273,0.0791,4.425816,47.298114,-0.09613,-0.014236,1.030273,0.017088,0.034378,-0.017254,61.263748,7.971161,-152.730225,,,
729862265.666677,0.0791,4.425816,47.298114,-0.09613,-0.014236,1.030273,0.017088,0.034378,-0.017254,61.263748,7.971161,-152.730225,,,
729862265.669956,0.089422,4.431629,47.294755,-0.104034,-0.012726,1.025803,0.039617,-0.002862,-0.007078,61.263748,7.971161,-152.730225,,,
729862265.673078,0.089422,4.431629,47.294755,-0.104034,-0.012726,1.025803,0.039617,-0.002862,-0.007078,61.263748,7.971161,-152.730225,,,
729862265.67664,0.100884,4.427725,47.293476,-0.104034,-0.012726,1.025803,0.039617,-0.002862,-0.007078,61.263748,7.971161,-152.730225,,,
729862265.679945,0.113169,4.427725,47.293768,-0.100311,-0.006256,1.012131,0.036516,-0.029459,0.003782,61.263748,7.971161,-152.730225,,,
729862265.68336,0.122404,4.418199,47.294978,-0.100311,-0.006256,1.012131,0.036516,-0.029459,0.003782,61.263748,7.971161,-152.730225,,,
729862265.686602,0.122404,4.418199,47.294978,-0.100311,-0.006256,1.012131,0.036516,-0.029459,0.003782,61.263748,7.971161,-152.730225,,,
729862265.689751,0.129026,4.414338,47.296035,-0.087692,0.003845,0.993942,0.013901,-0.030971,0.00104,61.263748,7.971161,-152.730225,,,
729862265.693385,0.131056,4.405033,47.29631,-0.087692,0.003845,0.993942,0.013901,-0.030971,0.00104,61.263748,7.971161,-152.730225,,,
729862265.696606,0.131056,4.405033,47.29631,-0.087692,0.003845,0.993942,0.013901,-0.030971,0.00104,61.263748,7.971161,-152.730225,,,
729862265.699951,0.13001,4.400886,47.296434,-0.077087,0.007187,0.989548,-0.005828,-0.020028,-0.001466,61.263748,7.971161,-152.730225,,,
729862265.703314,0.127484,4.395669,47.29699,-0.077087,0.007187,0.989548,-0.005828,-0.020028,-0.001466,60.981461,8.178726,-152.675781,,,
729862265.706376,0.127484,4.395669,47.29699,-0.077087,0.007187,0.989548,-0.005828,-0.020028,-0.001466,60.981461,8.178726,-152.675781,,,
729862265.710038,0.122848,4.394137,47.298291,-0.073273,0.005646,0.996597,-0.014201,0.003361,0.003108,60.981461,8.178726,-152.675781,,,
729862265.713343,0.117459,4.397194,47.300056,-0.073273,0.005646,0.996597,-0.014201,0.003361,0.003108,60.981461,8.178726,-152.675781,,,
729862265.716692,0.117459,4.397194,47.300056,-0.073273,0.005646,0.996597,-0.014201,0.003361,0.003108,60.981461,8.178726,-152.675781,,,
729862265.719941,0.108687,4.403859,47.302581,-0.072433,0.006332,0.996796,-0.029308,0.038714,0.007243,60.981461,8.178726,-152.675781,,,
729862265.723008,0.108687,4.403859,47.302581,-0.072433,0.006332,0.996796,-0.029308,0.038714,0.007243,60.981461,8.178726,-152.675781,,,
729862265.726666,0.099576,4.416319,47.305806,-0.072433,0.006332,0.996796,-0.029308,0.038714,0.007243,60.981461,8.178726,-152.675781,,,
729862265.730038,0.087457,4.432155,47.309044,-0.074692,0.005463,0.995865,-0.04018,0.060299,0.006495,60.981461,8.178726,-152.675781,,,
729862265.733319,0.087457,4.448452,47.312411,-0.074692,0.005463,0.995865,-0.04018,0.060299,0.006495,60.981461,8.178726,-152.675781,,,
729862265.736614,0.075993,4.448452,47.312411,-0.074692,0.005463,0.995865,-0.04018,0.060299,0.006495,60.981461,8.178726,-152.675781,,,
729862265.739688,0.062697,4.468545,47.316278,-0.08345,0.003235,0.994034,-0.034733,0.053104,0.010438,60.981461,8.178726,-152.675781,,,
729862265.743441,0.053802,4.481653,47.320686,-0.08345,0.003235,0.994034,-0.034733,0.053104,0.010438,61.15921,8.142136,-152.960297,,,
729862265.746624,0.053802,4.481653,47.320686,-0.08345,0.003235,0.994034,-0.034733,0.053104,0.010438,61.15921,8.142136,-152.960297,,,
729862265.749949,0.043933,4.501611,47.324896,-0.086594,0.002106,0.995544,-0.019624,0.031111,0.010356,61.15921,8.142136,-152.960297,,,
729862265.753296,0.043933,4.501611,47.324896,-0.086594,0.002106,0.995544,-0.019624,0.031111,0.010356,61.15921,8.142136,-152.960297,,,
729862265.75634,0.040102,4.507975,47.32874,-0.086594,0.002106,0.995544,-0.019624,0.031111,0.010356,61.15921,8.142136,-152.960297,,,
729862265.759975,0.037228,4.523468,47.331773,-0.084061,-0.001923,1.004562,0.005228,0.006204,0.006735,61.15921,8.142136,-152.960297,,,
729862265.763269,0.037228,4.523468,47.331773,-0.084061,-0.001923,1.004562,0.005228,0.006204,0.006735,61.15921,8.142136,-152.960297,,,
729862265.766678,0.040316,4.523659,47.333266,-0.084061,-0.001923,1.004562,0.005228,0.006204,0.006735,61.15921,8.142136,-152.960297,,,
729862265.769932,0.045333,4.528655,47.334619,-0.081665,-0.002197,1.00798,0.017894,-0.002187,0.006867,61.15921,8.142136,-152.960297,,,
729862265.773061,0.045333,4.528655,47.334619,-0.081665,-0.002197,1.00798,0.017894,-0.002187,0.006867,61.15921,8.142136,-152.960297,,,
729862265.776784,0.050127,4.527593,47.336895,-0.081665,-0.002197,1.00798,0.017894,-0.002187,0.006867,61.15921,8.142136,-152.960297,,,
