Time (sec),Pitch (deg),Roll (deg),Yaw(deg),X-Acceleration (g),Y-Acceleration (g),Z-Acceleration (g),Pitch Rate (deg/sec),Roll Rate (deg/sec),Yaw Rate (deg/sec),Magnetic Field in X direction (uT),Magnetic Field in Y direction (uT),Magnetic Field in Z Direction (uT),Latitude (deg),Longitude (deg),Altitude (m)
729861260.435425,11.384437,2.807095,44.292175,-0.014084,0.215073,0.908295,2.000644,-0.50148,0.217901,70.898972,2.085602,-146.263733,,,
729861260.438743,11.951587,2.659647,44.327845,-0.022827,0.218018,0.916046,2.000644,-0.50148,0.217901,70.898972,2.085602,-146.263733,,,
729861260.442044,12.503643,2.520893,44.363357,-0.022827,0.218018,0.916046,1.894947,-0.442404,0.202375,70.898972,2.085602,-146.263733,,,
729861260.445416,12.503643,2.520893,44.363357,-0.022827,0.218018,0.916046,1.894947,-0.442404,0.202375,70.898972,2.085602,-146.263733,,,
729861260.448737,13.046219,2.388945,44.397278,-0.010498,0.23204,0.941406,1.894947,-0.442404,0.202375,70.898972,2.085602,-146.263733,,,
729861260.452164,13.586158,2.267981,44.42802,-0.010498,0.23204,0.941406,1.877357,-0.372605,0.17209,70.898972,2.085602,-146.263733,,,
729861260.455411,13.586158,2.267981,44.42802,-0.010498,0.23204,0.941406,1.877357,-0.372605,0.17209,70.898972,2.085602,-146.263733,,,
729861260.458705,14.129278,2.163803,44.456138,-0.017685,0.225891,1.009583,1.877357,-0.372605,0.17209,70.898972,2.085602,-146.263733,,,
729861260.462098,14.677995,2.084226,44.48146,-0.017685,0.225891,1.009583,1.915868,-0.207913,0.148972,69.557434,-0.993271,-144.219101,,,
729861260.465441,14.677995,2.084226,44.48146,-0.017685,0.225891,1.009583,1.915868,-0.207913,0.148972,69.557434,-0.993271,-144.219101,,,
729861260.468779,15.232726,2.028675,44.505141,-0.031113,0.205353,1.084137,1.915868,-0.207913,0.148972,69.557434,-0.993271,-144.219101,,,
729861260.472143,15.796398,1.99558,44.527701,-0.031113,0.205353,1.084137,1.97688,-0.055683,0.14108,69.557434,-0.993271,-144.219101,,,
729861260.475388,15.796398,1.99558,44.527701,-0.031113,0.205353,1.084137,1.97688,-0.055683,0.14108,69.557434,-0.993271,-144.219101,,,
729861260.478726,16.370263,1.978949,44.549344,-0.044632,0.210999,1.089813,1.97688,-0.055683,0.14108,69.557434,-0.993271,-144.219101,,,
729861260.482044,16.955876,1.974755,44.568677,-0.044632,0.210999,1.089813,2.0574,0.024192,0.128316,69.557434,-0.993271,-144.219101,,,
729861260.48546,16.955876,1.974755,44.568677,-0.044632,0.210999,1.089813,2.0574,0.024192,0.128316,69.557434,-0.993271,-144.219101,,,
729861260.488739,17.552752,1.980342,44.584352,-0.05719,0.235107,1.084824,2.0574,0.024192,0.128316,69.557434,-0.993271,-144.219101,,,
729861260.492042,18.157768,1.996748,44.59524,-0.05719,0.235107,1.084824,2.113222,0.087197,0.100001,69.557434,-0.993271,-144.219101,,,
729861260.495481,18.157768,1.996748,44.59524,-0.05719,0.235107,1.084824,2.113222,0.087197,0.100001,69.557434,-0.993271,-144.219101,,,
729861260.498715,18.764277,2.019741,44.600746,-0.074417,0.254959,1.051086,2.113222,0.087197,0.100001,69.557434,-0.993271,-144.219101,,,
729861260.502053,19.369778,2.040306,44.601623,-0.074417,0.254959,1.051086,2.105903,0.058181,0.071273,68.747299,-4.206055,-141.195786,,,
729861260.505399,19.369778,2.040306,44.601623,-0.074417,0.254959,1.051086,2.105903,0.058181,0.071273,68.747299,-4.206055,-141.195786,,,
729861260.508787,19.97259,2.047254,44.600602,-0.097122,0.292648,0.97142,2.105903,0.058181,0.071273,68.747299,-4.206055,-141.195786,,,
729861260.51204,20.573683,2.035057,44.59993,-0.097122,0.292648,0.97142,2.091965,-0.075809,0.073411,68.747299,-4.206055,-141.195786,,,
729861260.515391,20.573683,2.035057,44.59993,-0.097122,0.292648,0.97142,2.091965,-0.075809,0.073411,68.747299,-4.206055,-141.195786,,,
729861260.518818,21.176331,2.000819,44.603423,-0.13176,0.312973,0.948532,2.091965,-0.075809,0.073411,68.747299,-4.206055,-141.195786,,,
729861260.522049,21.786032,1.943014,44.614522,-0.13176,0.312973,0.948532,2.138486,-0.221567,0.121294,68.747299,-4.206055,-141.195786,,,
729861260.525404,21.786032,1.943014,44.614522,-0.13176,0.312973,0.948532,2.138486,-0.221567,0.121294,68.747299,-4.206055,-141.195786,,,
729861260.528722,22.408763,1.859327,44.635616,-0.158096,0.294098,0.994385,2.138486,-0.221567,0.121294,68.747299,-4.206055,-141.195786,,,
729861260.53205,23.051664,1.751971,44.668472,-0.158096,0.294098,0.994385,2.275936,-0.354428,0.193792,68.747299,-4.206055,-141.195786,,,
729861260.535377,23.051664,1.751971,44.668472,-0.158096,0.294098,0.994385,2.275936,-0.354428,0.193792,68.747299,-4.206055,-141.195786,,,
729861260.538725,23.719082,1.62496,44.715554,-0.162216,0.266403,1.060593,2.275936,-0.354428,0.193792,68.747299,-4.206055,-141.195786,,,
729861260.542047,24.41338,1.478451,44.779183,-0.162216,0.266403,1.060593,2.460263,-0.440587,0.291816,67.753647,-7.474884,-138.606735,,,
729861260.545377,24.41338,1.478451,44.779183,-0.162216,0.266403,1.060593,2.460263,-0.440587,0.291816,67.753647,-7.474884,-138.606735,,,
729861260.548729,25.136372,1.306855,44.859326,-0.152206,0.251999,1.09407,2.460263,-0.440587,0.291816,67.753647,-7.474884,-138.606735,,,
729861260.552234,25.888725,1.105046,44.954224,-0.152206,0.251999,1.09407,2.663837,-0.600939,0.369712,67.753647,-7.474884,-138.606735,,,
729861260.555379,25.888725,1.105046,44.954224,-0.152206,0.251999,1.09407,2.663837,-0.600939,0.369712,67.753647,-7.474884,-138.606735,,,
729861260.558796,26.669216,0.87276,45.062162,-0.121613,0.270294,1.079926,2.663837,-0.600939,0.369712,67.753647,-7.474884,-138.606735,,,
729861260.562034,27.476757,0.616869,45.180724,-0.121613,0.270294,1.079926,2.854807,-0.723121,0.410616,67.753647,-7.474884,-138.606735,,,
729861260.565397,27.476757,0.616869,45.180724,-0.121613,0.270294,1.079926,2.854807,-0.723121,0.410616,67.753647,-7.474884,-138.606735,,,
729861260.568724,28.308323,0.345798,45.308816,-0.079376,0.296936,1.070404,2.854807,-0.723121,0.410616,67.753647,-7.474884,-138.606735,,,
729861260.572044,29.161173,0.064821,45.446192,-0.079376,0.296936,1.070404,3.005857,-0.749824,0.433856,67.753647,-7.474884,-138.606735,,,
729861260.575275,29.161173,0.064821,45.446192,-0.079376,0.296936,1.070404,3.005857,-0.749824,0.433856,67.753647,-7.474884,-138.606735,,,
729861260.578738,30.035527,-0.222712,45.594735,-0.035034,0.324356,1.064011,3.005857,-0.749824,0.433856,67.753647,-7.474884,-138.606735,,,
729861260.582048,30.934992,-0.511756,45.757278,-0.035034,0.324356,1.064011,3.184729,-0.697219,0.478283,67.753647,-7.474884,-138.606735,,,
729861260.585461,30.934992,-0.511756,45.757278,-0.035034,0.324356,1.064011,3.184729,-0.697219,0.478283,65.724457,-11.230133,-134.28746,,,
729861260.588745,31.863961,-0.802717,45.935393,0.002045,0.315445,1.104263,3.184729,-0.697219,0.478283,65.724457,-11.230133,-134.28746,,,
729861260.592079,32.829954,-1.098699,46.127935,0.002045,0.315445,1.104263,3.447823,-0.661145,0.515014,65.724457,-11.230133,-134.28746,,,
729861260.595474,32.829954,-1.098699,46.127935,0.002045,0.315445,1.104263,3.447823,-0.661145,0.515014,65.724457,-11.230133,-134.28746,,,
729861260.598728,33.842067,-1.39509,46.331893,0.031006,0.289124,1.146423,3.447823,-0.661145,0.515014,65.724457,-11.230133,-134.28746,,,
729861260.602048,34.903003,-1.683391,46.544963,0.031006,0.289124,1.146423,3.793069,-0.547741,0.507932,65.724457,-11.230133,-134.28746,,,
729861260.605386,34.903003,-1.683391,46.544963,0.031006,0.289124,1.146423,3.793069,-0.547741,0.507932,65.724457,-11.230133,-134.28746,,,
729861260.608771,36.007919,-1.957747,46.765088,0.064957,0.287857,1.195389,3.793069,-0.547741,0.507932,65.724457,-11.230133,-134.28746,,,
729861260.612044,37.149289,-2.216123,46.991272,0.064957,0.287857,1.195389,4.051071,-0.387028,0.479138,65.724457,-11.230133,-134.28746,,,
729861260.615396,37.149289,-2.216123,46.991272,0.064957,0.287857,1.195389,4.051071,-0.387028,0.479138,65.724457,-11.230133,-134.28746,,,
729861260.618735,38.314338,-2.457265,47.220891,0.109161,0.330795,1.089859,4.051071,-0.387028,0.479138,65.724457,-11.230133,-134.28746,,,
729861260.622081,39.490939,-2.682811,47.448719,0.109161,0.330795,1.089859,4.131216,-0.260555,0.412269,65.724457,-11.230133,-134.28746,,,
729861260.625383,39.490939,-2.682811,47.448719,0.109161,0.330795,1.089859,4.131216,-0.260555,0.412269,63.694702,-15.467514,-128.365845,,,
729861260.628713,40.664162,-2.897736,47.668594,0.146393,0.467773,0.864731,4.131216,-0.260555,0.412269,63.694702,-15.467514,-128.365845,,,
729861260.63204,41.81941,-3.104526,47.873935,0.146393,0.467773,0.864731,4.002811,-0.247127,0.292452,63.694702,-15.467514,-128.365845,,,
729861260.635376,41.81941,-3.104526,47.873935,0.146393,0.467773,0.864731,4.002811,-0.247127,0.292452,63.694702,-15.467514,-128.365845,,,
729861260.638723,42.944088,-3.300167,48.059015,0.175491,0.607056,0.620377,4.002811,-0.247127,0.292452,63.694702,-15.467514,-128.365845,,,
729861260.64205,44.031742,-3.474395,48.218415,0.175491,0.607056,0.620377,3.737172,-0.20297,0.135961,63.694702,-15.467514,-128.365845,,,
729861260.64546,44.031742,-3.474395,48.218415,0.175491,0.607056,0.620377,3.737172,-0.20297,0.135961,63.694702,-15.467514,-128.365845,,,
729861260.648726,45.082654,-3.614215,48.349882,0.196869,0.728622,0.5047,3.737172,-0.20297,0.135961,63.694702,-15.467514,-128.365845,,,
729861260.652057,46.09873,-3.709315,48.456658,0.196869,0.728622,0.5047,3.485635,-0.002851,0.00481,63.694702,-15.467514,-128.365845,,,
729861260.65537,46.09873,-3.709315,48.456658,0.196869,0.728622,0.5047,3.485635,-0.002851,0.00481,63.694702,-15.467514,-128.365845,,,
729861260.658773,47.079019,-3.756761,48.547651,0.177597,0.767868,0.509766,3.485635,-0.002851,0.00481,63.694702,-15.467514,-128.365845,,,
729861260.662038,48.024485,-3.757483,48.631979,0.177597,0.767868,0.509766,3.239655,0.295451,-0.020845,63.694702,-15.467514,-128.365845,,,
729861260.665377,48.024485,-3.757483,48.631979,0.177597,0.767868,0.509766,3.239655,0.295451,-0.020845,63.204819,-19.258713,-122.509033,,,
729861260.668733,48.93663,-3.710619,48.71428,0.147324,0.742706,0.501419,3.239655,0.295451,-0.020845,63.204819,-19.258713,-122.509033,,,
729861260.672043,49.816447,-3.616569,48.794938,0.147324,0.742706,0.501419,3.013821,0.621278,-0.012421,63.204819,-19.258713,-122.509033,,,
729861260.675391,49.816447,-3.616569,48.794938,0.147324,0.742706,0.501419,3.013821,0.621278,-0.012421,63.204819,-19.258713,-122.509033,,,
729861260.678722,50.663299,-3.483629,48.872339,0.120941,0.763519,0.473373,3.013821,0.621278,-0.012421,63.204819,-19.258713,-122.509033,,,
729861260.682046,51.479154,-3.327565,48.943501,0.120941,0.763519,0.473373,2.794627,0.753115,-0.017507,63.204819,-19.258713,-122.509033,,,
729861260.685388,51.479154,-3.327565,48.943501,0.120941,0.763519,0.473373,2.794627,0.753115,-0.017507,63.204819,-19.258713,-122.509033,,,
729861260.688726,52.265956,-3.164393,49.004172,0.079102,0.78035,0.38414,2.794627,0.753115,-0.017507,63.204819,-19.258713,-122.509033,,,
729861260.692049,53.025661,-3.004662,49.049443,0.079102,0.78035,0.38414,2.600703,0.646928,-0.06078,63.204819,-19.258713,-122.509033,,,
729861260.695449,53.025661,-3.004662,49.049443,0.079102,0.78035,0.38414,2.600703,0.646928,-0.06078,63.204819,-19.258713,-122.509033,,,
729861260.698715,53.760692,-2.850969,49.075433,0.049026,0.801285,0.331268,2.600703,0.646928,-0.06078,63.204819,-19.258713,-122.509033,,,
729861260.702045,54.474452,-2.698511,49.080148,0.049026,0.801285,0.331268,2.446748,0.51917,-0.127668,63.204819,-19.258713,-122.509033,,,
729861260.70537,54.474452,-2.698511,49.080148,0.049026,0.801285,0.331268,2.446748,0.51917,-0.127668,63.474808,-21.929977,-118.210419,,,
729861260.708795,55.166605,-2.547836,49.067438,0.020966,0.780609,0.346558,2.446748,0.51917,-0.127668,63.474808,-21.929977,-118.210419,,,
729861260.712038,55.835498,-2.400308,49.042268,0.020966,0.780609,0.346558,2.28065,0.424391,-0.155258,63.474808,-21.929977,-118.210419,,,
729861260.715389,55.835498,-2.400308,49.042268,0.020966,0.780609,0.346558,2.28065,0.424391,-0.155258,63.474808,-21.929977,-118.210419,,,
729861260.718716,56.47869,-2.258134,49.01074,-0.005005,0.774185,0.336746,2.28065,0.424391,-0.155258,63.474808,-21.929977,-118.210419,,,
729861260.722048,57.101037,-2.122667,48.979463,-0.005005,0.774185,0.336746,2.132024,0.376595,-0.134123,63.474808,-21.929977,-118.210419,,,
729861260.725395,57.101037,-2.122667,48.979463,-0.005005,0.774185,0.336746,2.132024,0.376595,-0.134123,63.474808,-21.929977,-118.210419,,,
729861260.728716,57.704029,-1.995247,48.95959,-0.021179,0.783615,0.353943,2.132024,0.376595,-0.134123,63.474808,-21.929977,-118.210419,,,
729861260.732053,58.289305,-1.874286,48.958947,-0.021179,0.783615,0.353943,2.003602,0.442375,-0.045623,63.474808,-21.929977,-118.210419,,,
729861260.735409,58.289305,-1.874286,48.958947,-0.021179,0.783615,0.353943,2.003602,0.442375,-0.045623,63.474808,-21.929977,-118.210419,,,
729861260.738719,58.855236,-1.762624,48.986095,-0.039551,0.753418,0.389099,2.003602,0.442375,-0.045623,63.474808,-21.929977,-118.210419,,,
729861260.742054,59.408045,-1.660099,49.046005,-0.039551,0.753418,0.389099,1.909075,0.573954,0.082961,63.474808,-21.929977,-118.210419,,,
729861260.745404,59.408045,-1.660099,49.046005,-0.039551,0.753418,0.389099,1.909075,0.573954,0.082961,63.474808,-21.929977,-118.210419,,,
729861260.748773,59.94786,-1.573591,49.144902,-0.055069,0.728653,0.42601,1.909075,0.573954,0.082961,63.707458,-23.440689,-114.807709,,,
729861260.752087,60.475227,-1.510399,49.279988,-0.055069,0.728653,0.42601,1.820494,0.632363,0.21186,63.707458,-23.440689,-114.807709,,,
729861260.755467,60.475227,-1.510399,49.279988,-0.055069,0.728653,0.42601,1.820494,0.632363,0.21186,63.707458,-23.440689,-114.807709,,,
729861260.758703,60.987953,-1.484902,49.445375,-0.06163,0.764069,0.383743,1.820494,0.632363,0.21186,63.707458,-23.440689,-114.807709,,,
729861260.762041,61.485974,-1.509395,49.630044,-0.06163,0.764069,0.383743,1.71683,0.406231,0.271353,63.707458,-23.440689,-114.807709,,,
729861260.765374,61.485974,-1.509395,49.630044,-0.06163,0.764069,0.383743,1.71683,0.406231,0.271353,63.707458,-23.440689,-114.807709,,,
729861260.768742,61.969359,-1.585459,49.819341,-0.076431,0.82962,0.274673,1.71683,0.406231,0.271353,63.707458,-23.440689,-114.807709,,,
729861260.77204,62.440143,-1.700887,49.997841,-0.076431,0.82962,0.274673,1.626755,0.070288,0.224177,63.707458,-23.440689,-114.807709,,,
729861260.775386,62.440143,-1.700887,49.997841,-0.076431,0.82962,0.274673,1.626755,0.070288,0.224177,63.707458,-23.440689,-114.807709,,,
729861260.778707,62.89866,-1.837952,50.157305,-0.055542,0.857925,0.26416,1.626755,0.070288,0.224177,63.707458,-23.440689,-114.807709,,,
729861260.782104,63.346495,-1.981533,50.298551,-0.055542,0.857925,0.26416,1.550326,-0.084639,0.154164,63.707458,-23.440689,-114.807709,,,
729861260.785423,63.346495,-1.981533,50.298551,-0.055542,0.857925,0.26416,1.550326,-0.084639,0.154164,63.707458,-23.440689,-114.807709,,,
729861260.788742,63.785901,-2.125314,50.431745,-0.004684,0.834824,0.354492,1.550326,-0.084639,0.154164,63.328461,-24.461426,-111.673126,,,
729861260.792072,64.222493,-2.26845,50.573521,-0.004684,0.834824,0.354492,1.531132,-0.023433,0.167429,63.328461,-24.461426,-111.673126,,,
729861260.795483,64.222493,-2.26845,50.573521,-0.004684,0.834824,0.354492,1.531132,-0.023433,0.167429,63.328461,-24.461426,-111.673126,,,
729861260.798732,64.661579,-2.414969,50.740347,0.004517,0.7715,0.486389,1.531132,-0.023433,0.167429,63.328461,-24.461426,-111.673126,,,
729861260.802053,65.107237,-2.572286,50.94023,0.004517,0.7715,0.486389,1.581035,0.113706,0.24723,63.328461,-24.461426,-111.673126,,,
729861260.805404,65.107237,-2.572286,50.94023,0.004517,0.7715,0.486389,1.581035,0.113706,0.24723,63.328461,-24.461426,-111.673126,,,
729861260.808782,65.562717,-2.75128,51.174321,-0.008469,0.748566,0.537125,1.581035,0.113706,0.24723,63.328461,-24.461426,-111.673126,,,
729861260.81204,66.028153,-2.957255,51.43623,-0.008469,0.748566,0.537125,1.654653,0.107936,0.300826,63.328461,-24.461426,-111.673126,,,
729861260.815373,66.028153,-2.957255,51.43623,-0.008469,0.748566,0.537125,1.654653,0.107936,0.300826,63.328461,-24.461426,-111.673126,,,
729861260.818715,66.501316,-3.188648,51.715218,-0.00351,0.789795,0.479279,1.654653,0.107936,0.300826,63.328461,-24.461426,-111.673126,,,
729861260.822041,66.981718,-3.436791,51.998507,-0.00351,0.789795,0.479279,1.705996,0.024846,0.281111,63.328461,-24.461426,-111.673126,,,
729861260.82538,66.981718,-3.436791,51.998507,-0.00351,0.789795,0.479279,1.705996,0.024846,0.281111,63.328461,-24.461426,-111.673126,,,
729861260.828717,67.467655,-3.689229,52.272798,0.017349,0.823288,0.416199,1.705996,0.024846,0.281111,62.67363,-25.1763,-108.302032,,,
729861260.83204,67.964062,-3.932646,52.528642,0.017349,0.823288,0.416199,1.776177,-0.024812,0.198047,62.67363,-25.1763,-108.302032,,,
729861260.835407,67.964062,-3.932646,52.528642,0.017349,0.823288,0.416199,1.776177,-0.024812,0.198047,62.67363,-25.1763,-108.302032,,,
729861260.838729,68.468498,-4.150509,52.757605,0.058212,0.817459,0.398987,1.776177,-0.024812,0.198047,62.67363,-25.1763,-108.302032,,,
729861260.842059,68.973534,-4.32829,52.950599,0.058212,0.817459,0.398987,1.773557,0.02596,0.082007,62.67363,-25.1763,-108.302032,,,
729861260.845373,68.973534,-4.32829,52.950599,0.058212,0.817459,0.398987,1.773557,0.02596,0.082007,62.67363,-25.1763,-108.302032,,,
729861260.848715,69.470103,-4.466485,53.106662,0.084335,0.958527,0.380951,1.773557,0.02596,0.082007,62.67363,-25.1763,-108.302032,,,
729861260.852049,69.953519,-4.589413,53.24386,0.084335,0.958527,0.380951,1.677132,0.012,0.027348,62.67363,-25.1763,-108.302032,,,
729861260.855385,69.953519,-4.589413,53.24386,0.084335,0.958527,0.380951,1.677132,0.012,0.027348,62.67363,-25.1763,-108.302032,,,
729861260.85881,70.42882,-4.732118,53.39141,0.059326,1.048309,0.301163,1.677132,0.012,0.027348,62.67363,-25.1763,-108.302032,,,
729861260.86204,70.893142,-4.903198,53.557534,0.059326,1.048309,0.301163,1.603029,-0.060928,0.059658,62.67363,-25.1763,-108.302032,,,
729861260.865389,70.893142,-4.903198,53.557534,0.059326,1.048309,0.301163,1.603029,-0.060928,0.059658,62.67363,-25.1763,-108.302032,,,
729861260.868729,71.343251,-5.075758,53.724186,0.025055,0.961578,0.242966,1.603029,-0.060928,0.059658,62.67363,-25.1763,-108.302032,,,
729861260.872057,71.779125,-5.21952,53.872813,0.025055,0.961578,0.242966,1.499514,0.023444,0.012073,62.542831,-26.015457,-104.949142,,,
729861260.875392,71.779125,-5.21952,53.872813,0.025055,0.961578,0.242966,1.499514,0.023444,0.012073,62.542831,-26.015457,-104.949142,,,
729861260.878733,72.200978,-5.332195,54.007399,0.034485,0.993759,0.26947,1.499514,0.023444,0.012073,62.542831,-26.015457,-104.949142,,,
729861260.882141,72.610103,-5.43477,54.147322,0.034485,0.993759,0.26947,1.410959,0.131315,0.019877,62.542831,-26.015457,-104.949142,,,
729861260.885368,72.610103,-5.43477,54.147322,0.034485,0.993759,0.26947,1.410959,0.131315,0.019877,62.542831,-26.015457,-104.949142,,,
729861260.888715,73.005317,-5.553855,54.312274,0.013657,0.975739,0.25386,1.410959,0.131315,0.019877,62.542831,-26.015457,-104.949142,,,
729861260.892044,73.388467,-5.709614,54.516637,0.013657,0.975739,0.25386,1.333885,0.141072,0.093345,62.542831,-26.015457,-104.949142,,,
729861260.895444,73.388467,-5.709614,54.516637,0.013657,0.975739,0.25386,1.333885,0.141072,0.093345,62.542831,-26.015457,-104.949142,,,
729861260.898715,73.762587,-5.90905,54.770667,-0.016724,0.955368,0.214233,1.333885,0.141072,0.093345,62.542831,-26.015457,-104.949142,,,
729861260.902115,74.129495,-6.148977,55.080963,-0.016724,0.955368,0.214233,1.29344,0.238616,0.185545,62.542831,-26.015457,-104.949142,,,
729861260.905375,74.129495,-6.148977,55.080963,-0.016724,0.955368,0.214233,1.29344,0.238616,0.185545,62.542831,-26.015457,-104.949142,,,
729861260.90876,74.489127,-6.438861,55.460332,-0.042801,0.916687,0.272736,1.29344,0.238616,0.185545,62.542831,-26.015457,-104.949142,,,
729861260.912036,74.848989,-6.801814,55.924945,-0.042801,0.916687,0.272736,1.312577,0.306509,0.31101,62.083954,-26.624146,-102.305862,,,
729861260.915389,74.848989,-6.801814,55.924945,-0.042801,0.916687,0.272736,1.312577,0.306509,0.31101,62.083954,-26.624146,-102.305862,,,
729861260.918709,75.210965,-7.263259,56.487396,-0.052155,0.866211,0.269531,1.312577,0.306509,0.31101,62.083954,-26.624146,-102.305862,,,
729861260.922041,75.561771,-7.833058,57.147977,-0.052155,0.866211,0.269531,1.260439,0.219403,0.445387,62.083954,-26.624146,-102.305862,,,
729861260.92539,75.561771,-7.833058,57.147977,-0.052155,0.866211,0.269531,1.260439,0.219403,0.445387,62.083954,-26.624146,-102.305862,,,
729861260.92872,75.900301,-8.494719,57.892616,-0.050537,0.906357,0.169144,1.260439,0.219403,0.445387,62.083954,-26.624146,-102.305862,,,
729861260.93204,76.232848,-9.230648,58.708263,-0.050537,0.906357,0.169144,1.243597,0.189645,0.509826,62.083954,-26.624146,-102.305862,,,
729861260.935375,76.232848,-9.230648,58.708263,-0.050537,0.906357,0.169144,1.243597,0.189645,0.509826,62.083954,-26.624146,-102.305862,,,
729861260.938711,76.552269,-10.036795,59.589146,-0.01416,0.922028,0.140686,1.243597,0.189645,0.509826,62.083954,-26.624146,-102.305862,,,
729861260.942041,76.84886,-10.907911,60.526938,-0.01416,0.922028,0.140686,1.112202,0.130388,0.5612,62.083954,-26.624146,-102.305862,,,
729861260.94544,76.84886,-10.907911,60.526938,-0.01416,0.922028,0.140686,1.112202,0.130388,0.5612,62.083954,-26.624146,-102.305862,,,
729861260.9487,77.118818,-11.834746,61.510438,0.022156,0.934341,0.033081,1.112202,0.130388,0.5612,62.083954,-26.624146,-102.305862,,,
729861260.952042,77.362207,-12.804261,62.52687,0.022156,0.934341,0.033081,0.954323,0.063797,0.585601,61.200027,-26.185974,-99.808334,,,
729861260.955399,77.362207,-12.804261,62.52687,0.022156,0.934341,0.033081,0.954323,0.063797,0.585601,61.200027,-26.185974,-99.808334,,,
729861260.958704,77.578321,-13.79947,63.560415,0.056946,0.933853,-0.026733,0.954323,0.063797,0.585601,61.200027,-26.185974,-99.808334,,,
729861260.962041,77.767785,-14.804953,64.596232,0.056946,0.933853,-0.026733,0.788637,0.01313,0.578688,61.200027,-26.185974,-99.808334,,,
729861260.965372,77.767785,-14.804953,64.596232,0.056946,0.933853,-0.026733,0.788637,0.01313,0.578688,61.200027,-26.185974,-99.808334,,,
729861260.968717,77.932337,-15.811605,65.624258,0.079971,0.920853,-0.027222,0.788637,0.01313,0.578688,61.200027,-26.185974,-99.808334,,,
729861260.972034,78.074732,-16.817914,66.640324,0.079971,0.920853,-0.027222,0.649915,-0.061911,0.560918,61.200027,-26.185974,-99.808334,,,
729861260.9754,78.074732,-16.817914,66.640324,0.079971,0.920853,-0.027222,0.649915,-0.061911,0.560918,61.200027,-26.185974,-99.808334,,,
729861260.978706,78.198197,-17.821047,67.642264,0.074432,0.893509,-0.008392,0.649915,-0.061911,0.560918,61.200027,-26.185974,-99.808334,,,
729861260.982083,78.306005,-18.817045,68.631102,0.074432,0.893509,-0.008392,0.555231,-0.09858,0.542577,61.200027,-26.185974,-99.808334,,,
729861260.985383,78.306005,-18.817045,68.631102,0.074432,0.893509,-0.008392,0.555231,-0.09858,0.542577,61.200027,-26.185974,-99.808334,,,
729861260.988708,78.399842,-19.799856,69.604848,0.075592,0.874481,0.036728,0.555231,-0.09858,0.542577,61.200027,-26.185974,-99.808334,,,
729861260.992048,78.480587,-20.762381,70.557614,0.075592,0.874481,0.036728,0.47356,-0.098477,0.519031,59.982224,-25.850784,-98.917221,,,
729861260.995399,78.480587,-20.762381,70.557614,0.075592,0.874481,0.036728,0.47356,-0.098477,0.519031,59.982224,-25.850784,-98.917221,,,
729861260.998705,78.549179,-21.69409,71.479117,0.112091,0.879349,0.050735,0.47356,-0.098477,0.519031,59.982224,-25.850784,-98.917221,,,
729861261.002043,78.607097,-22.573815,72.350801,0.112091,0.879349,0.050735,0.392209,-0.074907,0.462481,59.982224,-25.850784,-98.917221,,,
729861261.005404,78.607097,-22.573815,72.350801,0.112091,0.879349,0.050735,0.392209,-0.074907,0.462481,59.982224,-25.850784,-98.917221,,,
729861261.008705,78.655525,-23.378454,73.153597,0.15152,0.896545,0.05571,0.392209,-0.074907,0.462481,59.982224,-25.850784,-98.917221,,,
729861261.012047,78.655525,-23.378454,73.153597,0.15152,0.896545,0.05571,0.30432,-0.011463,0.362528,59.982224,-25.850784,-98.917221,,,
729861261.015399,78.69614,-24.089543,73.870147,0.15152,0.896545,0.05571,0.30432,-0.011463,0.362528,59.982224,-25.850784,-98.917221,,,
729861261.018748,78.730848,-24.690456,74.483575,0.181549,0.922043,0.050217,0.30432,-0.011463,0.362528,59.982224,-25.850784,-98.917221,,,
729861261.022103,78.730848,-24.690456,74.483575,0.181549,0.922043,0.050217,0.30432,-0.011463,0.362528,59.982224,-25.850784,-98.917221,,,
729861261.025471,78.762297,-25.169731,74.982891,0.181549,0.922043,0.050217,0.223463,0.0568,0.22394,59.982224,-25.850784,-98.917221,,,
729861261.028705,78.791756,-25.515958,75.356956,0.21048,0.935776,0.049698,0.223463,0.0568,0.22394,59.982224,-25.850784,-98.917221,,,
729861261.032098,78.791756,-25.515958,75.356956,0.21048,0.935776,0.049698,0.223463,0.0568,0.22394,59.982224,-25.850784,-98.917221,,,
729861261.035434,78.823553,-25.724251,75.60149,0.21048,0.935776,0.049698,0.163687,0.132908,0.055819,59.256012,-25.698044,-98.276474,,,
729861261.038706,78.858096,-25.788173,75.711167,0.226852,0.919373,0.086166,0.163687,0.132908,0.055819,59.256012,-25.698044,-98.276474,,,
729861261.04212,78.858096,-25.788173,75.711167,0.226852,0.919373,0.086166,0.163687,0.132908,0.055819,59.256012,-25.698044,-98.276474,,,
729861261.0454,78.890133,-25.698283,75.676638,0.226852,0.919373,0.086166,0.06386,0.219061,-0.111539,59.256012,-25.698044,-98.276474,,,
729861261.048716,78.916747,-25.458549,75.500287,0.2061,0.949783,0.051819,0.06386,0.219061,-0.111539,59.256012,-25.698044,-98.276474,,,
729861261.052045,78.916747,-25.458549,75.500287,0.2061,0.949783,0.051819,0.06386,0.219061,-0.111539,59.256012,-25.698044,-98.276474,,,
729861261.055404,78.933873,-25.080419,75.193546,0.2061,0.949783,0.051819,-0.068759,0.291636,-0.240181,59.256012,-25.698044,-98.276474,,,
729861261.058715,78.939432,-24.579283,74.777056,0.179703,0.961151,0.030457,-0.068759,0.291636,-0.240181,59.256012,-25.698044,-98.276474,,,
729861261.06209,78.939432,-24.579283,74.777056,0.179703,0.961151,0.030457,-0.068759,0.291636,-0.240181,59.256012,-25.698044,-98.276474,,,
729861261.065376,78.933672,-23.975449,74.27775,0.179703,0.961151,0.030457,-0.181447,0.440738,-0.310358,59.256012,-25.698044,-98.276474,,,
729861261.068799,78.91619,-23.296155,73.723932,0.127045,0.946243,0.080322,-0.181447,0.440738,-0.310358,59.256012,-25.698044,-98.276474,,,
729861261.072057,78.91619,-23.296155,73.723932,0.127045,0.946243,0.080322,-0.181447,0.440738,-0.310358,59.256012,-25.698044,-98.276474,,,
729861261.075433,78.886952,-22.571999,73.139321,0.127045,0.946243,0.080322,-0.266288,0.542665,-0.322442,59.88649,-25.87941,-99.123611,,,
729861261.078719,78.844968,-21.834572,72.543945,0.059235,0.948013,0.087616,-0.266288,0.542665,-0.322442,59.88649,-25.87941,-99.123611,,,
729861261.082076,78.844968,-21.834572,72.543945,0.059235,0.948013,0.087616,-0.266288,0.542665,-0.322442,59.88649,-25.87941,-99.123611,,,
729861261.085386,78.787905,-21.098278,71.943305,0.059235,0.948013,0.087616,-0.360883,0.498903,-0.30081,59.88649,-25.87941,-99.123611,,,
729861261.088741,78.714537,-20.371628,71.341662,-0.004379,0.958527,0.045044,-0.360883,0.498903,-0.30081,59.88649,-25.87941,-99.123611,,,
729861261.09209,78.714537,-20.371628,71.341662,-0.004379,0.958527,0.045044,-0.360883,0.498903,-0.30081,59.88649,-25.87941,-99.123611,,,
729861261.095378,78.622727,-19.673153,70.75159,-0.004379,0.958527,0.045044,-0.471101,0.382779,-0.256774,59.88649,-25.87941,-99.123611,,,
729861261.098707,78.508227,-19.025292,70.189275,-0.047394,0.966278,0.019577,-0.471101,0.382779,-0.256774,59.88649,-25.87941,-99.123611,,,
729861261.102076,78.508227,-19.025292,70.189275,-0.047394,0.966278,0.019577,-0.471101,0.382779,-0.256774,59.88649,-25.87941,-99.123611,,,
729861261.105392,78.369663,-18.447383,69.674589,-0.047394,0.966278,0.019577,-0.606633,0.222015,-0.15852,59.88649,-25.87941,-99.123611,,,
729861261.108706,78.20192,-17.943189,69.211999,-0.082718,0.955414,-0.016586,-0.606633,0.222015,-0.15852,59.88649,-25.87941,-99.123611,,,
729861261.112136,78.20192,-17.943189,69.211999,-0.082718,0.955414,-0.016586,-0.606633,0.222015,-0.15852,59.88649,-25.87941,-99.123611,,,
729861261.115368,77.99774,-17.50275,68.787163,-0.082718,0.955414,-0.016586,-0.832937,0.037359,-0.050005,60.191406,-25.913864,-100.448593,,,
729861261.11871,77.752088,-17.104616,68.373467,-0.078156,0.987289,-0.114975,-0.832937,0.037359,-0.050005,60.191406,-25.913864,-100.448593,,,
729861261.122103,77.752088,-17.104616,68.373467,-0.078156,0.987289,-0.114975,-0.832937,0.037359,-0.050005,60.191406,-25.913864,-100.448593,,,
729861261.12545,77.459994,-16.715945,67.936515,-0.078156,0.987289,-0.114975,-1.156824,-0.184277,-0.014105,60.191406,-25.913864,-100.448593,,,
729861261.128703,77.114124,-16.303143,67.44393,-0.022186,1.043823,-0.227158,-1.156824,-0.184277,-0.014105,60.191406,-25.913864,-100.448593,,,
729861261.132062,77.114124,-16.303143,67.44393,-0.022186,1.043823,-0.227158,-1.156824,-0.184277,-0.014105,60.191406,-25.913864,-100.448593,,,
729861261.13538,76.707295,-15.837584,66.867185,-0.022186,1.043823,-0.227158,-1.607824,-0.383102,-0.064465,60.191406,-25.913864,-100.448593,,,
729861261.138709,76.231377,-15.294018,66.177281,0.069901,1.09816,-0.364502,-1.607824,-0.383102,-0.064465,60.191406,-25.913864,-100.448593,,,
729861261.142063,76.231377,-15.294018,66.177281,0.069901,1.09816,-0.364502,-1.607824,-0.383102,-0.064465,60.191406,-25.913864,-100.448593,,,
729861261.145374,75.681335,-14.652418,65.3526,0.069901,1.09816,-0.364502,-2.17406,-0.600731,-0.227566,60.191406,-25.913864,-100.448593,,,
729861261.148711,75.05519,-13.8981,64.383024,0.175064,1.162186,-0.476379,-2.17406,-0.600731,-0.227566,60.191406,-25.913864,-100.448593,,,
729861261.152045,75.05519,-13.8981,64.383024,0.175064,1.162186,-0.476379,-2.17406,-0.600731,-0.227566,60.191406,-25.913864,-100.448593,,,
729861261.155377,74.352908,-13.023739,63.272255,0.175064,1.162186,-0.476379,-2.758986,-0.693052,-0.495933,60.369629,-25.65036,-103.731003,,,
729861261.158713,73.576014,-12.039624,62.042086,0.251465,1.216248,-0.458511,-2.758986,-0.693052,-0.495933,60.369629,-25.65036,-103.731003,,,
729861261.162057,73.576014,-12.039624,62.042086,0.251465,1.216248,-0.458511,-2.758986,-0.693052,-0.495933,60.369629,-25.65036,-103.731003,,,
729861261.165442,72.722942,-10.976249,60.722925,0.251465,1.216248,-0.458511,-3.316727,-0.69989,-0.784034,60.369629,-25.65036,-103.731003,,,
729861261.168705,71.79561,-9.877098,59.351201,0.269165,1.236542,-0.412643,-3.316727,-0.69989,-0.784034,60.369629,-25.65036,-103.731003,,,
729861261.172046,71.79561,-9.877098,59.351201,0.269165,1.236542,-0.412643,-3.316727,-0.69989,-0.784034,60.369629,-25.65036,-103.731003,,,
729861261.175393,70.806331,-8.78355,57.969862,0.269165,1.236542,-0.412643,-3.736555,-0.75245,-1.016307,60.369629,-25.65036,-103.731003,,,
729861261.178773,69.770951,-7.726657,56.62382,0.226166,1.109665,-0.266891,-3.736555,-0.75245,-1.016307,60.369629,-25.65036,-103.731003,,,
729861261.182053,69.770951,-7.726657,56.62382,0.226166,1.109665,-0.266891,-3.736555,-0.75245,-1.016307,60.369629,-25.65036,-103.731003,,,
729861261.185383,68.700323,-6.722036,55.348103,0.226166,1.109665,-0.266891,-3.940995,-0.599329,-1.1101,60.369629,-25.65036,-103.731003,,,
729861261.188713,67.59806,-5.776122,54.164655,0.153336,0.815903,0.065292,-3.940995,-0.599329,-1.1101,60.369629,-25.65036,-103.731003,,,
729861261.192046,67.59806,-5.776122,54.164655,0.153336,0.815903,0.065292,-3.940995,-0.599329,-1.1101,60.369629,-25.65036,-103.731003,,,
729861261.195391,66.469619,-4.894284,53.094522,0.153336,0.815903,0.065292,-4.070772,-0.257661,-1.060768,60.369629,-25.65036,-103.731003,,,
729861261.198709,65.335207,-4.074561,52.156614,0.120438,0.55806,0.40712,-4.070772,-0.257661,-1.060768,61.971909,-24.882477,-111.041336,,,
729861261.202076,65.335207,-4.074561,52.156614,0.120438,0.55806,0.40712,-4.070772,-0.257661,-1.060768,61.971909,-24.882477,-111.041336,,,
729861261.20539,64.229997,-3.312253,51.3645,0.120438,0.55806,0.40712,-3.81794,0.314485,-0.869136,61.971909,-24.882477,-111.041336,,,
729861261.208714,63.190113,-2.614658,50.723579,0.076508,0.375183,0.852173,-3.81794,0.314485,-0.869136,61.971909,-24.882477,-111.041336,,,
729861261.212047,63.190113,-2.614658,50.723579,0.076508,0.375183,0.852173,-3.81794,0.314485,-0.869136,61.971909,-24.882477,-111.041336,,,
729861261.215483,62.235685,-2.00786,50.229317,0.076508,0.375183,0.852173,-3.188036,0.624835,-0.577749,61.971909,-24.882477,-111.041336,,,
729861261.218697,61.36447,-1.513163,49.865346,-0.017029,0.318771,1.009232,-3.188036,0.624835,-0.577749,61.971909,-24.882477,-111.041336,,,
729861261.222046,61.36447,-1.513163,49.865346,-0.017029,0.318771,1.009232,-3.188036,0.624835,-0.577749,61.971909,-24.882477,-111.041336,,,
729861261.225379,60.558802,-1.118242,49.596776,-0.017029,0.318771,1.009232,-2.716481,0.52849,-0.345531,61.971909,-24.882477,-111.041336,,,
729861261.228709,59.806779,-0.7943,49.384043,-0.059799,0.422043,0.864349,-2.716481,0.52849,-0.345531,61.971909,-24.882477,-111.041336,,,
729861261.232044,59.806779,-0.7943,49.384043,-0.059799,0.422043,0.864349,-2.716481,0.52849,-0.345531,61.971909,-24.882477,-111.041336,,,
729861261.235392,59.1106,-0.520039,49.196951,-0.059799,0.422043,0.864349,-2.32289,0.345608,-0.302632,61.971909,-24.882477,-111.041336,,,
729861261.238708,58.474239,-0.281329,49.013127,-0.010513,0.530319,0.814392,-2.32289,0.345608,-0.302632,63.445465,-23.188812,-116.709213,,,
729861261.242106,58.474239,-0.281329,49.013127,-0.010513,0.530319,0.814392,-2.32289,0.345608,-0.302632,63.445465,-23.188812,-116.709213,,,
729861261.245376,57.887573,-0.066124,48.817388,-0.010513,0.530319,0.814392,-1.973277,0.11829,-0.376406,63.445465,-23.188812,-116.709213,,,
729861261.248711,57.325649,0.137892,48.603072,0.056198,0.620972,0.742035,-1.973277,0.11829,-0.376406,63.445465,-23.188812,-116.709213,,,
729861261.252046,57.325649,0.137892,48.603072,0.056198,0.620972,0.742035,-1.973277,0.11829,-0.376406,63.445465,-23.188812,-116.709213,,,
729861261.255488,56.765074,0.343116,48.37147,0.056198,0.620972,0.742035,-1.960626,0.033396,-0.468071,63.445465,-23.188812,-116.709213,,,
729861261.258712,56.197712,0.555084,48.133089,0.096512,0.747589,0.599106,-1.960626,0.033396,-0.468071,63.445465,-23.188812,-116.709213,,,
729861261.262069,56.197712,0.555084,48.133089,0.096512,0.747589,0.599106,-1.960626,0.033396,-0.468071,63.445465,-23.188812,-116.709213,,,
729861261.265395,55.6219,0.773545,47.900107,0.096512,0.747589,0.599106,-2.015883,0.118901,-0.476112,63.445465,-23.188812,-116.709213,,,
729861261.268721,55.026815,0.992721,47.681469,0.064011,0.824783,0.525772,-2.015883,0.118901,-0.476112,63.445465,-23.188812,-116.709213,,,
729861261.271766,55.026815,0.992721,47.681469,0.064011,0.824783,0.525772,-2.015883,0.118901,-0.476112,63.445465,-23.188812,-116.709213,,,
729861261.275424,54.388629,1.205624,47.480761,0.064011,0.824783,0.525772,-2.313583,0.186407,-0.438601,63.445465,-23.188812,-116.709213,,,
729861261.278706,53.690968,1.409646,47.299594,0.037628,0.918518,0.323685,-2.313583,0.186407,-0.438601,64.630951,-22.075546,-120.802719,,,
729861261.28213,53.690968,1.409646,47.299594,0.037628,0.918518,0.323685,-2.313583,0.186407,-0.438601,64.630951,-22.075546,-120.802719,,,
729861261.285398,52.942167,1.607346,47.139886,0.037628,0.918518,0.323685,-2.668605,0.271588,-0.388358,64.630951,-22.075546,-120.802719,,,
729861261.288476,52.158561,1.804889,47.000287,0.015762,0.912369,0.314438,-2.668605,0.271588,-0.388358,64.630951,-22.075546,-120.802719,,,
729861261.292102,52.158561,1.804889,47.000287,0.015762,0.912369,0.314438,-2.668605,0.271588,-0.388358,64.630951,-22.075546,-120.802719,,,
729861261.295381,51.343459,2.002644,46.875467,0.015762,0.912369,0.314438,-2.887027,0.362061,-0.361293,64.630951,-22.075546,-120.802719,,,
729861261.298709,50.488262,2.187727,46.757179,-0.001923,0.837723,0.364044,-2.887027,0.362061,-0.361293,64.630951,-22.075546,-120.802719,,,
729861261.302058,50.488262,2.187727,46.757179,-0.001923,0.837723,0.364044,-2.887027,0.362061,-0.361293,64.630951,-22.075546,-120.802719,,,
729861261.305396,49.589537,2.343978,46.634737,-0.001923,0.837723,0.364044,-3.18532,0.146806,-0.418958,64.630951,-22.075546,-120.802719,,,
729861261.308706,48.668472,2.467071,46.499038,0.006317,0.772537,0.334763,-3.18532,0.146806,-0.418958,64.630951,-22.075546,-120.802719,,,
729861261.312056,48.668472,2.467071,46.499038,0.006317,0.772537,0.334763,-3.18532,0.146806,-0.418958,64.630951,-22.075546,-120.802719,,,
729861261.315385,47.756152,2.567682,46.344553,0.006317,0.772537,0.334763,-3.118234,-0.097541,-0.527126,64.630951,-22.075546,-120.802719,,,
729861261.318764,46.862704,2.657445,46.167692,-0.011368,0.632584,0.601639,-3.118234,-0.097541,-0.527126,65.455582,-19.091812,-125.823715,,,
729861261.322051,46.862704,2.657445,46.167692,-0.011368,0.632584,0.601639,-3.118234,-0.097541,-0.527126,65.455582,-19.091812,-125.823715,,,
729861261.325398,45.973148,2.736979,45.96567,-0.011368,0.632584,0.601639,-3.082946,-0.282768,-0.669525,65.455582,-19.091812,-125.823715,,,
729861261.328712,45.081419,2.802779,45.738751,0.003601,0.556793,0.642349,-3.082946,-0.282768,-0.669525,65.455582,-19.091812,-125.823715,,,
729861261.332114,45.081419,2.802779,45.738751,0.003601,0.556793,0.642349,-3.082946,-0.282768,-0.669525,65.455582,-19.091812,-125.823715,,,
729861261.335374,44.212988,2.86394,45.49335,0.003601,0.556793,0.642349,-2.913705,-0.388503,-0.776825,65.455582,-19.091812,-125.823715,,,
729861261.33871,43.397149,2.939748,45.240681,0.0168,0.477234,0.846939,-2.913705,-0.388503,-0.776825,65.455582,-19.091812,-125.823715,,,
729861261.342065,43.397149,2.939748,45.240681,0.0168,0.477234,0.846939,-2.913705,-0.388503,-0.776825,65.455582,-19.091812,-125.823715,,,
729861261.345459,42.635773,3.042912,44.990917,0.0168,0.477234,0.846939,-2.532112,-0.166656,-0.767503,65.455582,-19.091812,-125.823715,,,
729861261.348713,41.906972,3.170551,44.753188,-0.037384,0.40036,1.03746,-2.532112,-0.166656,-0.767503,65.455582,-19.091812,-125.823715,,,
729861261.352049,41.906972,3.170551,44.753188,-0.037384,0.40036,1.03746,-2.532112,-0.166656,-0.767503,65.455582,-19.091812,-125.823715,,,
729861261.355399,41.181647,3.314449,44.534017,-0.037384,0.40036,1.03746,-2.508894,0.047835,-0.695281,65.455582,-19.091812,-125.823715,,,
729861261.358719,40.433268,3.471796,44.335372,-0.069382,0.494324,0.77507,-2.508894,0.047835,-0.695281,65.455582,-19.091812,-125.823715,,,
729861261.362071,40.433268,3.471796,44.335372,-0.069382,0.494324,0.77507,-2.508894,0.047835,-0.695281,66.792633,-16.353592,-130.382721,,,
729861261.365396,39.638186,3.642889,44.157221,-0.069382,0.494324,0.77507,-2.834596,0.249394,-0.632826,66.792633,-16.353592,-130.382721,,,
729861261.368719,38.772083,3.825309,43.998922,-0.056717,0.675613,0.458481,-2.834596,0.249394,-0.632826,66.792633,-16.353592,-130.382721,,,
729861261.372121,38.772083,3.825309,43.998922,-0.056717,0.675613,0.458481,-2.834596,0.249394,-0.632826,66.792633,-16.353592,-130.382721,,,
729861261.375389,37.806754,4.012507,43.858746,-0.056717,0.675613,0.458481,-3.525993,0.374533,-0.611303,66.792633,-16.353592,-130.382721,,,
729861261.378719,36.713339,4.196323,43.733834,-0.05101,0.831772,0.11795,-3.525993,0.374533,-0.611303,66.792633,-16.353592,-130.382721,,,
729861261.382067,36.713339,4.196323,43.733834,-0.05101,0.831772,0.11795,-3.525993,0.374533,-0.611303,66.792633,-16.353592,-130.382721,,,
729861261.385459,35.473814,4.37457,43.62133,-0.05101,0.831772,0.11795,-4.541359,0.400669,-0.652089,66.792633,-16.353592,-130.382721,,,
729861261.388721,34.090478,4.553396,43.519593,-0.044189,0.909683,-0.083572,-4.541359,0.400669,-0.652089,66.792633,-16.353592,-130.382721,,,
729861261.392054,34.090478,4.553396,43.519593,-0.044189,0.909683,-0.083572,-4.541359,0.400669,-0.652089,66.792633,-16.353592,-130.382721,,,
729861261.395391,32.576659,4.739486,43.429569,-0.044189,0.909683,-0.083572,-5.447581,0.510826,-0.698104,66.792633,-16.353592,-130.382721,,,
729861261.398718,30.940387,4.930219,43.354558,-0.069061,0.738373,-0.002411,-5.447581,0.510826,-0.698104,66.792633,-16.353592,-130.382721,,,
729861261.402053,30.940387,4.930219,43.354558,-0.069061,0.738373,-0.002411,-5.447581,0.510826,-0.698104,68.802155,-10.363586,-137.260544,,,
729861261.405391,29.190149,5.116917,43.295393,-0.069061,0.738373,-0.002411,-6.2412,0.551132,-0.717557,68.802155,-10.363586,-137.260544,,,
729861261.408721,27.375586,5.300168,43.246347,-0.072327,0.410782,0.142578,-6.2412,0.551132,-0.717557,68.802155,-10.363586,-137.260544,,,
729861261.412075,27.375586,5.300168,43.246347,-0.072327,0.410782,0.142578,-6.2412,0.551132,-0.717557,68.802155,-10.363586,-137.260544,,,
729861261.415405,25.596419,5.503892,43.195866,-0.072327,0.410782,0.142578,-5.991715,0.698941,-0.750811,68.802155,-10.363586,-137.260544,,,
729861261.418719,23.926634,5.765443,43.132809,-0.053009,0.046051,0.926636,-5.991715,0.698941,-0.750811,68.802155,-10.363586,-137.260544,,,
729861261.422098,23.926634,5.765443,43.132809,-0.053009,0.046051,0.926636,-5.991715,0.698941,-0.750811,68.802155,-10.363586,-137.260544,,,
729861261.425459,22.374984,6.101446,43.052817,-0.053009,0.046051,0.926636,-5.153062,1.182375,-0.838673,68.802155,-10.363586,-137.260544,,,
729861261.428834,20.914593,6.496916,42.962057,-0.053513,-0.288818,1.389648,-5.153062,1.182375,-0.838673,68.802155,-10.363586,-137.260544,,,
729861261.432068,20.914593,6.496916,42.962057,-0.053513,-0.288818,1.389648,-5.153062,1.182375,-0.838673,68.802155,-10.363586,-137.260544,,,
729861261.435413,19.518141,6.924868,42.873111,-0.053513,-0.288818,1.389648,-4.698731,1.42766,-0.852501,68.802155,-10.363586,-137.260544,,,
729861261.438712,18.190296,7.360667,42.796065,-0.170914,-0.463287,1.219162,-4.698731,1.42766,-0.852501,68.802155,-10.363586,-137.260544,,,
729861261.44205,18.190296,7.360667,42.796065,-0.170914,-0.463287,1.219162,-4.698731,1.42766,-0.852501,72.403976,-2.818558,-143.518539,,,
729861261.445391,16.95591,7.782063,42.734178,-0.170914,-0.463287,1.219162,-4.053314,1.370555,-0.738681,72.403976,-2.818558,-143.518539,,,
729861261.448717,15.822482,8.168474,42.686806,-0.289673,-0.347733,1.294373,-4.053314,1.370555,-0.738681,72.403976,-2.818558,-143.518539,,,
729861261.452072,15.822482,8.168474,42.686806,-0.289673,-0.347733,1.294373,-4.053314,1.370555,-0.738681,72.403976,-2.818558,-143.518539,,,
729861261.455232,14.771448,8.501789,42.657706,-0.289673,-0.347733,1.294373,-3.493824,1.040248,-0.584461,72.403976,-2.818558,-143.518539,,,
729861261.458747,13.772541,8.763722,42.655485,-0.352951,-0.08287,1.162247,-3.493824,1.040248,-0.584461,72.403976,-2.818558,-143.518539,,,
729861261.462164,13.772541,8.763722,42.655485,-0.352951,-0.08287,1.162247,-3.493824,1.040248,-0.584461,72.403976,-2.818558,-143.518539,,,
729861261.465409,12.798818,8.94216,42.685165,-0.352951,-0.08287,1.162247,-3.349546,0.50985,-0.370225,72.403976,-2.818558,-143.518539,,,
729861261.468756,11.826561,9.039781,42.744705,-0.384476,0.013153,0.851883,-3.349546,0.50985,-0.370225,72.403976,-2.818558,-143.518539,,,
729861261.472075,11.826561,9.039781,42.744705,-0.384476,0.013153,0.851883,-3.349546,0.50985,-0.370225,72.403976,-2.818558,-143.518539,,,
729861261.475449,10.831033,9.069639,42.828886,-0.384476,0.013153,0.851883,-3.536904,0.064547,-0.235641,72.403976,-2.818558,-143.518539,,,
729861261.478717,9.786801,9.045457,42.933062,-0.32312,0.07251,0.62706,-3.536904,0.064547,-0.235641,72.403976,-2.818558,-143.518539,,,
729861261.482048,9.786801,9.045457,42.933062,-0.32312,0.07251,0.62706,-3.536904,0.064547,-0.235641,72.403976,-2.818558,-143.518539,,,
729861261.485524,8.670826,8.97414,43.053745,-0.32312,0.07251,0.62706,-4.048925,-0.258899,-0.19341,74.758957,3.217133,-147.547287,,,
729861261.488702,7.478773,8.85776,43.185909,-0.255966,0.102554,0.458542,-4.048925,-0.258899,-0.19341,74.758957,3.217133,-147.547287,,,
729861261.492048,7.478773,8.85776,43.185909,-0.255966,0.102554,0.458542,-4.048925,-0.258899,-0.19341,74.758957,3.217133,-147.547287,,,
729861261.495404,6.241181,8.704663,43.320889,-0.255966,0.102554,0.458542,-4.366602,-0.531724,-0.200447,74.758957,3.217133,-147.547287,,,
729861261.498753,5.000339,8.530388,43.453992,-0.172272,0.009827,0.687469,-4.366602,-0.531724,-0.200447,74.758957,3.217133,-147.547287,,,
729861261.502073,5.000339,8.530388,43.453992,-0.172272,0.009827,0.687469,-4.366602,-0.531724,-0.200447,74.758957,3.217133,-147.547287,,,
729861261.505399,3.783474,8.347937,43.584734,-0.172272,0.009827,0.687469,-4.200309,-0.609771,-0.163367,74.758957,3.217133,-147.547287,,,
729861261.508713,2.618088,8.164856,43.709248,-0.160507,-0.240021,1.140366,-4.200309,-0.609771,-0.163367,74.758957,3.217133,-147.547287,,,
729861261.512136,2.618088,8.164856,43.709248,-0.160507,-0.240021,1.140366,-4.200309,-0.609771,-0.163367,74.758957,3.217133,-147.547287,,,
729861261.515409,1.560409,7.990411,43.819104,-0.160507,-0.240021,1.140366,-3.444103,-0.570187,-0.132758,74.758957,3.217133,-147.547287,,,
729861261.518721,0.678523,7.832236,43.907116,-0.124619,-0.419525,1.670364,-3.444103,-0.570187,-0.132758,74.758957,3.217133,-147.547287,,,
729861261.52206,0.678523,7.832236,43.907116,-0.124619,-0.419525,1.670364,-3.444103,-0.570187,-0.132758,74.758957,3.217133,-147.547287,,,
729861261.525475,0.016931,7.688211,43.971642,-0.124619,-0.419525,1.670364,-1.902066,-0.480915,-0.071303,74.706482,9.443634,-150.95578,,,
729861261.528705,-0.412626,7.553953,44.013737,-0.109741,-0.555008,2.265869,-1.902066,-0.480915,-0.071303,74.706482,9.443634,-150.95578,,,
729861261.532061,-0.412626,7.553953,44.013737,-0.109741,-0.555008,2.265869,-1.902066,-0.480915,-0.071303,74.706482,9.443634,-150.95578,,,
729861261.535417,-0.626171,7.431649,44.032197,-0.109741,-0.555008,2.265869,-0.388287,-0.39765,-0.031618,74.706482,9.443634,-150.95578,,,
729861261.538732,-0.651968,7.327189,44.02352,-0.109741,-0.555008,2.265869,-0.388287,-0.39765,-0.031618,74.706482,9.443634,-150.95578,,,
729861261.542077,-0.651968,7.327189,44.02352,-0.095474,-0.475311,2.327301,-0.388287,-0.39765,-0.031618,74.706482,9.443634,-150.95578,,,
729861261.545406,-0.525917,7.24355,43.990328,-0.095474,-0.475311,2.327301,0.682489,-0.250968,-0.066608,74.706482,9.443634,-150.95578,,,
729861261.548711,-0.291101,7.17843,43.941122,-0.041153,-0.296631,2.02095,0.682489,-0.250968,-0.066608,74.706482,9.443634,-150.95578,,,
729861261.552053,-0.291101,7.17843,43.941122,-0.041153,-0.296631,2.02095,0.682489,-0.250968,-0.066608,74.706482,9.443634,-150.95578,,,
729861261.555395,0.005473,7.128917,43.885089,-0.041153,-0.296631,2.02095,1.115104,-0.143802,-0.061897,74.706482,9.443634,-150.95578,,,
729861261.558716,0.318011,7.091875,43.830453,-0.048813,-0.221405,1.552551,1.115104,-0.143802,-0.061897,74.706482,9.443634,-150.95578,,,
729861261.562121,0.318011,7.091875,43.830453,-0.048813,-0.221405,1.552551,1.115104,-0.143802,-0.061897,74.706482,9.443634,-150.95578,,,
729861261.565427,0.611795,7.064495,43.781302,-0.048813,-0.221405,1.552551,0.980638,-0.078336,-0.041332,74.542007,8.045914,-151.897675,,,
729861261.56873,0.867797,7.04647,43.73838,-0.06868,-0.083618,1.185257,0.980638,-0.078336,-0.041332,74.542007,8.045914,-151.897675,,,
729861261.572059,0.867797,7.04647,43.73838,-0.06868,-0.083618,1.185257,0.980638,-0.078336,-0.041332,74.542007,8.045914,-151.897675,,,
729861261.575447,1.07393,7.036828,43.701896,-0.06868,-0.083618,1.185257,0.630256,-0.020585,-0.039866,74.542007,8.045914,-151.897675,,,
729861261.578769,1.221131,7.031722,43.673109,-0.095871,0.036758,1.038651,0.630256,-0.020585,-0.039866,74.542007,8.045914,-151.897675,,,
729861261.582051,1.221131,7.031722,43.673109,-0.095871,0.036758,1.038651,0.630256,-0.020585,-0.039866,74.542007,8.045914,-151.897675,,,
729861261.58541,1.305484,7.02584,43.655155,-0.095871,0.036758,1.038651,0.186394,-0.024985,-0.018691,74.542007,8.045914,-151.897675,,,
729861261.588799,1.32913,7.013128,43.650311,-0.168839,0.094376,0.953217,0.186394,-0.024985,-0.018691,74.542007,8.045914,-151.897675,,,
729861261.592052,1.32913,7.013128,43.650311,-0.168839,0.094376,0.953217,0.186394,-0.024985,-0.018691,74.542007,8.045914,-151.897675,,,
729861261.595402,1.300897,6.98975,43.658957,-0.168839,0.094376,0.953217,-0.183913,-0.09736,0.030447,74.542007,8.045914,-151.897675,,,
729861261.598715,1.232911,6.956507,43.68088,-0.219162,0.110016,0.967529,-0.183913,-0.09736,0.030447,74.542007,8.045914,-151.897675,,,
729861261.602057,1.232911,6.956507,43.68088,-0.219162,0.110016,0.967529,-0.183913,-0.09736,0.030447,74.542007,8.045914,-151.897675,,,
729861261.605254,1.136785,6.917719,43.715458,-0.219162,0.110016,0.967529,-0.389196,-0.134621,0.094499,74.595673,8.172302,-152.304459,,,
729861261.6088,1.021108,6.878499,43.761919,-0.257019,0.087158,1.063766,-0.389196,-0.134621,0.094499,74.595673,8.172302,-152.304459,,,
729861261.612046,1.021108,6.878499,43.761919,-0.257019,0.087158,1.063766,-0.389196,-0.134621,0.094499,74.595673,8.172302,-152.304459,,,
729861261.615409,0.894435,6.841343,43.818956,-0.257019,0.087158,1.063766,-0.474002,-0.119919,0.159042,74.595673,8.172302,-152.304459,,,
729861261.618715,0.767217,6.805621,43.883352,-0.272369,0.069733,1.120026,-0.474002,-0.119919,0.159042,74.595673,8.172302,-152.304459,,,
729861261.622062,0.767217,6.805621,43.883352,-0.272369,0.069733,1.120026,-0.474002,-0.119919,0.159042,74.595673,8.172302,-152.304459,,,
729861261.625448,0.650495,6.77223,43.949336,-0.272369,0.069733,1.120026,-0.402598,-0.10472,0.179209,74.595673,8.172302,-152.304459,,,
729861261.628741,0.555944,6.744243,44.012055,-0.224197,0.043427,1.19696,-0.402598,-0.10472,0.179209,74.595673,8.172302,-152.304459,,,
729861261.632057,0.555944,6.744243,44.012055,-0.224197,0.043427,1.19696,-0.402598,-0.10472,0.179209,74.595673,8.172302,-152.304459,,,
729861261.63539,0.498914,6.724109,44.067435,-0.224197,0.043427,1.19696,-0.136986,-0.051259,0.159383,74.595673,8.172302,-152.304459,,,
729861261.63875,0.492451,6.708449,44.112062,-0.196716,-0.027832,1.333496,-0.136986,-0.051259,0.159383,74.595673,8.172302,-152.304459,,,
729861261.642062,0.492451,6.708449,44.112062,-0.196716,-0.027832,1.333496,-0.136986,-0.051259,0.159383,74.595673,8.172302,-152.304459,,,
729861261.645405,0.540333,6.692536,44.145602,-0.196716,-0.027832,1.333496,0.247991,-0.053782,0.126886,74.595673,8.172302,-152.304459,,,
729861261.648715,0.638763,6.675514,44.169439,-0.209091,-0.061066,1.387131,0.247991,-0.053782,0.126886,74.528305,8.592194,-152.334946,,,
729861261.652063,0.638763,6.675514,44.169439,-0.209091,-0.061066,1.387131,0.247991,-0.053782,0.126886,74.528305,8.592194,-152.334946,,,
729861261.655414,0.779983,6.65955,44.18635,-0.209091,-0.061066,1.387131,0.549479,-0.046833,0.113301,74.528305,8.592194,-152.334946,,,
729861261.658732,0.956901,6.649547,44.200497,-0.212769,-0.044998,1.334503,0.549479,-0.046833,0.113301,74.528305,8.592194,-152.334946,,,
729861261.662054,0.956901,6.649547,44.200497,-0.212769,-0.044998,1.334503,0.549479,-0.046833,0.113301,74.528305,8.592194,-152.334946,,,
729861261.665471,1.164694,6.651937,44.216349,-0.212769,-0.044998,1.334503,0.761594,0.039829,0.149862,74.528305,8.592194,-152.334946,,,
729861261.668748,1.395141,6.670706,44.237923,-0.205032,-0.04776,1.290833,0.761594,0.039829,0.149862,74.528305,8.592194,-152.334946,,,
729861261.672075,1.395141,6.670706,44.237923,-0.205032,-0.04776,1.290833,0.761594,0.039829,0.149862,74.528305,8.592194,-152.334946,,,
729861261.675403,1.636867,6.705908,44.267403,-0.205032,-0.04776,1.290833,0.832857,0.156139,0.214376,74.528305,8.592194,-152.334946,,,
729861261.678746,1.636867,6.754183,44.305525,-0.205032,-0.04776,1.290833,0.832857,0.156139,0.214376,74.528305,8.592194,-152.334946,,,
729861261.682056,1.878397,6.754183,44.305525,-0.207123,-0.018372,1.182968,0.832857,0.156139,0.214376,74.528305,8.592194,-152.334946,,,
729861261.685399,2.108435,6.80896,44.352171,-0.207123,-0.018372,1.182968,0.74565,0.204324,0.265258,74.528305,8.592194,-152.334946,,,
729861261.68873,2.316915,6.862317,44.406579,-0.207565,0.051468,1.019897,0.74565,0.204324,0.265258,74.367157,7.232925,-151.215912,,,
729861261.692155,2.316915,6.862317,44.406579,-0.207565,0.051468,1.019897,0.74565,0.204324,0.265258,74.367157,7.232925,-151.215912,,,
729861261.695406,2.496083,6.908066,44.468424,-0.207565,0.051468,1.019897,0.535879,0.154486,0.293246,74.367157,7.232925,-151.215912,,,
729861261.698775,2.638303,6.941893,44.536338,-0.207413,0.101013,0.865967,0.535879,0.154486,0.293246,74.367157,7.232925,-151.215912,,,
729861261.702068,2.638303,6.941893,44.536338,-0.207413,0.101013,0.865967,0.535879,0.154486,0.293246,74.367157,7.232925,-151.215912,,,
729861261.705393,2.737788,6.961117,44.609051,-0.207413,0.101013,0.865967,0.235648,0.055052,0.290723,74.367157,7.232925,-151.215912,,,
729861261.708776,2.790803,6.965158,44.686573,-0.19989,0.14534,0.753708,0.235648,0.055052,0.290723,74.367157,7.232925,-151.215912,,,
729861261.71206,2.790803,6.965158,44.686573,-0.19989,0.14534,0.753708,0.235648,0.055052,0.290723,74.367157,7.232925,-151.215912,,,
729861261.71547,2.797893,6.954753,44.767889,-0.19989,0.14534,0.753708,-0.085495,-0.044235,0.27792,74.367157,7.232925,-151.215912,,,
729861261.718709,2.797893,6.954753,44.767889,-0.19989,0.158264,0.726791,-0.085495,-0.044235,0.27792,74.367157,7.232925,-151.215912,,,
729861261.722054,2.766249,6.93187,44.851312,-0.175949,0.158264,0.726791,-0.085495,-0.044235,0.27792,74.367157,7.232925,-151.215912,,,
729861261.725402,2.708217,6.900262,44.935586,-0.175949,0.158264,0.726791,-0.268708,-0.105306,0.261788,74.367157,7.232925,-151.215912,,,
729861261.728718,2.708217,6.900262,44.935586,-0.159958,0.122955,0.824524,-0.268708,-0.105306,0.261788,73.917191,7.170303,-151.017715,,,
729861261.732059,2.637308,6.862542,45.019931,-0.159958,0.122955,0.824524,-0.268708,-0.105306,0.261788,73.917191,7.170303,-151.017715,,,
729861261.735393,2.566648,6.819283,45.103121,-0.159958,0.122955,0.824524,-0.265851,-0.145035,0.254401,73.917191,7.170303,-151.017715,,,
729861261.738726,2.566648,6.819283,45.103121,-0.159958,0.122955,0.824524,-0.265851,-0.145035,0.254401,73.917191,7.170303,-151.017715,,,
729861261.742137,2.50973,6.770099,45.182014,-0.139099,0.061371,0.96106,-0.265851,-0.145035,0.254401,73.917191,7.170303,-151.017715,,,
729861261.745398,2.478536,6.717044,45.253375,-0.139099,0.061371,0.96106,-0.081441,-0.174717,0.223763,73.917191,7.170303,-151.017715,,,
729861261.748769,2.478536,6.663393,45.314697,-0.088303,0.01062,1.074188,-0.081441,-0.174717,0.223763,73.917191,7.170303,-151.017715,,,
729861261.752092,2.478394,6.663393,45.314697,-0.088303,0.01062,1.074188,-0.081441,-0.174717,0.223763,73.917191,7.170303,-151.017715,,,
729861261.75539,2.509526,6.612471,45.364166,-0.088303,0.01062,1.074188,0.144743,-0.159194,0.167056,73.917191,7.170303,-151.017715,,,
729861261.758759,2.509526,6.612471,45.364166,-0.088303,0.01062,1.074188,0.144743,-0.159194,0.167056,73.917191,7.170303,-151.017715,,,
729861261.762065,2.566046,6.565912,45.402059,-0.054764,-0.003845,1.099152,0.144743,-0.159194,0.167056,73.917191,7.170303,-151.017715,,,
729861261.765465,2.637688,6.523767,45.43026,-0.054764,-0.003845,1.099152,0.257168,-0.131231,0.111768,73.917191,7.170303,-151.017715,,,
729861261.768784,2.637688,6.523767,45.43026,-0.054764,-0.003845,1.099152,0.257168,-0.131231,0.111768,73.917191,7.170303,-151.017715,,,
729861261.772066,2.715306,6.489199,45.451538,-0.040985,0.029526,1.019043,0.257168,-0.131231,0.111768,73.356705,7.102432,-150.521637,,,
729861261.775392,2.791878,6.467052,45.468931,-0.040985,0.029526,1.019043,0.252802,-0.045804,0.083787,73.356705,7.102432,-150.521637,,,
729861261.778792,2.791878,6.467052,45.468931,-0.040985,0.029526,1.019043,0.252802,-0.045804,0.083787,73.356705,7.102432,-150.521637,,,
729861261.782061,2.861589,6.460747,45.48527,-0.027328,0.057785,0.960083,0.252802,-0.045804,0.083787,73.356705,7.102432,-150.521637,,,
729861261.785391,2.917805,6.472349,45.50173,-0.027328,0.057785,0.960083,0.159104,0.079033,0.073984,73.356705,7.102432,-150.521637,,,
729861261.788751,2.917805,6.472349,45.50173,-0.027328,0.057785,0.960083,0.159104,0.079033,0.073984,73.356705,7.102432,-150.521637,,,
729861261.792122,2.955418,6.500599,45.51859,-0.021576,0.074081,0.903549,0.159104,0.079033,0.073984,73.356705,7.102432,-150.521637,,,
729861261.795383,2.971924,6.541698,45.535694,-0.021576,0.074081,0.903549,0.012561,0.168565,0.059078,73.356705,7.102432,-150.521637,,,
729861261.798777,2.971924,6.541698,45.535694,-0.021576,0.074081,0.903549,0.012561,0.168565,0.059078,73.356705,7.102432,-150.521637,,,
729861261.802065,2.966305,6.591793,45.552292,-0.029617,0.092407,0.842667,0.012561,0.168565,0.059078,73.356705,7.102432,-150.521637,,,
729861261.805463,2.941432,6.646459,45.568508,-0.029617,0.092407,0.842667,-0.120636,0.20011,0.040958,73.356705,7.102432,-150.521637,,,
729861261.808751,2.941432,6.646459,45.568508,-0.029617,0.092407,0.842667,-0.120636,0.20011,0.040958,73.356705,7.102432,-150.521637,,,
729861261.812064,2.901936,6.700684,45.585001,-0.047882,0.083649,0.837296,-0.120636,0.20011,0.040958,73.44577,7.102814,-150.077591,,,
729861261.815419,2.850502,6.74969,45.602353,-0.047882,0.083649,0.837296,-0.20414,0.163813,0.036867,73.44577,7.102814,-150.077591,,,
729861261.81875,2.850502,6.74969,45.602353,-0.047882,0.083649,0.837296,-0.20414,0.163813,0.036867,73.44577,7.102814,-150.077591,,,
729861261.822071,2.788829,6.790594,45.6197,-0.073868,0.069153,0.847122,-0.20414,0.163813,0.036867,73.44577,7.102814,-150.077591,,,
729861261.825418,2.719178,6.823805,45.636412,-0.073868,0.069153,0.847122,-0.258971,0.109713,0.025594,73.44577,7.102814,-150.077591,,,
729861261.828801,2.719178,6.823805,45.636412,-0.073868,0.069153,0.847122,-0.258971,0.109713,0.025594,73.44577,7.102814,-150.077591,,,
729861261.832047,2.643616,6.853513,45.652991,-0.07962,0.059143,0.869217,-0.258971,0.109713,0.025594,73.44577,7.102814,-150.077591,,,
729861261.835418,2.565825,6.885195,45.670648,-0.07962,0.059143,0.869217,-0.275305,0.123438,0.03084,73.44577,7.102814,-150.077591,,,
729861261.83872,2.565825,6.885195,45.670648,-0.07962,0.059143,0.869217,-0.275305,0.123438,0.03084,73.44577,7.102814,-150.077591,,,
729861261.842133,2.490892,6.919291,45.690608,-0.097015,0.026108,0.932419,-0.275305,0.123438,0.03084,73.44577,7.102814,-150.077591,,,
729861261.8454,2.424439,6.951217,45.711964,-0.097015,0.026108,0.932419,-0.217986,0.10842,0.047283,73.44577,7.102814,-150.077591,,,
729861261.848732,2.424439,6.951217,45.711964,-0.097015,0.026108,0.932419,-0.217986,0.10842,0.047283,73.44577,7.102814,-150.077591,,,
729861261.852055,2.372862,6.973177,45.731895,-0.096344,0.018112,0.983734,-0.217986,0.10842,0.047283,73.652908,7.599899,-149.839279,,,
729861261.855389,2.340877,6.978763,45.746203,-0.096344,0.018112,0.983734,-0.077879,-0.007491,0.024965,73.652908,7.599899,-149.839279,,,
729861261.858742,2.340877,6.978763,45.746203,-0.096344,0.018112,0.983734,-0.077879,-0.007491,0.024965,73.652908,7.599899,-149.839279,,,
729861261.862068,2.328407,6.970427,45.750467,-0.065247,0.008972,1.020737,-0.077879,-0.007491,0.024965,73.652908,7.599899,-149.839279,,,
729861261.865456,2.33285,6.956109,45.742213,-0.065247,0.008972,1.020737,0.049527,-0.052852,-0.047137,73.652908,7.599899,-149.839279,,,
729861261.868725,2.33285,6.956109,45.742213,-0.065247,0.008972,1.020737,0.049527,-0.052852,-0.047137,73.652908,7.599899,-149.839279,,,
729861261.87207,2.348925,6.940779,45.722435,-0.057495,-0.003235,1.040878,0.049527,-0.052852,-0.047137,73.652908,7.599899,-149.839279,,,
729861261.875396,2.370107,6.925289,45.695257,-0.057495,-0.003235,1.040878,0.090922,-0.056313,-0.094047,73.652908,7.599899,-149.839279,,,
729861261.878782,2.370107,6.925289,45.695257,-0.057495,-0.003235,1.040878,0.090922,-0.056313,-0.094047,73.652908,7.599899,-149.839279,,,
729861261.882055,2.393111,6.906696,45.665285,-0.064896,0.019104,0.989838,0.090922,-0.056313,-0.094047,73.652908,7.599899,-149.839279,,,
729861261.885388,2.412269,6.888528,45.636257,-0.064896,0.019104,0.989838,0.069486,-0.066142,-0.089514,73.652908,7.599899,-149.839279,,,
729861261.888665,2.412269,6.888528,45.636257,-0.064896,0.019104,0.989838,0.069486,-0.066142,-0.089514,73.652908,7.599899,-149.839279,,,
