Time (sec),Pitch (deg),Roll (deg),Yaw(deg),X-Acceleration (g),Y-Acceleration (g),Z-Acceleration (g),Pitch Rate (deg/sec),Roll Rate (deg/sec),Yaw Rate (deg/sec),Magnetic Field in X direction (uT),Magnetic Field in Y direction (uT),Magnetic Field in Z Direction (uT),Latitude (deg),Longitude (deg),Altitude (m)
729862126.149208,0.30638,6.206698,49.924084,-0.103394,0.013702,0.979691,-0.011912,-0.013055,0.020359,59.927505,14.925217,-154.368439,,,
729862126.152539,0.303381,6.202244,49.930243,-0.103394,0.013702,0.979691,-0.011912,-0.013055,0.020359,59.927505,14.925217,-154.368439,,,
729862126.15588,0.303381,6.202244,49.930243,-0.103394,0.013702,0.979691,-0.011912,-0.013055,0.020359,59.927505,14.925217,-154.368439,,,
729862126.159222,0.300756,6.205117,49.935981,-0.099365,0.00975,0.990982,-0.009131,-0.002246,0.017932,59.927505,14.925217,-154.368439,,,
729862126.162539,0.29893,6.205229,49.941668,-0.099365,0.00975,0.990982,-0.009131,-0.002246,0.017932,59.927505,14.925217,-154.368439,,,
729862126.165867,0.29893,6.205229,49.941668,-0.099365,0.00975,0.990982,-0.009131,-0.002246,0.017932,59.927505,14.925217,-154.368439,,,
729862126.169253,0.297357,6.211711,49.946676,-0.097733,0.00531,1.004242,0.001461,0.013936,0.014498,59.927505,14.925217,-154.368439,,,
729862126.172582,0.29863,6.215374,49.95092,-0.097733,0.00531,1.004242,0.001461,0.013936,0.014498,59.927505,14.925217,-154.368439,,,
729862126.175702,0.29863,6.215374,49.95092,-0.097733,0.00531,1.004242,0.001461,0.013936,0.014498,59.927505,14.925217,-154.368439,,,
729862126.179227,0.298971,6.22441,49.954206,-0.097519,0.006241,1.006668,0.009682,0.023455,0.008857,59.927505,14.925217,-154.368439,,,
729862126.182529,0.302738,6.230562,49.956409,-0.097519,0.006241,1.006668,0.009682,0.023455,0.008857,59.927505,14.925217,-154.368439,,,
729862126.185861,0.302738,6.230562,49.956409,-0.097519,0.006241,1.006668,0.009682,0.023455,0.008857,59.950928,15.167633,-154.276718,,,
729862126.189263,0.305446,6.241463,49.958667,-0.101913,0.006485,1.006042,0.017086,0.022589,0.010268,59.950928,15.167633,-154.276718,,,
729862126.192523,0.311142,6.246601,49.961435,-0.101913,0.006485,1.006042,0.017086,0.022589,0.010268,59.950928,15.167633,-154.276718,,,
729862126.195875,0.311142,6.246601,49.961435,-0.101913,0.006485,1.006042,0.017086,0.022589,0.010268,59.950928,15.167633,-154.276718,,,
729862126.199239,0.316792,6.25618,49.964686,-0.108521,0.006165,0.997833,0.025274,0.014546,0.014793,59.950928,15.167633,-154.276718,,,
729862126.202532,0.325283,6.258094,49.968905,-0.108521,0.006165,0.997833,0.025274,0.014546,0.014793,59.950928,15.167633,-154.276718,,,
729862126.205867,0.325283,6.258094,49.968905,-0.108521,0.006165,0.997833,0.025274,0.014546,0.014793,59.950928,15.167633,-154.276718,,,
729862126.209197,0.335559,6.261032,49.973415,-0.107697,0.006012,0.997314,0.031946,-0.005581,0.017749,59.950928,15.167633,-154.276718,,,
729862126.212529,0.344515,6.257056,49.977248,-0.107697,0.006012,0.997314,0.031946,-0.005581,0.017749,59.950928,15.167633,-154.276718,,,
729862126.215921,0.344515,6.257056,49.977248,-0.107697,0.006012,0.997314,0.031946,-0.005581,0.017749,59.950928,15.167633,-154.276718,,,
729862126.219199,0.352407,6.252679,49.980332,-0.103897,0.009888,0.986694,0.016711,-0.019601,0.010883,59.950928,15.167633,-154.276718,,,
729862126.222531,0.355981,6.245844,49.983127,-0.103897,0.009888,0.986694,0.016711,-0.019601,0.010883,59.950928,15.167633,-154.276718,,,
729862126.225858,0.355981,6.245844,49.983127,-0.103897,0.009888,0.986694,0.016711,-0.019601,0.010883,60.077972,15.315689,-154.14679,,,
729862126.22923,0.357996,6.238093,49.985921,-0.094467,0.014328,0.977539,-0.005909,-0.017971,0.008368,60.077972,15.315689,-154.14679,,,
729862126.232603,0.354875,6.233414,49.988324,-0.094467,0.014328,0.977539,-0.005909,-0.017971,0.008368,60.077972,15.315689,-154.14679,,,
729862126.235916,0.354875,6.233414,49.988324,-0.094467,0.014328,0.977539,-0.005909,-0.017971,0.008368,60.077972,15.315689,-154.14679,,,
729862126.23921,0.349345,6.229007,49.989203,-0.088928,0.015625,0.98317,-0.029808,0.007126,-0.005041,60.077972,15.315689,-154.14679,,,
729862126.242537,0.339448,6.233215,49.988274,-0.088928,0.015625,0.98317,-0.029808,0.007126,-0.005041,60.077972,15.315689,-154.14679,,,
729862126.245878,0.339448,6.233215,49.988274,-0.088928,0.015625,0.98317,-0.029808,0.007126,-0.005041,60.077972,15.315689,-154.14679,,,
729862126.249197,0.328664,6.23731,49.986897,-0.09404,0.015167,0.996277,-0.036108,0.039139,-0.009081,60.077972,15.315689,-154.14679,,,
729862126.252533,0.317841,6.248562,49.985897,-0.09404,0.015167,0.996277,-0.036108,0.039139,-0.009081,60.077972,15.315689,-154.14679,,,
729862126.255982,0.317841,6.248562,49.985897,-0.09404,0.015167,0.996277,-0.036108,0.039139,-0.009081,60.077972,15.315689,-154.14679,,,
729862126.259202,0.308754,6.25517,49.984876,-0.105637,0.008148,0.999695,-0.024674,0.043936,-0.008189,60.077972,15.315689,-154.14679,,,
729862126.262539,0.303047,6.265699,49.9839,-0.105637,0.008148,0.999695,-0.024674,0.043936,-0.008189,60.077972,15.315689,-154.14679,,,
729862126.265869,0.303047,6.265699,49.9839,-0.105637,0.008148,0.999695,-0.024674,0.043936,-0.008189,60.113388,15.39183,-154.247192,,,
729862126.269281,0.301521,6.269329,49.983253,-0.116333,0.005615,1.001923,0.0014,0.026229,-0.003166,60.113388,15.39183,-154.247192,,,
729862126.272529,0.303046,6.275545,49.98288,-0.116333,0.005615,1.001923,0.0014,0.026229,-0.003166,60.113388,15.39183,-154.247192,,,
729862126.275882,0.303046,6.275545,49.98288,-0.116333,0.005615,1.001923,0.0014,0.026229,-0.003166,60.113388,15.39183,-154.247192,,,
729862126.279211,0.307797,6.279112,49.982698,-0.12085,0.000336,1.007385,0.022387,0.017552,0.000516,60.113388,15.39183,-154.247192,,,
729862126.282547,0.314557,6.282854,49.982925,-0.12085,0.000336,1.007385,0.022387,0.017552,0.000516,60.113388,15.39183,-154.247192,,,
729862126.285878,0.314557,6.282854,49.982925,-0.12085,0.000336,1.007385,0.022387,0.017552,0.000516,60.113388,15.39183,-154.247192,,,
729862126.289215,0.322747,6.285095,49.984022,-0.12323,0.000488,1.000183,0.031233,0.010024,0.007523,60.113388,15.39183,-154.247192,,,
729862126.292536,0.332533,6.286436,49.986175,-0.12323,0.000488,1.000183,0.031233,0.010024,0.007523,60.113388,15.39183,-154.247192,,,
729862126.295959,0.332533,6.286436,49.986175,-0.12323,0.000488,1.000183,0.031233,0.010024,0.007523,60.113388,15.39183,-154.247192,,,
729862126.299201,0.344489,6.284179,49.989114,-0.123764,0.002838,1.000137,0.0417,-0.002871,0.014062,60.113388,15.39183,-154.247192,,,
729862126.302533,0.35731,6.282074,49.991889,-0.123764,0.002838,1.000137,0.0417,-0.002871,0.014062,60.113388,15.39183,-154.247192,,,
729862126.305865,0.35731,6.282074,49.991889,-0.123764,0.002838,1.000137,0.0417,-0.002871,0.014062,60.113388,15.39183,-154.247192,,,
729862126.309262,0.372702,6.274927,49.994597,-0.117859,0.005951,1.002197,0.047655,-0.005924,0.014098,60.10611,15.530411,-154.089188,,,
729862126.312524,0.385985,6.272468,49.997595,-0.117859,0.005951,1.002197,0.047655,-0.005924,0.014098,60.10611,15.530411,-154.089188,,,
729862126.315867,0.385985,6.272468,49.997595,-0.117859,0.005951,1.002197,0.047655,-0.005924,0.014098,60.10611,15.530411,-154.089188,,,
729862126.319214,0.400369,6.262022,50.000728,-0.115891,0.007507,0.994598,0.041081,-0.00603,0.014,60.10611,15.530411,-154.089188,,,
729862126.322529,0.411356,6.25843,50.004158,-0.115891,0.007507,0.994598,0.041081,-0.00603,0.014,60.10611,15.530411,-154.089188,,,
729862126.325865,0.411356,6.25843,50.004158,-0.115891,0.007507,0.994598,0.041081,-0.00603,0.014,60.10611,15.530411,-154.089188,,,
729862126.32921,0.422572,6.246285,50.008543,-0.111038,0.014221,0.98175,0.027032,-0.014275,0.018748,60.10611,15.530411,-154.089188,,,
729862126.33253,0.428988,6.242158,50.012891,-0.111038,0.014221,0.98175,0.027032,-0.014275,0.018748,60.10611,15.530411,-154.089188,,,
729862126.335946,0.428988,6.242158,50.012891,-0.111038,0.014221,0.98175,0.027032,-0.014275,0.018748,60.10611,15.530411,-154.089188,,,
729862126.339213,0.432162,6.237191,50.016687,-0.105148,0.014755,0.980453,0.001603,-0.000732,0.011991,60.10611,15.530411,-154.089188,,,
729862126.34253,0.431587,6.237136,50.020361,-0.105148,0.014755,0.980453,0.001603,-0.000732,0.011991,60.10611,15.530411,-154.089188,,,
729862126.345882,0.431587,6.237136,50.020361,-0.105148,0.014755,0.980453,0.001603,-0.000732,0.011991,60.10611,15.530411,-154.089188,,,
729862126.349269,0.427277,6.24108,50.024698,-0.104233,0.017258,0.974548,-0.022005,0.014247,0.014134,60.124603,15.487518,-154.301895,,,
729862126.352523,0.419721,6.244896,50.030277,-0.104233,0.017258,0.974548,-0.022005,0.014247,0.014134,60.124603,15.487518,-154.301895,,,
729862126.355876,0.419721,6.244896,50.030277,-0.104233,0.017258,0.974548,-0.022005,0.014247,0.014134,60.124603,15.487518,-154.301895,,,
729862126.359218,0.407885,6.253865,50.036627,-0.105118,0.02037,0.965302,-0.043086,0.022175,0.017443,60.124603,15.487518,-154.301895,,,
729862126.362523,0.395716,6.259224,50.043405,-0.105118,0.02037,0.965302,-0.043086,0.022175,0.017443,60.124603,15.487518,-154.301895,,,
729862126.365876,0.395716,6.259224,50.043405,-0.105118,0.02037,0.965302,-0.043086,0.022175,0.017443,60.124603,15.487518,-154.301895,,,
729862126.369195,0.381972,6.269854,50.04954,-0.098434,0.019165,0.969086,-0.043534,0.023078,0.013143,60.124603,15.487518,-154.301895,,,
729862126.372531,0.370408,6.275985,50.054869,-0.098434,0.019165,0.969086,-0.043534,0.023078,0.013143,60.124603,15.487518,-154.301895,,,
729862126.375909,0.370408,6.275985,50.054869,-0.098434,0.019165,0.969086,-0.043534,0.023078,0.013143,60.124603,15.487518,-154.301895,,,
729862126.379211,0.359306,6.289167,50.058925,-0.095764,0.011368,0.984436,-0.032506,0.031471,0.005699,60.124603,15.487518,-154.301895,,,
729862126.382531,0.351506,6.298083,50.06151,-0.095764,0.011368,0.984436,-0.032506,0.031471,0.005699,60.124603,15.487518,-154.301895,,,
729862126.38588,0.351506,6.298083,50.06151,-0.095764,0.011368,0.984436,-0.032506,0.031471,0.005699,60.124603,15.487518,-154.301895,,,
729862126.389204,0.347099,6.312239,50.062639,-0.09375,0.006363,0.998016,-0.008107,0.044165,-0.001686,60.257904,15.595139,-154.400681,,,
729862126.392532,0.346394,6.324422,50.061984,-0.09375,0.006363,0.998016,-0.008107,0.044165,-0.001686,60.257904,15.595139,-154.400681,,,
729862126.395874,0.346394,6.324422,50.061984,-0.09375,0.006363,0.998016,-0.008107,0.044165,-0.001686,60.257904,15.595139,-154.400681,,,
729862126.399259,0.349179,6.338867,50.060188,-0.093796,0.000275,1.007339,0.016251,0.044317,-0.006899,60.257904,15.595139,-154.400681,,,
729862126.40252,0.354885,6.349422,50.057178,-0.093796,0.000275,1.007339,0.016251,0.044317,-0.006899,60.257904,15.595139,-154.400681,,,
729862126.40596,0.354885,6.349422,50.057178,-0.093796,0.000275,1.007339,0.016251,0.044317,-0.006899,60.257904,15.595139,-154.400681,,,
729862126.409196,0.363437,6.359361,50.052825,-0.099045,-0.000336,0.999817,0.026263,0.030643,-0.015136,60.257904,15.595139,-154.400681,,,
729862126.412567,0.370559,6.366848,50.047712,-0.099045,-0.000336,0.999817,0.026263,0.030643,-0.015136,60.257904,15.595139,-154.400681,,,
729862126.415868,0.370559,6.366848,50.047712,-0.099045,-0.000336,0.999817,0.026263,0.030643,-0.015136,60.257904,15.595139,-154.400681,,,
729862126.419226,0.3795,6.371649,50.042683,-0.103287,0.004593,0.993668,0.025233,0.020107,-0.014734,60.257904,15.595139,-154.400681,,,
729862126.422566,0.384574,6.376122,50.038351,-0.103287,0.004593,0.993668,0.025233,0.020107,-0.014734,60.257904,15.595139,-154.400681,,,
729862126.425941,0.384574,6.376122,50.038351,-0.103287,0.004593,0.993668,0.025233,0.020107,-0.014734,60.257904,15.595139,-154.400681,,,
729862126.429191,0.388915,6.377138,50.034564,-0.10849,0.007614,0.982208,0.004738,0.011427,-0.013289,60.518082,15.424835,-154.425095,,,
729862126.432556,0.388076,6.378206,50.03182,-0.10849,0.007614,0.982208,0.004738,0.011427,-0.013289,60.518082,15.424835,-154.425095,,,
729862126.435867,0.388076,6.378206,50.03182,-0.10849,0.007614,0.982208,0.004738,0.011427,-0.013289,60.518082,15.424835,-154.425095,,,
729862126.439268,0.387328,6.375767,50.030335,-0.114548,0.010208,0.975235,-0.014837,-0.004391,-0.006691,60.518082,15.424835,-154.425095,,,
729862126.442591,0.38101,6.372648,50.029416,-0.114548,0.010208,0.975235,-0.014837,-0.004391,-0.006691,60.518082,15.424835,-154.425095,,,
729862126.445859,0.38101,6.372648,50.029416,-0.114548,0.010208,0.975235,-0.014837,-0.004391,-0.006691,60.518082,15.424835,-154.425095,,,
729862126.449198,0.376778,6.364264,50.029327,-0.117462,0.011551,0.976669,-0.023062,-0.020253,-0.001839,60.518082,15.424835,-154.425095,,,
729862126.45257,0.369786,6.357394,50.030168,-0.117462,0.011551,0.976669,-0.023062,-0.020253,-0.001839,60.518082,15.424835,-154.425095,,,
729862126.455875,0.369786,6.357394,50.030168,-0.117462,0.011551,0.976669,-0.023062,-0.020253,-0.001839,60.518082,15.424835,-154.425095,,,
729862126.459206,0.364981,6.343931,50.031752,-0.116714,0.008591,0.983994,-0.018508,-0.029053,0.003627,60.518082,15.424835,-154.425095,,,
729862126.462574,0.360451,6.334183,50.033266,-0.116714,0.008591,0.983994,-0.018508,-0.029053,0.003627,60.518082,15.424835,-154.425095,,,
729862126.465928,0.360451,6.334183,50.033266,-0.116714,0.008591,0.983994,-0.018508,-0.029053,0.003627,60.518082,15.424835,-154.425095,,,
729862126.469204,0.357851,6.317236,50.03414,-0.116425,0.007889,0.988449,-0.006857,-0.032545,0.000102,60.518082,15.424835,-154.425095,,,
729862126.472564,0.357339,6.308088,50.034712,-0.116425,0.007889,0.988449,-0.006857,-0.032545,0.000102,60.124985,15.601334,-154.456543,,,
729862126.475874,0.357339,6.308088,50.034712,-0.116425,0.007889,0.988449,-0.006857,-0.032545,0.000102,60.124985,15.601334,-154.456543,,,
729862126.47928,0.358478,6.294069,50.034656,-0.10817,0.002884,1.002747,0.012875,-0.015957,-0.002405,60.124985,15.601334,-154.456543,,,
729862126.482529,0.363126,6.290986,50.033774,-0.10817,0.002884,1.002747,0.012875,-0.015957,-0.002405,60.124985,15.601334,-154.456543,,,
729862126.485872,0.363126,6.290986,50.033774,-0.10817,0.002884,1.002747,0.012875,-0.015957,-0.002405,60.124985,15.601334,-154.456543,,,
729862126.489223,0.367136,6.286341,50.032095,-0.103409,0.003952,1.004303,0.021468,0.008031,-0.007322,60.124985,15.601334,-154.456543,,,
729862126.492592,0.372239,6.289094,50.029055,-0.103409,0.003952,1.004303,0.021468,0.008031,-0.007322,60.124985,15.601334,-154.456543,,,
729862126.49587,0.372239,6.289094,50.029055,-0.103409,0.003952,1.004303,0.021468,0.008031,-0.007322,60.124985,15.601334,-154.456543,,,
729862126.499216,0.376122,6.291213,50.025816,-0.105545,0.010727,0.995239,0.017555,0.023211,-0.009308,60.124985,15.601334,-154.456543,,,
729862126.502572,0.380595,6.297778,50.02281,-0.105545,0.010727,0.995239,0.017555,0.023211,-0.009308,60.124985,15.601334,-154.456543,,,
729862126.505913,0.380595,6.297778,50.02281,-0.105545,0.010727,0.995239,0.017555,0.023211,-0.009308,60.124985,15.601334,-154.456543,,,
729862126.509208,0.383431,6.304894,50.019482,-0.110245,0.012466,0.990997,0.005266,0.03367,-0.012998,60.124985,15.601334,-154.456543,,,
729862126.512593,0.383431,6.304894,50.016431,-0.110245,0.012466,0.990997,0.005266,0.03367,-0.012998,60.353043,15.445282,-153.984528,,,
729862126.515888,0.383034,6.314244,50.016431,-0.110245,0.012466,0.990997,0.005266,0.03367,-0.012998,60.353043,15.445282,-153.984528,,,
729862126.519305,0.380608,6.324879,50.014658,-0.117249,0.01561,0.978455,-0.014831,0.026449,-0.006163,60.353043,15.445282,-153.984528,,,
729862126.522576,0.375253,6.329718,50.01433,-0.117249,0.01561,0.978455,-0.014831,0.026449,-0.006163,60.353043,15.445282,-153.984528,,,
729862126.525867,0.375253,6.329718,50.01433,-0.117249,0.01561,0.978455,-0.014831,0.026449,-0.006163,60.353043,15.445282,-153.984528,,,
729862126.529216,0.370406,6.333983,50.01507,-0.124832,0.013397,0.971558,-0.021067,-0.004106,0.000778,60.353043,15.445282,-153.984528,,,
729862126.532567,0.364868,6.329301,50.01706,-0.124832,0.013397,0.971558,-0.021067,-0.004106,0.000778,60.353043,15.445282,-153.984528,,,
729862126.535896,0.364868,6.329301,50.01706,-0.124832,0.013397,0.971558,-0.021067,-0.004106,0.000778,60.353043,15.445282,-153.984528,,,
729862126.53922,0.360613,6.323222,50.020063,-0.121796,0.011826,0.979019,-0.017296,-0.036459,0.008462,60.353043,15.445282,-153.984528,,,
729862126.542589,0.355703,6.310567,50.023741,-0.121796,0.011826,0.979019,-0.017296,-0.036459,0.008462,60.353043,15.445282,-153.984528,,,
729862126.545864,0.355703,6.310567,50.023741,-0.121796,0.011826,0.979019,-0.017296,-0.036459,0.008462,60.353043,15.445282,-153.984528,,,
729862126.549215,0.350012,6.29927,50.027533,-0.116196,0.014175,0.974777,-0.024713,-0.04932,0.008616,60.353043,15.445282,-153.984528,,,
729862126.552529,0.350012,6.29927,50.027533,-0.116196,0.014175,0.974777,-0.024713,-0.04932,0.008616,60.234985,15.378174,-154.388992,,,
729862126.555908,0.341898,6.284516,50.031505,-0.116196,0.014175,0.974777,-0.024713,-0.04932,0.008616,60.234985,15.378174,-154.388992,,,
729862126.559192,0.331216,6.271703,50.035694,-0.101105,0.017746,0.971649,-0.040855,-0.036481,0.008367,60.234985,15.378174,-154.388992,,,
729862126.5626,0.331216,6.271703,50.03887,-0.101105,0.017746,0.971649,-0.040855,-0.036481,0.008367,60.234985,15.378174,-154.388992,,,
729862126.565869,0.31844,6.262653,50.03887,-0.101105,0.017746,0.971649,-0.040855,-0.036481,0.008367,60.234985,15.378174,-154.388992,,,
729862126.569204,0.303139,6.255524,50.040291,-0.092102,0.017853,0.979706,-0.052803,-0.004099,-0.005273,60.234985,15.378174,-154.388992,,,
729862126.572538,0.303139,6.255524,50.040291,-0.092102,0.017853,0.979706,-0.052803,-0.004099,-0.005273,60.234985,15.378174,-154.388992,,,
729862126.575865,0.287884,6.25549,50.039471,-0.092102,0.017853,0.979706,-0.052803,-0.004099,-0.005273,60.234985,15.378174,-154.388992,,,
729862126.579254,0.274759,6.25745,50.036663,-0.089005,0.011978,0.993134,-0.042559,0.02112,-0.018148,60.234985,15.378174,-154.388992,,,
729862126.582537,0.274759,6.25745,50.036663,-0.089005,0.011978,0.993134,-0.042559,0.02112,-0.018148,60.234985,15.378174,-154.388992,,,
729862126.58586,0.263259,6.264346,50.032589,-0.089005,0.011978,0.993134,-0.042559,0.02112,-0.018148,60.234985,15.378174,-154.388992,,,
729862126.589198,0.255297,6.2741,50.027431,-0.099197,-0.000961,1.011139,-0.028478,0.042302,-0.024182,60.234985,15.378174,-154.388992,,,
729862126.59253,0.255297,6.2741,50.027431,-0.099197,-0.000961,1.011139,-0.028478,0.042302,-0.024182,60.234985,15.378174,-154.388992,,,
729862126.595877,0.24717,6.286124,50.02168,-0.099197,-0.000961,1.011139,-0.028478,0.042302,-0.024182,60.231979,15.424011,-154.533829,,,
729862126.599198,0.242514,6.301521,50.016131,-0.111435,-0.000198,1.009903,-0.021193,0.048028,-0.02187,60.231979,15.424011,-154.533829,,,
729862126.602542,0.242514,6.301521,50.016131,-0.111435,-0.000198,1.009903,-0.021193,0.048028,-0.02187,60.231979,15.424011,-154.533829,,,
729862126.605916,0.235246,6.313979,50.011272,-0.111435,-0.000198,1.009903,-0.021193,0.048028,-0.02187,60.231979,15.424011,-154.533829,,,
729862126.609194,0.229924,6.331548,50.007356,-0.11792,0.00174,0.996994,-0.02586,0.034878,-0.015542,60.231979,15.424011,-154.533829,,,
729862126.612668,0.229924,6.331548,50.007356,-0.11792,0.00174,0.996994,-0.02586,0.034878,-0.015542,60.231979,15.424011,-154.533829,,,
729862126.615888,0.220999,6.338511,50.004361,-0.11792,0.00174,0.996994,-0.02586,0.034878,-0.015542,60.231979,15.424011,-154.533829,,,
729862126.61921,0.21211,6.346933,50.001995,-0.124619,0.001755,0.983368,-0.039472,0.003142,-0.012517,60.231979,15.424011,-154.533829,,,
729862126.622552,0.21211,6.346933,50.001995,-0.124619,0.001755,0.983368,-0.039472,0.003142,-0.012517,60.231979,15.424011,-154.533829,,,
729862126.625883,0.199641,6.344183,50.00081,-0.124619,0.001755,0.983368,-0.039472,0.003142,-0.012517,60.231979,15.424011,-154.533829,,,
729862126.629205,0.188961,6.340702,50.000358,-0.12323,0.004868,0.979248,-0.043181,-0.031788,-0.007623,60.231979,15.424011,-154.533829,,,
729862126.632533,0.188961,6.340702,50.000358,-0.12323,0.004868,0.979248,-0.043181,-0.031788,-0.007623,60.231979,15.424011,-154.533829,,,
729862126.635899,0.176665,6.329486,50.000757,-0.12323,0.004868,0.979248,-0.043181,-0.031788,-0.007623,60.098587,15.276978,-154.651855,,,
729862126.639205,0.168497,6.315266,50.002144,-0.118301,-0.001938,0.994263,-0.037474,-0.042121,-6.4e-05,60.098587,15.276978,-154.651855,,,
729862126.642566,0.168497,6.315266,50.002144,-0.118301,-0.001938,0.994263,-0.037474,-0.042121,-6.4e-05,60.098587,15.276978,-154.651855,,,
729862126.645953,0.158184,6.302933,50.003298,-0.118301,-0.001938,0.994263,-0.037474,-0.042121,-6.4e-05,60.098587,15.276978,-154.651855,,,
729862126.649195,0.152323,6.287056,50.004252,-0.109268,-0.004059,1.005646,-0.030161,-0.025772,-0.000784,60.098587,15.276978,-154.651855,,,
729862126.652531,0.152323,6.287056,50.004252,-0.109268,-0.004059,1.005646,-0.030161,-0.025772,-0.000784,60.098587,15.276978,-154.651855,,,
729862126.655931,0.143681,6.280719,50.004597,-0.109268,-0.004059,1.005646,-0.030161,-0.025772,-0.000784,60.098587,15.276978,-154.651855,,,
729862126.659235,0.139134,6.269961,50.003882,-0.101257,-0.004547,1.012405,-0.018485,-0.000359,-0.007109,60.098587,15.276978,-154.651855,,,
729862126.662563,0.139134,6.269961,50.003882,-0.101257,-0.004547,1.012405,-0.018485,-0.000359,-0.007109,60.098587,15.276978,-154.651855,,,
729862126.665866,0.135029,6.270121,50.002134,-0.101257,-0.004547,1.012405,-0.018485,-0.000359,-0.007109,60.098587,15.276978,-154.651855,,,
729862126.669282,0.133473,6.266122,49.999067,-0.103241,-0.010925,1.019424,0.000553,0.01278,-0.014325,60.098587,15.276978,-154.651855,,,
729862126.672577,0.133473,6.266122,49.999067,-0.103241,-0.010925,1.019424,0.000553,0.01278,-0.014325,60.098587,15.276978,-154.651855,,,
729862126.675916,0.134377,6.268918,49.995231,-0.103241,-0.010925,1.019424,0.000553,0.01278,-0.014325,60.156723,15.580765,-154.786636,,,
729862126.679208,0.136641,6.270328,49.991418,-0.110611,-0.007095,1.014236,0.015843,0.009728,-0.012468,60.156723,15.580765,-154.786636,,,
729862126.682643,0.136641,6.270328,49.991418,-0.110611,-0.007095,1.014236,0.015843,0.009728,-0.012468,60.156723,15.580765,-154.786636,,,
729862126.685885,0.141896,6.271166,49.987829,-0.110611,-0.007095,1.014236,0.015843,0.009728,-0.012468,60.156723,15.580765,-154.786636,,,
729862126.689213,0.148286,6.272147,49.985463,-0.120514,-0.007874,1.006577,0.024119,-0.008968,-0.002955,60.156723,15.580765,-154.786636,,,
729862126.69256,0.148286,6.272147,49.985463,-0.120514,-0.007874,1.006577,0.024119,-0.008968,-0.002955,60.156723,15.580765,-154.786636,,,
729862126.695949,0.154692,6.267869,49.985369,-0.120514,-0.007874,1.006577,0.024119,-0.008968,-0.002955,60.156723,15.580765,-154.786636,,,
729862126.6992,0.160268,6.267689,49.986685,-0.121231,-0.004868,0.996033,0.019457,-0.023472,0.006544,60.156723,15.580765,-154.786636,,,
729862126.70255,0.160268,6.267689,49.986685,-0.121231,-0.004868,0.996033,0.019457,-0.023472,0.006544,60.156723,15.580765,-154.786636,,,
729862126.70588,0.165796,6.258638,49.988893,-0.121231,-0.004868,0.996033,0.019457,-0.023472,0.006544,60.156723,15.580765,-154.786636,,,
729862126.7092,0.172106,6.25396,49.991177,-0.118271,-0.001205,0.993347,0.022556,-0.042413,0.007627,60.156723,15.580765,-154.786636,,,
729862126.71255,0.172106,6.25396,49.991177,-0.118271,-0.001205,0.993347,0.022556,-0.042413,0.007627,60.156723,15.580765,-154.786636,,,
729862126.715864,0.178978,6.240876,49.992802,-0.118271,-0.001205,0.993347,0.022556,-0.042413,0.007627,60.026443,15.210846,-154.695358,,,
729862126.719196,0.185875,6.233157,49.992879,-0.109375,-0.00148,1.001999,0.028048,-0.040254,-0.002538,60.026443,15.210846,-154.695358,,,
729862126.722623,0.185875,6.233157,49.992879,-0.109375,-0.00148,1.001999,0.028048,-0.040254,-0.002538,60.026443,15.210846,-154.695358,,,
729862126.725879,0.193663,6.222109,49.991315,-0.109375,-0.00148,1.001999,0.028048,-0.040254,-0.002538,60.026443,15.210846,-154.695358,,,
729862126.729207,0.198775,6.215179,49.989516,-0.103409,-0.001266,1.000046,0.020301,-0.018593,-0.005027,60.026443,15.210846,-154.695358,,,
729862126.732542,0.198775,6.215179,49.989516,-0.103409,-0.001266,1.000046,0.020301,-0.018593,-0.005027,60.026443,15.210846,-154.695358,,,
729862126.73594,0.202993,6.210895,49.987742,-0.103409,-0.001266,1.000046,0.020301,-0.018593,-0.005027,60.026443,15.210846,-154.695358,,,
729862126.739199,0.202942,6.207186,49.986098,-0.102982,0.005707,0.989426,0.001606,0.008169,-0.006192,60.026443,15.210846,-154.695358,,,
729862126.742545,0.202942,6.207186,49.986098,-0.102982,0.005707,0.989426,0.001606,0.008169,-0.006192,60.026443,15.210846,-154.695358,,,
729862126.7459,0.201415,6.211072,49.984434,-0.102982,0.005707,0.989426,0.001606,0.008169,-0.006192,60.026443,15.210846,-154.695358,,,
729862126.749254,0.193683,6.215231,49.982818,-0.107285,0.008133,0.980438,-0.020428,0.033689,-0.008258,60.026443,15.210846,-154.695358,,,
729862126.752564,0.193683,6.215231,49.982818,-0.107285,0.008133,0.980438,-0.020428,0.033689,-0.008258,60.026443,15.210846,-154.695358,,,
729862126.755901,0.186947,6.224667,49.981983,-0.107285,0.008133,0.980438,-0.020428,0.033689,-0.008258,60.026443,15.210846,-154.695358,,,
729862126.759278,0.177374,6.233651,49.982305,-0.11351,0.006516,0.97464,-0.023454,0.034775,-0.000539,60.081665,15.16243,-154.789215,,,
729862126.762615,0.177374,6.233651,49.982305,-0.11351,0.006516,0.97464,-0.023454,0.034775,-0.000539,60.081665,15.16243,-154.789215,,,
729862126.765877,0.171409,6.241328,49.983182,-0.11351,0.006516,0.97464,-0.023454,0.034775,-0.000539,60.081665,15.16243,-154.789215,,,
729862126.769201,0.166556,6.248691,49.983756,-0.11969,0.001938,0.985016,0.000886,0.010878,6.4e-05,60.081665,15.16243,-154.789215,,,
729862126.772548,0.166556,6.248691,49.983756,-0.11969,0.001938,0.985016,0.000886,0.010878,6.4e-05,60.081665,15.16243,-154.789215,,,
729862126.775867,0.168284,6.24926,49.983433,-0.11969,0.001938,0.985016,0.000886,0.010878,6.4e-05,60.081665,15.16243,-154.789215,,,
729862126.779198,0.170487,6.252462,49.981788,-0.116669,0.000504,0.994507,0.019951,-0.008994,-0.00702,60.081665,15.16243,-154.789215,,,
729862126.782542,0.170487,6.252462,49.981788,-0.116669,0.000504,0.994507,0.019951,-0.008994,-0.00702,60.081665,15.16243,-154.789215,,,
729862126.785936,0.175527,6.248332,49.979497,-0.116669,0.000504,0.994507,0.019951,-0.008994,-0.00702,60.081665,15.16243,-154.789215,,,
729862126.789194,0.178367,6.248497,49.977037,-0.115204,0.004501,0.981964,0.01153,-0.008273,-0.009065,60.081665,15.16243,-154.789215,,,
729862126.792545,0.178367,6.248497,49.977037,-0.115204,0.004501,0.981964,0.01153,-0.008273,-0.009065,60.081665,15.16243,-154.789215,,,
729862126.795879,0.179484,6.246751,49.97454,-0.115204,0.004501,0.981964,0.01153,-0.008273,-0.009065,60.081665,15.16243,-154.789215,,,
729862126.799201,0.17628,6.249361,49.972717,-0.111298,0.010727,0.975967,-0.012133,0.015197,-0.006925,60.117142,15.401947,-154.793335,,,
729862126.80256,0.17628,6.249361,49.972717,-0.111298,0.010727,0.975967,-0.012133,0.015197,-0.006925,60.117142,15.401947,-154.793335,,,
729862126.805876,0.170465,6.254227,49.971995,-0.111298,0.010727,0.975967,-0.012133,0.015197,-0.006925,60.117142,15.401947,-154.793335,,,
729862126.809204,0.159828,6.259287,49.972521,-0.114395,0.009888,0.980576,-0.039803,0.0321,-0.001245,60.117142,15.401947,-154.793335,,,
729862126.812625,0.159828,6.259287,49.972521,-0.114395,0.009888,0.980576,-0.039803,0.0321,-0.001245,60.117142,15.401947,-154.793335,,,
729862126.815878,0.147852,6.268123,49.97432,-0.114395,0.009888,0.980576,-0.039803,0.0321,-0.001245,60.117142,15.401947,-154.793335,,,
729862126.819207,0.135727,6.273685,49.977412,-0.113998,0.005814,0.980591,-0.044578,0.0272,0.007298,60.117142,15.401947,-154.793335,,,
729862126.822534,0.135727,6.273685,49.977412,-0.113998,0.005814,0.980591,-0.044578,0.0272,0.007298,60.117142,15.401947,-154.793335,,,
729862126.825915,0.12476,6.278683,49.98103,-0.113998,0.005814,0.980591,-0.044578,0.0272,0.007298,60.117142,15.401947,-154.793335,,,
729862126.829287,0.119039,6.278773,49.983843,-0.111816,0.001511,0.995178,-0.017062,0.000355,0.004596,60.117142,15.401947,-154.793335,,,
729862126.832506,0.119039,6.278773,49.983843,-0.111816,0.001511,0.995178,-0.017062,0.000355,0.004596,60.117142,15.401947,-154.793335,,,
729862126.835895,0.116156,6.276452,49.985518,-0.111816,0.001511,0.995178,-0.017062,0.000355,0.004596,60.117142,15.401947,-154.793335,,,
729862126.839249,0.11781,6.273119,49.986279,-0.111115,-0.005539,1.010101,0.007535,-0.018191,0.000958,60.066559,15.254517,-154.401443,,,
729862126.842587,0.11781,6.273119,49.986279,-0.111115,-0.005539,1.010101,0.007535,-0.018191,0.000958,60.066559,15.254517,-154.401443,,,
729862126.845869,0.120897,6.26661,49.986986,-0.111115,-0.005539,1.010101,0.007535,-0.018191,0.000958,60.066559,15.254517,-154.401443,,,
729862126.849207,0.126316,6.26415,49.989072,-0.107162,-0.008606,1.004852,0.019877,-0.022108,0.012061,60.066559,15.254517,-154.401443,,,
729862126.852554,0.126316,6.26415,49.989072,-0.107162,-0.008606,1.004852,0.019877,-0.022108,0.012061,60.066559,15.254517,-154.401443,,,
729862126.855877,0.132018,6.256884,49.992442,-0.107162,-0.008606,1.004852,0.019877,-0.022108,0.012061,60.066559,15.254517,-154.401443,,,
729862126.859201,0.135659,6.253222,49.995872,-0.095551,-0.000626,0.993103,0.0081,-0.020228,0.011171,60.066559,15.254517,-154.401443,,,
729862126.86253,0.135659,6.253222,49.995872,-0.095551,-0.000626,0.993103,0.0081,-0.020228,0.011171,60.066559,15.254517,-154.401443,,,
729862126.865893,0.137293,6.24796,49.998675,-0.095551,-0.000626,0.993103,0.0081,-0.020228,0.011171,60.066559,15.254517,-154.401443,,,
729862126.869198,0.136794,6.247572,49.999461,-0.085068,0.005066,0.988358,-0.005971,-0.008596,-0.004401,60.066559,15.254517,-154.401443,,,
729862126.872646,0.136794,6.247572,49.999461,-0.085068,0.005066,0.988358,-0.005971,-0.008596,-0.004401,60.066559,15.254517,-154.401443,,,
729862126.875913,0.134361,6.244615,49.99739,-0.085068,0.005066,0.988358,-0.005971,-0.008596,-0.004401,60.066559,15.254517,-154.401443,,,
729862126.879194,0.132982,6.244957,49.993012,-0.084976,0.002289,0.990387,-0.007818,0.000212,-0.02071,60.038757,15.407593,-154.580185,,,
729862126.882555,0.132982,6.244957,49.993012,-0.084976,0.002289,0.990387,-0.007818,0.000212,-0.02071,60.038757,15.407593,-154.580185,,,
729862126.885867,0.129651,6.245091,49.98736,-0.084976,0.002289,0.990387,-0.007818,0.000212,-0.02071,60.038757,15.407593,-154.580185,,,
729862126.889198,0.126981,6.249723,49.981412,-0.092834,0.001373,0.996658,-0.016209,0.015384,-0.023625,60.038757,15.407593,-154.580185,,,
729862126.892546,0.126981,6.249723,49.981412,-0.092834,0.001373,0.996658,-0.016209,0.015384,-0.023625,60.038757,15.407593,-154.580185,,,
729862126.895933,0.120242,6.254728,49.975691,-0.092834,0.001373,0.996658,-0.016209,0.015384,-0.023625,60.038757,15.407593,-154.580185,,,
729862126.899204,0.112723,6.264853,49.970547,-0.10257,0.000961,0.994202,-0.028687,0.030557,-0.020882,60.038757,15.407593,-154.580185,,,
729862126.902549,0.112723,6.264853,49.970547,-0.10257,0.000961,0.994202,-0.028687,0.030557,-0.020882,60.038757,15.407593,-154.580185,,,
729862126.905881,0.10339,6.272413,49.966944,-0.10257,0.000961,0.994202,-0.028687,0.030557,-0.020882,60.038757,15.407593,-154.580185,,,
729862126.9092,0.092923,6.280192,49.964959,-0.11496,0.002579,0.988098,-0.039285,0.023297,-0.01071,60.038757,15.407593,-154.580185,,,
729862126.912544,0.092923,6.280192,49.964959,-0.11496,0.002579,0.988098,-0.039285,0.023297,-0.01071,60.038757,15.407593,-154.580185,,,
729862126.915883,0.081761,6.284251,49.96382,-0.11496,0.002579,0.988098,-0.039285,0.023297,-0.01071,60.038757,15.407593,-154.580185,,,
729862126.919269,0.070713,6.285371,49.962565,-0.120377,0.004623,0.984619,-0.031864,0.001965,-0.010739,60.038757,15.407593,-154.580185,,,
729862126.922549,0.070713,6.285371,49.962565,-0.120377,0.004623,0.984619,-0.031864,0.001965,-0.010739,60.180786,15.473694,-154.789444,,,
729862126.925896,0.061906,6.283664,49.961295,-0.120377,0.004623,0.984619,-0.031864,0.001965,-0.010739,60.180786,15.473694,-154.789444,,,
729862126.929212,0.053068,6.278036,49.960526,-0.121704,0.00029,0.988876,-0.01764,-0.019937,-0.005651,60.180786,15.473694,-154.789444,,,
729862126.932636,0.053068,6.278036,49.960526,-0.121704,0.00029,0.988876,-0.01764,-0.019937,-0.005651,60.180786,15.473694,-154.789444,,,
729862126.935891,0.048659,6.270875,49.959543,-0.121704,0.00029,0.988876,-0.01764,-0.019937,-0.005651,60.180786,15.473694,-154.789444,,,
729862126.939211,0.046264,6.25829,49.957997,-0.116257,-0.001099,0.993546,0.002517,-0.028584,-0.007408,60.180786,15.473694,-154.789444,,,
729862126.94255,0.046264,6.25829,49.957997,-0.116257,-0.001099,0.993546,0.002517,-0.028584,-0.007408,60.180786,15.473694,-154.789444,,,
729862126.945952,0.047574,6.249044,49.956108,-0.116257,-0.001099,0.993546,0.002517,-0.028584,-0.007408,60.180786,15.473694,-154.789444,,,
729862126.949201,0.051628,6.232296,49.953686,-0.106552,-0.002045,0.998398,0.015384,-0.020444,-0.009726,60.180786,15.473694,-154.789444,,,
729862126.952548,0.051628,6.232296,49.953686,-0.106552,-0.002045,0.998398,0.015384,-0.020444,-0.009726,60.180786,15.473694,-154.789444,,,
729862126.955887,0.055411,6.227504,49.95011,-0.106552,-0.002045,0.998398,0.015384,-0.020444,-0.009726,60.180786,15.473694,-154.789444,,,
729862126.9592,0.059271,6.216591,49.945599,-0.098343,-0.003052,0.998383,0.013813,0.006096,-0.016556,60.180786,15.473694,-154.789444,,,
729862126.962531,0.059271,6.216591,49.945599,-0.098343,-0.003052,0.998383,0.013813,0.006096,-0.016556,59.990479,15.231918,-154.751404,,,
729862126.965893,0.062306,6.219197,49.940491,-0.098343,-0.003052,0.998383,0.013813,0.006096,-0.016556,59.990479,15.231918,-154.751404,,,
729862126.969198,0.063632,6.218438,49.934564,-0.09697,-1.5e-05,0.990784,0.00222,0.03345,-0.02358,59.990479,15.231918,-154.751404,,,
729862126.972597,0.063632,6.218438,49.934564,-0.09697,-1.5e-05,0.990784,0.00222,0.03345,-0.02358,59.990479,15.231918,-154.751404,,,
729862126.975865,0.062243,6.227501,49.928095,-0.09697,-1.5e-05,0.990784,0.00222,0.03345,-0.02358,59.990479,15.231918,-154.751404,,,
729862126.979206,0.058779,6.233544,49.920998,-0.099091,0.00235,0.982635,-0.012115,0.038022,-0.029544,59.990479,15.231918,-154.751404,,,
729862126.982547,0.058779,6.233544,49.920998,-0.099091,0.00235,0.982635,-0.012115,0.038022,-0.029544,59.990479,15.231918,-154.751404,,,
729862126.985963,0.053913,6.242402,49.913247,-0.099091,0.00235,0.982635,-0.012115,0.038022,-0.029544,59.990479,15.231918,-154.751404,,,
729862126.989201,0.048843,6.250639,49.905634,-0.108902,-0.00145,0.983521,-0.013836,0.022226,-0.028744,59.990479,15.231918,-154.751404,,,
729862126.99255,0.048843,6.250639,49.905634,-0.108902,-0.00145,0.983521,-0.013836,0.022226,-0.028744,59.990479,15.231918,-154.751404,,,
729862126.995885,0.043962,6.254586,49.898684,-0.108902,-0.00145,0.983521,-0.013836,0.022226,-0.028744,59.990479,15.231918,-154.751404,,,
729862126.999207,0.040217,6.260829,49.893126,-0.121048,-0.002853,0.985123,-0.013265,0.003811,-0.018981,59.990479,15.231918,-154.751404,,,
729862127.002619,0.040217,6.260829,49.893126,-0.121048,-0.002853,0.985123,-0.013265,0.003811,-0.018981,60.178879,15.26387,-155.002594,,,
729862127.005879,0.035198,6.259358,49.889642,-0.121048,-0.002853,0.985123,-0.013265,0.003811,-0.018981,60.178879,15.26387,-155.002594,,,
729862127.0092,0.030784,6.260462,49.888585,-0.12558,-0.00177,0.98111,-0.013282,-0.016674,-0.001935,60.178879,15.26387,-155.002594,,,
729862127.012615,0.030784,6.260462,49.888585,-0.12558,-0.00177,0.98111,-0.013282,-0.016674,-0.001935,60.178879,15.26387,-155.002594,,,
729862127.015886,0.026617,6.254611,49.888704,-0.12558,-0.00177,0.98111,-0.013282,-0.016674,-0.001935,60.178879,15.26387,-155.002594,,,
729862127.019208,0.021748,6.253317,49.888786,-0.120026,0.000885,0.986786,-0.015515,-0.014194,-0.002427,60.178879,15.26387,-155.002594,,,
729862127.02255,0.021748,6.253317,49.888786,-0.120026,0.000885,0.986786,-0.015515,-0.014194,-0.002427,60.178879,15.26387,-155.002594,,,
729862127.025947,0.017028,6.25046,49.889393,-0.120026,0.000885,0.986786,-0.015515,-0.014194,-0.002427,60.178879,15.26387,-155.002594,,,
729862127.0292,0.011165,6.250876,49.891054,-0.115219,1.5e-05,0.9935,-0.021445,0.008459,0.004336,60.178879,15.26387,-155.002594,,,
729862127.032531,0.011165,6.250876,49.891054,-0.115219,1.5e-05,0.9935,-0.021445,0.008459,0.004336,60.178879,15.26387,-155.002594,,,
729862127.035883,0.004608,6.253616,49.89373,-0.115219,1.5e-05,0.9935,-0.021445,0.008459,0.004336,60.178879,15.26387,-155.002594,,,
729862127.039268,-0.002055,6.25358,49.896554,-0.110168,0.001266,0.991501,-0.017949,0.017316,0.005744,60.178879,15.26387,-155.002594,,,
729862127.04255,-0.002055,6.25358,49.896554,-0.110168,0.001266,0.991501,-0.017949,0.017316,0.005744,60.178879,15.26387,-155.002594,,,
729862127.045879,-0.006624,6.256708,49.898752,-0.110168,0.001266,0.991501,-0.017949,0.017316,0.005744,60.02095,15.542618,-154.848938,,,
729862127.049214,-0.010314,6.253647,49.899575,-0.108368,0.001205,0.999222,-0.008814,0.007392,-0.002947,60.02095,15.542618,-154.848938,,,
729862127.052536,-0.010314,6.253647,49.899575,-0.108368,0.001205,0.999222,-0.008814,0.007392,-0.002947,60.02095,15.542618,-154.848938,,,
729862127.055876,-0.013341,6.25435,49.898773,-0.108368,0.001205,0.999222,-0.008814,0.007392,-0.002947,60.02095,15.542618,-154.848938,,,
729862127.059205,-0.016122,6.24987,49.896397,-0.108063,-0.001541,0.995834,-0.010099,-0.000581,-0.014143,60.02095,15.542618,-154.848938,,,
729862127.062612,-0.016122,6.24987,49.896397,-0.108063,-0.001541,0.995834,-0.010099,-0.000581,-0.014143,60.02095,15.542618,-154.848938,,,
729862127.065879,-0.019548,6.247691,49.89328,-0.108063,-0.001541,0.995834,-0.010099,-0.000581,-0.014143,60.02095,15.542618,-154.848938,,,
729862127.0692,-0.023308,6.243297,49.890908,-0.111145,0.001099,0.989273,-0.013801,-0.011215,-0.009291,60.02095,15.542618,-154.848938,,,
729862127.072547,-0.023308,6.243297,49.890908,-0.111145,0.001099,0.989273,-0.013801,-0.011215,-0.009291,60.02095,15.542618,-154.848938,,,
729862127.07596,-0.027986,6.239369,49.889651,-0.111145,0.001099,0.989273,-0.013801,-0.011215,-0.009291,60.02095,15.542618,-154.848938,,,
729862127.079197,-0.034136,6.24049,49.889469,-0.111206,0.00032,0.985703,-0.020967,-0.00914,-0.002585,60.02095,15.542618,-154.848938,,,
729862127.082558,-0.034136,6.24049,49.889469,-0.111206,0.00032,0.985703,-0.020967,-0.00914,-0.002585,60.02095,15.542618,-154.848938,,,
729862127.085887,-0.040862,6.237393,49.890348,-0.111206,0.00032,0.985703,-0.020967,-0.00914,-0.002585,59.997696,15.551239,-154.555115,,,
729862127.089206,-0.048943,6.241925,49.891837,-0.109009,-3.1e-05,0.983627,-0.028578,-0.007746,0.000825,59.997696,15.551239,-154.555115,,,
729862127.092556,-0.048943,6.241925,49.891837,-0.109009,-3.1e-05,0.983627,-0.028578,-0.007746,0.000825,59.997696,15.551239,-154.555115,,,
729862127.095874,-0.056571,6.239451,49.893924,-0.109009,-3.1e-05,0.983627,-0.028578,-0.007746,0.000825,59.997696,15.551239,-154.555115,,,
729862127.099207,-0.063223,6.243468,49.895949,-0.103821,0.001373,0.983139,-0.025011,-0.002096,0.000764,59.997696,15.551239,-154.555115,,,
729862127.102613,-0.063223,6.243468,49.895949,-0.103821,0.001373,0.983139,-0.025011,-0.002096,0.000764,59.997696,15.551239,-154.555115,,,
729862127.105878,-0.070735,6.242349,49.89718,-0.103821,0.001373,0.983139,-0.025011,-0.002096,0.000764,59.997696,15.551239,-154.555115,,,
729862127.109201,-0.07809,6.244844,49.897737,-0.098511,0.002731,0.986176,-0.024978,0.002133,-0.004029,59.997696,15.551239,-154.555115,,,
729862127.112536,-0.07809,6.244844,49.897737,-0.098511,0.002731,0.986176,-0.024978,0.002133,-0.004029,59.997696,15.551239,-154.555115,,,
729862127.115942,-0.086265,6.244527,49.897762,-0.098511,0.002731,0.986176,-0.024978,0.002133,-0.004029,59.997696,15.551239,-154.555115,,,
729862127.119199,-0.095625,6.245285,49.897462,-0.097015,0.002869,0.982285,-0.036089,0.001134,-0.007652,59.997696,15.551239,-154.555115,,,
729862127.122548,-0.095625,6.245285,49.897462,-0.097015,0.002869,0.982285,-0.036089,0.001134,-0.007652,59.997696,15.551239,-154.555115,,,
729862127.125909,-0.104944,6.245226,49.896827,-0.097015,0.002869,0.982285,-0.036089,0.001134,-0.007652,59.891434,15.541061,-155.341782,,,
729862127.129206,-0.110827,6.244869,49.89594,-0.098923,-0.001617,0.997696,-0.01859,0.000451,-0.007459,59.891434,15.541061,-155.341782,,,
729862127.132534,-0.110827,6.244869,49.89594,-0.098923,-0.001617,0.997696,-0.01859,0.000451,-0.007459,59.891434,15.541061,-155.341782,,,
729862127.135875,-0.115248,6.24454,49.894108,-0.098923,-0.001617,0.997696,-0.01859,0.000451,-0.007459,59.891434,15.541061,-155.341782,,,
729862127.139205,-0.116462,6.244309,49.891606,-0.108154,-0.005524,1.016571,0.003544,0.005794,-0.009721,59.891434,15.541061,-155.341782,,,
729862127.142613,-0.116462,6.244309,49.891606,-0.108154,-0.005524,1.016571,0.003544,0.005794,-0.009721,59.891434,15.541061,-155.341782,,,
729862127.14588,-0.114438,6.245068,49.889089,-0.108154,-0.005524,1.016571,0.003544,0.005794,-0.009721,59.891434,15.541061,-155.341782,,,
729862127.149201,-0.108775,6.246088,49.886738,-0.11026,-0.006744,1.0215,0.023954,0.002473,-0.006277,59.891434,15.541061,-155.341782,,,
729862127.152546,-0.108775,6.246088,49.886738,-0.11026,-0.006744,1.0215,0.023954,0.002473,-0.006277,59.891434,15.541061,-155.341782,,,
729862127.155932,-0.102016,6.245486,49.884603,-0.11026,-0.006744,1.0215,0.023954,0.002473,-0.006277,59.891434,15.541061,-155.341782,,,
729862127.159194,-0.092974,6.244867,49.881881,-0.109314,-0.005142,1.012543,0.035512,-0.008874,-0.009247,59.891434,15.541061,-155.341782,,,
729862127.16255,-0.092974,6.244867,49.881881,-0.109314,-0.005142,1.012543,0.035512,-0.008874,-0.009247,59.891434,15.541061,-155.341782,,,
729862127.165867,-0.083278,6.240206,49.878715,-0.109314,-0.005142,1.012543,0.035512,-0.008874,-0.009247,60.194672,15.459885,-155.301437,,,
729862127.169199,-0.074378,6.23342,49.875033,-0.109482,0.001816,0.99939,0.029016,-0.026974,-0.013603,60.194672,15.459885,-155.301437,,,
729862127.172554,-0.074378,6.23342,49.875033,-0.109482,0.001816,0.99939,0.029016,-0.026974,-0.013603,60.194672,15.459885,-155.301437,,,
729862127.175882,-0.067479,6.22381,49.871178,-0.109482,0.001816,0.99939,0.029016,-0.026974,-0.013603,60.194672,15.459885,-155.301437,,,
729862127.1792,-0.062157,6.21263,49.868186,-0.108978,0.006638,0.986176,0.013118,-0.037031,-0.009303,60.194672,15.459885,-155.301437,,,
729862127.182544,-0.062157,6.21263,49.868186,-0.108978,0.006638,0.986176,0.013118,-0.037031,-0.009303,60.194672,15.459885,-155.301437,,,
729862127.185887,-0.060771,6.201249,49.86571,-0.108978,0.006638,0.986176,0.013118,-0.037031,-0.009303,60.194672,15.459885,-155.301437,,,
729862127.189239,-0.060771,6.201249,49.86352,-0.103973,0.01239,0.974823,-0.018483,-0.031672,-0.0107,60.194672,15.459885,-155.301437,,,
729862127.19261,-0.063307,6.187258,49.86352,-0.103973,0.01239,0.974823,-0.018483,-0.031672,-0.0107,60.194672,15.459885,-155.301437,,,
729862127.195892,-0.071046,6.178041,49.861353,-0.103973,0.01239,0.974823,-0.018483,-0.031672,-0.0107,60.194672,15.459885,-155.301437,,,
729862127.199205,-0.071046,6.178041,49.859132,-0.098969,0.010239,0.977936,-0.039187,-0.017156,-0.013277,60.194672,15.459885,-155.301437,,,
729862127.202541,-0.080797,6.167275,49.859132,-0.098969,0.010239,0.977936,-0.039187,-0.017156,-0.013277,60.194672,15.459885,-155.301437,,,
729862127.205875,-0.093672,6.162932,49.855868,-0.098969,0.010239,0.977936,-0.039187,-0.017156,-0.013277,60.194672,15.459885,-155.301437,,,
729862127.209273,-0.093672,6.162932,49.855868,-0.093506,0.007309,0.991577,-0.046926,0.004278,-0.024551,60.045395,15.470779,-155.056564,,,
729862127.212555,-0.107638,6.157527,49.851096,-0.093506,0.007309,0.991577,-0.046926,0.004278,-0.024551,60.045395,15.470779,-155.056564,,,
729862127.21594,-0.121369,6.160199,49.84518,-0.093506,0.007309,0.991577,-0.046926,0.004278,-0.024551,60.045395,15.470779,-155.056564,,,
729862127.219194,-0.121369,6.160199,49.84518,-0.095795,0.001038,1.007812,-0.03351,0.030285,-0.028604,60.045395,15.470779,-155.056564,,,
729862127.222543,-0.133899,6.165053,49.838478,-0.095795,0.001038,1.007812,-0.03351,0.030285,-0.028604,60.045395,15.470779,-155.056564,,,
729862127.225864,-0.142894,6.173813,49.830878,-0.095795,0.001038,1.007812,-0.03351,0.030285,-0.028604,60.045395,15.470779,-155.056564,,,
729862127.229221,-0.142894,6.173813,49.830878,-0.095795,0.001038,1.007812,-0.011056,0.037215,-0.035883,60.045395,15.470779,-155.056564,,,
729862127.232553,-0.149612,6.183684,49.821885,-0.102036,-0.003891,1.018219,-0.011056,0.037215,-0.035883,60.045395,15.470779,-155.056564,,,
729862127.2359,-0.152684,6.193855,49.811191,-0.102036,-0.003891,1.018219,-0.011056,0.037215,-0.035883,60.045395,15.470779,-155.056564,,,
729862127.239237,-0.152684,6.193855,49.811191,-0.109955,-0.004608,1.019257,0.009127,0.04209,-0.042307,60.045395,15.470779,-155.056564,,,
729862127.242649,-0.15378,6.204195,49.79926,-0.109955,-0.004608,1.019257,0.009127,0.04209,-0.042307,60.045395,15.470779,-155.056564,,,
729862127.245882,-0.151543,6.214874,49.788051,-0.109955,-0.004608,1.019257,0.009127,0.04209,-0.042307,60.045395,15.470779,-155.056564,,,
729862127.249206,-0.151543,6.214874,49.788051,-0.109955,-0.004608,1.019257,0.019494,0.028354,-0.029669,60.132843,15.409546,-154.984573,,,
729862127.252542,-0.146877,6.223869,49.778478,-0.12439,-0.008194,1.009354,0.019494,0.028354,-0.029669,60.132843,15.409546,-154.984573,,,
729862127.255922,-0.141549,6.229561,49.770422,-0.12439,-0.008194,1.009354,0.019494,0.028354,-0.029669,60.132843,15.409546,-154.984573,,,
729862127.2592,-0.141549,6.229561,49.770422,-0.12439,-0.008194,1.009354,0.028216,0.007046,-0.023154,60.132843,15.409546,-154.984573,,,
729862127.262551,-0.133234,6.232767,49.763165,-0.127838,-0.004715,1.002045,0.028216,0.007046,-0.023154,60.132843,15.409546,-154.984573,,,
729862127.265883,-0.125789,6.232307,49.755999,-0.127838,-0.004715,1.002045,0.028216,0.007046,-0.023154,60.132843,15.409546,-154.984573,,,
729862127.26925,-0.125789,6.232307,49.755999,-0.127838,-0.004715,1.002045,0.030594,-0.01263,-0.023419,60.132843,15.409546,-154.984573,,,
729862127.272551,-0.114994,6.228316,49.748757,-0.129974,-0.003098,1.004318,0.030594,-0.01263,-0.023419,60.132843,15.409546,-154.984573,,,
729862127.275895,-0.107588,6.223061,49.742273,-0.129974,-0.003098,1.004318,0.030594,-0.01263,-0.023419,60.132843,15.409546,-154.984573,,,
729862127.279296,-0.107588,6.223061,49.742273,-0.129974,-0.003098,1.004318,0.0232,-0.019278,-0.012554,60.132843,15.409546,-154.984573,,,
729862127.282549,-0.098256,6.214048,49.737451,-0.131882,-0.003403,0.99881,0.0232,-0.019278,-0.012554,60.132843,15.409546,-154.984573,,,
729862127.285874,-0.092839,6.208202,49.734064,-0.131882,-0.003403,0.99881,0.0232,-0.019278,-0.012554,60.132843,15.409546,-154.984573,,,
729862127.289295,-0.092839,6.208202,49.734064,-0.131882,-0.003403,0.99881,0.015925,-0.01248,-0.004481,60.176453,15.32135,-155.158493,,,
729862127.292538,-0.086212,6.197868,49.731934,-0.127609,-0.000137,0.998276,0.015925,-0.01248,-0.004481,60.176453,15.32135,-155.158493,,,
729862127.295872,-0.082458,6.194616,49.731158,-0.127609,-0.000137,0.998276,0.015925,-0.01248,-0.004481,60.176453,15.32135,-155.158493,,,
729862127.299284,-0.082458,6.194616,49.731158,-0.127609,-0.000137,0.998276,0.015925,-0.01248,-0.004481,60.176453,15.32135,-155.158493,,,
729862127.30255,-0.078379,6.187922,49.730476,-0.120178,0.000168,1.002365,0.010243,0.002084,-0.00438,60.176453,15.32135,-155.158493,,,
729862127.305875,-0.076795,6.188838,49.729296,-0.120178,0.000168,1.002365,0.010243,0.002084,-0.00438,60.176453,15.32135,-155.158493,,,
729862127.309238,-0.076795,6.188838,49.729296,-0.120178,0.000168,1.002365,0.010243,0.002084,-0.00438,60.176453,15.32135,-155.158493,,,
729862127.312551,-0.077738,6.188827,49.727519,-0.112717,-6.1e-05,0.999557,-0.004068,0.020553,-0.010109,60.176453,15.32135,-155.158493,,,
729862127.31587,-0.080233,6.195303,49.725263,-0.112717,-6.1e-05,0.999557,-0.004068,0.020553,-0.010109,60.176453,15.32135,-155.158493,,,
729862127.319316,-0.080233,6.195303,49.725263,-0.112717,-6.1e-05,0.999557,-0.004068,0.020553,-0.010109,60.176453,15.32135,-155.158493,,,
729862127.322606,-0.084884,6.202195,49.723254,-0.110626,3.1e-05,0.996902,-0.016341,0.036098,-0.009676,60.176453,15.32135,-155.158493,,,
729862127.32586,-0.089902,6.211981,49.721381,-0.110626,3.1e-05,0.996902,-0.016341,0.036098,-0.009676,60.176453,15.32135,-155.158493,,,
729862127.329223,-0.089902,6.211981,49.721381,-0.110626,3.1e-05,0.996902,-0.016341,0.036098,-0.009676,60.159897,15.334793,-155.035385,,,
729862127.332542,-0.096293,6.225659,49.720078,-0.117096,-0.003845,0.993912,-0.016952,0.031401,-0.00576,60.159897,15.334793,-155.035385,,,
729862127.335875,-0.101327,6.232012,49.719805,-0.117096,-0.003845,0.993912,-0.016952,0.031401,-0.00576,60.159897,15.334793,-155.035385,,,
729862127.33923,-0.101327,6.232012,49.719805,-0.117096,-0.003845,0.993912,-0.016952,0.031401,-0.00576,60.159897,15.334793,-155.035385,,,
729862127.342546,-0.106923,6.242575,49.720516,-0.120422,-0.007629,0.98735,-0.016256,0.009799,0.001111,60.159897,15.334793,-155.035385,,,
729862127.345871,-0.111088,6.242879,49.721703,-0.120422,-0.007629,0.98735,-0.016256,0.009799,0.001111,60.159897,15.334793,-155.035385,,,
729862127.349276,-0.111088,6.242879,49.721703,-0.120422,-0.007629,0.98735,-0.016256,0.009799,0.001111,60.159897,15.334793,-155.035385,,,
729862127.352551,-0.114068,6.248656,49.722708,-0.115707,-0.009247,0.99025,-0.006218,-0.006349,0.00078,60.159897,15.334793,-155.035385,,,
729862127.355876,-0.114752,6.246292,49.722964,-0.115707,-0.009247,0.99025,-0.006218,-0.006349,0.00078,60.159897,15.334793,-155.035385,,,
729862127.359246,-0.114752,6.246292,49.722964,-0.115707,-0.009247,0.99025,-0.006218,-0.006349,0.00078,60.159897,15.334793,-155.035385,,,
729862127.362595,-0.113766,6.253832,49.72225,-0.107147,-0.012665,1.005371,0.009575,0.000704,-0.004396,60.159897,15.334793,-155.035385,,,
729862127.365871,-0.11037,6.254489,49.721209,-0.107147,-0.012665,1.005371,0.009575,0.000704,-0.004396,60.159897,15.334793,-155.035385,,,
729862127.369252,-0.11037,6.254489,49.721209,-0.107147,-0.012665,1.005371,0.009575,0.000704,-0.004396,60.159897,15.334793,-155.035385,,,
729862127.372561,-0.105111,6.265895,49.720532,-0.105759,-0.015732,1.007858,0.020421,0.020723,-0.000774,60.188751,15.176788,-154.950562,,,
729862127.375872,-0.099158,6.272455,49.720526,-0.105759,-0.015732,1.007858,0.020421,0.020723,-0.000774,60.188751,15.176788,-154.950562,,,
729862127.379255,-0.099158,6.272455,49.720526,-0.105759,-0.015732,1.007858,0.020421,0.020723,-0.000774,60.188751,15.176788,-154.950562,,,
729862127.382533,-0.093222,6.286309,49.721469,-0.108185,-0.01181,1.000641,0.016427,0.038644,0.005425,60.188751,15.176788,-154.950562,,,
729862127.385884,-0.088984,6.297088,49.723551,-0.108185,-0.01181,1.000641,0.016427,0.038644,0.005425,60.188751,15.176788,-154.950562,,,
729862127.38929,-0.088984,6.297088,49.723551,-0.108185,-0.01181,1.000641,0.016427,0.038644,0.005425,60.188751,15.176788,-154.950562,,,
729862127.392544,-0.086091,6.309714,49.726525,-0.105103,-0.009811,0.981674,0.005293,0.039866,0.0104,60.188751,15.176788,-154.950562,,,
729862127.395878,-0.085882,6.319336,49.729455,-0.105103,-0.009811,0.981674,0.005293,0.039866,0.0104,60.188751,15.176788,-154.950562,,,
729862127.39925,-0.085882,6.319336,49.729455,-0.105103,-0.009811,0.981674,0.005293,0.039866,0.0104,60.188751,15.176788,-154.950562,,,
729862127.402588,-0.087738,6.325985,49.732021,-0.103119,-0.002411,0.965454,-0.012156,0.022281,0.005963,60.188751,15.176788,-154.950562,,,
729862127.405893,-0.092201,6.329575,49.734349,-0.103119,-0.002411,0.965454,-0.012156,0.022281,0.005963,60.188751,15.176788,-154.950562,,,
729862127.409225,-0.092201,6.329575,49.734349,-0.103119,-0.002411,0.965454,-0.012156,0.022281,0.005963,60.188751,15.176788,-154.950562,,,
729862127.412566,-0.098927,6.331206,49.735772,-0.098938,0.00145,0.958115,-0.025076,-0.005504,-0.001805,60.286484,15.22023,-154.799896,,,
729862127.415874,-0.10623,6.327662,49.735391,-0.098938,0.00145,0.958115,-0.025076,-0.005504,-0.001805,60.286484,15.22023,-154.799896,,,
729862127.419246,-0.10623,6.327662,49.735391,-0.098938,0.00145,0.958115,-0.025076,-0.005504,-0.001805,60.286484,15.22023,-154.799896,,,
729862127.422555,-0.114174,6.326506,49.733437,-0.09436,-0.001587,0.965607,-0.021218,-0.017169,-0.012447,60.286484,15.22023,-154.799896,,,
729862127.425879,-0.120801,6.320565,49.730412,-0.09436,-0.001587,0.965607,-0.021218,-0.017169,-0.012447,60.286484,15.22023,-154.799896,,,
729862127.429327,-0.120801,6.320565,49.730412,-0.09436,-0.001587,0.965607,-0.021218,-0.017169,-0.012447,60.286484,15.22023,-154.799896,,,
729862127.43254,-0.128422,6.318495,49.725871,-0.092545,-0.004074,0.976395,-0.016328,-0.014746,-0.022533,60.286484,15.22023,-154.799896,,,
729862127.435877,-0.132635,6.314168,49.720428,-0.092545,-0.004074,0.976395,-0.016328,-0.014746,-0.022533,60.286484,15.22023,-154.799896,,,
729862127.439229,-0.132635,6.314168,49.720428,-0.092545,-0.004074,0.976395,-0.016328,-0.014746,-0.022533,60.286484,15.22023,-154.799896,,,
729862127.442607,-0.136511,6.310437,49.714541,-0.093994,-0.004517,0.98494,0.000167,-0.003296,-0.023775,60.286484,15.22023,-154.799896,,,
729862127.445869,-0.136876,6.310554,49.707587,-0.093994,-0.004517,0.98494,0.000167,-0.003296,-0.023775,60.286484,15.22023,-154.799896,,,
729862127.449219,-0.136876,6.310554,49.707587,-0.093994,-0.004517,0.98494,0.000167,-0.003296,-0.023775,60.286484,15.22023,-154.799896,,,
729862127.452538,-0.13803,6.311921,49.699469,-0.093643,-0.006042,0.992996,0.014261,0.02261,-0.030323,60.031326,15.192596,-154.891678,,,
729862127.45587,-0.134174,6.31898,49.690627,-0.093643,-0.006042,0.992996,0.014261,0.02261,-0.030323,60.031326,15.192596,-154.891678,,,
729862127.459218,-0.134174,6.31898,49.690627,-0.093643,-0.006042,0.992996,0.014261,0.02261,-0.030323,60.031326,15.192596,-154.891678,,,
729862127.462553,-0.131165,6.326719,49.681445,-0.097107,-0.005707,0.987671,0.024392,0.037041,-0.031499,60.031326,15.192596,-154.891678,,,
729862127.465882,-0.12622,6.336146,49.672417,-0.097107,-0.005707,0.987671,0.024392,0.037041,-0.031499,60.031326,15.192596,-154.891678,,,
729862127.46927,-0.12622,6.336146,49.672417,-0.097107,-0.005707,0.987671,0.024392,0.037041,-0.031499,60.031326,15.192596,-154.891678,,,
729862127.472547,-0.125176,6.342,49.6644,-0.107819,-0.001038,0.970871,0.0096,0.02417,-0.02607,60.031326,15.192596,-154.891678,,,
729862127.475872,-0.124326,6.346497,49.658318,-0.107819,-0.001038,0.970871,0.0096,0.02417,-0.02607,60.031326,15.192596,-154.891678,,,
729862127.479224,-0.124326,6.346497,49.658318,-0.107819,-0.001038,0.970871,0.0096,0.02417,-0.02607,60.031326,15.192596,-154.891678,,,
729862127.482607,-0.126989,6.346109,49.654571,-0.112534,0.004166,0.956421,-0.012901,0.002128,-0.01219,60.031326,15.192596,-154.891678,,,
729862127.485865,-0.132994,6.345569,49.652247,-0.112534,0.004166,0.956421,-0.012901,0.002128,-0.01219,60.031326,15.192596,-154.891678,,,
729862127.489222,-0.132994,6.345569,49.652247,-0.112534,0.004166,0.956421,-0.012901,0.002128,-0.01219,60.031326,15.192596,-154.891678,,,
729862127.492539,-0.141854,6.342515,49.650626,-0.108704,0.004715,0.955276,-0.03779,-0.002189,-0.00996,60.034897,15.355042,-155.135818,,,
729862127.49587,-0.155487,6.341026,49.649345,-0.108704,0.004715,0.955276,-0.03779,-0.002189,-0.00996,60.034897,15.355042,-155.135818,,,
729862127.499232,-0.155487,6.341026,49.649345,-0.108704,0.004715,0.955276,-0.03779,-0.002189,-0.00996,60.034897,15.355042,-155.135818,,,
729862127.502545,-0.172923,6.336918,49.647884,-0.10228,0.007111,0.958649,-0.066338,0.000596,-0.014269,60.034897,15.355042,-155.135818,,,
729862127.505876,-0.192929,6.336999,49.646029,-0.10228,0.007111,0.958649,-0.066338,0.000596,-0.014269,60.034897,15.355042,-155.135818,,,
729862127.509284,-0.192929,6.336999,49.646029,-0.10228,0.007111,0.958649,-0.066338,0.000596,-0.014269,60.034897,15.355042,-155.135818,,,
729862127.512551,-0.213975,6.335358,49.64345,-0.102814,0.004944,0.977463,-0.072869,0.013708,-0.019998,60.034897,15.355042,-155.135818,,,
729862127.515881,-0.234956,6.339487,49.640428,-0.102814,0.004944,0.977463,-0.072869,0.013708,-0.019998,60.034897,15.355042,-155.135818,,,
729862127.519203,-0.234956,6.339487,49.640428,-0.102814,0.004944,0.977463,-0.072869,0.013708,-0.019998,60.034897,15.355042,-155.135818,,,
729862127.522604,-0.253632,6.342217,49.637703,-0.11203,-0.003769,0.998993,-0.056281,0.027711,-0.015947,60.034897,15.355042,-155.135818,,,
729862127.525868,-0.267373,6.348703,49.636088,-0.11203,-0.003769,0.998993,-0.056281,0.027711,-0.015947,60.034897,15.355042,-155.135818,,,
729862127.529226,-0.267373,6.348703,49.636088,-0.11203,-0.003769,0.998993,-0.056281,0.027711,-0.015947,60.034897,15.355042,-155.135818,,,
729862127.532533,-0.275656,6.34871,49.635839,-0.120621,-0.011688,1.011749,-0.018952,0.00999,-0.002085,60.034897,15.355042,-155.135818,,,
729862127.535871,-0.278458,6.3485,49.636227,-0.120621,-0.011688,1.011749,-0.018952,0.00999,-0.002085,60.07991,15.470078,-155.208923,,,
729862127.539205,-0.278458,6.3485,49.636227,-0.120621,-0.011688,1.011749,-0.018952,0.00999,-0.002085,60.07991,15.470078,-155.208923,,,
729862127.542549,-0.276384,6.340819,49.63609,-0.11705,-0.015549,1.012604,0.01647,-0.01821,-0.00178,60.07991,15.470078,-155.208923,,,
729862127.545897,-0.27058,6.333734,49.634375,-0.11705,-0.015549,1.012604,0.01647,-0.01821,-0.00178,60.07991,15.470078,-155.208923,,,
729862127.549226,-0.27058,6.333734,49.634375,-0.11705,-0.015549,1.012604,0.01647,-0.01821,-0.00178,60.07991,15.470078,-155.208923,,,
729862127.55256,-0.263522,6.32436,49.631057,-0.108734,-0.0103,1.002869,0.024637,-0.027557,-0.01208,60.07991,15.470078,-155.208923,,,
729862127.555874,-0.257002,6.315941,49.626795,-0.108734,-0.0103,1.002869,0.024637,-0.027557,-0.01208,60.07991,15.470078,-155.208923,,,
729862127.559223,-0.257002,6.315941,49.626795,-0.108734,-0.0103,1.002869,0.024637,-0.027557,-0.01208,60.07991,15.470078,-155.208923,,,
729862127.562632,-0.249844,6.310055,49.622462,-0.102875,-0.002853,0.990692,0.020467,-0.024089,-0.013124,60.07991,15.470078,-155.208923,,,
729862127.565869,-0.246112,6.303338,49.618488,-0.102875,-0.002853,0.990692,0.020467,-0.024089,-0.013124,60.07991,15.470078,-155.208923,,,
729862127.569219,-0.246112,6.303338,49.618488,-0.102875,-0.002853,0.990692,0.020467,-0.024089,-0.013124,60.07991,15.470078,-155.208923,,,
729862127.572562,-0.243831,6.300653,49.614584,-0.099243,0.000534,0.984589,-0.001783,-0.006387,-0.015126,60.07991,15.470078,-155.208923,,,
729862127.575877,-0.24583,6.299522,49.610067,-0.099243,0.000534,0.984589,-0.001783,-0.006387,-0.015126,60.00383,15.195129,-154.90538,,,
729862127.579221,-0.24583,6.299522,49.610067,-0.099243,0.000534,0.984589,-0.001783,-0.006387,-0.015126,60.00383,15.195129,-154.90538,,,
729862127.582563,-0.248194,6.300709,49.604392,-0.097504,9.2e-05,0.987656,-0.019806,0.015425,-0.0252,60.00383,15.195129,-154.90538,,,
729862127.585881,-0.255494,6.305127,49.598164,-0.097504,9.2e-05,0.987656,-0.019806,0.015425,-0.0252,60.00383,15.195129,-154.90538,,,
729862127.589287,-0.255494,6.305127,49.598164,-0.097504,9.2e-05,0.987656,-0.019806,0.015425,-0.0252,60.00383,15.195129,-154.90538,,,
729862127.59255,-0.262843,6.308077,49.591926,-0.104309,-0.003021,0.991318,-0.036096,0.020456,-0.027008,60.00383,15.195129,-154.90538,,,
729862127.595873,-0.275053,6.313668,49.586188,-0.104309,-0.003021,0.991318,-0.036096,0.020456,-0.027008,60.00383,15.195129,-154.90538,,,
729862127.59923,-0.275053,6.313668,49.586188,-0.104309,-0.003021,0.991318,-0.036096,0.020456,-0.027008,60.00383,15.195129,-154.90538,,,
729862127.602604,-0.288487,6.3189,49.581406,-0.11116,-0.002106,0.991501,-0.049453,0.022645,-0.021777,60.00383,15.195129,-154.90538,,,
729862127.605867,-0.304005,6.324202,49.576675,-0.11116,-0.002106,0.991501,-0.049453,0.022645,-0.021777,60.00383,15.195129,-154.90538,,,
729862127.609226,-0.304005,6.324202,49.576675,-0.11116,-0.002106,0.991501,-0.049453,0.022645,-0.021777,60.00383,15.195129,-154.90538,,,
