Time (sec),Pitch (deg),Roll (deg),Yaw(deg),X-Acceleration (g),Y-Acceleration (g),Z-Acceleration (g),Pitch Rate (deg/sec),Roll Rate (deg/sec),Yaw Rate (deg/sec),Magnetic Field in X direction (uT),Magnetic Field in Y direction (uT),Magnetic Field in Z Direction (uT),Latitude (deg),Longitude (deg),Altitude (m)
729860950.65512,0.157578,2.986443,46.230447,-0.057266,0.004593,0.973907,-0.012308,-0.040581,0.00672,63.971695,7.66423,-145.494919,,,
729860950.658506,0.153698,2.973038,46.233148,-0.057266,0.004593,0.973907,-0.012308,-0.040581,0.00672,63.971695,7.66423,-145.494919,,,
729860950.661821,0.147505,2.959605,46.236373,-0.057892,-0.00032,0.984344,-0.014555,-0.045605,0.010293,63.971695,7.66423,-145.494919,,,
729860950.665239,0.147505,2.959605,46.236373,-0.057892,-0.00032,0.984344,-0.014555,-0.045605,0.010293,63.971695,7.66423,-145.494919,,,
729860950.668511,0.14365,2.945706,46.240257,-0.057892,-0.00032,0.984344,-0.014555,-0.045605,0.010293,63.971695,7.66423,-145.494919,,,
729860950.671827,0.138172,2.93269,46.245062,-0.04982,0.001328,0.993774,-0.012208,-0.049941,0.016932,63.971695,7.66423,-145.494919,,,
729860950.675201,0.138172,2.93269,46.245062,-0.04982,0.001328,0.993774,-0.012208,-0.049941,0.016932,63.971695,7.66423,-145.494919,,,
729860950.678564,0.134796,2.917929,46.250048,-0.04982,0.001328,0.993774,-0.012208,-0.049941,0.016932,63.971695,7.66423,-145.494919,,,
729860950.681821,0.130058,2.906214,46.255087,-0.043076,0.001038,0.990997,-0.002906,-0.037444,0.01778,63.971695,7.66423,-145.494919,,,
729860950.685166,0.130058,2.906214,46.255087,-0.043076,0.001038,0.990997,-0.002906,-0.037444,0.01778,63.971695,7.66423,-145.494919,,,
729860950.688479,0.131044,2.897054,46.260346,-0.043076,0.001038,0.990997,-0.002906,-0.037444,0.01778,63.971695,7.66423,-145.494919,,,
729860950.691832,0.132348,2.895302,46.265651,-0.041794,-0.002472,1.008698,0.018795,0.003568,0.019238,63.971695,7.66423,-145.494919,,,
729860950.695165,0.132348,2.895302,46.265651,-0.041794,-0.002472,1.008698,0.018795,0.003568,0.019238,63.8069,7.737717,-145.270905,,,
729860950.698503,0.137254,2.898244,46.271067,-0.041794,-0.002472,1.008698,0.018795,0.003568,0.019238,63.8069,7.737717,-145.270905,,,
729860950.701857,0.138952,2.908162,46.276418,-0.039825,0.003311,1.001602,0.010098,0.038196,0.018417,63.8069,7.737717,-145.270905,,,
729860950.705197,0.138952,2.908162,46.276418,-0.039825,0.003311,1.001602,0.010098,0.038196,0.018417,63.8069,7.737717,-145.270905,,,
729860950.708515,0.140576,2.919918,46.281833,-0.039825,0.003311,1.001602,0.010098,0.038196,0.018417,63.8069,7.737717,-145.270905,,,
729860950.711832,0.137589,2.934959,46.287358,-0.041656,0.011627,0.978821,-0.014756,0.051885,0.017976,63.8069,7.737717,-145.270905,,,
729860950.715171,0.137589,2.934959,46.287358,-0.041656,0.011627,0.978821,-0.014756,0.051885,0.017976,63.8069,7.737717,-145.270905,,,
729860950.718587,0.130905,2.948054,46.292567,-0.041656,0.011627,0.978821,-0.014756,0.051885,0.017976,63.8069,7.737717,-145.270905,,,
729860950.721846,0.119993,2.959566,46.296531,-0.045013,0.015854,0.962509,-0.044675,0.035394,0.007765,63.8069,7.737717,-145.270905,,,
729860950.725186,0.119993,2.959566,46.296531,-0.045013,0.015854,0.962509,-0.044675,0.035394,0.007765,63.8069,7.737717,-145.270905,,,
729860950.728517,0.10562,2.966431,46.299487,-0.045013,0.015854,0.962509,-0.044675,0.035394,0.007765,63.8069,7.737717,-145.270905,,,
729860950.731857,0.089714,2.96929,46.302256,-0.050095,0.010574,0.962616,-0.060356,-0.002054,0.005704,63.8069,7.737717,-145.270905,,,
729860950.735153,0.089714,2.96929,46.302256,-0.050095,0.010574,0.962616,-0.060356,-0.002054,0.005704,63.766373,7.9216,-145.360535,,,
729860950.738489,0.072386,2.964772,46.305351,-0.050095,0.010574,0.962616,-0.060356,-0.002054,0.005704,63.766373,7.9216,-145.360535,,,
729860950.741829,0.056075,2.957228,46.308427,-0.053375,0.004913,0.978195,-0.052294,-0.036128,0.005993,63.766373,7.9216,-145.360535,,,
729860950.745259,0.056075,2.957228,46.308427,-0.053375,0.004913,0.978195,-0.052294,-0.036128,0.005993,63.766373,7.9216,-145.360535,,,
729860950.748492,0.042125,2.945241,46.311505,-0.053375,0.004913,0.978195,-0.052294,-0.036128,0.005993,63.766373,7.9216,-145.360535,,,
729860950.751852,0.0301,2.933149,46.315259,-0.051208,0.000412,1.000519,-0.038934,-0.037063,0.011435,63.766373,7.9216,-145.360535,,,
729860950.755148,0.0301,2.933149,46.315259,-0.051208,0.000412,1.000519,-0.038934,-0.037063,0.011435,63.766373,7.9216,-145.360535,,,
729860950.758584,0.02007,2.922575,46.319562,-0.051208,0.000412,1.000519,-0.038934,-0.037063,0.011435,63.766373,7.9216,-145.360535,,,
729860950.761819,0.012392,2.913846,46.323135,-0.040771,-0.004166,1.01207,-0.023605,-0.014353,0.007139,63.766373,7.9216,-145.360535,,,
729860950.765178,0.012392,2.913846,46.323135,-0.040771,-0.004166,1.01207,-0.023605,-0.014353,0.007139,63.766373,7.9216,-145.360535,,,
729860950.768528,0.006659,2.910715,46.325501,-0.040771,-0.004166,1.01207,-0.023605,-0.014353,0.007139,63.766373,7.9216,-145.360535,,,
729860950.771806,0.003025,2.908966,46.326384,-0.029556,-0.002625,1.0271,-0.005048,0.010211,-0.002322,63.766373,7.9216,-145.360535,,,
729860950.77519,0.003025,2.908966,46.326384,-0.029556,-0.002625,1.0271,-0.005048,0.010211,-0.002322,63.766373,7.9216,-145.360535,,,
729860950.778518,0.002623,2.912497,46.324686,-0.029556,-0.002625,1.0271,-0.005048,0.010211,-0.002322,63.940948,7.984802,-145.517761,,,
729860950.781834,0.004481,2.915934,46.320455,-0.032227,-0.008606,1.028259,0.011658,0.026541,-0.019122,63.940948,7.984802,-145.517761,,,
729860950.785267,0.004481,2.915934,46.320455,-0.032227,-0.008606,1.028259,0.011658,0.026541,-0.019122,63.940948,7.984802,-145.517761,,,
729860950.788482,0.009476,2.922735,46.314975,-0.032227,-0.008606,1.028259,0.011658,0.026541,-0.019122,63.940948,7.984802,-145.517761,,,
729860950.791839,0.019603,2.926999,46.308996,-0.043701,-0.010513,1.018997,0.033389,0.02394,-0.021409,63.940948,7.984802,-145.517761,,,
729860950.795168,0.019603,2.926999,46.308996,-0.043701,-0.010513,1.018997,0.033389,0.02394,-0.021409,63.940948,7.984802,-145.517761,,,
729860950.798496,0.028411,2.932195,46.303164,-0.043701,-0.010513,1.018997,0.033389,0.02394,-0.021409,63.940948,7.984802,-145.517761,,,
729860950.801826,0.039881,2.934736,46.298749,-0.049911,-0.003082,1.003601,0.029717,0.013502,-0.011688,63.940948,7.984802,-145.517761,,,
729860950.80515,0.039881,2.934736,46.298749,-0.049911,-0.003082,1.003601,0.029717,0.013502,-0.011688,63.940948,7.984802,-145.517761,,,
729860950.80856,0.047264,2.938183,46.296841,-0.049911,-0.003082,1.003601,0.029717,0.013502,-0.011688,63.940948,7.984802,-145.517761,,,
729860950.811824,0.056,2.941098,46.297704,-0.054581,1.5e-05,0.996002,0.020603,0.011819,0.007169,63.940948,7.984802,-145.517761,,,
729860950.815168,0.056,2.941098,46.297704,-0.054581,1.5e-05,0.996002,0.020603,0.011819,0.007169,63.940948,7.984802,-145.517761,,,
729860950.818504,0.060341,2.942803,46.301401,-0.054581,1.5e-05,0.996002,0.020603,0.011819,0.007169,63.915024,7.987335,-145.772598,,,
729860950.821827,0.062727,2.943468,46.307452,-0.061264,0.00032,0.984833,-0.000687,-0.001294,0.022508,63.915024,7.987335,-145.772598,,,
729860950.825184,0.062727,2.943468,46.307452,-0.061264,0.00032,0.984833,-0.000687,-0.001294,0.022508,63.915024,7.987335,-145.772598,,,
729860950.828506,0.061155,2.94037,46.314007,-0.061264,0.00032,0.984833,-0.000687,-0.001294,0.022508,63.915024,7.987335,-145.772598,,,
729860950.831842,0.056052,2.933423,46.319211,-0.053207,0.012634,0.969833,-0.025562,-0.029491,0.011821,63.915024,7.987335,-145.772598,,,
729860950.835263,0.056052,2.933423,46.319211,-0.053207,0.012634,0.969833,-0.025562,-0.029491,0.011821,63.915024,7.987335,-145.772598,,,
729860950.838511,0.047035,2.922088,46.322427,-0.053207,0.012634,0.969833,-0.025562,-0.029491,0.011821,63.915024,7.987335,-145.772598,,,
729860950.841853,0.034744,2.906415,46.322929,-0.044144,0.013458,0.969604,-0.041379,-0.050393,-0.007926,63.915024,7.987335,-145.772598,,,
729860950.845165,0.034744,2.906415,46.322929,-0.044144,0.013458,0.969604,-0.041379,-0.050393,-0.007926,63.915024,7.987335,-145.772598,,,
729860950.848495,0.022774,2.891772,46.321279,-0.044144,0.013458,0.969604,-0.041379,-0.050393,-0.007926,63.915024,7.987335,-145.772598,,,
729860950.851863,0.011452,2.87477,46.319439,-0.04306,0.00322,0.992554,-0.033064,-0.036596,-0.008827,63.915024,7.987335,-145.772598,,,
729860950.855157,0.011452,2.87477,46.319439,-0.04306,0.00322,0.992554,-0.033064,-0.036596,-0.008827,63.915024,7.987335,-145.772598,,,
729860950.858499,0.003194,2.864731,46.318285,-0.04306,0.00322,0.992554,-0.033064,-0.036596,-0.008827,63.939148,8.028854,-146.031311,,,
729860950.861894,-0.003048,2.851775,46.317612,-0.048111,-0.000793,1.005692,-0.010487,-0.026088,-0.004279,63.939148,8.028854,-146.031311,,,
729860950.865186,-0.003048,2.851775,46.317612,-0.048111,-0.000793,1.005692,-0.010487,-0.026088,-0.004279,63.939148,8.028854,-146.031311,,,
729860950.868509,-0.005198,2.843666,46.316854,-0.048111,-0.000793,1.005692,-0.010487,-0.026088,-0.004279,63.939148,8.028854,-146.031311,,,
729860950.871798,-0.007233,2.834427,46.315593,-0.044846,-0.000381,1.011307,0.003848,-0.018481,-0.007025,63.939148,8.028854,-146.031311,,,
729860950.875253,-0.007233,2.834427,46.315593,-0.044846,-0.000381,1.011307,0.003848,-0.018481,-0.007025,63.939148,8.028854,-146.031311,,,
729860950.878489,-0.005084,2.829366,46.312735,-0.044846,-0.000381,1.011307,0.003848,-0.018481,-0.007025,63.939148,8.028854,-146.031311,,,
729860950.881738,-0.005084,2.829366,46.312735,-0.044846,-0.000381,1.011307,0.020652,-0.000378,-0.019061,63.939148,8.028854,-146.031311,,,
729860950.885204,-0.001603,2.826923,46.308029,-0.04213,-0.004074,1.014465,0.020652,-0.000378,-0.019061,63.939148,8.028854,-146.031311,,,
729860950.888476,0.004581,2.827558,46.302316,-0.04213,-0.004074,1.014465,0.020652,-0.000378,-0.019061,63.939148,8.028854,-146.031311,,,
729860950.891876,0.011352,2.831156,46.296513,-0.040604,-0.005463,1.009003,0.025021,0.014984,-0.019471,63.939148,8.028854,-146.031311,,,
729860950.895173,0.011352,2.831156,46.296513,-0.040604,-0.005463,1.009003,0.025021,0.014984,-0.019471,63.939148,8.028854,-146.031311,,,
729860950.898547,0.017565,2.83492,46.291338,-0.040604,-0.005463,1.009003,0.025021,0.014984,-0.019471,63.939148,8.028854,-146.031311,,,
729860950.901817,0.017565,2.83492,46.288047,-0.053909,-0.003082,0.998886,0.018916,0.020266,-0.006636,63.766006,7.949936,-145.782684,,,
729860950.90515,0.022677,2.842183,46.288047,-0.053909,-0.003082,0.998886,0.018916,0.020266,-0.006636,63.766006,7.949936,-145.782684,,,
729860950.908521,0.027505,2.846992,46.287893,-0.053909,-0.003082,0.998886,0.018916,0.020266,-0.006636,63.766006,7.949936,-145.782684,,,
729860950.911867,0.027505,2.853296,46.29018,-0.06015,-0.001328,1.000717,0.011468,0.019208,0.010047,63.766006,7.949936,-145.782684,,,
729860950.915159,0.033292,2.853296,46.29018,-0.06015,-0.001328,1.000717,0.011468,0.019208,0.010047,63.766006,7.949936,-145.782684,,,
729860950.918513,0.036288,2.857445,46.294909,-0.06015,-0.001328,1.000717,0.011468,0.019208,0.010047,63.766006,7.949936,-145.782684,,,
729860950.921906,0.036288,2.857445,46.301747,-0.057571,-0.00206,0.994476,0.007052,0.006625,0.0245,63.766006,7.949936,-145.782684,,,
729860950.925169,0.041693,2.85936,46.301747,-0.057571,-0.00206,0.994476,0.007052,0.006625,0.0245,63.766006,7.949936,-145.782684,,,
729860950.928517,0.043015,2.858312,46.309134,-0.057571,-0.00206,0.994476,0.007052,0.006625,0.0245,63.766006,7.949936,-145.782684,,,
729860950.931823,0.043015,2.858312,46.315958,-0.05127,0.001831,0.980194,-0.013434,-0.027572,0.019551,63.766006,7.949936,-145.782684,,,
729860950.93525,0.042528,2.850871,46.315958,-0.05127,0.001831,0.980194,-0.013434,-0.027572,0.019551,63.766006,7.949936,-145.782684,,,
729860950.938435,0.037428,2.840105,46.320884,-0.05127,0.001831,0.980194,-0.013434,-0.027572,0.019551,63.766006,7.949936,-145.782684,,,
729860950.941862,0.037428,2.840105,46.320884,-0.05127,0.001831,0.980194,-0.03099,-0.047665,0.003887,63.751175,7.892487,-145.873047,,,
729860950.945185,0.029389,2.825961,46.323685,-0.042618,0.0112,0.971039,-0.03099,-0.047665,0.003887,63.751175,7.892487,-145.873047,,,
729860950.948556,0.019225,2.812296,46.324362,-0.042618,0.0112,0.971039,-0.03099,-0.047665,0.003887,63.751175,7.892487,-145.873047,,,
729860950.951858,0.019225,2.812296,46.324362,-0.042618,0.0112,0.971039,-0.043822,-0.031831,-0.009255,63.751175,7.892487,-145.873047,,,
729860950.955137,0.007003,2.800003,46.323242,-0.034775,0.004425,0.985947,-0.043822,-0.031831,-0.009255,63.751175,7.892487,-145.873047,,,
729860950.958571,-0.005329,2.792364,46.321638,-0.034775,0.004425,0.985947,-0.043822,-0.031831,-0.009255,63.751175,7.892487,-145.873047,,,
729860950.961876,-0.005329,2.792364,46.321638,-0.034775,0.004425,0.985947,-0.035291,-0.002227,-0.005259,63.751175,7.892487,-145.873047,,,
729860950.965174,-0.016906,2.787426,46.32054,-0.037903,-0.00267,1.006714,-0.035291,-0.002227,-0.005259,63.751175,7.892487,-145.873047,,,
729860950.968507,-0.025225,2.787504,46.320405,-0.037903,-0.00267,1.006714,-0.035291,-0.002227,-0.005259,63.751175,7.892487,-145.873047,,,
729860950.971858,-0.025225,2.787504,46.320405,-0.037903,-0.00267,1.018188,-0.008998,0.013779,0.004039,63.751175,7.892487,-145.873047,,,
729860950.975231,-0.030829,2.787923,46.321417,-0.047653,-0.006836,1.018188,-0.008998,0.013779,0.004039,63.751175,7.892487,-145.873047,,,
729860950.9785,-0.030497,2.791425,46.32339,-0.047653,-0.006836,1.018188,-0.008998,0.013779,0.004039,63.751175,7.892487,-145.873047,,,
729860950.981864,-0.030497,2.791425,46.32339,-0.047653,-0.006836,1.018188,0.028193,0.015211,0.00794,63.522186,8.115829,-146.015533,,,
729860950.985183,-0.025446,2.795378,46.325664,-0.049667,-0.012772,1.020737,0.028193,0.015211,0.00794,63.522186,8.115829,-146.015533,,,
729860950.988503,-0.015827,2.799464,46.327075,-0.049667,-0.012772,1.020737,0.028193,0.015211,0.00794,63.522186,8.115829,-146.015533,,,
729860950.991953,-0.015827,2.799464,46.327075,-0.049667,-0.012772,1.020737,0.028193,0.015211,0.00794,63.522186,8.115829,-146.015533,,,
729860950.995174,-0.004671,2.806355,46.32673,-0.050827,-0.010468,1.017731,0.040955,0.017323,-0.003624,63.522186,8.115829,-146.015533,,,
729860950.998591,0.00645,2.809135,46.325239,-0.050827,-0.010468,1.017731,0.040955,0.017323,-0.003624,63.522186,8.115829,-146.015533,,,
729860951.001893,0.00645,2.809135,46.325239,-0.050827,-0.010468,1.017731,0.032871,-0.008736,-0.005012,63.522186,8.115829,-146.015533,,,
729860951.005159,0.015958,2.810484,46.323609,-0.053375,-0.001923,0.990814,0.032871,-0.008736,-0.005012,63.522186,8.115829,-146.015533,,,
729860951.008515,0.022972,2.805921,46.321815,-0.053375,-0.001923,0.990814,0.032871,-0.008736,-0.005012,63.522186,8.115829,-146.015533,,,
729860951.011884,0.022972,2.805921,46.321815,-0.053375,-0.001923,0.990814,0.001107,-0.025111,0.00086,63.522186,8.115829,-146.015533,,,
729860951.015188,0.025408,2.800029,46.321074,-0.059097,0.006012,0.973907,0.001107,-0.025111,0.00086,63.522186,8.115829,-146.015533,,,
729860951.018517,0.023715,2.791438,46.322786,-0.059097,0.006012,0.973907,0.001107,-0.025111,0.00086,63.522186,8.115829,-146.015533,,,
729860951.02181,0.023715,2.791438,46.322786,-0.059097,0.006012,0.973907,0.001107,-0.025111,0.00086,63.624207,7.909027,-145.776764,,,
729860951.025249,0.01995,2.782086,46.327288,-0.063034,0.005814,0.971481,-0.02803,-0.026029,0.018835,63.624207,7.909027,-145.776764,,,
729860951.028482,0.010078,2.774139,46.334365,-0.063034,0.005814,0.971481,-0.02803,-0.026029,0.018835,63.624207,7.909027,-145.776764,,,
729860951.031911,0.010078,2.774139,46.334365,-0.063034,0.005814,0.971481,-0.02803,-0.026029,0.018835,63.624207,7.909027,-145.776764,,,
729860951.035202,-0.002391,2.764566,46.343081,-0.055771,0.008453,0.970703,-0.057195,-0.018963,0.028795,63.624207,7.909027,-145.776764,,,
729860951.038465,-0.020306,2.759464,46.351756,-0.055771,0.008453,0.970703,-0.057195,-0.018963,0.028795,63.624207,7.909027,-145.776764,,,
729860951.041869,-0.020306,2.759464,46.351756,-0.055771,0.008453,0.970703,-0.057195,-0.018963,0.028795,63.624207,7.909027,-145.776764,,,
729860951.045173,-0.040622,2.75318,46.359577,-0.0439,0.011017,0.976227,-0.070372,-0.007384,0.02216,63.624207,7.909027,-145.776764,,,
729860951.048513,-0.059925,2.75051,46.365917,-0.0439,0.011017,0.976227,-0.070372,-0.007384,0.02216,63.624207,7.909027,-145.776764,,,
729860951.051926,-0.059925,2.75051,46.365917,-0.0439,0.011017,0.976227,-0.070372,-0.007384,0.02216,63.624207,7.909027,-145.776764,,,
729860951.055193,-0.077625,2.74779,46.369031,-0.036987,-1.5e-05,0.99173,-0.051889,-0.003035,0.0005,63.624207,7.909027,-145.776764,,,
729860951.058627,-0.089815,2.746202,46.369006,-0.036987,-1.5e-05,0.99173,-0.051889,-0.003035,0.0005,63.624207,7.909027,-145.776764,,,
729860951.061946,-0.089815,2.746202,46.369006,-0.036987,-1.5e-05,0.99173,-0.051889,-0.003035,0.0005,63.624207,7.909027,-145.776764,,,
729860951.065182,-0.098667,2.745474,46.366304,-0.034897,-0.00737,1.014374,-0.013873,0.002296,-0.016336,63.415512,7.927979,-145.522598,,,
729860951.068583,-0.100471,2.745479,46.361824,-0.034897,-0.00737,1.014374,-0.013873,0.002296,-0.016336,63.415512,7.927979,-145.522598,,,
729860951.071888,-0.100471,2.745479,46.361824,-0.034897,-0.00737,1.014374,-0.013873,0.002296,-0.016336,63.415512,7.927979,-145.522598,,,
729860951.075247,-0.098768,2.745692,46.357768,-0.04335,-0.01503,1.01889,0.023684,0.002005,-0.011527,63.415512,7.927979,-145.522598,,,
729860951.078545,-0.090512,2.744642,46.355796,-0.04335,-0.01503,1.01889,0.023684,0.002005,-0.011527,63.415512,7.927979,-145.522598,,,
729860951.081939,-0.090512,2.744642,46.355796,-0.04335,-0.01503,1.01889,0.023684,0.002005,-0.011527,63.415512,7.927979,-145.522598,,,
729860951.085171,-0.080108,2.743625,46.35639,-0.053848,-0.014572,1.012695,0.041048,-0.004054,0.00722,63.415512,7.927979,-145.522598,,,
729860951.088552,-0.069646,2.740518,46.358639,-0.053848,-0.014572,1.012695,0.041048,-0.004054,0.00722,63.415512,7.927979,-145.522598,,,
729860951.09186,-0.069646,2.740518,46.358639,-0.053848,-0.014572,1.012695,0.041048,-0.004054,0.00722,63.415512,7.927979,-145.522598,,,
729860951.095255,-0.061673,2.737252,46.361551,-0.05397,-0.00174,0.989258,0.014414,-0.021998,0.010523,63.415512,7.927979,-145.522598,,,
729860951.098496,-0.059725,2.729066,46.364484,-0.05397,-0.00174,0.989258,0.014414,-0.021998,0.010523,63.415512,7.927979,-145.522598,,,
729860951.101727,-0.059725,2.729066,46.364484,-0.05397,-0.00174,0.989258,0.014414,-0.021998,0.010523,63.415512,7.927979,-145.522598,,,
729860951.105169,-0.060941,2.72367,46.365919,-0.042908,0.010117,0.975555,-0.018527,-0.028669,-0.001531,63.714996,8.179398,-145.294647,,,
729860951.108533,-0.068111,2.715084,46.365549,-0.042908,0.010117,0.975555,-0.018527,-0.028669,-0.001531,63.714996,8.179398,-145.294647,,,
729860951.112006,-0.068111,2.715084,46.365549,-0.042908,0.010117,0.975555,-0.018527,-0.028669,-0.001531,63.714996,8.179398,-145.294647,,,
729860951.115162,-0.076092,2.710772,46.364272,-0.044662,0.005676,0.988525,-0.035356,-0.018811,-0.008668,63.714996,8.179398,-145.294647,,,
729860951.118524,-0.086285,2.704973,46.363095,-0.044662,0.005676,0.988525,-0.035356,-0.018811,-0.008668,63.714996,8.179398,-145.294647,,,
729860951.121857,-0.086285,2.704973,46.363095,-0.044662,0.005676,0.988525,-0.035356,-0.018811,-0.008668,63.714996,8.179398,-145.294647,,,
729860951.125246,-0.093374,2.700609,46.363403,-0.05069,-0.001724,1.003143,-0.03285,-0.010258,0.001784,63.714996,8.179398,-145.294647,,,
729860951.128487,-0.102323,2.697864,46.365515,-0.05069,-0.001724,1.003143,-0.03285,-0.010258,0.001784,63.714996,8.179398,-145.294647,,,
729860951.131866,-0.102323,2.697864,46.365515,-0.05069,-0.001724,1.003143,-0.03285,-0.010258,0.001784,63.714996,8.179398,-145.294647,,,
729860951.135172,-0.109675,2.695136,46.369154,-0.052032,-0.002594,1.006882,-0.028538,0.000942,0.012599,63.714996,8.179398,-145.294647,,,
729860951.138468,-0.117647,2.695168,46.374201,-0.052032,-0.002594,1.006882,-0.028538,0.000942,0.012599,63.714996,8.179398,-145.294647,,,
729860951.141834,-0.117647,2.695168,46.374201,-0.052032,-0.002594,1.006882,-0.028538,0.000942,0.012599,63.714996,8.179398,-145.294647,,,
729860951.145166,-0.125867,2.692635,46.380332,-0.05426,-0.001541,1.001938,-0.025099,0.003721,0.020355,63.838486,7.978516,-145.917603,,,
729860951.148522,-0.13281,2.692886,46.386193,-0.05426,-0.001541,1.001938,-0.025099,0.003721,0.020355,63.838486,7.978516,-145.917603,,,
729860951.151942,-0.13281,2.692886,46.386193,-0.05426,-0.001541,1.001938,-0.025099,0.003721,0.020355,63.838486,7.978516,-145.917603,,,
729860951.155159,-0.142401,2.691713,46.390728,-0.051056,0.001297,0.999481,-0.028494,0.003418,0.010988,63.838486,7.978516,-145.917603,,,
729860951.158516,-0.149982,2.691515,46.394008,-0.051056,0.001297,0.999481,-0.028494,0.003418,0.010988,63.838486,7.978516,-145.917603,,,
729860951.161839,-0.149982,2.691515,46.394008,-0.051056,0.001297,0.999481,-0.028494,0.003418,0.010988,63.838486,7.978516,-145.917603,,,
729860951.165211,-0.159128,2.692078,46.395847,-0.045395,-0.0,1.003479,-0.020209,0.002576,0.001273,63.838486,7.978516,-145.917603,,,
729860951.168521,-0.163917,2.69122,46.397,-0.045395,-0.0,1.003479,-0.020209,0.002576,0.001273,63.838486,7.978516,-145.917603,,,
729860951.171801,-0.163917,2.69122,46.397,-0.045395,-0.0,1.003479,-0.020209,0.002576,0.001273,63.838486,7.978516,-145.917603,,,
729860951.175251,-0.166353,2.689486,46.399067,-0.047226,-0.00824,1.011566,0.000293,-0.017212,0.0085,63.838486,7.978516,-145.917603,,,
729860951.178562,-0.165143,2.682806,46.402415,-0.047226,-0.00824,1.011566,0.000293,-0.017212,0.0085,63.838486,7.978516,-145.917603,,,
729860951.181839,-0.165143,2.682806,46.402415,-0.047226,-0.00824,1.011566,0.000293,-0.017212,0.0085,63.838486,7.978516,-145.917603,,,
729860951.18516,-0.159297,2.675854,46.406329,-0.050735,-0.009262,1.01944,0.016891,-0.017684,0.013267,63.550674,8.197998,-145.988647,,,
729860951.188466,-0.153353,2.670469,46.409967,-0.050735,-0.009262,1.01944,0.016891,-0.017684,0.013267,63.550674,8.197998,-145.988647,,,
729860951.191929,-0.153353,2.670469,46.409967,-0.050735,-0.009262,1.01944,0.016891,-0.017684,0.013267,63.550674,8.197998,-145.988647,,,
729860951.195159,-0.143514,2.666493,46.412375,-0.042847,-0.005005,1.023621,0.028018,-0.003963,0.00523,63.550674,8.197998,-145.988647,,,
729860951.198513,-0.135343,2.665354,46.414309,-0.042847,-0.005005,1.023621,0.028018,-0.003963,0.00523,63.550674,8.197998,-145.988647,,,
729860951.201844,-0.135343,2.665354,46.414309,-0.042847,-0.005005,1.023621,0.028018,-0.003963,0.00523,63.550674,8.197998,-145.988647,,,
729860951.205196,-0.126991,2.665218,46.416476,-0.040161,-0.004959,1.010269,0.027034,-0.001888,0.006785,63.550674,8.197998,-145.988647,,,
729860951.208551,-0.12024,2.662527,46.418128,-0.040161,-0.004959,1.010269,0.027034,-0.001888,0.006785,63.550674,8.197998,-145.988647,,,
729860951.211831,-0.12024,2.662527,46.418128,-0.040161,-0.004959,1.010269,0.027034,-0.001888,0.006785,63.550674,8.197998,-145.988647,,,
729860951.215188,-0.115958,2.659569,46.418521,-0.043228,0.002655,0.991974,0.010088,-0.01172,-0.002806,63.550674,8.197998,-145.988647,,,
729860951.218585,-0.114844,2.655231,46.417994,-0.043228,0.002655,0.991974,0.010088,-0.01172,-0.002806,63.550674,8.197998,-145.988647,,,
729860951.221818,-0.114844,2.655231,46.417994,-0.043228,0.002655,0.991974,0.010088,-0.01172,-0.002806,63.550674,8.197998,-145.988647,,,
729860951.22519,-0.116009,2.652215,46.418031,-0.046326,0.007797,0.984482,-0.006186,-0.013501,0.000385,63.550674,8.197998,-145.988647,,,
729860951.228512,-0.119033,2.648711,46.419072,-0.046326,0.007797,0.984482,-0.006186,-0.013501,0.000385,63.521317,7.783844,-145.726761,,,
729860951.231901,-0.119033,2.648711,46.419072,-0.046326,0.007797,0.984482,-0.006186,-0.013501,0.000385,63.521317,7.783844,-145.726761,,,
729860951.235174,-0.122679,2.647982,46.421829,-0.050674,0.004364,0.986053,-0.014693,-0.004496,0.011944,63.521317,7.783844,-145.726761,,,
729860951.238457,-0.126978,2.64654,46.426665,-0.050674,0.004364,0.986053,-0.014693,-0.004496,0.011944,63.521317,7.783844,-145.726761,,,
729860951.241831,-0.126978,2.64654,46.426665,-0.050674,0.004364,0.986053,-0.014693,-0.004496,0.011944,63.521317,7.783844,-145.726761,,,
729860951.245233,-0.130339,2.646165,46.432969,-0.048996,0.002762,0.992447,-0.012942,0.003105,0.022233,63.521317,7.783844,-145.726761,,,
729860951.248481,-0.133181,2.647022,46.439968,-0.048996,0.002762,0.992447,-0.012942,0.003105,0.022233,63.521317,7.783844,-145.726761,,,
729860951.251838,-0.133181,2.647022,46.439968,-0.048996,0.002762,0.992447,-0.012942,0.003105,0.022233,63.521317,7.783844,-145.726761,,,
729860951.255138,-0.136144,2.648995,46.446764,-0.043991,0.000366,0.998062,-0.007791,0.012204,0.021069,63.521317,7.783844,-145.726761,,,
729860951.258553,-0.138703,2.652055,46.452601,-0.043991,0.000366,0.998062,-0.007791,0.012204,0.021069,63.521317,7.783844,-145.726761,,,
729860951.261824,-0.138703,2.652055,46.452601,-0.043991,0.000366,0.998062,-0.007791,0.012204,0.021069,63.521317,7.783844,-145.726761,,,
729860951.265186,-0.142297,2.656885,46.45709,-0.03331,-0.00148,0.996567,-0.004812,0.01861,0.011831,63.521317,7.783844,-145.726761,,,
729860951.26851,-0.142967,2.661138,46.45977,-0.03331,-0.00148,0.996567,-0.004812,0.01861,0.011831,63.753479,7.947739,-145.625778,,,
729860951.271818,-0.142967,2.661138,46.45977,-0.03331,-0.00148,0.996567,-0.004812,0.01861,0.011831,63.753479,7.947739,-145.625778,,,
729860951.275176,-0.143012,2.665565,46.460332,-0.031006,-0.007706,1.003357,0.005529,0.023749,-0.002508,63.753479,7.947739,-145.625778,,,
729860951.278491,-0.140664,2.671834,46.459116,-0.031006,-0.007706,1.003357,0.005529,0.023749,-0.002508,63.753479,7.947739,-145.625778,,,
729860951.281829,-0.140664,2.671834,46.459116,-0.031006,-0.007706,1.003357,0.005529,0.023749,-0.002508,63.753479,7.947739,-145.625778,,,
729860951.285246,-0.13767,2.677858,46.456642,-0.034393,-0.010757,1.012131,0.014471,0.032644,-0.010866,63.753479,7.947739,-145.625778,,,
729860951.288427,-0.133438,2.686547,46.453141,-0.034393,-0.010757,1.012131,0.014471,0.032644,-0.010866,63.753479,7.947739,-145.625778,,,
729860951.291839,-0.133438,2.686547,46.453141,-0.034393,-0.010757,1.012131,0.014471,0.032644,-0.010866,63.753479,7.947739,-145.625778,,,
729860951.295184,-0.128178,2.693992,46.448616,-0.039932,-0.011749,1.015839,0.018321,0.031618,-0.017779,63.753479,7.947739,-145.625778,,,
729860951.298554,-0.123577,2.701221,46.443126,-0.039932,-0.011749,1.015839,0.018321,0.031618,-0.017779,63.753479,7.947739,-145.625778,,,
729860951.301837,-0.123577,2.701221,46.443126,-0.039932,-0.011749,1.015839,0.018321,0.031618,-0.017779,63.753479,7.947739,-145.625778,,,
729860951.305129,-0.118203,2.70524,46.436754,-0.049118,-0.009186,1.002518,0.009524,0.010418,-0.024401,63.753479,7.947739,-145.625778,,,
729860951.308644,-0.116449,2.706127,46.430051,-0.049118,-0.009186,1.002518,0.009524,0.010418,-0.024401,63.593887,7.978775,-146.131195,,,
729860951.311866,-0.116449,2.706127,46.430051,-0.049118,-0.009186,1.002518,0.009524,0.010418,-0.024401,63.593887,7.978775,-146.131195,,,
729860951.315203,-0.114409,2.704605,46.423775,-0.059967,-0.006271,0.995361,0.000211,-0.010613,-0.021799,63.593887,7.978775,-146.131195,,,
729860951.318521,-0.115628,2.699148,46.419214,-0.059967,-0.006271,0.995361,0.000211,-0.010613,-0.021799,63.593887,7.978775,-146.131195,,,
729860951.321908,-0.115628,2.699148,46.419214,-0.059967,-0.006271,0.995361,0.000211,-0.010613,-0.021799,63.593887,7.978775,-146.131195,,,
729860951.325184,-0.117071,2.691993,46.417089,-0.071503,-0.006775,0.989853,-0.009492,-0.026976,-0.005286,63.593887,7.978775,-146.131195,,,
729860951.328517,-0.120943,2.683525,46.417191,-0.071503,-0.006775,0.989853,-0.009492,-0.026976,-0.005286,63.593887,7.978775,-146.131195,,,
729860951.331841,-0.120943,2.683525,46.417191,-0.071503,-0.006775,0.989853,-0.009492,-0.026976,-0.005286,63.593887,7.978775,-146.131195,,,
729860951.335171,-0.125308,2.675699,46.419822,-0.072495,-0.002563,0.989136,-0.017542,-0.022596,0.011911,63.593887,7.978775,-146.131195,,,
729860951.338484,-0.130571,2.669371,46.424961,-0.072495,-0.002563,0.989136,-0.017542,-0.022596,0.011911,63.593887,7.978775,-146.131195,,,
729860951.341834,-0.130571,2.669371,46.424961,-0.072495,-0.002563,0.989136,-0.017542,-0.022596,0.011911,63.593887,7.978775,-146.131195,,,
729860951.345179,-0.135818,2.662846,46.431971,-0.065231,-0.000168,0.990906,-0.0205,-0.006713,0.024894,63.593887,7.978775,-146.131195,,,
729860951.348611,-0.141912,2.660943,46.439842,-0.065231,-0.000168,0.990906,-0.0205,-0.006713,0.024894,63.593887,7.978775,-146.131195,,,
729860951.351846,-0.141912,2.660943,46.439842,-0.065231,-0.000168,0.990906,-0.0205,-0.006713,0.024894,63.645294,8.07225,-145.999603,,,
729860951.355189,-0.149385,2.657497,46.44779,-0.052673,-0.00058,0.986481,-0.024133,0.007892,0.025279,63.645294,8.07225,-145.999603,,,
729860951.358526,-0.155962,2.660649,46.45514,-0.052673,-0.00058,0.986481,-0.024133,0.007892,0.025279,63.645294,8.07225,-145.999603,,,
729860951.361937,-0.155962,2.660649,46.45514,-0.052673,-0.00058,0.986481,-0.024133,0.007892,0.025279,63.645294,8.07225,-145.999603,,,
729860951.365182,-0.163635,2.663498,46.461618,-0.048935,-0.001083,0.990814,-0.020721,0.026884,0.019442,63.645294,8.07225,-145.999603,,,
729860951.368534,-0.169782,2.671219,46.467837,-0.048935,-0.001083,0.990814,-0.020721,0.026884,0.019442,63.645294,8.07225,-145.999603,,,
729860951.371882,-0.169782,2.671219,46.467837,-0.048935,-0.001083,0.990814,-0.020721,0.026884,0.019442,63.645294,8.07225,-145.999603,,,
729860951.375276,-0.177411,2.677699,46.473601,-0.044449,-0.001297,0.9879,-0.019387,0.032813,0.016369,63.645294,8.07225,-145.999603,,,
729860951.378523,-0.182452,2.686137,46.479341,-0.044449,-0.001297,0.9879,-0.019387,0.032813,0.016369,63.645294,8.07225,-145.999603,,,
729860951.381852,-0.182452,2.686137,46.479341,-0.044449,-0.001297,0.9879,-0.019387,0.032813,0.016369,63.645294,8.07225,-145.999603,,,
729860951.385177,-0.187201,2.694216,46.484256,-0.038132,-0.003906,0.986938,-0.007001,0.03051,0.011166,63.645294,8.07225,-145.999603,,,
729860951.388474,-0.189346,2.701966,46.487474,-0.038132,-0.003906,0.986938,-0.007001,0.03051,0.011166,63.645294,8.07225,-145.999603,,,
729860951.391855,-0.189346,2.701966,46.487474,-0.038132,-0.003906,0.986938,-0.007001,0.03051,0.011166,63.5616,7.939743,-145.655441,,,
729860951.395164,-0.191415,2.712037,46.489866,-0.035797,-0.006485,0.99408,-0.00302,0.030785,0.005563,63.5616,7.939743,-145.655441,,,
729860951.398512,-0.192523,2.71972,46.491128,-0.035797,-0.006485,0.99408,-0.00302,0.030785,0.005563,63.5616,7.939743,-145.655441,,,
729860951.401921,-0.192523,2.71972,46.491128,-0.035797,-0.006485,0.99408,-0.00302,0.030785,0.005563,63.5616,7.939743,-145.655441,,,
729860951.405146,-0.194569,2.730125,46.491325,-0.035187,-0.008347,0.992722,-0.004633,0.016394,-0.002022,63.5616,7.939743,-145.655441,,,
729860951.408542,-0.19671,2.732377,46.4908,-0.035187,-0.008347,0.992722,-0.004633,0.016394,-0.002022,63.5616,7.939743,-145.655441,,,
729860951.411922,-0.19671,2.732377,46.4908,-0.035187,-0.008347,0.992722,-0.004633,0.016394,-0.002022,63.5616,7.939743,-145.655441,,,
729860951.415241,-0.20049,2.737697,46.48932,-0.033768,-0.006088,0.983627,-0.015132,-0.002086,-0.00935,63.5616,7.939743,-145.655441,,,
729860951.418494,-0.206273,2.73535,46.487251,-0.033768,-0.006088,0.983627,-0.015132,-0.002086,-0.00935,63.5616,7.939743,-145.655441,,,
729860951.421827,-0.206273,2.73535,46.487251,-0.033768,-0.006088,0.983627,-0.015132,-0.002086,-0.00935,63.5616,7.939743,-145.655441,,,
729860951.425204,-0.21378,2.736679,46.485469,-0.037415,-0.004684,0.98468,-0.030508,-0.008087,-0.008202,63.5616,7.939743,-145.655441,,,
729860951.428594,-0.223605,2.734318,46.484134,-0.037415,-0.004684,0.98468,-0.030508,-0.008087,-0.008202,63.5616,7.939743,-145.655441,,,
729860951.431826,-0.223605,2.734318,46.484134,-0.037415,-0.004684,0.98468,-0.030508,-0.008087,-0.008202,63.517929,8.146194,-146.022186,,,
729860951.435171,-0.234209,2.735085,46.483882,-0.040558,-0.003937,0.987228,-0.041218,0.000829,-0.001311,63.517929,8.146194,-146.022186,,,
729860951.438476,-0.246157,2.735527,46.485481,-0.040558,-0.003937,0.987228,-0.041218,0.000829,-0.001311,63.517929,8.146194,-146.022186,,,
729860951.441882,-0.246157,2.735527,46.485481,-0.040558,-0.003937,0.987228,-0.041218,0.000829,-0.001311,63.517929,8.146194,-146.022186,,,
729860951.445181,-0.25734,2.738224,46.488479,-0.043137,-0.006943,0.993652,-0.041878,0.01399,0.00837,63.517929,8.146194,-146.022186,,,
729860951.448551,-0.26874,2.741762,46.49136,-0.043137,-0.006943,0.993652,-0.041878,0.01399,0.00837,63.517929,8.146194,-146.022186,,,
729860951.451833,-0.26874,2.741762,46.49136,-0.043137,-0.006943,0.993652,-0.041878,0.01399,0.00837,63.517929,8.146194,-146.022186,,,
729860951.455178,-0.277301,2.745293,46.492825,-0.042023,-0.003983,1.005646,-0.026867,0.016003,-0.000764,63.517929,8.146194,-146.022186,,,
729860951.458576,-0.283877,2.749604,46.492606,-0.042023,-0.003983,1.005646,-0.026867,0.016003,-0.000764,63.517929,8.146194,-146.022186,,,
729860951.461844,-0.283877,2.749604,46.492606,-0.042023,-0.003983,1.005646,-0.026867,0.016003,-0.000764,63.517929,8.146194,-146.022186,,,
729860951.465205,-0.286489,2.753085,46.490374,-0.038559,-0.0112,1.014923,-0.001516,0.021416,-0.013593,63.517929,8.146194,-146.022186,,,
729860951.468498,-0.284228,2.758029,46.48569,-0.038559,-0.0112,1.014923,-0.001516,0.021416,-0.013593,63.517929,8.146194,-146.022186,,,
729860951.471822,-0.284228,2.758029,46.48569,-0.038559,-0.0112,1.014923,-0.001516,0.021416,-0.013593,63.614853,8.306503,-146.077438,,,
729860951.475178,-0.277506,2.75931,46.479061,-0.041687,-0.016571,1.019165,0.031571,0.01555,-0.025491,63.614853,8.306503,-146.077438,,,
729860951.478519,-0.267423,2.762445,46.471701,-0.041687,-0.016571,1.019165,0.031571,0.01555,-0.025491,63.614853,8.306503,-146.077438,,,
729860951.481917,-0.267423,2.762445,46.471701,-0.041687,-0.016571,1.019165,0.031571,0.01555,-0.025491,63.614853,8.306503,-146.077438,,,
729860951.485172,-0.25584,2.761152,46.464616,-0.050323,-0.011993,1.014435,0.047347,0.002413,-0.022673,63.614853,8.306503,-146.077438,,,
729860951.48845,-0.24191,2.75987,46.458656,-0.050323,-0.011993,1.014435,0.047347,0.002413,-0.022673,63.614853,8.306503,-146.077438,,,
729860951.491848,-0.24191,2.75987,46.458656,-0.050323,-0.011993,1.014435,0.047347,0.002413,-0.022673,63.614853,8.306503,-146.077438,,,
729860951.495237,-0.227605,2.753483,46.454136,-0.058548,-0.006546,1.001175,0.053835,-0.011369,-0.012279,63.614853,8.306503,-146.077438,,,
729860951.498505,-0.213601,2.748495,46.451293,-0.058548,-0.006546,1.001175,0.053835,-0.011369,-0.012279,63.614853,8.306503,-146.077438,,,
729860951.501842,-0.213601,2.748495,46.451293,-0.058548,-0.006546,1.001175,0.053835,-0.011369,-0.012279,63.614853,8.306503,-146.077438,,,
729860951.505109,-0.202869,2.740191,46.450318,-0.057037,-0.000244,0.990952,0.032112,-0.016456,-0.000198,63.614853,8.306503,-146.077438,,,
729860951.508576,-0.196582,2.734599,46.450822,-0.057037,-0.000244,0.990952,0.032112,-0.016456,-0.000198,63.614853,8.306503,-146.077438,,,
729860951.511832,-0.196582,2.734599,46.450822,-0.057037,-0.000244,0.990952,0.032112,-0.016456,-0.000198,63.614853,8.306503,-146.077438,,,
729860951.51518,-0.195533,2.727945,46.452165,-0.054367,0.002594,0.982803,-0.003947,-0.012596,0.003921,63.789856,8.354431,-145.974274,,,
729860951.518504,-0.19901,2.723747,46.454086,-0.054367,0.002594,0.982803,-0.003947,-0.012596,0.003921,63.789856,8.354431,-145.974274,,,
729860951.52186,-0.19901,2.723747,46.454086,-0.054367,0.002594,0.982803,-0.003947,-0.012596,0.003921,63.789856,8.354431,-145.974274,,,
729860951.525175,-0.207563,2.719648,46.455739,-0.04837,0.008896,0.98201,-0.035753,-0.005107,0.000522,63.789856,8.354431,-145.974274,,,
729860951.528508,-0.219268,2.717459,46.457269,-0.04837,0.008896,0.98201,-0.035753,-0.005107,0.000522,63.789856,8.354431,-145.974274,,,
729860951.531841,-0.219268,2.717459,46.457269,-0.04837,0.008896,0.98201,-0.035753,-0.005107,0.000522,63.789856,8.354431,-145.974274,,,
729860951.535223,-0.233265,2.714935,46.458603,-0.049149,0.007675,0.989502,-0.049847,-0.000945,-0.001433,63.789856,8.354431,-145.974274,,,
729860951.538472,-0.247216,2.713813,46.459292,-0.049149,0.007675,0.989502,-0.049847,-0.000945,-0.001433,63.789856,8.354431,-145.974274,,,
729860951.541848,-0.247216,2.713813,46.459292,-0.049149,0.007675,0.989502,-0.049847,-0.000945,-0.001433,63.789856,8.354431,-145.974274,,,
729860951.545177,-0.26001,2.711302,46.459928,-0.052246,-0.000809,1.00383,-0.037112,0.003254,-0.001122,63.789856,8.354431,-145.974274,,,
729860951.548562,-0.268592,2.712112,46.460559,-0.052246,-0.000809,1.00383,-0.037112,0.003254,-0.001122,63.789856,8.354431,-145.974274,,,
729860951.551836,-0.268592,2.712112,46.460559,-0.052246,-0.000809,1.00383,-0.037112,0.003254,-0.001122,63.789856,8.354431,-145.974274,,,
729860951.555141,-0.274681,2.712336,46.461649,-0.056183,-0.00798,1.01738,-0.003586,0.010425,0.003819,63.610077,8.232422,-145.989883,,,
729860951.558507,-0.27288,2.71437,46.463497,-0.056183,-0.00798,1.01738,-0.003586,0.010425,0.003819,63.610077,8.232422,-145.989883,,,
729860951.561916,-0.27288,2.71437,46.463497,-0.056183,-0.00798,1.01738,-0.003586,0.010425,0.003819,63.610077,8.232422,-145.989883,,,
729860951.565164,-0.266712,2.716178,46.465665,-0.055496,-0.009491,1.021912,0.038511,0.00926,0.008116,63.610077,8.232422,-145.989883,,,
729860951.568514,-0.252709,2.718574,46.468144,-0.055496,-0.009491,1.021912,0.038511,0.00926,0.008116,63.610077,8.232422,-145.989883,,,
729860951.571813,-0.252709,2.718574,46.468144,-0.055496,-0.009491,1.021912,0.038511,0.00926,0.008116,63.610077,8.232422,-145.989883,,,
729860951.575217,-0.235635,2.724837,46.470833,-0.054932,-0.0103,1.0242,0.06448,0.021715,0.010752,63.610077,8.232422,-145.989883,,,
729860951.578437,-0.216876,2.731665,46.472753,-0.054932,-0.0103,1.0242,0.06448,0.021715,0.010752,63.610077,8.232422,-145.989883,,,
729860951.581866,-0.216876,2.731665,46.472753,-0.054932,-0.0103,1.0242,0.06448,0.021715,0.010752,63.610077,8.232422,-145.989883,,,
729860951.585167,-0.198355,2.742263,46.473976,-0.04953,-0.003952,1.007538,0.059321,0.032092,0.005681,63.610077,8.232422,-145.989883,,,
729860951.58855,-0.183365,2.749771,46.474635,-0.04953,-0.003952,1.007538,0.059321,0.032092,0.005681,63.610077,8.232422,-145.989883,,,
729860951.591841,-0.183365,2.749771,46.474635,-0.04953,-0.003952,1.007538,0.059321,0.032092,0.005681,63.610077,8.232422,-145.989883,,,
729860951.595175,-0.171615,2.757282,46.474641,-0.0448,0.004471,0.980469,0.029863,0.019715,-0.000287,63.489487,8.461319,-145.913727,,,
729860951.59851,-0.16503,2.760532,46.474919,-0.0448,0.004471,0.980469,0.029863,0.019715,-0.000287,63.489487,8.461319,-145.913727,,,
729860951.601905,-0.16503,2.760532,46.474919,-0.0448,0.004471,0.980469,0.029863,0.019715,-0.000287,63.489487,8.461319,-145.913727,,,
729860951.605158,-0.159162,2.760281,46.475949,-0.051071,0.00563,0.973206,0.009599,-0.008655,0.003992,63.489487,8.461319,-145.913727,,,
729860951.608506,-0.157862,2.754808,46.477717,-0.051071,0.00563,0.973206,0.009599,-0.008655,0.003992,63.489487,8.461319,-145.913727,,,
729860951.611845,-0.157862,2.754808,46.477717,-0.051071,0.00563,0.973206,0.009599,-0.008655,0.003992,63.489487,8.461319,-145.913727,,,
729860951.615241,-0.156876,2.745859,46.479766,-0.053146,0.005722,0.973801,-0.01033,-0.034116,0.005,63.489487,8.461319,-145.913727,,,
729860951.618511,-0.161184,2.734938,46.481693,-0.053146,0.005722,0.973801,-0.01033,-0.034116,0.005,63.489487,8.461319,-145.913727,,,
729860951.621806,-0.161184,2.734938,46.481693,-0.053146,0.005722,0.973801,-0.01033,-0.034116,0.005,63.489487,8.461319,-145.913727,,,
729860951.625189,-0.167026,2.725156,46.484292,-0.045502,0.005325,0.97702,-0.027038,-0.031718,0.008823,63.489487,8.461319,-145.913727,,,
729860951.628564,-0.175682,2.716366,46.48746,-0.045502,0.005325,0.97702,-0.027038,-0.031718,0.008823,63.489487,8.461319,-145.913727,,,
729860951.631819,-0.175682,2.716366,46.48746,-0.045502,0.005325,0.97702,-0.027038,-0.031718,0.008823,63.489487,8.461319,-145.913727,,,
729860951.635178,-0.186437,2.712001,46.491043,-0.042542,0.00592,0.986816,-0.037423,-0.012103,0.011171,63.559174,8.201553,-146.034851,,,
729860951.638472,-0.197773,2.709614,46.495198,-0.042542,0.00592,0.986816,-0.037423,-0.012103,0.011171,63.559174,8.201553,-146.034851,,,
729860951.641879,-0.197773,2.709614,46.495198,-0.042542,0.00592,0.986816,-0.037423,-0.012103,0.011171,63.559174,8.201553,-146.034851,,,
729860951.645181,-0.210935,2.712787,46.499368,-0.041168,0.003098,0.992538,-0.042259,0.016176,0.011094,63.559174,8.201553,-146.034851,,,
729860951.648508,-0.221906,2.718749,46.503286,-0.041168,0.003098,0.992538,-0.042259,0.016176,0.011094,63.559174,8.201553,-146.034851,,,
729860951.651839,-0.221906,2.718749,46.503286,-0.041168,0.003098,0.992538,-0.042259,0.016176,0.011094,63.559174,8.201553,-146.034851,,,
729860951.655207,-0.232215,2.729534,46.506244,-0.035522,-0.001022,1.001709,-0.028475,0.040678,0.005043,63.559174,8.201553,-146.034851,,,
729860951.658512,-0.238402,2.741018,46.507463,-0.035522,-0.001022,1.001709,-0.028475,0.040678,0.005043,63.559174,8.201553,-146.034851,,,
729860951.661849,-0.238402,2.741018,46.507463,-0.035522,-0.001022,1.001709,-0.028475,0.040678,0.005043,63.559174,8.201553,-146.034851,,,
729860951.665171,-0.240182,2.753834,46.506409,-0.033051,-0.009033,1.011063,0.00659,0.044879,-0.009187,63.559174,8.201553,-146.034851,,,
729860951.668578,-0.235758,2.764638,46.503409,-0.033051,-0.009033,1.011063,0.00659,0.044879,-0.009187,63.559174,8.201553,-146.034851,,,
729860951.671803,-0.235758,2.764638,46.503409,-0.033051,-0.009033,1.011063,0.00659,0.044879,-0.009187,63.559174,8.201553,-146.034851,,,
729860951.675176,-0.225356,2.772968,46.498567,-0.03685,-0.015274,1.015793,0.038191,0.030947,-0.020477,63.559174,8.201553,-146.034851,,,
729860951.678505,-0.214348,2.779241,46.491312,-0.03685,-0.015274,1.015793,0.038191,0.030947,-0.020477,63.575043,8.419495,-145.91835,,,
729860951.681929,-0.214348,2.779241,46.491312,-0.03685,-0.015274,1.015793,0.038191,0.030947,-0.020477,63.575043,8.419495,-145.91835,,,
729860951.685168,-0.201234,2.782429,46.482587,-0.040253,-0.009689,1.00386,0.040794,0.005846,-0.030587,63.575043,8.419495,-145.91835,,,
729860951.688469,-0.191287,2.781308,46.47381,-0.040253,-0.009689,1.00386,0.040794,0.005846,-0.030587,63.575043,8.419495,-145.91835,,,
729860951.691853,-0.191287,2.781308,46.47381,-0.040253,-0.009689,1.00386,0.040794,0.005846,-0.030587,63.575043,8.419495,-145.91835,,,
729860951.695242,-0.182454,2.777985,46.465715,-0.0457,-0.003555,0.984543,0.019833,-0.019105,-0.026844,63.575043,8.419495,-145.91835,,,
729860951.698511,-0.179523,2.770355,46.458577,-0.0457,-0.003555,0.984543,0.019833,-0.019105,-0.026844,63.575043,8.419495,-145.91835,,,
729860951.701844,-0.179523,2.770355,46.458577,-0.0457,-0.003555,0.984543,0.019833,-0.019105,-0.026844,63.575043,8.419495,-145.91835,,,
729860951.705135,-0.179528,2.760417,46.453056,-0.053818,0.00145,0.977936,-0.012637,-0.034854,-0.017141,63.575043,8.419495,-145.91835,,,
729860951.708581,-0.186221,2.748861,46.449189,-0.053818,0.00145,0.977936,-0.012637,-0.034854,-0.017141,63.575043,8.419495,-145.91835,,,
729860951.711845,-0.186221,2.748861,46.449189,-0.053818,0.00145,0.977936,-0.012637,-0.034854,-0.017141,63.575043,8.419495,-145.91835,,,
729860951.715187,-0.19535,2.735756,46.44658,-0.055435,0.003815,0.976913,-0.042873,-0.038842,-0.009817,63.575043,8.419495,-145.91835,,,
729860951.718503,-0.209599,2.72381,46.444827,-0.055435,0.003815,0.976913,-0.042873,-0.038842,-0.009817,63.616714,8.301682,-145.965485,,,
729860951.72187,-0.209599,2.72381,46.444827,-0.055435,0.003815,0.976913,-0.042873,-0.038842,-0.009817,63.616714,8.301682,-145.965485,,,
729860951.725172,-0.224552,2.711916,46.443329,-0.050446,0.00145,0.985703,-0.058754,-0.028999,-0.008709,63.616714,8.301682,-145.965485,,,
729860951.728533,-0.2414,2.703634,46.442081,-0.050446,0.00145,0.985703,-0.058754,-0.028999,-0.008709,63.616714,8.301682,-145.965485,,,
729860951.731836,-0.2414,2.703634,46.442081,-0.050446,0.00145,0.985703,-0.058754,-0.028999,-0.008709,63.616714,8.301682,-145.965485,,,
729860951.735243,-0.255932,2.695504,46.440661,-0.046844,-0.002533,1.000259,-0.048596,-0.012353,-0.009355,63.616714,8.301682,-145.965485,,,
729860951.738477,-0.267545,2.692576,46.438684,-0.046844,-0.002533,1.000259,-0.048596,-0.012353,-0.009355,63.616714,8.301682,-145.965485,,,
729860951.741852,-0.267545,2.692576,46.438684,-0.046844,-0.002533,1.000259,-0.048596,-0.012353,-0.009355,63.616714,8.301682,-145.965485,,,
729860951.745171,-0.273738,2.689633,46.436035,-0.044968,-0.007645,1.020889,-0.009142,0.008218,-0.012122,63.616714,8.301682,-145.965485,,,
729860951.748562,-0.273406,2.69276,46.432538,-0.044968,-0.007645,1.020889,-0.009142,0.008218,-0.012122,63.616714,8.301682,-145.965485,,,
729860951.751836,-0.273406,2.69276,46.432538,-0.044968,-0.007645,1.020889,-0.009142,0.008218,-0.012122,63.616714,8.301682,-145.965485,,,
729860951.75513,-0.269191,2.696389,46.428441,-0.044525,-0.014252,1.031036,0.032059,0.028597,-0.014219,63.616714,8.301682,-145.965485,,,
729860951.758507,-0.258624,2.704734,46.423379,-0.044525,-0.014252,1.031036,0.032059,0.028597,-0.014219,63.612488,8.220169,-146.209412,,,
729860951.761926,-0.258624,2.704734,46.423379,-0.044525,-0.014252,1.031036,0.032059,0.028597,-0.014219,63.612488,8.220169,-146.209412,,,
729860951.765168,-0.246876,2.713602,46.416827,-0.045242,-0.011368,1.021255,0.050018,0.045009,-0.023735,63.612488,8.220169,-146.209412,,,
729860951.768521,-0.233964,2.726642,46.409659,-0.045242,-0.011368,1.021255,0.050018,0.045009,-0.023735,63.612488,8.220169,-146.209412,,,
729860951.771816,-0.233964,2.726642,46.409659,-0.045242,-0.011368,1.021255,0.050018,0.045009,-0.023735,63.612488,8.220169,-146.209412,,,
729860951.775182,-0.224247,2.740101,46.4028,-0.052322,-0.003632,1.00235,0.029738,0.052149,-0.022501,63.612488,8.220169,-146.209412,,,
729860951.778513,-0.218731,2.75394,46.397172,-0.052322,-0.003632,1.00235,0.029738,0.052149,-0.022501,63.612488,8.220169,-146.209412,,,
729860951.781833,-0.218731,2.75394,46.397172,-0.052322,-0.003632,1.00235,0.029738,0.052149,-0.022501,63.612488,8.220169,-146.209412,,,
729860951.78518,-0.218028,2.766895,46.393842,-0.064224,0.003525,0.974991,-0.011105,0.037184,-0.008451,63.612488,8.220169,-146.209412,,,
729860951.788465,-0.223035,2.774069,46.393374,-0.064224,0.003525,0.974991,-0.011105,0.037184,-0.008451,63.612488,8.220169,-146.209412,,,
729860951.791858,-0.223035,2.774069,46.393374,-0.064224,0.003525,0.974991,-0.011105,0.037184,-0.008451,63.612488,8.220169,-146.209412,,,
729860951.795171,-0.230497,2.777663,46.395367,-0.074417,0.005829,0.965103,-0.039329,-0.00015,0.007289,63.612488,8.220169,-146.209412,,,
729860951.798586,-0.230497,2.775004,46.398327,-0.074417,0.005829,0.965103,-0.039329,-0.00015,0.007289,63.612488,8.220169,-146.209412,,,
729860951.801838,-0.243145,2.775004,46.398327,-0.074417,0.005829,0.965103,-0.039329,-0.00015,0.007289,63.933548,8.143631,-145.819733,,,
729860951.805134,-0.257364,2.770605,46.401128,-0.069763,0.003281,0.975006,-0.059754,-0.018831,0.005104,63.933548,8.143631,-145.819733,,,
729860951.808517,-0.257364,2.764332,46.403931,-0.069763,0.003281,0.975006,-0.059754,-0.018831,0.005104,63.933548,8.143631,-145.819733,,,
729860951.811912,-0.275072,2.764332,46.403931,-0.069763,0.003281,0.975006,-0.059754,-0.018831,0.005104,63.933548,8.143631,-145.819733,,,
729860951.815164,-0.292507,2.75771,46.40673,-0.060349,-0.000885,0.990067,-0.062439,-0.019808,0.005018,63.933548,8.143631,-145.819733,,,
729860951.818521,-0.292507,2.75771,46.409174,-0.060349,-0.000885,0.990067,-0.062439,-0.019808,0.005018,63.933548,8.143631,-145.819733,,,
729860951.821849,-0.309355,2.752266,46.409174,-0.060349,-0.000885,0.990067,-0.062439,-0.019808,0.005018,63.933548,8.143631,-145.819733,,,
729860951.825186,-0.322643,2.747561,46.411879,-0.054031,-0.007401,1.010864,-0.037908,-0.009426,0.007991,63.933548,8.143631,-145.819733,,,
729860951.828595,-0.331019,2.74399,46.414633,-0.054031,-0.007401,1.010864,-0.037908,-0.009426,0.007991,63.933548,8.143631,-145.819733,,,
729860951.83185,-0.331019,2.74399,46.414633,-0.054031,-0.007401,1.010864,-0.037908,-0.009426,0.007991,63.933548,8.143631,-145.819733,,,
729860951.835157,-0.335757,2.740029,46.416505,-0.044861,-0.013947,1.023926,-0.002956,-0.004186,0.003451,63.933548,8.143631,-145.819733,,,
729860951.838465,-0.335757,2.740029,46.416505,-0.044861,-0.013947,1.023926,-0.002956,-0.004186,0.003451,63.933548,8.143631,-145.819733,,,
729860951.841798,-0.333373,2.737285,46.417879,-0.044861,-0.013947,1.023926,-0.002956,-0.004186,0.003451,63.808975,8.266953,-146.239487,,,
729860951.844881,-0.326117,2.732061,46.418546,-0.040802,-0.019348,1.024521,0.039695,-0.015597,0.000621,63.808975,8.266953,-146.239487,,,
729860951.848481,-0.326117,2.732061,46.418546,-0.040802,-0.019348,1.024521,0.039695,-0.015597,0.000621,63.808975,8.266953,-146.239487,,,
729860951.851787,-0.312202,2.725912,46.417404,-0.040802,-0.019348,1.024521,0.039695,-0.015597,0.000621,63.808975,8.266953,-146.239487,,,
729860951.855109,-0.29424,2.71902,46.414341,-0.035843,-0.017776,1.023895,0.069168,-0.02315,-0.011357,63.808975,8.266953,-146.239487,,,
729860951.858458,-0.29424,2.71902,46.414341,-0.035843,-0.017776,1.023895,0.069168,-0.02315,-0.011357,63.808975,8.266953,-146.239487,,,
729860951.861777,-0.274182,2.711732,46.409853,-0.035843,-0.017776,1.023895,0.069168,-0.02315,-0.011357,63.808975,8.266953,-146.239487,,,
729860951.865133,-0.25242,2.708818,46.404383,-0.030914,-0.012009,1.013412,0.07169,-0.013594,-0.018195,63.808975,8.266953,-146.239487,,,
729860951.86843,-0.25242,2.708818,46.404383,-0.030914,-0.012009,1.013412,0.07169,-0.013594,-0.018195,63.808975,8.266953,-146.239487,,,
729860951.871832,-0.234244,2.705115,46.398572,-0.030914,-0.012009,1.013412,0.07169,-0.013594,-0.018195,63.808975,8.266953,-146.239487,,,
729860951.875205,-0.218085,2.709873,46.393585,-0.03299,-0.00708,0.997787,0.043833,0.002003,-0.013932,63.808975,8.266953,-146.239487,,,
729860951.8785,-0.218085,2.709873,46.393585,-0.03299,-0.00708,0.997787,0.043833,0.002003,-0.013932,63.808975,8.266953,-146.239487,,,
729860951.881836,-0.208759,2.710183,46.390473,-0.03299,-0.00708,0.997787,0.043833,0.002003,-0.013932,63.729477,8.241837,-145.918518,,,
729860951.885171,-0.203991,2.717082,46.389745,-0.04335,-0.001068,0.980179,0.000968,0.007928,0.00043,63.729477,8.241837,-145.918518,,,
729860951.888489,-0.203991,2.717082,46.389745,-0.04335,-0.001068,0.980179,0.000968,0.007928,0.00043,63.729477,8.241837,-145.918518,,,
729860951.891911,-0.205998,2.718318,46.391539,-0.04335,-0.001068,0.980179,0.000968,0.007928,0.00043,63.729477,8.241837,-145.918518,,,
729860951.89516,-0.210867,2.723255,46.395571,-0.053238,0.001419,0.975571,-0.024404,0.011214,0.014749,63.729477,8.241837,-145.918518,,,
729860951.898622,-0.210867,2.723255,46.395571,-0.053238,0.001419,0.975571,-0.024404,0.011214,0.014749,63.729477,8.241837,-145.918518,,,
729860951.901858,-0.218393,2.725216,46.401096,-0.053238,0.001419,0.975571,-0.024404,0.011214,0.014749,63.729477,8.241837,-145.918518,,,
729860951.905226,-0.227779,2.727835,46.407821,-0.051605,-0.001801,0.979965,-0.034747,0.005157,0.022587,63.729477,8.241837,-145.918518,,,
729860951.908556,-0.227779,2.727835,46.407821,-0.051605,-0.001801,0.979965,-0.034747,0.005157,0.022587,63.729477,8.241837,-145.918518,,,
729860951.911927,-0.237322,2.727625,46.414464,-0.051605,-0.001801,0.979965,-0.034747,0.005157,0.022587,63.729477,8.241837,-145.918518,,,
729860951.915173,-0.248192,2.724711,46.419521,-0.046722,-0.001511,0.98465,-0.031884,-0.011313,0.011689,63.729477,8.241837,-145.918518,,,
729860951.918534,-0.248192,2.724711,46.419521,-0.046722,-0.001511,0.98465,-0.031884,-0.011313,0.011689,63.729477,8.241837,-145.918518,,,
729860951.921846,-0.256111,2.719957,46.422216,-0.046722,-0.001511,0.98465,-0.031884,-0.011313,0.011689,63.69249,8.215134,-145.55571,,,
729860951.925194,-0.263795,2.712474,46.421939,-0.038239,-0.001801,0.991074,-0.010696,-0.020271,-0.008022,63.69249,8.215134,-145.55571,,,
729860951.928518,-0.263795,2.712474,46.421939,-0.038239,-0.001801,0.991074,-0.010696,-0.020271,-0.008022,63.69249,8.215134,-145.55571,,,
729860951.931868,-0.265029,2.706388,46.418838,-0.038239,-0.001801,0.991074,-0.010696,-0.020271,-0.008022,63.69249,8.215134,-145.55571,,,
729860951.935178,-0.265049,2.699448,46.413514,-0.031784,-0.013168,1.007339,0.018441,-0.009058,-0.022018,63.69249,8.215134,-145.55571,,,
729860951.938523,-0.265049,2.699448,46.413514,-0.031784,-0.013168,1.007339,0.018441,-0.009058,-0.022018,63.69249,8.215134,-145.55571,,,
729860951.94186,-0.257324,2.696697,46.406601,-0.031784,-0.013168,1.007339,0.018441,-0.009058,-0.022018,63.69249,8.215134,-145.55571,,,
729860951.945174,-0.246448,2.691993,46.398208,-0.031662,-0.015167,1.014969,0.053179,0.001868,-0.030606,63.69249,8.215134,-145.55571,,,
729860951.948513,-0.246448,2.691993,46.398208,-0.031662,-0.015167,1.014969,0.053179,0.001868,-0.030606,63.69249,8.215134,-145.55571,,,
729860951.951932,-0.23049,2.692639,46.389522,-0.031662,-0.015167,1.014969,0.053179,0.001868,-0.030606,63.69249,8.215134,-145.55571,,,
729860951.95519,-0.214276,2.692205,46.38187,-0.041977,-0.010666,1.007416,0.05993,0.017875,-0.023016,63.69249,8.215134,-145.55571,,,
729860951.958506,-0.214276,2.692205,46.38187,-0.041977,-0.010666,1.007416,0.05993,0.017875,-0.023016,63.69249,8.215134,-145.55571,,,
729860951.961994,-0.198397,2.697913,46.375567,-0.041977,-0.010666,1.007416,0.05993,0.017875,-0.023016,63.69249,8.215134,-145.55571,,,
729860951.965222,-0.184437,2.70449,46.371122,-0.051224,-0.00441,0.991852,0.045892,0.033495,-0.010707,63.534409,8.29277,-146.00293,,,
729860951.968531,-0.184437,2.70449,46.371122,-0.051224,-0.00441,0.991852,0.045892,0.033495,-0.010707,63.534409,8.29277,-146.00293,,,
729860951.971755,-0.173291,2.713988,46.368611,-0.051224,-0.00441,0.991852,0.045892,0.033495,-0.010707,63.534409,8.29277,-146.00293,,,
729860951.975243,-0.165333,2.726472,46.367658,-0.053696,0.001114,0.980499,0.016846,0.04375,-0.00123,63.534409,8.29277,-146.00293,,,
729860951.978523,-0.165333,2.726472,46.367658,-0.053696,0.001114,0.980499,0.016846,0.04375,-0.00123,63.534409,8.29277,-146.00293,,,
729860951.981849,-0.162984,2.737636,46.36816,-0.053696,0.001114,0.980499,0.016846,0.04375,-0.00123,63.534409,8.29277,-146.00293,,,
729860951.98528,-0.16511,2.74925,46.369804,-0.055756,0.006073,0.970612,-0.017541,0.038193,0.005071,63.534409,8.29277,-146.00293,,,
729860951.988523,-0.16511,2.74925,46.369804,-0.055756,0.006073,0.970612,-0.017541,0.038193,0.005071,63.534409,8.29277,-146.00293,,,
729860951.991925,-0.172363,2.758228,46.371919,-0.055756,0.006073,0.970612,-0.017541,0.038193,0.005071,63.534409,8.29277,-146.00293,,,
729860951.995202,-0.18429,2.764642,46.374162,-0.057022,0.006866,0.965652,-0.050173,0.018264,0.004382,63.534409,8.29277,-146.00293,,,
729860951.998546,-0.18429,2.764642,46.374162,-0.057022,0.006866,0.965652,-0.050173,0.018264,0.004382,63.534409,8.29277,-146.00293,,,
729860952.001864,-0.199597,2.767206,46.375905,-0.057022,0.006866,0.965652,-0.050173,0.018264,0.004382,63.534409,8.29277,-146.00293,,,
729860952.005201,-0.216106,2.765002,46.376423,-0.055664,0.002686,0.96669,-0.061752,-0.003974,-0.004691,63.855423,8.360901,-145.840897,,,
729860952.008537,-0.216106,2.765002,46.376423,-0.055664,0.002686,0.96669,-0.061752,-0.003974,-0.004691,63.855423,8.360901,-145.840897,,,
729860952.011838,-0.233945,2.762632,46.375517,-0.055664,0.002686,0.96669,-0.061752,-0.003974,-0.004691,63.855423,8.360901,-145.840897,,,
729860952.01518,-0.252487,2.756158,46.37374,-0.054001,-0.002045,0.986633,-0.058383,-0.010498,-0.0105,63.855423,8.360901,-145.840897,,,
729860952.01851,-0.252487,2.756158,46.37374,-0.054001,-0.002045,0.986633,-0.058383,-0.010498,-0.0105,63.855423,8.360901,-145.840897,,,
729860952.021817,-0.268299,2.752263,46.371659,-0.054001,-0.002045,0.986633,-0.058383,-0.010498,-0.0105,63.855423,8.360901,-145.840897,,,
729860952.025183,-0.283128,2.744202,46.369547,-0.052124,-0.008774,1.002151,-0.03823,-0.014159,-0.009662,63.855423,8.360901,-145.840897,,,
729860952.028506,-0.283128,2.744202,46.369547,-0.052124,-0.008774,1.002151,-0.03823,-0.014159,-0.009662,63.855423,8.360901,-145.840897,,,
729860952.031836,-0.292576,2.739329,46.367563,-0.052124,-0.008774,1.002151,-0.03823,-0.014159,-0.009662,63.855423,8.360901,-145.840897,,,
729860952.035179,-0.299291,2.733061,46.365331,-0.050278,-0.011032,1.011612,-0.00925,-0.010351,-0.009924,63.855423,8.360901,-145.840897,,,
729860952.038488,-0.299291,2.733061,46.365331,-0.050278,-0.011032,1.011612,-0.00925,-0.010351,-0.009924,63.855423,8.360901,-145.840897,,,
729860952.041846,-0.300135,2.730544,46.362884,-0.050278,-0.011032,1.011612,-0.00925,-0.010351,-0.009924,63.855423,8.360901,-145.840897,,,
729860952.045175,-0.296737,2.731389,46.360718,-0.047974,-0.017441,1.026169,0.02074,0.009603,-0.0065,63.810287,8.223022,-145.993256,,,
729860952.048535,-0.296737,2.731389,46.360718,-0.047974,-0.017441,1.026169,0.02074,0.009603,-0.0065,63.810287,8.223022,-145.993256,,,
729860952.051851,-0.289952,2.735584,46.358508,-0.047974,-0.017441,1.026169,0.02074,0.009603,-0.0065,63.810287,8.223022,-145.993256,,,
729860952.055177,-0.280889,2.744068,46.356425,-0.046768,-0.014542,1.025955,0.029896,0.029403,-0.005272,63.810287,8.223022,-145.993256,,,
729860952.05851,-0.280889,2.744068,46.356425,-0.046768,-0.014542,1.025955,0.029896,0.029403,-0.005272,63.810287,8.223022,-145.993256,,,
729860952.0619,-0.272634,2.752011,46.355466,-0.046768,-0.014542,1.025955,0.029896,0.029403,-0.005272,63.810287,8.223022,-145.993256,,,
729860952.065192,-0.263184,2.761672,46.355477,-0.051483,-0.007065,1.005676,0.023792,0.028227,0.001141,63.810287,8.223022,-145.993256,,,
729860952.068515,-0.263184,2.761672,46.355477,-0.051483,-0.007065,1.005676,0.023792,0.028227,0.001141,63.810287,8.223022,-145.993256,,,
729860952.071828,-0.257296,2.767847,46.356069,-0.051483,-0.007065,1.005676,0.023792,0.028227,0.001141,63.810287,8.223022,-145.993256,,,
729860952.075187,-0.251412,2.773998,46.356831,-0.054153,0.000107,0.988739,0.008625,0.010914,0.001468,63.810287,8.223022,-145.993256,,,
729860952.078512,-0.251412,2.773998,46.356831,-0.054153,0.000107,0.988739,0.008625,0.010914,0.001468,63.810287,8.223022,-145.993256,,,
729860952.081849,-0.250751,2.774189,46.357512,-0.054153,0.000107,0.988739,0.008625,0.010914,0.001468,63.810287,8.223022,-145.993256,,,
729860952.085185,-0.251296,2.772106,46.358137,-0.054474,0.001266,0.981628,-0.011796,-0.019907,-1e-06,63.516144,8.133331,-146.133865,,,
729860952.088543,-0.251296,2.772106,46.358137,-0.054474,0.001266,0.981628,-0.011796,-0.019907,-1e-06,63.516144,8.133331,-146.133865,,,
729860952.091885,-0.25532,2.763555,46.359154,-0.054474,0.001266,0.981628,-0.011796,-0.019907,-1e-06,63.516144,8.133331,-146.133865,,,
729860952.095275,-0.25848,2.75353,46.361114,-0.05423,-0.002029,0.986679,-0.010436,-0.041887,0.006603,63.516144,8.133331,-146.133865,,,
729860952.098612,-0.25848,2.75353,46.361114,-0.05423,-0.002029,0.986679,-0.010436,-0.041887,0.006603,63.516144,8.133331,-146.133865,,,
729860952.101899,-0.261138,2.740592,46.363648,-0.05423,-0.002029,0.986679,-0.010436,-0.041887,0.006603,63.516144,8.133331,-146.133865,,,
729860952.105196,-0.263308,2.729156,46.366603,-0.048477,-0.004883,1.005951,-0.003677,-0.037739,0.009865,63.516144,8.133331,-146.133865,,,
729860952.108523,-0.263308,2.729156,46.366603,-0.048477,-0.004883,1.005951,-0.003677,-0.037739,0.009865,63.516144,8.133331,-146.133865,,,
729860952.11191,-0.263511,2.71939,46.369598,-0.048477,-0.004883,1.005951,-0.003677,-0.037739,0.009865,63.516144,8.133331,-146.133865,,,
729860952.115173,-0.263372,2.714375,46.371752,-0.037613,-0.008072,1.016144,0.005319,-0.008295,0.004395,63.516144,8.133331,-146.133865,,,
729860952.118511,-0.263372,2.714375,46.371752,-0.037613,-0.008072,1.016144,0.005319,-0.008295,0.004395,63.516144,8.133331,-146.133865,,,
