Time (sec),Pitch (deg),Roll (deg),Yaw(deg),X-Acceleration (g),Y-Acceleration (g),Z-Acceleration (g),Pitch Rate (deg/sec),Roll Rate (deg/sec),Yaw Rate (deg/sec),Magnetic Field in X direction (uT),Magnetic Field in Y direction (uT),Magnetic Field in Z Direction (uT),Latitude (deg),Longitude (deg),Altitude (m)
729862584.834228,0.46296,3.510106,37.731902,-0.042191,0.010834,1.009933,-0.008317,0.008364,-0.011274,57.683578,-6.960159,-148.011597,,,
729862584.837536,0.461011,3.516474,37.730193,-0.042191,0.010834,1.009933,-0.008317,0.008364,-0.011274,57.641098,-6.720596,-147.794922,,,
729862584.840868,0.462468,3.531629,37.73026,-0.051697,0.004684,1.028625,0.011869,0.071122,0.002392,57.641098,-6.720596,-147.794922,,,
729862584.844231,0.462468,3.531629,37.73026,-0.051697,0.004684,1.028625,0.011869,0.071122,0.002392,57.641098,-6.720596,-147.794922,,,
729862584.847621,0.466805,3.554191,37.731987,-0.051697,0.004684,1.028625,0.011869,0.071122,0.002392,57.641098,-6.720596,-147.794922,,,
729862584.850856,0.473259,3.583304,37.735122,-0.057724,0.003418,1.023849,0.025274,0.10673,0.013218,57.641098,-6.720596,-147.794922,,,
729862584.854212,0.473259,3.583304,37.735122,-0.057724,0.003418,1.023849,0.025274,0.10673,0.013218,57.641098,-6.720596,-147.794922,,,
729862584.857612,0.480426,3.613823,37.738683,-0.057724,0.003418,1.023849,0.025274,0.10673,0.013218,57.641098,-6.720596,-147.794922,,,
729862584.860849,0.487421,3.646335,37.741653,-0.062637,0.009979,0.997299,0.018862,0.099717,0.008916,57.641098,-6.720596,-147.794922,,,
729862584.864191,0.487421,3.646335,37.741653,-0.062637,0.009979,0.997299,0.018862,0.099717,0.008916,57.641098,-6.720596,-147.794922,,,
729862584.867544,0.491419,3.671347,37.744267,-0.062637,0.009979,0.997299,0.018862,0.099717,0.008916,57.641098,-6.720596,-147.794922,,,
729862584.870861,0.493139,3.691542,37.746602,-0.069305,0.01561,0.967102,0.000864,0.046885,0.005964,57.641098,-6.720596,-147.794922,,,
729862584.874186,0.493139,3.691542,37.746602,-0.069305,0.01561,0.967102,0.000864,0.046885,0.005964,57.641098,-6.720596,-147.794922,,,
729862584.877539,0.492453,3.698955,37.748096,-0.069305,0.01561,0.967102,0.000864,0.046885,0.005964,57.919006,-6.821426,-147.614517,,,
729862584.880853,0.491467,3.697116,37.748733,-0.073151,0.014725,0.962799,-0.002538,-0.022032,-0.000141,57.919006,-6.821426,-147.614517,,,
729862584.884251,0.491467,3.697116,37.748733,-0.073151,0.014725,0.962799,-0.002538,-0.022032,-0.000141,57.919006,-6.821426,-147.614517,,,
729862584.887514,0.490791,3.686262,37.748413,-0.073151,0.014725,0.962799,-0.002538,-0.022032,-0.000141,57.919006,-6.821426,-147.614517,,,
729862584.890863,0.491809,3.668051,37.747087,-0.071609,0.011093,0.980453,0.002852,-0.061968,-0.00689,57.919006,-6.821426,-147.614517,,,
729862584.8942,0.491809,3.668051,37.747087,-0.071609,0.011093,0.980453,0.002852,-0.061968,-0.00689,57.919006,-6.821426,-147.614517,,,
729862584.897618,0.493558,3.648643,37.745854,-0.071609,0.011093,0.980453,0.002852,-0.061968,-0.00689,57.919006,-6.821426,-147.614517,,,
729862584.900848,0.498468,3.624749,37.744553,-0.062469,0.00531,0.998718,0.01588,-0.064396,-0.006793,57.919006,-6.821426,-147.614517,,,
729862584.904204,0.498468,3.624749,37.744553,-0.062469,0.00531,0.998718,0.01588,-0.064396,-0.006793,57.919006,-6.821426,-147.614517,,,
729862584.907549,0.503614,3.607218,37.742834,-0.062469,0.00531,0.998718,0.01588,-0.064396,-0.006793,57.919006,-6.821426,-147.614517,,,
729862584.910856,0.510183,3.58878,37.740714,-0.054932,0.004807,1.013763,0.022229,-0.038205,-0.009439,57.919006,-6.821426,-147.614517,,,
729862584.9142,0.510183,3.58878,37.740714,-0.054932,0.004807,1.013763,0.022229,-0.038205,-0.009439,57.919006,-6.821426,-147.614517,,,
729862584.917539,0.516386,3.579874,37.737249,-0.054932,0.004807,1.013763,0.022229,-0.038205,-0.009439,57.919006,-6.821426,-147.614517,,,
729862584.920861,0.521336,3.573433,37.732916,-0.053177,0.003998,1.015305,0.016935,-0.001182,-0.015992,57.606476,-6.680634,-147.667953,,,
729862584.924209,0.521336,3.573433,37.732916,-0.053177,0.003998,1.015305,0.016935,-0.001182,-0.015992,57.606476,-6.680634,-147.667953,,,
729862584.927537,0.52561,3.57468,37.729021,-0.053177,0.003998,1.015305,0.016935,-0.001182,-0.015992,57.606476,-6.680634,-147.667953,,,
729862584.930858,0.528274,3.57782,37.725698,-0.06131,0.007217,1.007904,0.011677,0.023118,-0.012439,57.606476,-6.680634,-147.667953,,,
729862584.934261,0.528274,3.57782,37.725698,-0.06131,0.007217,1.007904,0.011677,0.023118,-0.012439,57.606476,-6.680634,-147.667953,,,
729862584.937586,0.53024,3.584605,37.723014,-0.06131,0.007217,1.007904,0.011677,0.023118,-0.012439,57.606476,-6.680634,-147.667953,,,
729862584.940899,0.529958,3.59215,37.721455,-0.066971,0.009384,0.996323,-0.002151,0.030448,-0.005459,57.606476,-6.680634,-147.667953,,,
729862584.944187,0.529958,3.59215,37.721455,-0.066971,0.009384,0.996323,-0.002151,0.030448,-0.005459,57.606476,-6.680634,-147.667953,,,
729862584.947634,0.528246,3.599193,37.720681,-0.066971,0.009384,0.996323,-0.002151,0.030448,-0.005459,57.606476,-6.680634,-147.667953,,,
729862584.950856,0.526508,3.606061,37.720454,-0.070541,0.006622,0.990967,-0.009404,0.020029,-0.002031,57.606476,-6.680634,-147.667953,,,
729862584.954197,0.526508,3.606061,37.720454,-0.070541,0.006622,0.990967,-0.009404,0.020029,-0.002031,57.606476,-6.680634,-147.667953,,,
729862584.957527,0.523937,3.610236,37.720531,-0.070541,0.006622,0.990967,-0.009404,0.020029,-0.002031,57.606476,-6.680634,-147.667953,,,
729862584.960862,0.52394,3.614441,37.722026,-0.080261,0.002075,0.999222,0.001498,0.00266,0.008738,57.503906,-6.911285,-147.727142,,,
729862584.964197,0.52394,3.614441,37.722026,-0.080261,0.002075,0.999222,0.001498,0.00266,0.008738,57.503906,-6.911285,-147.727142,,,
729862584.967533,0.52541,3.613312,37.726315,-0.080261,0.002075,0.999222,0.001498,0.00266,0.008738,57.503906,-6.911285,-147.727142,,,
729862584.970861,0.529996,3.612675,37.733333,-0.08316,-0.001022,1.002716,0.018573,-0.00932,0.028953,57.503906,-6.911285,-147.727142,,,
729862584.974189,0.529996,3.612675,37.733333,-0.08316,-0.001022,1.002716,0.018573,-0.00932,0.028953,57.503906,-6.911285,-147.727142,,,
729862584.977543,0.537136,3.608528,37.742701,-0.08316,-0.001022,1.002716,0.018573,-0.00932,0.028953,57.503906,-6.911285,-147.727142,,,
729862584.980877,0.546646,3.603584,37.754019,-0.077362,0.002655,1.004303,0.037585,-0.017568,0.0438,57.503906,-6.911285,-147.727142,,,
729862584.984268,0.546646,3.603584,37.754019,-0.077362,0.002655,1.004303,0.037585,-0.017568,0.0438,57.503906,-6.911285,-147.727142,,,
729862584.987513,0.558222,3.597585,37.766375,-0.077362,0.002655,1.004303,0.037585,-0.017568,0.0438,57.503906,-6.911285,-147.727142,,,
729862584.990861,0.570433,3.589824,37.778622,-0.064697,0.006165,0.999054,0.047306,-0.0196,0.043517,57.503906,-6.911285,-147.727142,,,
729862584.994191,0.570433,3.589824,37.778622,-0.064697,0.006165,0.999054,0.047306,-0.0196,0.043517,57.503906,-6.911285,-147.727142,,,
729862584.997609,0.583662,3.583867,37.789535,-0.064697,0.006165,0.999054,0.047306,-0.0196,0.043517,57.503906,-6.911285,-147.727142,,,
729862585.000849,0.594698,3.577349,37.798649,-0.049896,0.011658,0.99379,0.039066,-0.008218,0.030283,57.597244,-6.70845,-147.492477,,,
729862585.004208,0.594698,3.577349,37.798649,-0.049896,0.011658,0.99379,0.039066,-0.008218,0.030283,57.597244,-6.70845,-147.492477,,,
729862585.00754,0.604999,3.574841,37.805747,-0.049896,0.011658,0.99379,0.039066,-0.008218,0.030283,57.597244,-6.70845,-147.492477,,,
729862585.010861,0.611261,3.572578,37.810493,-0.042786,0.020035,0.981277,0.016538,0.000207,0.012383,57.597244,-6.70845,-147.492477,,,
729862585.014196,0.611261,3.572578,37.810493,-0.042786,0.020035,0.981277,0.016538,0.000207,0.012383,57.597244,-6.70845,-147.492477,,,
729862585.017537,0.614574,3.571571,37.813356,-0.042786,0.020035,0.981277,0.016538,0.000207,0.012383,57.597244,-6.70845,-147.492477,,,
729862585.020859,0.614882,3.570433,37.814555,-0.044861,0.020401,0.973526,-0.002301,-0.007315,-0.000277,57.597244,-6.70845,-147.492477,,,
729862585.024188,0.614882,3.570433,37.814555,-0.044861,0.020401,0.973526,-0.002301,-0.007315,-0.000277,57.597244,-6.70845,-147.492477,,,
729862585.027551,0.613032,3.567014,37.814152,-0.044861,0.020401,0.973526,-0.002301,-0.007315,-0.000277,57.597244,-6.70845,-147.492477,,,
729862585.030858,0.608868,3.564136,37.812194,-0.049561,0.018845,0.979446,-0.014346,-0.013019,-0.011823,57.597244,-6.70845,-147.492477,,,
729862585.03419,0.608868,3.564136,37.812194,-0.049561,0.018845,0.979446,-0.014346,-0.013019,-0.011823,57.597244,-6.70845,-147.492477,,,
729862585.037533,0.604347,3.559137,37.809569,-0.049561,0.018845,0.979446,-0.014346,-0.013019,-0.011823,57.597244,-6.70845,-147.492477,,,
729862585.04094,0.598257,3.556489,37.806593,-0.055145,0.014313,0.986511,-0.017342,-0.019601,-0.014221,57.572021,-6.928177,-147.648621,,,
729862585.044195,0.598257,3.556489,37.806593,-0.055145,0.014313,0.986511,-0.017342,-0.019601,-0.014221,57.572021,-6.928177,-147.648621,,,
729862585.047606,0.592969,3.549272,37.80328,-0.055145,0.014313,0.986511,-0.017342,-0.019601,-0.014221,57.572021,-6.928177,-147.648621,,,
729862585.050854,0.586313,3.545717,37.800647,-0.063141,0.010635,0.986618,-0.016376,-0.024199,-0.00914,57.572021,-6.928177,-147.648621,,,
729862585.054205,0.586313,3.545717,37.800647,-0.063141,0.010635,0.986618,-0.016376,-0.024199,-0.00914,57.572021,-6.928177,-147.648621,,,
729862585.057542,0.581119,3.538706,37.799129,-0.063141,0.010635,0.986618,-0.016376,-0.024199,-0.00914,57.572021,-6.928177,-147.648621,,,
729862585.06087,0.574523,3.536988,37.798979,-0.064087,0.0103,0.99292,-0.018,-0.010898,0.000549,57.572021,-6.928177,-147.648621,,,
729862585.064202,0.574523,3.536988,37.798979,-0.064087,0.0103,0.99292,-0.018,-0.010898,0.000549,57.572021,-6.928177,-147.648621,,,
729862585.067521,0.568879,3.53501,37.799819,-0.064087,0.0103,0.99292,-0.018,-0.010898,0.000549,57.572021,-6.928177,-147.648621,,,
729862585.070885,0.561735,3.538249,37.801155,-0.061234,0.011444,0.996399,-0.024057,0.016197,0.003794,57.572021,-6.928177,-147.648621,,,
729862585.0742,0.561735,3.538249,37.801155,-0.061234,0.011444,0.996399,-0.024057,0.016197,0.003794,57.572021,-6.928177,-147.648621,,,
729862585.077533,0.5541,3.543356,37.803594,-0.061234,0.011444,0.996399,-0.024057,0.016197,0.003794,57.572021,-6.928177,-147.648621,,,
729862585.080863,0.545273,3.549538,37.806845,-0.061005,0.012253,0.987289,-0.032699,0.035155,0.008785,57.572021,-6.928177,-147.648621,,,
729862585.084225,0.545273,3.549538,37.806845,-0.061005,0.012253,0.987289,-0.032699,0.035155,0.008785,57.512054,-6.817017,-147.383713,,,
729862585.087525,0.535883,3.55866,37.810936,-0.061005,0.012253,0.987289,-0.032699,0.035155,0.008785,57.512054,-6.817017,-147.383713,,,
729862585.090886,0.528668,3.56344,37.815746,-0.063782,0.010178,0.984329,-0.02884,0.0304,0.013787,57.512054,-6.817017,-147.383713,,,
729862585.094229,0.528668,3.56344,37.815746,-0.063782,0.010178,0.984329,-0.02884,0.0304,0.013787,57.512054,-6.817017,-147.383713,,,
729862585.097536,0.521457,3.569775,37.821176,-0.063782,0.010178,0.984329,-0.02884,0.0304,0.013787,57.512054,-6.817017,-147.383713,,,
729862585.100864,0.517565,3.56949,37.827458,-0.060287,0.009598,0.978989,-0.018304,0.008039,0.020133,57.512054,-6.817017,-147.383713,,,
729862585.104192,0.517565,3.56949,37.827458,-0.060287,0.009598,0.978989,-0.018304,0.008039,0.020133,57.512054,-6.817017,-147.383713,,,
729862585.107576,0.513204,3.568686,37.833852,-0.060287,0.009598,0.978989,-0.018304,0.008039,0.020133,57.512054,-6.817017,-147.383713,,,
729862585.11088,0.511471,3.560738,37.839685,-0.049103,0.008209,0.971634,-0.01127,-0.023407,0.016575,57.512054,-6.817017,-147.383713,,,
729862585.114186,0.511471,3.560738,37.839685,-0.049103,0.008209,0.971634,-0.01127,-0.023407,0.016575,57.512054,-6.817017,-147.383713,,,
729862585.117529,0.508253,3.551641,37.843532,-0.049103,0.008209,0.971634,-0.01127,-0.023407,0.016575,57.512054,-6.817017,-147.383713,,,
729862585.12086,0.506064,3.538672,37.844167,-0.034332,0.011459,0.972961,-0.00947,-0.040263,-0.005906,57.512054,-6.817017,-147.383713,,,
729862585.124201,0.506064,3.538672,37.844167,-0.034332,0.011459,0.972961,-0.00947,-0.040263,-0.005906,57.634048,-6.871231,-147.703857,,,
729862585.127539,0.503271,3.52724,37.840998,-0.034332,0.011459,0.972961,-0.00947,-0.040263,-0.005906,57.634048,-6.871231,-147.703857,,,
729862585.130859,0.500283,3.518254,37.834167,-0.023056,0.009857,0.985123,-0.011063,-0.024615,-0.031584,57.634048,-6.871231,-147.703857,,,
729862585.134194,0.500283,3.518254,37.834167,-0.023056,0.009857,0.985123,-0.011063,-0.024615,-0.031584,57.634048,-6.871231,-147.703857,,,
729862585.13761,0.495936,3.512185,37.824781,-0.023056,0.009857,0.985123,-0.011063,-0.024615,-0.031584,57.634048,-6.871231,-147.703857,,,
729862585.140874,0.490499,3.510394,37.814429,-0.02533,0.005981,0.992264,-0.019441,0.002017,-0.038781,57.634048,-6.871231,-147.703857,,,
729862585.144289,0.490499,3.510394,37.814429,-0.02533,0.005981,0.992264,-0.019441,0.002017,-0.038781,57.634048,-6.871231,-147.703857,,,
729862585.147532,0.482949,3.51151,37.80448,-0.02533,0.005981,0.992264,-0.019441,0.002017,-0.038781,57.634048,-6.871231,-147.703857,,,
729862585.150865,0.474411,3.514523,37.796228,-0.042999,0.005402,0.991074,-0.029016,0.014215,-0.027586,57.634048,-6.871231,-147.703857,,,
729862585.1542,0.474411,3.514523,37.796228,-0.042999,0.005402,0.991074,-0.029016,0.014215,-0.027586,57.634048,-6.871231,-147.703857,,,
729862585.157612,0.463959,3.51817,37.789695,-0.042999,0.005402,0.991074,-0.029016,0.014215,-0.027586,57.634048,-6.871231,-147.703857,,,
729862585.160909,0.451487,3.521512,37.784071,-0.050659,0.005936,0.983109,-0.04609,0.012056,-0.022326,57.634048,-6.871231,-147.703857,,,
729862585.164188,0.451487,3.521512,37.784071,-0.050659,0.005936,0.983109,-0.04609,0.012056,-0.022326,57.524063,-6.914154,-147.606415,,,
729862585.167531,0.436559,3.523684,37.778697,-0.050659,0.005936,0.983109,-0.04609,0.012056,-0.022326,57.524063,-6.914154,-147.606415,,,
729862585.170861,0.419436,3.524627,37.77268,-0.050812,0.007019,0.980759,-0.062703,0.00114,-0.027859,57.524063,-6.914154,-147.606415,,,
729862585.174191,0.419436,3.524627,37.77268,-0.050812,0.007019,0.980759,-0.062703,0.00114,-0.027859,57.524063,-6.914154,-147.606415,,,
729862585.177529,0.400791,3.523737,37.765663,-0.050812,0.007019,0.980759,-0.062703,0.00114,-0.027859,57.524063,-6.914154,-147.606415,,,
729862585.180905,0.382627,3.522314,37.758255,-0.058487,0.004395,0.988174,-0.061559,-0.004021,-0.03052,57.524063,-6.914154,-147.606415,,,
729862585.184253,0.382627,3.522314,37.758255,-0.058487,0.004395,0.988174,-0.061559,-0.004021,-0.03052,57.524063,-6.914154,-147.606415,,,
729862585.187527,0.364803,3.520764,37.751029,-0.058487,0.004395,0.988174,-0.061559,-0.004021,-0.03052,57.524063,-6.914154,-147.606415,,,
729862585.190858,0.349482,3.518579,37.744711,-0.06575,0.000397,1.002441,-0.046661,-0.000152,-0.02334,57.524063,-6.914154,-147.606415,,,
729862585.194201,0.349482,3.518579,37.744711,-0.06575,0.000397,1.002441,-0.046661,-0.000152,-0.02334,57.524063,-6.914154,-147.606415,,,
729862585.197531,0.337661,3.518636,37.739275,-0.06575,0.000397,1.002441,-0.046661,-0.000152,-0.02334,57.524063,-6.914154,-147.606415,,,
729862585.200862,0.330674,3.515861,37.7343,-0.072601,-0.000839,1.015945,-0.017892,0.008352,-0.018512,57.524063,-6.914154,-147.606415,,,
729862585.204204,0.330674,3.515861,37.7343,-0.072601,-0.000839,1.015945,-0.017892,0.008352,-0.018512,57.524063,-6.914154,-147.606415,,,
729862585.207582,0.326122,3.517547,37.730012,-0.072601,-0.000839,1.015945,-0.017892,0.008352,-0.018512,57.83226,-6.84256,-147.862976,,,
729862585.210854,0.324334,3.511478,37.726488,-0.070984,0.002609,1.012299,-0.004605,0.004478,-0.012662,57.83226,-6.84256,-147.862976,,,
729862585.214206,0.324334,3.511478,37.726488,-0.070984,0.002609,1.012299,-0.004605,0.004478,-0.012662,57.83226,-6.84256,-147.862976,,,
729862585.217553,0.323243,3.511168,37.72275,-0.070984,0.002609,1.012299,-0.004605,0.004478,-0.012662,57.83226,-6.84256,-147.862976,,,
729862585.22086,0.324938,3.50108,37.717936,-0.068085,0.002655,1.004471,0.014168,-0.010702,-0.019311,57.83226,-6.84256,-147.862976,,,
729862585.224187,0.324938,3.50108,37.717936,-0.068085,0.002655,1.004471,0.014168,-0.010702,-0.019311,57.83226,-6.84256,-147.862976,,,
729862585.227531,0.329786,3.4967,37.711713,-0.068085,0.002655,1.004471,0.014168,-0.010702,-0.019311,57.83226,-6.84256,-147.862976,,,
729862585.230871,0.336941,3.487274,37.70428,-0.063049,-0.000854,1.017654,0.031053,-0.014876,-0.026915,57.83226,-6.84256,-147.862976,,,
729862585.234279,0.336941,3.487274,37.70428,-0.063049,-0.000854,1.017654,0.031053,-0.014876,-0.026915,57.83226,-6.84256,-147.862976,,,
729862585.237532,0.345951,3.482228,37.696087,-0.063049,-0.000854,1.017654,0.031053,-0.014876,-0.026915,57.83226,-6.84256,-147.862976,,,
729862585.240858,0.355598,3.474475,37.687533,-0.069916,0.001373,1.024918,0.036395,-0.019716,-0.029184,57.83226,-6.84256,-147.862976,,,
729862585.244201,0.355598,3.474475,37.687533,-0.069916,0.001373,1.024918,0.036395,-0.019716,-0.029184,57.83226,-6.84256,-147.862976,,,
729862585.247585,0.364503,3.46815,37.679817,-0.069916,0.001373,1.024918,0.036395,-0.019716,-0.029184,57.738495,-6.945801,-147.980774,,,
729862585.250852,0.372009,3.459791,37.67448,-0.077667,0.00383,1.012741,0.024637,-0.021516,-0.013396,57.738495,-6.945801,-147.980774,,,
729862585.254196,0.372009,3.459791,37.67448,-0.077667,0.00383,1.012741,0.024637,-0.021516,-0.013396,57.738495,-6.945801,-147.980774,,,
729862585.257539,0.377763,3.452976,37.67141,-0.077667,0.00383,1.012741,0.024637,-0.021516,-0.013396,57.738495,-6.945801,-147.980774,,,
729862585.260855,0.381371,3.445345,37.669426,-0.079727,0.010208,1.007401,0.009949,-0.023465,-0.00675,57.738495,-6.945801,-147.980774,,,
729862585.264198,0.381371,3.445345,37.669426,-0.079727,0.010208,1.007401,0.009949,-0.023465,-0.00675,57.738495,-6.945801,-147.980774,,,
729862585.267555,0.382828,3.437654,37.667913,-0.079727,0.010208,1.007401,0.009949,-0.023465,-0.00675,57.738495,-6.945801,-147.980774,,,
729862585.270873,0.380983,3.430242,37.666957,-0.073654,0.014954,0.999298,-0.008304,-0.027212,-0.003923,57.738495,-6.945801,-147.980774,,,
729862585.274278,0.380983,3.430242,37.666957,-0.073654,0.014954,0.999298,-0.008304,-0.027212,-0.003923,57.738495,-6.945801,-147.980774,,,
729862585.277537,0.377974,3.421527,37.667336,-0.073654,0.014954,0.999298,-0.008304,-0.027212,-0.003923,57.738495,-6.945801,-147.980774,,,
729862585.280855,0.372237,3.414359,37.669368,-0.074768,0.013855,0.992691,-0.019167,-0.032468,0.007105,57.738495,-6.945801,-147.980774,,,
729862585.284186,0.372237,3.414359,37.669368,-0.074768,0.013855,0.992691,-0.019167,-0.032468,0.007105,57.738495,-6.945801,-147.980774,,,
729862585.287527,0.365526,3.404283,37.672721,-0.074768,0.013855,0.992691,-0.019167,-0.032468,0.007105,57.74176,-6.921249,-147.689285,,,
729862585.290872,0.356988,3.397188,37.676822,-0.067581,0.014465,0.991547,-0.027703,-0.027611,0.011897,57.74176,-6.921249,-147.689285,,,
729862585.294206,0.356988,3.397188,37.676822,-0.067581,0.014465,0.991547,-0.027703,-0.027611,0.011897,57.74176,-6.921249,-147.689285,,,
729862585.297607,0.349124,3.389457,37.681121,-0.067581,0.014465,0.991547,-0.027703,-0.027611,0.011897,57.74176,-6.921249,-147.689285,,,
729862585.300839,0.349124,3.389457,37.684673,-0.056137,0.011093,1.000702,-0.0207,-0.005927,0.007179,57.74176,-6.921249,-147.689285,,,
729862585.304206,0.341848,3.386761,37.684673,-0.056137,0.011093,1.000702,-0.0207,-0.005927,0.007179,57.74176,-6.921249,-147.689285,,,
729862585.307538,0.336669,3.386072,37.686808,-0.056137,0.011093,1.000702,-0.0207,-0.005927,0.007179,57.74176,-6.921249,-147.689285,,,
729862585.310849,0.331505,3.389468,37.687634,-0.047714,0.00856,1.005371,-0.013929,0.016494,-0.001492,57.74176,-6.921249,-147.689285,,,
729862585.314205,0.331505,3.389468,37.687634,-0.047714,0.00856,1.005371,-0.013929,0.016494,-0.001492,57.74176,-6.921249,-147.689285,,,
729862585.317538,0.328129,3.394269,37.686981,-0.047714,0.00856,1.005371,-0.013929,0.016494,-0.001492,57.74176,-6.921249,-147.689285,,,
729862585.320867,0.328129,3.394269,37.686981,-0.042465,0.006943,1.006561,1.3e-05,0.032072,-0.014124,57.74176,-6.921249,-147.689285,,,
729862585.324188,0.325876,3.402587,37.684388,-0.042465,0.006943,1.006561,1.3e-05,0.032072,-0.014124,57.74176,-6.921249,-147.689285,,,
729862585.327523,0.327498,3.412015,37.679433,-0.042465,0.006943,1.006561,1.3e-05,0.032072,-0.014124,57.692154,-6.807022,-148.111435,,,
729862585.330846,0.327498,3.412015,37.679433,-0.040192,0.000732,1.01796,0.021465,0.045115,-0.031896,57.692154,-6.807022,-148.111435,,,
729862585.3342,0.331733,3.426325,37.67174,-0.040192,0.000732,1.01796,0.021465,0.045115,-0.031896,57.692154,-6.807022,-148.111435,,,
729862585.337582,0.337935,3.439055,37.661708,-0.040192,0.000732,1.01796,0.021465,0.045115,-0.031896,57.692154,-6.807022,-148.111435,,,
729862585.340934,0.337935,3.439055,37.661708,-0.049973,-0.002426,1.008926,0.026426,0.049829,-0.039355,57.692154,-6.807022,-148.111435,,,
729862585.344197,0.345124,3.456303,37.650533,-0.049973,-0.002426,1.008926,0.026426,0.049829,-0.039355,57.692154,-6.807022,-148.111435,,,
729862585.34754,0.350106,3.46974,37.639525,-0.049973,-0.002426,1.008926,0.026426,0.049829,-0.039355,57.692154,-6.807022,-148.111435,,,
729862585.350851,0.350106,3.46974,37.639525,-0.062653,0.005081,0.992157,-0.000702,0.044776,-0.029598,57.692154,-6.807022,-148.111435,,,
729862585.354203,0.352462,3.48535,37.630126,-0.062653,0.005081,0.992157,-0.000702,0.044776,-0.029598,57.692154,-6.807022,-148.111435,,,
729862585.357545,0.349897,3.497249,37.62289,-0.062653,0.005081,0.992157,-0.000702,0.044776,-0.029598,57.692154,-6.807022,-148.111435,,,
729862585.360852,0.349897,3.497249,37.62289,-0.062653,0.005081,0.992157,-0.027821,0.038642,-0.015902,57.692154,-6.807022,-148.111435,,,
729862585.36427,0.344791,3.510986,37.617851,-0.075836,0.007004,0.984283,-0.027821,0.038642,-0.015902,57.692154,-6.807022,-148.111435,,,
729862585.367527,0.334231,3.520652,37.61525,-0.075836,0.007004,0.984283,-0.027821,0.038642,-0.015902,57.692154,-6.807022,-148.111435,,,
729862585.370849,0.334231,3.520652,37.61525,-0.078094,0.006241,0.982117,-0.050792,0.022487,-0.008177,57.865967,-6.769485,-147.837646,,,
729862585.374201,0.321782,3.529908,37.613955,-0.078094,0.006241,0.982117,-0.050792,0.022487,-0.008177,57.865967,-6.769485,-147.837646,,,
729862585.377588,0.306782,3.533482,37.613788,-0.078094,0.006241,0.982117,-0.050792,0.022487,-0.008177,57.865967,-6.769485,-147.837646,,,
729862585.380842,0.306782,3.533482,37.613788,-0.078094,0.006241,0.982117,-0.048637,-0.006103,-0.002068,57.865967,-6.769485,-147.837646,,,
729862585.384202,0.293111,3.532336,37.614481,-0.082474,0.005386,0.989609,-0.048637,-0.006103,-0.002068,57.865967,-6.769485,-147.837646,,,
729862585.387525,0.279514,3.528134,37.614921,-0.082474,0.005386,0.989609,-0.048637,-0.006103,-0.002068,57.865967,-6.769485,-147.837646,,,
729862585.390926,0.279514,3.528134,37.614921,-0.077957,0.002716,1.003799,-0.03092,-0.022258,0.000553,57.865967,-6.769485,-147.837646,,,
729862585.394214,0.26895,3.519167,37.615587,-0.077957,0.002716,1.003799,-0.03092,-0.022258,0.000553,57.865967,-6.769485,-147.837646,,,
729862585.397542,0.261401,3.512353,37.616593,-0.077957,0.002716,1.003799,-0.03092,-0.022258,0.000553,57.865967,-6.769485,-147.837646,,,
729862585.400863,0.261401,3.512353,37.616593,-0.077957,0.002716,1.003799,-0.002752,-0.011334,0.007561,57.865967,-6.769485,-147.837646,,,
729862585.404284,0.25835,3.503608,37.618375,-0.069046,-0.001999,1.017487,-0.002752,-0.011334,0.007561,57.865967,-6.769485,-147.837646,,,
729862585.407542,0.261123,3.50163,37.620898,-0.069046,-0.001999,1.017487,-0.002752,-0.011334,0.007561,57.865967,-6.769485,-147.837646,,,
729862585.410864,0.261123,3.50163,37.620898,-0.069046,-0.001999,1.017487,-0.002752,-0.011334,0.007561,57.738892,-6.506699,-148.265823,,,
729862585.414198,0.270531,3.49946,37.623243,-0.062012,-0.006775,1.043427,0.04491,0.01865,0.009132,57.738892,-6.506699,-148.265823,,,
729862585.417604,0.285815,3.506829,37.624937,-0.062012,-0.006775,1.043427,0.04491,0.01865,0.009132,57.738892,-6.506699,-148.265823,,,
729862585.42093,0.285815,3.506829,37.624937,-0.062012,-0.006775,1.048889,0.071045,0.047503,0.003618,57.738892,-6.506699,-148.265823,,,
729862585.424209,0.30363,3.515322,37.625628,-0.056061,-0.008133,1.048889,0.071045,0.047503,0.003618,57.738892,-6.506699,-148.265823,,,
729862585.42756,0.32393,3.529089,37.624972,-0.056061,-0.008133,1.048889,0.071045,0.047503,0.003618,57.738892,-6.506699,-148.265823,,,
729862585.43094,0.32393,3.529089,37.624972,-0.056061,-0.008133,1.048889,0.071045,0.047503,0.003618,57.738892,-6.506699,-148.265823,,,
729862585.434217,0.343589,3.542531,37.622501,-0.054214,0.003204,1.018997,0.068992,0.048232,-0.009228,57.738892,-6.506699,-148.265823,,,
729862585.437543,0.361765,3.555294,37.618889,-0.054214,0.003204,1.018997,0.068992,0.048232,-0.009228,57.738892,-6.506699,-148.265823,,,
729862585.440918,0.361765,3.555294,37.618889,-0.054214,0.003204,1.018997,0.068992,0.048232,-0.009228,57.738892,-6.506699,-148.265823,,,
729862585.444282,0.377861,3.570078,37.615776,-0.062103,0.0065,1.0009,0.053574,0.04435,-0.0066,57.738892,-6.506699,-148.265823,,,
729862585.447532,0.390959,3.580853,37.614355,-0.062103,0.0065,1.0009,0.053574,0.04435,-0.0066,57.738892,-6.506699,-148.265823,,,
729862585.450864,0.390959,3.580853,37.614355,-0.062103,0.0065,1.0009,0.053574,0.04435,-0.0066,57.886246,-6.616699,-148.156937,,,
729862585.454216,0.400322,3.591711,37.615132,-0.074707,0.006332,0.988007,0.027254,0.02324,0.007201,57.886246,-6.616699,-148.156937,,,
729862585.457607,0.405854,3.595423,37.618582,-0.074707,0.006332,0.988007,0.027254,0.02324,0.007201,57.886246,-6.616699,-148.156937,,,
729862585.460957,0.405854,3.595423,37.618582,-0.074707,0.006332,0.988007,0.027254,0.02324,0.007201,57.886246,-6.616699,-148.156937,,,
729862585.464201,0.407495,3.598437,37.624939,-0.075974,0.012527,0.968353,0.000259,-0.009012,0.026007,57.886246,-6.616699,-148.156937,,,
729862585.467534,0.406021,3.593051,37.63326,-0.075974,0.012527,0.968353,0.000259,-0.009012,0.026007,57.886246,-6.616699,-148.156937,,,
729862585.470951,0.406021,3.593051,37.63326,-0.075974,0.012527,0.968353,0.000259,-0.009012,0.026007,57.886246,-6.616699,-148.156937,,,
729862585.474189,0.401864,3.586799,37.642269,-0.06366,0.01738,0.964645,-0.016066,-0.034253,0.0299,57.886246,-6.616699,-148.156937,,,
729862585.477545,0.396548,3.575836,37.65063,-0.06366,0.01738,0.964645,-0.016066,-0.034253,0.0299,57.886246,-6.616699,-148.156937,,,
729862585.480909,0.396548,3.575836,37.65063,-0.06366,0.01738,0.964645,-0.016066,-0.034253,0.0299,57.886246,-6.616699,-148.156937,,,
729862585.484263,0.38974,3.566601,37.656465,-0.041992,0.014725,0.978607,-0.019528,-0.030884,0.012145,57.886246,-6.616699,-148.156937,,,
729862585.487522,0.38347,3.558703,37.659602,-0.041992,0.014725,0.978607,-0.019528,-0.030884,0.012145,57.886246,-6.616699,-148.156937,,,
729862585.490962,0.38347,3.558703,37.659602,-0.041992,0.014725,0.978607,-0.019528,-0.030884,0.012145,57.797729,-6.744614,-147.920624,,,
729862585.493911,0.375183,3.554522,37.660722,-0.029449,0.013535,0.984329,-0.024409,-0.004416,-0.00223,57.797729,-6.744614,-147.920624,,,
729862585.497567,0.368374,3.553701,37.660553,-0.029449,0.013535,0.984329,-0.024409,-0.004416,-0.00223,57.797729,-6.744614,-147.920624,,,
729862585.500872,0.368374,3.553701,37.660553,-0.029449,0.013535,0.984329,-0.024409,-0.004416,-0.00223,57.797729,-6.744614,-147.920624,,,
729862585.504201,0.361486,3.553902,37.659546,-0.033722,0.012405,0.991089,-0.01295,0.010683,-0.00741,57.797729,-6.744614,-147.920624,,,
729862585.507526,0.359793,3.557619,37.657128,-0.033722,0.012405,0.991089,-0.01295,0.010683,-0.00741,57.797729,-6.744614,-147.920624,,,
729862585.510932,0.359793,3.557619,37.657128,-0.033722,0.012405,0.991089,-0.01295,0.010683,-0.00741,57.797729,-6.744614,-147.920624,,,
729862585.514207,0.361281,3.563781,37.652635,-0.033661,0.005173,1.007156,0.014995,0.037152,-0.020222,57.797729,-6.744614,-147.920624,,,
729862585.517525,0.365977,3.576665,37.645961,-0.033661,0.005173,1.007156,0.014995,0.037152,-0.020222,57.797729,-6.744614,-147.920624,,,
729862585.520902,0.365977,3.576665,37.645961,-0.033661,0.005173,1.007156,0.014995,0.037152,-0.020222,57.797729,-6.744614,-147.920624,,,
729862585.524274,0.372376,3.593932,37.638253,-0.040466,0.001236,1.017273,0.027163,0.071575,-0.026715,57.797729,-6.744614,-147.920624,,,
729862585.527521,0.380486,3.614005,37.630548,-0.040466,0.001236,1.017273,0.027163,0.071575,-0.026715,57.797729,-6.744614,-147.920624,,,
729862585.530889,0.380486,3.614005,37.630548,-0.040466,0.001236,1.017273,0.027163,0.071575,-0.026715,57.797729,-6.744614,-147.920624,,,
729862585.53419,0.389713,3.634724,37.623564,-0.056396,0.003464,0.999557,0.03519,0.065166,-0.021118,57.739471,-6.619995,-147.860641,,,
729862585.537519,0.398573,3.650981,37.617844,-0.056396,0.003464,0.999557,0.03519,0.065166,-0.021118,57.739471,-6.619995,-147.860641,,,
729862585.540885,0.398573,3.650981,37.617844,-0.056396,0.003464,0.999557,0.03519,0.065166,-0.021118,57.739471,-6.619995,-147.860641,,,
729862585.5442,0.406073,3.665145,37.613547,-0.069595,0.009201,0.975418,0.022429,0.034537,-0.01183,57.739471,-6.619995,-147.860641,,,
729862585.547527,0.411301,3.672701,37.610665,-0.069595,0.009201,0.975418,0.022429,0.034537,-0.01183,57.739471,-6.619995,-147.860641,,,
729862585.550962,0.411301,3.672701,37.610665,-0.069595,0.009201,0.975418,0.022429,0.034537,-0.01183,57.739471,-6.619995,-147.860641,,,
729862585.554195,0.413971,3.677601,37.60899,-0.074387,0.010254,0.960892,-0.002194,0.010844,-0.004972,57.739471,-6.619995,-147.860641,,,
729862585.557532,0.41051,3.678057,37.608886,-0.074387,0.010254,0.960892,-0.002194,0.010844,-0.004972,57.739471,-6.619995,-147.860641,,,
729862585.560865,0.41051,3.678057,37.608886,-0.074387,0.010254,0.960892,-0.002194,0.010844,-0.004972,57.739471,-6.619995,-147.860641,,,
729862585.564246,0.404214,3.672855,37.61027,-0.070618,0.013367,0.95224,-0.027274,-0.016746,0.003743,57.739471,-6.619995,-147.860641,,,
729862585.567525,0.395108,3.666853,37.611704,-0.070618,0.013367,0.95224,-0.027274,-0.016746,0.003743,57.739471,-6.619995,-147.860641,,,
729862585.570869,0.395108,3.666853,37.611704,-0.070618,0.013367,0.95224,-0.027274,-0.016746,0.003743,57.739471,-6.619995,-147.860641,,,
729862585.574211,0.385406,3.65627,37.612269,-0.06105,0.014694,0.970139,-0.035063,-0.020146,-0.003037,57.870056,-6.501755,-147.81041,,,
729862585.577527,0.375117,3.650369,37.611584,-0.06105,0.014694,0.970139,-0.035063,-0.020146,-0.003037,57.870056,-6.501755,-147.81041,,,
729862585.580874,0.375117,3.650369,37.611584,-0.06105,0.014694,0.970139,-0.035063,-0.020146,-0.003037,57.870056,-6.501755,-147.81041,,,
729862585.584199,0.365982,3.640745,37.610169,-0.05748,0.009811,0.990463,-0.032546,-0.010697,-0.008127,57.870056,-6.501755,-147.81041,,,
729862585.58753,0.356919,3.637685,37.608325,-0.05748,0.009811,0.990463,-0.032546,-0.010697,-0.008127,57.870056,-6.501755,-147.81041,,,
729862585.590859,0.356919,3.637685,37.608325,-0.05748,0.009811,0.990463,-0.032546,-0.010697,-0.008127,57.870056,-6.501755,-147.81041,,,
729862585.594201,0.349809,3.632151,37.6058,-0.051529,0.004959,0.997253,-0.019079,0.001041,-0.012191,57.870056,-6.501755,-147.81041,,,
729862585.597527,0.343462,3.632871,37.602334,-0.051529,0.004959,0.997253,-0.019079,0.001041,-0.012191,57.870056,-6.501755,-147.81041,,,
729862585.600954,0.343462,3.632871,37.602334,-0.051529,0.004959,0.997253,-0.019079,0.001041,-0.012191,57.870056,-6.501755,-147.81041,,,
729862585.604196,0.336374,3.632751,37.59772,-0.052078,0.006485,0.999802,-0.020176,0.019941,-0.020447,57.870056,-6.501755,-147.81041,,,
729862585.607556,0.330853,3.637974,37.592592,-0.052078,0.006485,0.999802,-0.020176,0.019941,-0.020447,57.870056,-6.501755,-147.81041,,,
729862585.61085,0.330853,3.637974,37.592592,-0.052078,0.006485,0.999802,-0.020176,0.019941,-0.020447,57.870056,-6.501755,-147.81041,,,
729862585.614196,0.326626,3.641786,37.587945,-0.06192,0.004883,0.999603,-0.00932,0.021311,-0.016472,58.131454,-6.62207,-147.684769,,,
729862585.617519,0.324452,3.646988,37.584348,-0.06192,0.004883,0.999603,-0.00932,0.021311,-0.016472,58.131454,-6.62207,-147.684769,,,
729862585.620867,0.324452,3.646988,37.584348,-0.06192,0.004883,0.999603,-0.00932,0.021311,-0.016472,58.131454,-6.62207,-147.684769,,,
729862585.624211,0.323788,3.652095,37.581097,-0.063248,0.003723,1.001465,-0.000466,0.015297,-0.013409,58.131454,-6.62207,-147.684769,,,
729862585.627528,0.323798,3.654613,37.577058,-0.063248,0.003723,1.001465,-0.000466,0.015297,-0.013409,58.131454,-6.62207,-147.684769,,,
729862585.630916,0.323798,3.654613,37.577058,-0.063248,0.003723,1.001465,-0.000466,0.015297,-0.013409,58.131454,-6.62207,-147.684769,,,
729862585.634188,0.325712,3.657094,37.571742,-0.062607,0.00592,0.999832,0.00826,-0.002697,-0.021658,58.131454,-6.62207,-147.684769,,,
729862585.637546,0.327745,3.654378,37.565298,-0.062607,0.00592,0.999832,0.00826,-0.002697,-0.021658,58.131454,-6.62207,-147.684769,,,
729862585.640872,0.327745,3.654378,37.565298,-0.062607,0.00592,0.999832,0.00826,-0.002697,-0.021658,58.131454,-6.62207,-147.684769,,,
729862585.644215,0.332228,3.652489,37.558367,-0.066055,0.002899,1.002701,0.018148,-0.014052,-0.024321,58.131454,-6.62207,-147.684769,,,
729862585.647524,0.336902,3.647383,37.55254,-0.066055,0.002899,1.002701,0.018148,-0.014052,-0.024321,58.131454,-6.62207,-147.684769,,,
729862585.650952,0.336902,3.647383,37.55254,-0.066055,0.002899,1.002701,0.018148,-0.014052,-0.024321,58.131454,-6.62207,-147.684769,,,
729862585.654203,0.343081,3.642082,37.549488,-0.075775,0.002914,1.003952,0.016711,-0.01776,-0.005027,58.131454,-6.62207,-147.684769,,,
729862585.657525,0.346821,3.63629,37.549792,-0.075775,0.002914,1.003952,0.016711,-0.01776,-0.005027,58.058578,-6.679077,-147.854309,,,
729862585.660854,0.346821,3.63629,37.549792,-0.075775,0.002914,1.003952,0.016711,-0.01776,-0.005027,58.058578,-6.679077,-147.854309,,,
729862585.664254,0.349155,3.629328,37.553289,-0.078781,0.007248,0.993546,0.000713,-0.020878,0.016199,58.058578,-6.679077,-147.854309,,,
729862585.667522,0.348343,3.622348,37.559034,-0.078781,0.007248,0.993546,0.000713,-0.020878,0.016199,58.058578,-6.679077,-147.854309,,,
729862585.670866,0.348343,3.622348,37.559034,-0.078781,0.007248,0.993546,0.000713,-0.020878,0.016199,58.058578,-6.679077,-147.854309,,,
729862585.674283,0.344603,3.612731,37.565103,-0.070114,0.014343,0.98111,-0.019921,-0.024441,0.017097,58.058578,-6.679077,-147.854309,,,
729862585.677521,0.337796,3.605304,37.570166,-0.070114,0.014343,0.98111,-0.019921,-0.024441,0.017097,58.058578,-6.679077,-147.854309,,,
729862585.680873,0.337796,3.605304,37.570166,-0.070114,0.014343,0.98111,-0.019921,-0.024441,0.017097,58.058578,-6.679077,-147.854309,,,
729862585.684206,0.328916,3.596515,37.573723,-0.057632,0.014297,0.981552,-0.033725,-0.016599,0.005593,58.058578,-6.679077,-147.854309,,,
729862585.687526,0.318269,3.591301,37.575521,-0.057632,0.014297,0.981552,-0.033725,-0.016599,0.005593,58.058578,-6.679077,-147.854309,,,
729862585.69086,0.318269,3.591301,37.575521,-0.057632,0.014297,0.981552,-0.033725,-0.016599,0.005593,58.058578,-6.679077,-147.854309,,,
729862585.69421,0.306178,3.58677,37.5763,-0.052231,0.013855,0.984406,-0.043078,-0.008336,-0.002165,58.058578,-6.679077,-147.854309,,,
729862585.697528,0.293716,3.585063,37.576436,-0.052231,0.013855,0.984406,-0.043078,-0.008336,-0.002165,57.887299,-6.453079,-147.69014,,,
729862585.700919,0.293716,3.585063,37.576436,-0.052231,0.013855,0.984406,-0.043078,-0.008336,-0.002165,57.887299,-6.453079,-147.69014,,,
729862585.70419,0.282671,3.58593,37.57608,-0.053314,0.007889,0.998352,-0.03081,0.008636,-0.004833,57.887299,-6.453079,-147.69014,,,
729862585.707533,0.275452,3.589119,37.575023,-0.053314,0.007889,0.998352,-0.03081,0.008636,-0.004833,57.887299,-6.453079,-147.69014,,,
729862585.710867,0.275452,3.589119,37.575023,-0.053314,0.007889,0.998352,-0.03081,0.008636,-0.004833,57.887299,-6.453079,-147.69014,,,
729862585.714239,0.273365,3.594619,37.572504,-0.056488,0.000122,1.025818,0.005044,0.02587,-0.012775,57.887299,-6.453079,-147.69014,,,
729862585.717517,0.277174,3.602921,37.567856,-0.056488,0.000122,1.025818,0.005044,0.02587,-0.012775,57.887299,-6.453079,-147.69014,,,
729862585.720874,0.277174,3.602921,37.567856,-0.056488,0.000122,1.025818,0.005044,0.02587,-0.012775,57.887299,-6.453079,-147.69014,,,
729862585.724215,0.286775,3.614381,37.561542,-0.05957,-0.005829,1.037933,0.047008,0.046112,-0.021825,57.887299,-6.453079,-147.69014,,,
729862585.727536,0.301173,3.627485,37.554397,-0.05957,-0.005829,1.037933,0.047008,0.046112,-0.021825,57.887299,-6.453079,-147.69014,,,
729862585.730867,0.301173,3.627485,37.554397,-0.05957,-0.005829,1.037933,0.047008,0.046112,-0.021825,57.887299,-6.453079,-147.69014,,,
729862585.734205,0.317047,3.642214,37.547315,-0.063217,-0.004883,1.020767,0.059984,0.044782,-0.020456,57.887299,-6.453079,-147.69014,,,
729862585.73753,0.331728,3.652783,37.541042,-0.063217,-0.004883,1.020767,0.059984,0.044782,-0.020456,57.940704,-6.761902,-147.947388,,,
729862585.740853,0.331728,3.652783,37.541042,-0.063217,-0.004883,1.020767,0.059984,0.044782,-0.020456,57.940704,-6.761902,-147.947388,,,
729862585.744204,0.341742,3.66304,37.534705,-0.069138,0.004456,0.986099,0.027564,0.020185,-0.022876,57.940704,-6.761902,-147.947388,,,
729862585.747523,0.346625,3.666207,37.528272,-0.069138,0.004456,0.986099,0.027564,0.020185,-0.022876,57.940704,-6.761902,-147.947388,,,
729862585.750942,0.346625,3.666207,37.528272,-0.069138,0.004456,0.986099,0.027564,0.020185,-0.022876,57.940704,-6.761902,-147.947388,,,
729862585.754195,0.347286,3.667447,37.522693,-0.073975,0.013947,0.971252,-0.009308,-0.00665,-0.019149,57.940704,-6.761902,-147.947388,,,
729862585.757537,0.342084,3.663736,37.518365,-0.073975,0.013947,0.971252,-0.009308,-0.00665,-0.019149,57.940704,-6.761902,-147.947388,,,
729862585.760871,0.342084,3.663736,37.518365,-0.073975,0.013947,0.971252,-0.009308,-0.00665,-0.019149,57.940704,-6.761902,-147.947388,,,
729862585.764226,0.334377,3.657087,37.515507,-0.077896,0.010315,0.978012,-0.035646,-0.022946,-0.01062,57.940704,-6.761902,-147.947388,,,
729862585.767536,0.322885,3.648804,37.514582,-0.077896,0.010315,0.978012,-0.035646,-0.022946,-0.01062,57.940704,-6.761902,-147.947388,,,
729862585.77091,0.322885,3.648804,37.514582,-0.077896,0.010315,0.978012,-0.035646,-0.022946,-0.01062,57.940704,-6.761902,-147.947388,,,
729862585.774225,0.312124,3.637517,37.515867,-0.078339,0.007568,0.991852,-0.040918,-0.030186,0.004437,57.940704,-6.761902,-147.947388,,,
729862585.777534,0.300306,3.628611,37.518973,-0.078339,0.007568,0.991852,-0.040918,-0.030186,0.004437,58.057419,-6.642197,-147.535599,,,
729862585.780882,0.300306,3.628611,37.518973,-0.078339,0.007568,0.991852,-0.040918,-0.030186,0.004437,58.057419,-6.642197,-147.535599,,,
729862585.784198,0.289995,3.619684,37.523453,-0.07283,0.006958,1.008255,-0.035903,-0.0155,0.01431,58.057419,-6.642197,-147.535599,,,
729862585.787523,0.281011,3.616301,37.528333,-0.07283,0.006958,1.008255,-0.035903,-0.0155,0.01431,58.057419,-6.642197,-147.535599,,,
729862585.790857,0.281011,3.616301,37.528333,-0.07283,0.006958,1.008255,-0.035903,-0.0155,0.01431,58.057419,-6.642197,-147.535599,,,
729862585.794214,0.274914,3.614923,37.532764,-0.062698,-0.000412,1.020493,-0.013169,0.010549,0.012575,58.057419,-6.642197,-147.535599,,,
729862585.797521,0.273355,3.619726,37.535888,-0.062698,-0.000412,1.020493,-0.013169,0.010549,0.012575,58.057419,-6.642197,-147.535599,,,
729862585.800968,0.273355,3.619726,37.535888,-0.062698,-0.000412,1.020493,-0.013169,0.010549,0.012575,58.057419,-6.642197,-147.535599,,,
729862585.804215,0.275222,3.62678,37.53738,-0.05722,-0.002609,1.032242,0.021558,0.035461,0.003337,58.057419,-6.642197,-147.535599,,,
729862585.807537,0.283241,3.637886,37.537317,-0.05722,-0.002609,1.032242,0.021558,0.035461,0.003337,58.057419,-6.642197,-147.535599,,,
729862585.81088,0.283241,3.637886,37.537317,-0.05722,-0.002609,1.032242,0.021558,0.035461,0.003337,58.057419,-6.642197,-147.535599,,,
729862585.814259,0.294256,3.650541,37.536371,-0.062531,-0.007446,1.037964,0.051944,0.050086,-0.000904,58.057419,-6.642197,-147.535599,,,
729862585.817525,0.311009,3.66471,37.535989,-0.062531,-0.007446,1.037964,0.051944,0.050086,-0.000904,58.057419,-6.642197,-147.535599,,,
729862585.820871,0.311009,3.66471,37.535989,-0.062531,-0.007446,1.037964,0.051944,0.050086,-0.000904,57.818787,-6.580231,-147.40593,,,
729862585.824199,0.33095,3.68049,37.536413,-0.074997,-0.010147,1.029175,0.076837,0.056674,0.006374,57.818787,-6.580231,-147.40593,,,
729862585.827525,0.352915,3.695559,37.538277,-0.074997,-0.010147,1.029175,0.076837,0.056674,0.006374,57.818787,-6.580231,-147.40593,,,
729862585.830896,0.352915,3.695559,37.538277,-0.074997,-0.010147,1.029175,0.076837,0.056674,0.006374,57.818787,-6.580231,-147.40593,,,
729862585.834199,0.374802,3.710747,37.541642,-0.081039,-0.003525,1.010666,0.069965,0.046768,0.016395,57.818787,-6.580231,-147.40593,,,
729862585.837529,0.394297,3.721093,37.546431,-0.081039,-0.003525,1.010666,0.069965,0.046768,0.016395,57.818787,-6.580231,-147.40593,,,
729862585.840857,0.394297,3.721093,37.546431,-0.081039,-0.003525,1.010666,0.069965,0.046768,0.016395,57.818787,-6.580231,-147.40593,,,
729862585.844191,0.413088,3.728382,37.552452,-0.079697,0.000824,0.989563,0.060182,0.00816,0.024539,57.818787,-6.580231,-147.40593,,,
729862585.84753,0.429872,3.726523,37.55834,-0.079697,0.000824,0.989563,0.060182,0.00816,0.024539,57.818787,-6.580231,-147.40593,,,
729862585.850925,0.429872,3.726523,37.55834,-0.079697,0.000824,0.989563,0.060182,0.00816,0.024539,57.818787,-6.580231,-147.40593,,,
729862585.854209,0.444893,3.720417,37.563498,-0.076523,0.002869,0.982574,0.048062,-0.03897,0.018772,57.818787,-6.580231,-147.40593,,,
729862585.857613,0.457849,3.706063,37.567868,-0.076523,0.002869,0.982574,0.048062,-0.03897,0.018772,57.818787,-6.580231,-147.40593,,,
729862585.860856,0.457849,3.706063,37.567868,-0.076523,0.002869,0.982574,0.048062,-0.03897,0.018772,57.877731,-6.765305,-147.29512,,,
729862585.864265,0.469511,3.689325,37.571368,-0.068512,0.009827,0.986252,0.039328,-0.067099,0.012198,57.877731,-6.765305,-147.29512,,,
729862585.867522,0.480572,3.669352,37.574896,-0.068512,0.009827,0.986252,0.039328,-0.067099,0.012198,57.877731,-6.765305,-147.29512,,,
729862585.870875,0.480572,3.669352,37.574896,-0.068512,0.009827,0.986252,0.039328,-0.067099,0.012198,57.877731,-6.765305,-147.29512,,,
729862585.874203,0.490089,3.65019,37.578756,-0.058807,0.00946,0.999954,0.034548,-0.061313,0.014241,57.877731,-6.765305,-147.29512,,,
729862585.877526,0.500369,3.633614,37.582285,-0.058807,0.00946,0.999954,0.034548,-0.061313,0.014241,57.877731,-6.765305,-147.29512,,,
729862585.88087,0.500369,3.633614,37.582285,-0.058807,0.00946,0.999954,0.034548,-0.061313,0.014241,57.877731,-6.765305,-147.29512,,,
729862585.884203,0.509945,3.621077,37.585387,-0.054733,0.006775,1.011963,0.041064,-0.023218,0.011563,57.877731,-6.765305,-147.29512,,,
729862585.887527,0.521198,3.617469,37.588674,-0.054733,0.006775,1.011963,0.041064,-0.023218,0.011563,57.877731,-6.765305,-147.29512,,,
729862585.89086,0.521198,3.617469,37.588674,-0.054733,0.006775,1.011963,0.041064,-0.023218,0.011563,57.877731,-6.765305,-147.29512,,,
729862585.894201,0.530273,3.619399,37.593031,-0.054245,0.009567,1.01593,0.040601,0.022805,0.019025,57.877731,-6.765305,-147.29512,,,
729862585.897523,0.541298,3.627904,37.598595,-0.054245,0.009567,1.01593,0.040601,0.022805,0.019025,57.877731,-6.765305,-147.29512,,,
729862585.900856,0.541298,3.627904,37.598595,-0.054245,0.009567,1.01593,0.040601,0.022805,0.019025,57.818893,-6.713776,-147.12764,,,
729862585.904207,0.548342,3.641604,37.60553,-0.056885,0.013992,0.996216,0.032117,0.050628,0.028201,57.818893,-6.713776,-147.12764,,,
729862585.907531,0.557086,3.656104,37.613362,-0.056885,0.013992,0.996216,0.032117,0.050628,0.028201,57.818893,-6.713776,-147.12764,,,
729862585.910857,0.557086,3.656104,37.613362,-0.056885,0.013992,0.996216,0.032117,0.050628,0.028201,57.818893,-6.713776,-147.12764,,,
729862585.914261,0.562608,3.674931,37.620373,-0.05661,0.016357,0.985229,0.025522,0.059889,0.0223,57.818893,-6.713776,-147.12764,,,
729862585.917521,0.569564,3.690587,37.62582,-0.05661,0.016357,0.985229,0.025522,0.059889,0.0223,57.818893,-6.713776,-147.12764,,,
729862585.920871,0.569564,3.690587,37.62582,-0.05661,0.016357,0.985229,0.025522,0.059889,0.0223,57.818893,-6.713776,-147.12764,,,
729862585.924201,0.574043,3.70776,37.630335,-0.060181,0.015686,0.979324,0.017053,0.048756,0.015443,57.818893,-6.713776,-147.12764,,,
729862585.927524,0.578136,3.719782,37.63472,-0.060181,0.015686,0.979324,0.017053,0.048756,0.015443,57.818893,-6.713776,-147.12764,,,
729862585.930883,0.578136,3.719782,37.63472,-0.060181,0.015686,0.979324,0.017053,0.048756,0.015443,57.818893,-6.713776,-147.12764,,,
729862585.93421,0.579827,3.731462,37.639402,-0.068192,0.015717,0.970779,0.009216,0.026344,0.017287,57.818893,-6.713776,-147.12764,,,
729862585.937524,0.582315,3.735893,37.645018,-0.068192,0.015717,0.970779,0.009216,0.026344,0.017287,57.818893,-6.713776,-147.12764,,,
729862585.940858,0.582315,3.735893,37.645018,-0.068192,0.015717,0.970779,0.009216,0.026344,0.017287,57.784561,-6.773331,-147.093018,,,
729862585.944204,0.584118,3.736569,37.651176,-0.067856,0.010925,0.969589,0.006133,-0.009281,0.020971,57.784561,-6.773331,-147.093018,,,
729862585.947528,0.586498,3.730996,37.656692,-0.067856,0.010925,0.969589,0.006133,-0.009281,0.020971,57.784561,-6.773331,-147.093018,,,
729862585.95095,0.586498,3.730996,37.656692,-0.067856,0.010925,0.969589,0.006133,-0.009281,0.020971,57.784561,-6.773331,-147.093018,,,
729862585.954214,0.590427,3.721432,37.660277,-0.059219,0.005463,0.98175,0.018573,-0.031927,0.008224,57.784561,-6.773331,-147.093018,,,
729862585.957532,0.596317,3.710456,37.661881,-0.059219,0.005463,0.98175,0.018573,-0.031927,0.008224,57.784561,-6.773331,-147.093018,,,
729862585.960872,0.596317,3.710456,37.661881,-0.059219,0.005463,0.98175,0.018573,-0.031927,0.008224,57.784561,-6.773331,-147.093018,,,
729862585.9642,0.602748,3.697074,37.661861,-0.046051,0.007843,0.991043,0.025703,-0.035273,-0.002808,57.784561,-6.773331,-147.093018,,,
729862585.967531,0.60951,3.68776,37.660428,-0.046051,0.007843,0.991043,0.025703,-0.035273,-0.002808,57.784561,-6.773331,-147.093018,,,
729862585.970868,0.60951,3.68776,37.660428,-0.046051,0.007843,0.991043,0.025703,-0.035273,-0.002808,57.784561,-6.773331,-147.093018,,,
729862585.974209,0.614459,3.679424,37.658486,-0.038742,0.006882,0.986115,0.016589,-0.013263,-0.007078,57.784561,-6.773331,-147.093018,,,
729862585.97753,0.616931,3.676807,37.655818,-0.038742,0.006882,0.986115,0.016589,-0.013263,-0.007078,57.784561,-6.773331,-147.093018,,,
729862585.980867,0.616931,3.676807,37.655818,-0.038742,0.006882,0.986115,0.016589,-0.013263,-0.007078,57.784561,-6.773331,-147.093018,,,
729862585.984218,0.615754,3.675898,37.652009,-0.036377,0.011292,0.975555,-0.010847,0.009055,-0.016942,57.807693,-6.761551,-147.2845,,,
729862585.987564,0.610508,3.679637,37.647121,-0.036377,0.011292,0.975555,-0.010847,0.009055,-0.016942,57.807693,-6.761551,-147.2845,,,
729862585.99093,0.610508,3.679637,37.647121,-0.036377,0.011292,0.975555,-0.010847,0.009055,-0.016942,57.807693,-6.761551,-147.2845,,,
729862585.994212,0.603299,3.685765,37.641565,-0.034988,0.010071,0.975281,-0.029276,0.034223,-0.022876,57.807693,-6.761551,-147.2845,,,
729862585.99752,0.593879,3.69688,37.635335,-0.034988,0.010071,0.975281,-0.029276,0.034223,-0.022876,57.807693,-6.761551,-147.2845,,,
729862586.000882,0.593879,3.69688,37.635335,-0.034988,0.010071,0.975281,-0.029276,0.034223,-0.022876,57.807693,-6.761551,-147.2845,,,
729862586.004251,0.583144,3.710364,37.628203,-0.044022,0.008301,0.98204,-0.042882,0.057054,-0.030106,57.807693,-6.761551,-147.2845,,,
729862586.007519,0.569147,3.727359,37.621048,-0.044022,0.008301,0.98204,-0.042882,0.057054,-0.030106,57.807693,-6.761551,-147.2845,,,
729862586.010877,0.569147,3.727359,37.621048,-0.044022,0.008301,0.98204,-0.042882,0.057054,-0.030106,57.807693,-6.761551,-147.2845,,,
729862586.014195,0.554083,3.74677,37.614788,-0.055832,0.011459,0.980423,-0.05626,0.070753,-0.024755,57.807693,-6.761551,-147.2845,,,
729862586.017529,0.537143,3.766032,37.609329,-0.055832,0.011459,0.980423,-0.05626,0.070753,-0.024755,57.807693,-6.761551,-147.2845,,,
729862586.020875,0.537143,3.766032,37.609329,-0.055832,0.011459,0.980423,-0.05626,0.070753,-0.024755,57.807693,-6.761551,-147.2845,,,
729862586.02419,0.520341,3.785457,37.604299,-0.069427,0.009827,0.980743,-0.058835,0.065662,-0.021967,57.910248,-6.757339,-146.994064,,,
729862586.027522,0.503523,3.802848,37.599978,-0.069427,0.009827,0.980743,-0.058835,0.065662,-0.021967,57.910248,-6.757339,-146.994064,,,
729862586.030926,0.503523,3.802848,37.599978,-0.069427,0.009827,0.980743,-0.058835,0.065662,-0.021967,57.910248,-6.757339,-146.994064,,,
729862586.034181,0.488884,3.817894,37.595755,-0.077866,0.002777,0.994766,-0.04176,0.053025,-0.020216,57.910248,-6.757339,-146.994064,,,
729862586.037522,0.478447,3.830857,37.591242,-0.077866,0.002777,0.994766,-0.04176,0.053025,-0.020216,57.910248,-6.757339,-146.994064,,,
729862586.040872,0.478447,3.830857,37.591242,-0.077866,0.002777,0.994766,-0.04176,0.053025,-0.020216,57.910248,-6.757339,-146.994064,,,
729862586.044258,0.472473,3.83787,37.58708,-0.081909,-0.005142,1.010742,-0.011147,0.031463,-0.015939,57.910248,-6.757339,-146.994064,,,
729862586.04754,0.471135,3.844754,37.582847,-0.081909,-0.005142,1.010742,-0.011147,0.031463,-0.015939,57.910248,-6.757339,-146.994064,,,
729862586.050895,0.471135,3.844754,37.582847,-0.081909,-0.005142,1.010742,-0.011147,0.031463,-0.015939,57.910248,-6.757339,-146.994064,,,
729862586.054195,0.474199,3.844095,37.578894,-0.080215,-0.002945,1.016296,0.020802,0.008897,-0.012073,57.910248,-6.757339,-146.994064,,,
729862586.057519,0.481271,3.844625,37.575257,-0.080215,-0.002945,1.016296,0.020802,0.008897,-0.012073,57.910248,-6.757339,-146.994064,,,
729862586.060879,0.481271,3.844625,37.575257,-0.080215,-0.002945,1.016296,0.020802,0.008897,-0.012073,57.910248,-6.757339,-146.994064,,,
729862586.064189,0.491284,3.837986,37.571644,-0.078049,-0.001923,1.010834,0.038692,-0.006177,-0.011004,57.971573,-6.710312,-147.393402,,,
729862586.067528,0.502213,3.834821,37.567699,-0.078049,-0.001923,1.010834,0.038692,-0.006177,-0.011004,57.971573,-6.710312,-147.393402,,,
729862586.070879,0.502213,3.834821,37.567699,-0.078049,-0.001923,1.010834,0.038692,-0.006177,-0.011004,57.971573,-6.710312,-147.393402,,,
729862586.074223,0.514147,3.825479,37.563887,-0.074478,0.001846,1.004669,0.043399,-0.007346,-0.010142,57.971573,-6.710312,-147.393402,,,
729862586.077517,0.524839,3.823066,37.561196,-0.074478,0.001846,1.004669,0.043399,-0.007346,-0.010142,57.971573,-6.710312,-147.393402,,,
729862586.080964,0.524839,3.823066,37.561196,-0.074478,0.001846,1.004669,0.043399,-0.007346,-0.010142,57.971573,-6.710312,-147.393402,,,
729862586.084202,0.532315,3.816407,37.56024,-0.079056,0.008331,0.994446,0.021166,-0.002931,0.000145,57.971573,-6.710312,-147.393402,,,
729862586.087567,0.536222,3.814817,37.561451,-0.079056,0.008331,0.994446,0.021166,-0.002931,0.000145,57.971573,-6.710312,-147.393402,,,
729862586.090862,0.536222,3.814817,37.561451,-0.079056,0.008331,0.994446,0.021166,-0.002931,0.000145,57.971573,-6.710312,-147.393402,,,
729862586.094242,0.536598,3.810821,37.565377,-0.079834,0.014191,0.977768,-0.006663,-0.002418,0.017009,57.971573,-6.710312,-147.393402,,,
729862586.097562,0.53363,3.809631,37.571842,-0.079834,0.014191,0.977768,-0.006663,-0.002418,0.017009,57.971573,-6.710312,-147.393402,,,
729862586.100859,0.53363,3.809631,37.571842,-0.079834,0.014191,0.977768,-0.006663,-0.002418,0.017009,57.971573,-6.710312,-147.393402,,,
729862586.104216,0.527739,3.809381,37.579458,-0.072998,0.017136,0.975113,-0.028014,0.003409,0.023567,57.971573,-6.710312,-147.393402,,,
729862586.107541,0.518339,3.810093,37.587213,-0.072998,0.017136,0.975113,-0.028014,0.003409,0.023567,57.848633,-6.605331,-147.386536,,,
729862586.110862,0.518339,3.810093,37.587213,-0.072998,0.017136,0.975113,-0.028014,0.003409,0.023567,57.848633,-6.605331,-147.386536,,,
729862586.114193,0.505929,3.813462,37.595253,-0.064774,0.02005,0.973465,-0.045922,0.00704,0.024499,57.848633,-6.605331,-147.386536,,,
729862586.117546,0.491959,3.814496,37.603682,-0.064774,0.02005,0.973465,-0.045922,0.00704,0.024499,57.848633,-6.605331,-147.386536,,,
729862586.120924,0.491959,3.814496,37.603682,-0.064774,0.02005,0.973465,-0.045922,0.00704,0.024499,57.848633,-6.605331,-147.386536,,,
729862586.124208,0.47502,3.818058,37.611986,-0.058258,0.020264,0.974564,-0.052949,0.005327,0.023285,57.848633,-6.605331,-147.386536,,,
729862586.127539,0.460755,3.81879,37.619205,-0.058258,0.020264,0.974564,-0.052949,0.005327,0.023285,57.848633,-6.605331,-147.386536,,,
729862586.130864,0.460755,3.81879,37.619205,-0.058258,0.020264,0.974564,-0.052949,0.005327,0.023285,57.848633,-6.605331,-147.386536,,,
729862586.134195,0.446617,3.822208,37.624034,-0.044785,0.01358,0.989319,-0.039169,0.005946,0.007678,57.848633,-6.605331,-147.386536,,,
729862586.137565,0.437678,3.823573,37.62523,-0.044785,0.01358,0.989319,-0.039169,0.005946,0.007678,57.848633,-6.605331,-147.386536,,,
729862586.140859,0.437678,3.823573,37.62523,-0.044785,0.01358,0.989319,-0.039169,0.005946,0.007678,57.848633,-6.605331,-147.386536,,,
729862586.144197,0.431436,3.828522,37.621882,-0.037766,0.008133,1.01059,-0.008542,0.014656,-0.021855,57.848633,-6.605331,-147.386536,,,
729862586.147601,0.429865,3.833293,37.615081,-0.037766,0.008133,1.01059,-0.008542,0.014656,-0.021855,57.788345,-6.434952,-147.40799,,,
729862586.150869,0.429865,3.833293,37.615081,-0.037766,0.008133,1.01059,-0.008542,0.014656,-0.021855,57.788345,-6.434952,-147.40799,,,
729862586.154209,0.429904,3.841708,37.606938,-0.043182,0.007507,1.017624,0.010476,0.031493,-0.029867,57.788345,-6.434952,-147.40799,,,
729862586.157604,0.431531,3.850995,37.598796,-0.043182,0.007507,1.017624,0.010476,0.031493,-0.029867,57.788345,-6.434952,-147.40799,,,
729862586.160866,0.431531,3.850995,37.598796,-0.043182,0.007507,1.017624,0.010476,0.031493,-0.029867,57.788345,-6.434952,-147.40799,,,
729862586.164192,0.43258,3.862802,37.591302,-0.053604,0.011063,1.003021,0.007406,0.033955,-0.025437,57.788345,-6.434952,-147.40799,,,
729862586.167527,0.433465,3.870959,37.584899,-0.053604,0.011063,1.003021,0.007406,0.033955,-0.025437,57.788345,-6.434952,-147.40799,,,
729862586.1709,0.433465,3.870959,37.584899,-0.053604,0.011063,1.003021,0.007406,0.033955,-0.025437,57.788345,-6.434952,-147.40799,,,
729862586.174195,0.434056,3.880536,37.579053,-0.066162,0.009659,0.99614,-0.00138,0.024243,-0.02204,57.788345,-6.434952,-147.40799,,,
729862586.177527,0.433053,3.885697,37.573818,-0.066162,0.009659,0.99614,-0.00138,0.024243,-0.02204,57.788345,-6.434952,-147.40799,,,
729862586.180859,0.433053,3.885697,37.573818,-0.066162,0.009659,0.99614,-0.00138,0.024243,-0.02204,57.788345,-6.434952,-147.40799,,,
729862586.184194,0.432944,3.891336,37.569514,-0.073975,0.010269,1.000854,-0.004883,0.014071,-0.015654,57.788345,-6.434952,-147.40799,,,
729862586.187557,0.430552,3.893473,37.566088,-0.073975,0.010269,1.000854,-0.004883,0.014071,-0.015654,58.088455,-6.474457,-147.474548,,,
729862586.190874,0.430552,3.893473,37.566088,-0.073975,0.010269,1.000854,-0.004883,0.014071,-0.015654,58.088455,-6.474457,-147.474548,,,
729862586.194212,0.428923,3.892853,37.564629,-0.078766,0.007751,0.994629,-0.013036,-0.005673,-0.002501,58.088455,-6.474457,-147.474548,,,
729862586.197585,0.425292,3.889538,37.565488,-0.078766,0.007751,0.994629,-0.013036,-0.005673,-0.002501,58.088455,-6.474457,-147.474548,,,
729862586.200878,0.425292,3.889538,37.565488,-0.078766,0.007751,0.994629,-0.013036,-0.005673,-0.002501,58.088455,-6.474457,-147.474548,,,
729862586.204206,0.424398,3.882921,37.567926,-0.07811,0.009308,0.995697,-0.008419,-0.020879,0.00878,58.088455,-6.474457,-147.474548,,,
729862586.207574,0.421709,3.876379,37.5702,-0.07811,0.009308,0.995697,-0.008419,-0.020879,0.00878,58.088455,-6.474457,-147.474548,,,
729862586.210961,0.421709,3.876379,37.5702,-0.07811,0.009308,0.995697,-0.008419,-0.020879,0.00878,58.088455,-6.474457,-147.474548,,,
729862586.214211,0.420024,3.865615,37.572013,-0.0728,0.00824,0.998184,-0.010131,-0.024548,0.005301,58.088455,-6.474457,-147.474548,,,
729862586.217565,0.416858,3.857609,37.573486,-0.0728,0.00824,0.998184,-0.010131,-0.024548,0.005301,58.088455,-6.474457,-147.474548,,,
729862586.220875,0.416858,3.857609,37.573486,-0.0728,0.00824,0.998184,-0.010131,-0.024548,0.005301,58.088455,-6.474457,-147.474548,,,
729862586.224254,0.412832,3.844136,37.573885,-0.068832,0.012283,0.991882,-0.016998,-0.022865,-0.002901,58.088455,-6.474457,-147.474548,,,
729862586.22756,0.412832,3.837312,37.573672,-0.068832,0.012283,0.991882,-0.016998,-0.022865,-0.002901,58.081116,-6.495148,-147.430191,,,
729862586.230884,0.406668,3.837312,37.573672,-0.068832,0.012283,0.991882,-0.016998,-0.022865,-0.002901,58.081116,-6.495148,-147.430191,,,
729862586.234201,0.3986,3.827424,37.572757,-0.064575,0.014404,0.990387,-0.030204,-0.007344,-0.00899,58.081116,-6.495148,-147.430191,,,
729862586.237567,0.3986,3.827424,37.572757,-0.064575,0.014404,0.990387,-0.030204,-0.007344,-0.00899,58.081116,-6.495148,-147.430191,,,
729862586.240875,0.388934,3.826468,37.571051,-0.064575,0.014404,0.990387,-0.030204,-0.007344,-0.00899,58.081116,-6.495148,-147.430191,,,
729862586.244193,0.379988,3.825678,37.569891,-0.070953,0.007996,0.998932,-0.028805,0.016124,-0.005237,58.081116,-6.495148,-147.430191,,,
729862586.247553,0.379988,3.830324,37.569983,-0.070953,0.007996,0.998932,-0.028805,0.016124,-0.005237,58.081116,-6.495148,-147.430191,,,
729862586.250855,0.371765,3.830324,37.569983,-0.070953,0.007996,0.998932,-0.028805,0.016124,-0.005237,58.081116,-6.495148,-147.430191,,,
729862586.254196,0.365254,3.835076,37.571274,-0.078079,0.003082,1.005539,-0.020742,0.022642,0.003602,58.081116,-6.495148,-147.430191,,,
729862586.257527,0.365254,3.835076,37.571274,-0.078079,0.003082,1.005539,-0.020742,0.022642,0.003602,58.081116,-6.495148,-147.430191,,,
729862586.260882,0.361358,3.840548,37.573932,-0.078079,0.003082,1.005539,-0.020742,0.022642,0.003602,58.081116,-6.495148,-147.430191,,,
729862586.264192,0.362639,3.845749,37.576995,-0.077759,0.000473,1.013824,0.010941,0.012865,0.008586,58.081116,-6.495148,-147.430191,,,
729862586.267522,0.362639,3.845749,37.576995,-0.077759,0.000473,1.013824,0.010941,0.012865,0.008586,58.081116,-6.495148,-147.430191,,,
729862586.270875,0.367833,3.847396,37.579444,-0.077759,0.000473,1.013824,0.010941,0.012865,0.008586,58.025848,-6.631744,-147.279755,,,
729862586.274197,0.377376,3.84814,37.58155,-0.07486,-0.00148,1.016693,0.039536,-0.00842,0.008145,58.025848,-6.631744,-147.279755,,,
729862586.277595,0.377376,3.84814,37.58155,-0.07486,-0.00148,1.016693,0.039536,-0.00842,0.008145,58.025848,-6.631744,-147.279755,,,
729862586.280863,0.389625,3.844182,37.583214,-0.07486,-0.00148,1.016693,0.039536,-0.00842,0.008145,58.025848,-6.631744,-147.279755,,,
729862586.284192,0.402153,3.841708,37.584803,-0.074036,0.00029,1.001129,0.039096,-0.01478,0.007749,58.025848,-6.631744,-147.279755,,,
729862586.28754,0.402153,3.841708,37.584803,-0.074036,0.00029,1.001129,0.039096,-0.01478,0.007749,58.025848,-6.631744,-147.279755,,,
729862586.290944,0.41175,3.837639,37.587153,-0.074036,0.00029,1.001129,0.039096,-0.01478,0.007749,58.025848,-6.631744,-147.279755,,,
729862586.29419,0.418385,3.837021,37.590525,-0.064087,0.009537,0.991257,0.016943,-2.6e-05,0.013484,58.025848,-6.631744,-147.279755,,,
729862586.297546,0.418385,3.837021,37.590525,-0.064087,0.009537,0.991257,0.016943,-2.6e-05,0.013484,58.025848,-6.631744,-147.279755,,,
729862586.300876,0.421112,3.837551,37.594572,-0.064087,0.009537,0.991257,0.016943,-2.6e-05,0.013484,58.025848,-6.631744,-147.279755,,,
