Time (sec),Pitch (deg),Roll (deg),Yaw(deg),X-Acceleration (g),Y-Acceleration (g),Z-Acceleration (g),Pitch Rate (deg/sec),Roll Rate (deg/sec),Yaw Rate (deg/sec),Magnetic Field in X direction (uT),Magnetic Field in Y direction (uT),Magnetic Field in Z Direction (uT),Latitude (deg),Longitude (deg),Altitude (m)
729860508.871027,-0.143612,-5.283565,-30.869644,0.087494,-0.0168,1.052551,0.165766,-0.04066,-0.001902,77.522522,4.455627,-148.300034,,,
729860508.874337,-0.143612,-5.283565,-30.869644,0.087494,-0.0168,1.052551,0.165766,-0.04066,-0.001902,77.522522,4.455627,-148.300034,,,
729860508.877679,-0.087229,-5.296794,-30.864296,0.087494,-0.0168,1.052551,0.165766,-0.04066,-0.001902,77.522522,4.455627,-148.300034,,,
729860508.881012,-0.019888,-5.311699,-30.857441,0.087479,-0.020874,1.080505,0.24659,-0.049647,0.002221,77.385483,4.21138,-148.042236,,,
729860508.884338,-0.019888,-5.311699,-30.857441,0.087479,-0.020874,1.080505,0.24659,-0.049647,0.002221,77.385483,4.21138,-148.042236,,,
729860508.887701,0.055893,-5.325966,-30.849063,0.087479,-0.020874,1.080505,0.24659,-0.049647,0.002221,77.385483,4.21138,-148.042236,,,
729860508.891022,0.138284,-5.341502,-30.839634,0.090149,-0.01445,1.079407,0.294904,-0.052028,0.004198,77.385483,4.21138,-148.042236,,,
729860508.894444,0.138284,-5.341502,-30.839634,0.090149,-0.01445,1.079407,0.294904,-0.052028,0.004198,77.385483,4.21138,-148.042236,,,
729860508.89769,0.224152,-5.358761,-30.829983,0.090149,-0.01445,1.079407,0.294904,-0.052028,0.004198,77.385483,4.21138,-148.042236,,,
729860508.901015,0.313918,-5.378554,-30.821176,0.097946,-0.003113,1.051712,0.318082,-0.068087,-0.001659,77.385483,4.21138,-148.042236,,,
729860508.904353,0.313918,-5.378554,-30.821176,0.097946,-0.003113,1.051712,0.318082,-0.068087,-0.001659,77.385483,4.21138,-148.042236,,,
729860508.907687,0.406374,-5.40141,-30.813295,0.097946,-0.003113,1.051712,0.318082,-0.068087,-0.001659,77.385483,4.21138,-148.042236,,,
729860508.911015,0.503105,-5.429148,-30.807299,0.100967,0.005112,1.032089,0.340758,-0.095341,-0.015327,77.385483,4.21138,-148.042236,,,
729860508.91434,0.503105,-5.429148,-30.807299,0.100967,0.005112,1.032089,0.340758,-0.095341,-0.015327,77.385483,4.21138,-148.042236,,,
729860508.917697,0.602598,-5.461153,-30.802571,0.100967,0.005112,1.032089,0.340758,-0.095341,-0.015327,77.385483,4.21138,-148.042236,,,
729860508.921013,0.706943,-5.499721,-30.797522,0.097183,0.00589,1.028229,0.369205,-0.139262,-0.01852,77.397842,3.618607,-147.548584,,,
729860508.924352,0.706943,-5.499721,-30.797522,0.097183,0.00589,1.028229,0.369205,-0.139262,-0.01852,77.397842,3.618607,-147.548584,,,
729860508.927702,0.814906,-5.544358,-30.790604,0.097183,0.00589,1.028229,0.369205,-0.139262,-0.01852,77.397842,3.618607,-147.548584,,,
729860508.931012,0.929818,-5.595646,-30.780645,0.085083,0.005203,1.029495,0.408212,-0.179858,-0.004042,77.397842,3.618607,-147.548584,,,
729860508.934418,0.929818,-5.595646,-30.780645,0.085083,0.005203,1.029495,0.408212,-0.179858,-0.004042,77.397842,3.618607,-147.548584,,,
729860508.937664,1.048259,-5.651194,-30.768215,0.085083,0.005203,1.029495,0.408212,-0.179858,-0.004042,77.397842,3.618607,-147.548584,,,
729860508.941006,1.170885,-5.711142,-30.754614,0.087601,0.008499,1.024857,0.433206,-0.206805,0.004628,77.397842,3.618607,-147.548584,,,
729860508.944359,1.170885,-5.711142,-30.754614,0.087601,0.008499,1.024857,0.433206,-0.206805,0.004628,77.397842,3.618607,-147.548584,,,
729860508.947755,1.293902,-5.772245,-30.741413,0.087601,0.008499,1.024857,0.433206,-0.206805,0.004628,77.397842,3.618607,-147.548584,,,
729860508.951003,1.423478,-5.835655,-30.729577,0.106613,0.017609,1.017822,0.459294,-0.217769,-0.00834,77.397842,3.618607,-147.548584,,,
729860508.954349,1.423478,-5.835655,-30.729577,0.106613,0.017609,1.017822,0.459294,-0.217769,-0.00834,77.397842,3.618607,-147.548584,,,
729860508.95769,1.561886,-5.899182,-30.720073,0.106613,0.017609,1.017822,0.459294,-0.217769,-0.00834,77.397842,3.618607,-147.548584,,,
729860508.96107,1.718005,-5.964876,-30.712963,0.122437,0.017044,1.052917,0.557204,-0.224,-0.036908,76.852188,2.547134,-147.507629,,,
729860508.964349,1.718005,-5.964876,-30.712963,0.122437,0.017044,1.052917,0.557204,-0.224,-0.036908,76.852188,2.547134,-147.507629,,,
729860508.967692,1.8926,-6.031547,-30.707931,0.122437,0.017044,1.052917,0.557204,-0.224,-0.036908,76.852188,2.547134,-147.507629,,,
729860508.971007,2.089986,-6.101213,-30.703869,0.135193,0.012222,1.104904,0.704302,-0.243784,-0.062236,76.852188,2.547134,-147.507629,,,
729860508.974422,2.089986,-6.101213,-30.703869,0.135193,0.012222,1.104904,0.704302,-0.243784,-0.062236,76.852188,2.547134,-147.507629,,,
729860508.977481,2.309967,-6.17281,-30.700332,0.135193,0.012222,1.104904,0.704302,-0.243784,-0.062236,76.852188,2.547134,-147.507629,,,
729860508.981039,2.552685,-6.243761,-30.697834,0.148041,0.011246,1.129883,0.862661,-0.244683,-0.088483,76.852188,2.547134,-147.507629,,,
729860508.98434,2.552685,-6.243761,-30.697834,0.148041,0.011246,1.129883,0.862661,-0.244683,-0.088483,76.852188,2.547134,-147.507629,,,
729860508.987682,2.817991,-6.310942,-30.696833,0.148041,0.011246,1.129883,0.862661,-0.244683,-0.088483,76.852188,2.547134,-147.507629,,,
729860508.991013,3.104428,-6.371546,-30.698383,0.157806,0.017792,1.143814,1.006721,-0.202766,-0.123577,76.852188,2.547134,-147.507629,,,
729860508.994359,3.104428,-6.371546,-30.698383,0.157806,0.017792,1.143814,1.006721,-0.202766,-0.123577,76.852188,2.547134,-147.507629,,,
729860508.997583,3.408622,-6.42451,-30.703738,0.157806,0.017792,1.143814,1.006721,-0.202766,-0.123577,76.852188,2.547134,-147.507629,,,
729860509.001037,3.72849,-6.47146,-30.713056,0.172668,0.029099,1.149323,1.118987,-0.159411,-0.163837,76.852188,2.547134,-147.507629,,,
729860509.004335,3.72849,-6.47146,-30.713056,0.172668,0.029099,1.149323,1.118987,-0.159411,-0.163837,76.720398,0.842926,-146.59549,,,
729860509.007694,4.060743,-6.514841,-30.726696,0.172668,0.029099,1.149323,1.118987,-0.159411,-0.163837,76.720398,0.842926,-146.59549,,,
729860509.011005,4.402835,-6.556554,-30.745217,0.170471,0.04393,1.116837,1.185117,-0.14631,-0.20634,76.720398,0.842926,-146.59549,,,
729860509.014351,4.402835,-6.556554,-30.745217,0.170471,0.04393,1.116837,1.185117,-0.14631,-0.20634,76.720398,0.842926,-146.59549,,,
729860509.017688,4.757286,-6.599485,-30.767899,0.170471,0.04393,1.116837,1.185117,-0.14631,-0.20634,76.720398,0.842926,-146.59549,,,
729860509.021008,5.12838,-6.645229,-30.793632,0.158798,0.054123,1.102722,1.288857,-0.168756,-0.243094,76.720398,0.842926,-146.59549,,,
729860509.024406,5.12838,-6.645229,-30.793632,0.158798,0.054123,1.102722,1.288857,-0.168756,-0.243094,76.720398,0.842926,-146.59549,,,
729860509.027684,5.52116,-6.694307,-30.820797,0.158798,0.054123,1.102722,1.288857,-0.168756,-0.243094,76.720398,0.842926,-146.59549,,,
729860509.031016,5.938228,-6.746656,-30.847855,0.149689,0.046906,1.149231,1.454686,-0.193422,-0.266043,76.720398,0.842926,-146.59549,,,
729860509.03435,5.938228,-6.746656,-30.847855,0.149689,0.046906,1.149231,1.454686,-0.193422,-0.266043,76.720398,0.842926,-146.59549,,,
729860509.037751,6.380411,-6.802877,-30.872641,0.149689,0.046906,1.149231,1.454686,-0.193422,-0.266043,76.720398,0.842926,-146.59549,,,
729860509.041081,6.848376,-6.864847,-30.893353,0.134399,0.038406,1.188354,1.630881,-0.225512,-0.265925,76.720398,0.842926,-146.59549,,,
729860509.044339,6.848376,-6.864847,-30.893353,0.134399,0.038406,1.188354,1.630881,-0.225512,-0.265925,76.606812,-2.06369,-145.419891,,,
729860509.047676,7.342892,-6.934669,-30.908241,0.134399,0.038406,1.188354,1.630881,-0.225512,-0.265925,76.606812,-2.06369,-145.419891,,,
729860509.051015,7.864274,-7.01297,-30.916573,0.119064,0.04248,1.190704,1.825624,-0.281755,-0.249279,76.606812,-2.06369,-145.419891,,,
729860509.054362,7.864274,-7.01297,-30.916573,0.119064,0.04248,1.190704,1.825624,-0.281755,-0.249279,76.606812,-2.06369,-145.419891,,,
729860509.057673,8.413043,-7.100174,-30.919229,0.119064,0.04248,1.190704,1.825624,-0.281755,-0.249279,76.606812,-2.06369,-145.419891,,,
729860509.061016,8.988612,-7.197062,-30.916251,0.111908,0.05246,1.189407,2.014693,-0.341491,-0.238809,76.606812,-2.06369,-145.419891,,,
729860509.064416,8.988612,-7.197062,-30.916251,0.111908,0.05246,1.189407,2.014693,-0.341491,-0.238809,76.606812,-2.06369,-145.419891,,,
729860509.067667,9.591161,-7.305344,-30.908224,0.111908,0.05246,1.189407,2.014693,-0.341491,-0.238809,76.606812,-2.06369,-145.419891,,,
729860509.071012,10.223811,-7.425925,-30.895975,0.108414,0.068283,1.184326,2.217861,-0.421058,-0.240773,76.606812,-2.06369,-145.419891,,,
729860509.074361,10.223811,-7.425925,-30.895975,0.108414,0.068283,1.184326,2.217861,-0.421058,-0.240773,76.606812,-2.06369,-145.419891,,,
729860509.077776,10.891032,-7.558337,-30.879634,0.108414,0.068283,1.184326,2.217861,-0.421058,-0.240773,76.606812,-2.06369,-145.419891,,,
729860509.081002,11.597464,-7.700863,-30.859324,0.119827,0.071472,1.210052,2.482585,-0.487461,-0.261147,76.606812,-2.06369,-145.419891,,,
729860509.08416,11.597464,-7.700863,-30.859324,0.119827,0.071472,1.210052,2.482585,-0.487461,-0.261147,75.920624,-6.223083,-143.251053,,,
729860509.087712,12.345722,-7.852929,-30.835321,0.119827,0.071472,1.210052,2.482585,-0.487461,-0.261147,75.920624,-6.223083,-143.251053,,,
729860509.091022,13.133422,-8.013538,-30.807233,0.131744,0.07193,1.251297,2.766926,-0.544305,-0.288393,75.920624,-6.223083,-143.251053,,,
729860509.09436,13.133422,-8.013538,-30.807233,0.131744,0.07193,1.251297,2.766926,-0.544305,-0.288393,75.920624,-6.223083,-143.251053,,,
729860509.097692,13.95535,-8.181681,-30.774284,0.131744,0.07193,1.251297,2.766926,-0.544305,-0.288393,75.920624,-6.223083,-143.251053,,,
729860509.101004,14.803425,-8.354633,-30.735966,0.133194,0.089249,1.223145,2.962571,-0.570222,-0.300688,75.920624,-6.223083,-143.251053,,,
729860509.10441,14.803425,-8.354633,-30.735966,0.133194,0.089249,1.223145,2.962571,-0.570222,-0.300688,75.920624,-6.223083,-143.251053,,,
729860509.107674,15.667922,-8.529246,-30.69132,0.133194,0.089249,1.223145,2.962571,-0.570222,-0.300688,75.920624,-6.223083,-143.251053,,,
729860509.111027,16.541464,-8.70033,-30.639906,0.121796,0.123367,1.138565,3.043853,-0.539159,-0.284611,75.920624,-6.223083,-143.251053,,,
729860509.114365,16.541464,-8.70033,-30.639906,0.121796,0.123367,1.138565,3.043853,-0.539159,-0.284611,75.920624,-6.223083,-143.251053,,,
729860509.117684,17.41508,-8.86444,-30.580381,0.121796,0.123367,1.138565,3.043853,-0.539159,-0.284611,75.920624,-6.223083,-143.251053,,,
729860509.121046,18.279857,-9.017968,-30.511924,0.11499,0.166656,1.040894,3.00078,-0.446777,-0.236195,75.920624,-6.223083,-143.251053,,,
729860509.124483,18.279857,-9.017968,-30.511924,0.11499,0.166656,1.040894,3.00078,-0.446777,-0.236195,75.920624,-6.223083,-143.251053,,,
729860509.127744,19.130796,-9.158917,-30.434693,0.11499,0.166656,1.040894,3.00078,-0.446777,-0.236195,75.409698,-11.328171,-139.936066,,,
729860509.131007,19.130796,-9.158917,-30.434693,0.11499,0.166656,1.040894,3.00078,-0.446777,-0.236195,75.409698,-11.328171,-139.936066,,,
729860509.134345,19.965608,-9.285177,-30.350651,0.108612,0.20575,0.940369,2.899952,-0.322735,-0.189796,75.409698,-11.328171,-139.936066,,,
729860509.137676,20.782536,-9.399307,-30.261316,0.108612,0.20575,0.940369,2.899952,-0.322735,-0.189796,75.409698,-11.328171,-139.936066,,,
729860509.14101,20.782536,-9.399307,-30.261316,0.105881,0.281982,0.874451,2.788692,-0.2468,-0.155827,75.409698,-11.328171,-139.936066,,,
729860509.144343,21.583576,-9.506701,-30.167699,0.105881,0.281982,0.874451,2.788692,-0.2468,-0.155827,75.409698,-11.328171,-139.936066,,,
729860509.147679,22.373135,-9.613551,-30.070908,0.105881,0.281982,0.874451,2.788692,-0.2468,-0.155827,75.409698,-11.328171,-139.936066,,,
729860509.151023,22.373135,-9.613551,-29.972148,0.110352,0.292801,0.836502,2.728099,-0.243607,-0.146202,75.409698,-11.328171,-139.936066,,,
729860509.154406,23.154473,-9.722241,-29.972148,0.110352,0.292801,0.836502,2.728099,-0.243607,-0.146202,75.409698,-11.328171,-139.936066,,,
729860509.15767,23.927625,-9.832981,-29.872696,0.110352,0.292801,0.836502,2.728099,-0.243607,-0.146202,75.409698,-11.328171,-139.936066,,,
729860509.161057,23.927625,-9.832981,-29.872696,0.123169,0.322403,0.84639,2.667853,-0.237336,-0.148464,75.409698,-11.328171,-139.936066,,,
729860509.16436,24.692259,-9.943199,-29.773236,0.123169,0.322403,0.84639,2.667853,-0.237336,-0.148464,75.409698,-11.328171,-139.936066,,,
729860509.16768,25.445827,-10.05129,-29.672582,0.123169,0.322403,0.84639,2.667853,-0.237336,-0.148464,75.005829,-15.706207,-136.012833,,,
729860509.171038,25.445827,-10.05129,-29.672582,0.123169,0.322403,0.84639,2.667853,-0.237336,-0.148464,75.005829,-15.706207,-136.012833,,,
729860509.17435,26.185972,-10.156164,-29.571111,0.128586,0.343948,0.84581,2.582119,-0.203692,-0.139775,75.005829,-15.706207,-136.012833,,,
729860509.177685,26.910641,-10.260126,-29.469094,0.128586,0.343948,0.84581,2.582119,-0.203692,-0.139775,75.005829,-15.706207,-136.012833,,,
729860509.181041,26.910641,-10.260126,-29.469094,0.128586,0.343948,0.84581,2.582119,-0.203692,-0.139775,75.005829,-15.706207,-136.012833,,,
729860509.184354,27.621706,-10.363913,-29.367796,0.136383,0.375961,0.816025,2.482012,-0.195846,-0.135563,75.005829,-15.706207,-136.012833,,,
729860509.187679,28.322036,-10.466283,-29.268323,0.136383,0.375961,0.816025,2.482012,-0.195846,-0.135563,75.005829,-15.706207,-136.012833,,,
729860509.191014,28.322036,-10.466283,-29.268323,0.136383,0.375961,0.816025,2.482012,-0.195846,-0.135563,75.005829,-15.706207,-136.012833,,,
729860509.194414,29.014151,-10.564414,-29.173146,0.153229,0.409836,0.805588,2.414719,-0.177345,-0.160085,75.005829,-15.706207,-136.012833,,,
729860509.197669,29.701155,-10.659444,-29.083579,0.153229,0.409836,0.805588,2.414719,-0.177345,-0.160085,75.005829,-15.706207,-136.012833,,,
729860509.201093,29.701155,-10.659444,-29.083579,0.153229,0.409836,0.805588,2.414719,-0.177345,-0.160085,75.005829,-15.706207,-136.012833,,,
729860509.204369,30.388254,-10.755224,-29.000313,0.163361,0.42926,0.822815,2.398582,-0.189872,-0.205925,75.005829,-15.706207,-136.012833,,,
729860509.207681,31.082943,-10.857607,-28.922957,0.163361,0.42926,0.822815,2.398582,-0.189872,-0.205925,75.134583,-19.378159,-132.204697,,,
729860509.211086,31.082943,-10.857607,-28.922957,0.163361,0.42926,0.822815,2.398582,-0.189872,-0.205925,75.134583,-19.378159,-132.204697,,,
729860509.214366,31.792822,-10.970726,-28.851398,0.176056,0.423264,0.854797,2.481294,-0.275175,-0.268952,75.134583,-19.378159,-132.204697,,,
729860509.217682,32.521197,-11.095085,-28.785523,0.176056,0.423264,0.854797,2.481294,-0.275175,-0.268952,75.134583,-19.378159,-132.204697,,,
729860509.221095,32.521197,-11.095085,-28.785523,0.176056,0.423264,0.854797,2.481294,-0.275175,-0.268952,75.134583,-19.378159,-132.204697,,,
729860509.224349,33.270864,-11.225303,-28.723343,0.192459,0.411606,0.898514,2.615818,-0.337306,-0.338183,75.134583,-19.378159,-132.204697,,,
729860509.227676,34.043561,-11.353339,-28.661724,0.192459,0.411606,0.898514,2.615818,-0.337306,-0.338183,75.134583,-19.378159,-132.204697,,,
729860509.231084,34.043561,-11.353339,-28.661724,0.192459,0.411606,0.898514,2.615818,-0.337306,-0.338183,75.134583,-19.378159,-132.204697,,,
729860509.234406,34.837591,-11.471136,-28.598177,0.192886,0.401138,0.957962,2.767578,-0.272936,-0.371014,75.134583,-19.378159,-132.204697,,,
729860509.237683,35.646505,-11.576441,-28.528485,0.192886,0.401138,0.957962,2.767578,-0.272936,-0.371014,75.134583,-19.378159,-132.204697,,,
729860509.241053,35.646505,-11.576441,-28.528485,0.192886,0.401138,0.957962,2.767578,-0.272936,-0.371014,75.134583,-19.378159,-132.204697,,,
729860509.244353,36.4592,-11.668322,-28.451281,0.181656,0.396362,0.95578,2.820649,-0.145043,-0.354946,75.134583,-19.378159,-132.204697,,,
729860509.247684,37.259403,-11.748333,-28.369155,0.181656,0.396362,0.95578,2.820649,-0.145043,-0.354946,75.303879,-22.833298,-127.287827,,,
729860509.251048,37.259403,-11.748333,-28.369155,0.181656,0.396362,0.95578,2.820649,-0.145043,-0.354946,75.303879,-22.833298,-127.287827,,,
729860509.254356,38.039794,-11.82168,-28.285075,0.172379,0.419067,0.804825,2.687575,-0.065876,-0.32627,75.303879,-22.833298,-127.287827,,,
729860509.257718,38.804075,-11.895937,-28.202452,0.172379,0.419067,0.804825,2.687575,-0.065876,-0.32627,75.303879,-22.833298,-127.287827,,,
729860509.261093,38.804075,-11.895937,-28.202452,0.172379,0.419067,0.804825,2.687575,-0.065876,-0.32627,75.303879,-22.833298,-127.287827,,,
729860509.264352,39.562635,-11.979402,-28.12539,0.17688,0.467911,0.653931,2.626046,-0.130112,-0.347922,75.303879,-22.833298,-127.287827,,,
729860509.267682,40.324031,-12.079411,-28.058178,0.17688,0.467911,0.653931,2.626046,-0.130112,-0.347922,75.303879,-22.833298,-127.287827,,,
729860509.271071,40.324031,-12.079411,-28.058178,0.17688,0.467911,0.653931,2.626046,-0.130112,-0.347922,75.303879,-22.833298,-127.287827,,,
729860509.274405,41.092238,-12.200736,-28.006068,0.191757,0.611862,0.666672,2.648164,-0.328083,-0.442677,75.303879,-22.833298,-127.287827,,,
729860509.277685,41.869007,-12.346655,-27.972963,0.191757,0.611862,0.666672,2.648164,-0.328083,-0.442677,75.303879,-22.833298,-127.287827,,,
729860509.281077,41.869007,-12.346655,-27.972963,0.191757,0.611862,0.666672,2.648164,-0.328083,-0.442677,75.303879,-22.833298,-127.287827,,,
729860509.284348,42.658506,-12.51453,-27.958693,0.205048,0.604904,0.668594,2.701681,-0.576446,-0.573457,75.303879,-22.833298,-127.287827,,,
729860509.287681,43.464475,-12.700372,-27.957181,0.205048,0.604904,0.668594,2.701681,-0.576446,-0.573457,75.303879,-22.833298,-127.287827,,,
729860509.291066,43.464475,-12.700372,-27.957181,0.205048,0.604904,0.668594,2.701681,-0.576446,-0.573457,75.778595,-25.751083,-122.606918,,,
729860509.294355,44.289337,-12.904632,-27.959864,0.198654,0.532181,0.70578,2.816196,-0.731622,-0.65305,75.778595,-25.751083,-122.606918,,,
729860509.29768,45.130343,-13.129017,-27.95852,0.198654,0.532181,0.70578,2.816196,-0.731622,-0.65305,75.778595,-25.751083,-122.606918,,,
729860509.301158,45.130343,-13.129017,-27.95852,0.198654,0.532181,0.70578,2.816196,-0.731622,-0.65305,75.778595,-25.751083,-122.606918,,,
729860509.304345,45.980499,-13.372035,-27.947527,0.178802,0.533005,0.738419,2.895435,-0.82347,-0.65252,75.778595,-25.751083,-122.606918,,,
729860509.307691,46.830767,-13.629391,-27.924248,0.178802,0.533005,0.738419,2.895435,-0.82347,-0.65252,75.778595,-25.751083,-122.606918,,,
729860509.311015,46.830767,-13.629391,-27.924248,0.178802,0.533005,0.738419,2.895435,-0.82347,-0.65252,75.778595,-25.751083,-122.606918,,,
729860509.314406,47.673302,-13.896114,-27.889767,0.161972,0.55687,0.671066,2.865362,-0.838117,-0.615488,75.778595,-25.751083,-122.606918,,,
729860509.317736,48.500362,-14.167233,-27.846415,0.161972,0.55687,0.671066,2.865362,-0.838117,-0.615488,75.778595,-25.751083,-122.606918,,,
729860509.321032,48.500362,-14.167233,-27.846415,0.161972,0.55687,0.671066,2.865362,-0.838117,-0.615488,75.778595,-25.751083,-122.606918,,,
729860509.324352,49.305229,-14.435946,-27.798446,0.153778,0.609772,0.558777,2.722315,-0.800945,-0.587108,75.778595,-25.751083,-122.606918,,,
729860509.327682,50.08152,-14.697115,-27.751503,0.153778,0.609772,0.558777,2.722315,-0.800945,-0.587108,75.778595,-25.751083,-122.606918,,,
729860509.331018,50.08152,-14.697115,-27.751503,0.153778,0.609772,0.558777,2.722315,-0.800945,-0.587108,76.088333,-28.33847,-117.312866,,,
729860509.334369,50.824202,-14.948897,-27.710397,0.158539,0.682663,0.444672,2.495375,-0.759388,-0.571781,76.088333,-28.33847,-117.312866,,,
729860509.33768,51.529437,-15.193628,-27.67774,0.158539,0.682663,0.444672,2.495375,-0.759388,-0.571781,76.088333,-28.33847,-117.312866,,,
729860509.341089,51.529437,-15.193628,-27.67774,0.158539,0.682663,0.444672,2.495375,-0.759388,-0.571781,76.088333,-28.33847,-117.312866,,,
729860509.344362,52.194775,-15.435095,-27.656884,0.154404,0.771149,0.330673,2.208951,-0.783469,-0.570369,76.088333,-28.33847,-117.312866,,,
729860509.347679,52.81939,-15.678005,-27.649984,0.154404,0.771149,0.330673,2.208951,-0.783469,-0.570369,76.088333,-28.33847,-117.312866,,,
729860509.35102,52.81939,-15.678005,-27.649984,0.154404,0.771149,0.330673,2.208951,-0.783469,-0.570369,76.088333,-28.33847,-117.312866,,,
729860509.354347,53.403637,-15.925193,-27.658724,0.146393,0.827591,0.237457,1.915301,-0.896336,-0.575437,76.088333,-28.33847,-117.312866,,,
729860509.357682,53.946938,-16.17421,-27.684852,0.146393,0.827591,0.237457,1.915301,-0.896336,-0.575437,76.088333,-28.33847,-117.312866,,,
729860509.361017,53.946938,-16.17421,-27.684852,0.146393,0.827591,0.237457,1.915301,-0.896336,-0.575437,76.088333,-28.33847,-117.312866,,,
729860509.364349,54.447501,-16.420972,-27.728483,0.13829,0.845901,0.191345,1.609063,-0.988337,-0.575652,76.088333,-28.33847,-117.312866,,,
729860509.367678,54.903564,-16.664527,-27.788466,0.13829,0.845901,0.191345,1.609063,-0.988337,-0.575652,76.088333,-28.33847,-117.312866,,,
729860509.371012,54.903564,-16.664527,-27.788466,0.13829,0.845901,0.191345,1.609063,-0.988337,-0.575652,76.875229,-29.673218,-114.042999,,,
729860509.374359,55.315488,-16.903718,-27.86185,0.121826,0.86441,0.167831,1.292007,-1.047081,-0.551409,76.875229,-29.673218,-114.042999,,,
729860509.377772,55.682865,-17.134529,-27.944843,0.121826,0.86441,0.167831,1.292007,-1.047081,-0.551409,76.875229,-29.673218,-114.042999,,,
729860509.381028,55.682865,-17.134529,-27.944843,0.121826,0.86441,0.167831,1.292007,-1.047081,-0.551409,76.875229,-29.673218,-114.042999,,,
729860509.384358,56.006942,-17.354627,-28.032382,0.103836,0.876328,0.167984,0.989455,-1.00642,-0.491668,76.875229,-29.673218,-114.042999,,,
729860509.38769,56.291609,-17.566968,-28.11879,0.103836,0.876328,0.167984,0.989455,-1.00642,-0.491668,76.875229,-29.673218,-114.042999,,,
729860509.391089,56.291609,-17.566968,-28.11879,0.103836,0.876328,0.167984,0.989455,-1.00642,-0.491668,76.875229,-29.673218,-114.042999,,,
729860509.394451,56.543294,-17.776928,-28.19862,0.092499,0.858429,0.225113,0.767061,-0.954737,-0.402049,76.875229,-29.673218,-114.042999,,,
729860509.397677,56.768862,-17.987151,-28.269233,0.092499,0.858429,0.225113,0.767061,-0.954737,-0.402049,76.875229,-29.673218,-114.042999,,,
729860509.401036,56.768862,-17.987151,-28.269233,0.092499,0.858429,0.225113,0.767061,-0.954737,-0.402049,76.875229,-29.673218,-114.042999,,,
729860509.404439,56.972742,-18.196239,-28.330542,0.093369,0.829315,0.30249,0.622784,-0.895415,-0.32379,76.875229,-29.673218,-114.042999,,,
729860509.40768,57.155933,-18.398539,-28.385341,0.093369,0.829315,0.30249,0.622784,-0.895415,-0.32379,76.875229,-29.673218,-114.042999,,,
729860509.411022,57.155933,-18.398539,-28.385341,0.093369,0.829315,0.30249,0.622784,-0.895415,-0.32379,77.149948,-30.174438,-112.272354,,,
729860509.414381,57.316463,-18.588026,-28.436682,0.104233,0.820465,0.363113,0.480712,-0.793562,-0.265505,77.149948,-30.174438,-112.272354,,,
729860509.417735,57.450813,-18.760936,-28.486358,0.104233,0.820465,0.363113,0.480712,-0.793562,-0.265505,77.149948,-30.174438,-112.272354,,,
729860509.42105,57.450813,-18.760936,-28.486358,0.104233,0.820465,0.363113,0.480712,-0.793562,-0.265505,77.149948,-30.174438,-112.272354,,,
729860509.424372,57.552007,-18.912222,-28.537667,0.109451,0.835464,0.347122,0.270884,-0.655456,-0.196168,77.149948,-30.174438,-112.272354,,,
729860509.427692,57.611728,-19.036318,-28.594903,0.109451,0.835464,0.347122,0.270884,-0.655456,-0.196168,77.149948,-30.174438,-112.272354,,,
729860509.431092,57.611728,-19.036318,-28.594903,0.109451,0.835464,0.347122,0.270884,-0.655456,-0.196168,77.149948,-30.174438,-112.272354,,,
729860509.434363,57.62354,-19.128337,-28.6638,0.101639,0.875488,0.258698,-0.046315,-0.500149,-0.125989,77.149948,-30.174438,-112.272354,,,
729860509.437691,57.587154,-19.188579,-28.747955,0.101639,0.875488,0.258698,-0.046315,-0.500149,-0.125989,77.149948,-30.174438,-112.272354,,,
729860509.441037,57.587154,-19.188579,-28.747955,0.101639,0.875488,0.258698,-0.046315,-0.500149,-0.125989,77.149948,-30.174438,-112.272354,,,
729860509.444357,57.511834,-19.219521,-28.848128,0.101791,0.927048,0.180298,-0.343508,-0.385153,-0.085507,77.149948,-30.174438,-112.272354,,,
729860509.447688,57.410851,-19.220044,-28.962636,0.101791,0.927048,0.180298,-0.343508,-0.385153,-0.085507,77.149948,-30.174438,-112.272354,,,
729860509.451028,57.410851,-19.220044,-28.962636,0.101791,0.927048,0.180298,-0.343508,-0.385153,-0.085507,77.149948,-30.174438,-112.272354,,,
729860509.454454,57.296212,-19.186804,-29.088641,0.134247,0.90741,0.278061,-0.463298,-0.227925,-0.094847,77.163589,-30.236786,-112.460907,,,
729860509.457677,57.178893,-19.11877,-29.220693,0.134247,0.90741,0.278061,-0.463298,-0.227925,-0.094847,77.163589,-30.236786,-112.460907,,,
729860509.461023,57.178893,-19.11877,-29.220693,0.134247,0.90741,0.278061,-0.463298,-0.227925,-0.094847,77.163589,-30.236786,-112.460907,,,
729860509.464373,57.067725,-19.01853,-29.352077,0.17482,0.847473,0.482605,-0.438158,-0.002911,-0.110517,77.163589,-30.236786,-112.460907,,,
729860509.467686,56.969346,-18.89513,-29.473274,0.17482,0.847473,0.482605,-0.438158,-0.002911,-0.110517,77.163589,-30.236786,-112.460907,,,
729860509.471037,56.969346,-18.89513,-29.473274,0.17482,0.847473,0.482605,-0.438158,-0.002911,-0.110517,77.163589,-30.236786,-112.460907,,,
729860509.474372,56.886996,-18.75847,-29.576998,0.186859,0.79982,0.647858,-0.317518,0.200238,-0.091116,77.163589,-30.236786,-112.460907,,,
729860509.477686,56.820676,-18.61684,-29.660277,0.186859,0.79982,0.647858,-0.317518,0.200238,-0.091116,77.163589,-30.236786,-112.460907,,,
729860509.481085,56.820676,-18.61684,-29.660277,0.186859,0.79982,0.647858,-0.317518,0.200238,-0.091116,77.163589,-30.236786,-112.460907,,,
729860509.484345,56.768502,-18.477318,-29.723612,0.173462,0.765717,0.700241,-0.192151,0.315047,-0.049826,77.163589,-30.236786,-112.460907,,,
729860509.487797,56.725297,-18.34426,-29.771152,0.173462,0.765717,0.700241,-0.192151,0.315047,-0.049826,77.163589,-30.236786,-112.460907,,,
729860509.49101,56.725297,-18.34426,-29.771152,0.173462,0.765717,0.700241,-0.192151,0.315047,-0.049826,77.163589,-30.236786,-112.460907,,,
729860509.494366,56.683256,-18.21809,-29.810366,0.150558,0.780533,0.638504,-0.159679,0.32964,-0.02473,77.226227,-29.751251,-113.171143,,,
729860509.497692,56.634654,-18.097353,-29.850852,0.150558,0.780533,0.638504,-0.159679,0.32964,-0.02473,77.226227,-29.751251,-113.171143,,,
729860509.501041,56.634654,-18.097353,-29.850852,0.150558,0.780533,0.638504,-0.159679,0.32964,-0.02473,77.226227,-29.751251,-113.171143,,,
729860509.504456,56.572041,-17.982407,-29.898952,0.12999,0.828659,0.502579,-0.246423,0.251203,-0.020874,77.226227,-29.751251,-113.171143,,,
729860509.507687,56.487929,-17.872646,-29.958836,0.12999,0.828659,0.502579,-0.246423,0.251203,-0.020874,77.226227,-29.751251,-113.171143,,,
729860509.511021,56.487929,-17.872646,-29.958836,0.12999,0.828659,0.502579,-0.246423,0.251203,-0.020874,77.226227,-29.751251,-113.171143,,,
729860509.514366,56.374188,-17.766604,-30.033126,0.104218,0.880035,0.354721,-0.447962,0.142897,-0.013354,77.226227,-29.751251,-113.171143,,,
729860509.517687,56.222059,-17.661147,-30.122198,0.104218,0.880035,0.354721,-0.447962,0.142897,-0.013354,77.226227,-29.751251,-113.171143,,,
729860509.521032,56.222059,-17.661147,-30.122198,0.104218,0.880035,0.354721,-0.447962,0.142897,-0.013354,77.226227,-29.751251,-113.171143,,,
729860509.524361,56.022148,-17.550003,-30.226971,0.076096,0.935715,0.236694,-0.770656,0.081297,0.020363,77.226227,-29.751251,-113.171143,,,
729860509.527686,55.765349,-17.427877,-30.346533,0.076096,0.935715,0.236694,-0.770656,0.081297,0.020363,77.226227,-29.751251,-113.171143,,,
729860509.531085,55.765349,-17.427877,-30.346533,0.076096,0.935715,0.236694,-0.770656,0.081297,0.020363,77.226227,-29.751251,-113.171143,,,
729860509.534352,55.445432,-17.289929,-30.478127,0.048965,0.971527,0.139359,-1.197298,0.112342,0.094905,77.301743,-29.326813,-114.603134,,,
729860509.537681,55.060668,-17.135372,-30.615652,0.048965,0.971527,0.139359,-1.197298,0.112342,0.094905,77.301743,-29.326813,-114.603134,,,
729860509.541019,55.060668,-17.135372,-30.615652,0.048965,0.971527,0.139359,-1.197298,0.112342,0.094905,77.301743,-29.326813,-114.603134,,,
729860509.544407,54.615569,-16.96866,-30.748942,0.026047,0.985199,0.106888,-1.612929,0.21973,0.215753,77.301743,-29.326813,-114.603134,,,
729860509.547679,54.118965,-16.79511,-30.868639,0.026047,0.985199,0.106888,-1.612929,0.21973,0.215753,77.301743,-29.326813,-114.603134,,,
729860509.551046,54.118965,-16.79511,-30.868639,0.026047,0.985199,0.106888,-1.612929,0.21973,0.215753,77.301743,-29.326813,-114.603134,,,
729860509.554444,53.580452,-16.615723,-30.969544,0.018524,0.91745,0.205612,-1.886837,0.364143,0.355982,77.301743,-29.326813,-114.603134,,,
729860509.557685,53.00855,-16.429271,-31.04861,0.018524,0.91745,0.205612,-1.886837,0.364143,0.355982,77.301743,-29.326813,-114.603134,,,
729860509.561025,53.00855,-16.429271,-31.04861,0.018524,0.91745,0.205612,-1.886837,0.364143,0.355982,77.301743,-29.326813,-114.603134,,,
729860509.564389,52.409306,-16.236934,-31.10542,0.043411,0.826996,0.361679,-2.056198,0.534213,0.488007,77.301743,-29.326813,-114.603134,,,
729860509.56768,51.78689,-16.04199,-31.141827,0.043411,0.826996,0.361679,-2.056198,0.534213,0.488007,77.301743,-29.326813,-114.603134,,,
729860509.571039,51.78689,-16.04199,-31.141827,0.043411,0.826996,0.361679,-2.056198,0.534213,0.488007,77.301743,-29.326813,-114.603134,,,
729860509.574392,51.143969,-15.84699,-31.16068,0.068878,0.763855,0.468185,-2.179018,0.642469,0.586895,77.301743,-29.326813,-114.603134,,,
729860509.577683,50.481054,-15.651518,-31.166159,0.068878,0.763855,0.468185,-2.179018,0.642469,0.586895,76.854813,-27.977188,-118.320404,,,
729860509.581084,50.481054,-15.651518,-31.166159,0.068878,0.763855,0.468185,-2.179018,0.642469,0.586895,76.854813,-27.977188,-118.320404,,,
729860509.584359,49.793877,-15.454198,-31.16375,0.088257,0.73143,0.492584,-2.322885,0.704067,0.65371,76.854813,-27.977188,-118.320404,,,
729860509.587687,49.07519,-15.256692,-31.16078,0.088257,0.73143,0.492584,-2.322885,0.704067,0.65371,76.854813,-27.977188,-118.320404,,,
729860509.591041,49.07519,-15.256692,-31.16078,0.088257,0.73143,0.492584,-2.322885,0.704067,0.65371,76.854813,-27.977188,-118.320404,,,
729860509.594352,48.319791,-15.066739,-31.16377,0.09523,0.736588,0.436111,-2.573054,0.646041,0.683777,76.854813,-27.977188,-118.320404,,,
729860509.597685,47.525187,-14.897247,-31.176832,0.09523,0.736588,0.436111,-2.573054,0.646041,0.683777,76.854813,-27.977188,-118.320404,,,
729860509.601029,47.525187,-14.897247,-31.176832,0.09523,0.736588,0.436111,-2.573054,0.646041,0.683777,76.854813,-27.977188,-118.320404,,,
729860509.604422,46.689071,-14.760263,-31.205782,0.093018,0.754776,0.323013,-2.87286,0.366496,0.675184,76.854813,-27.977188,-118.320404,,,
729860509.607684,45.809107,-14.663494,-31.255515,0.093018,0.754776,0.323013,-2.87286,0.366496,0.675184,76.854813,-27.977188,-118.320404,,,
729860509.61102,45.809107,-14.663494,-31.255515,0.093018,0.754776,0.323013,-2.87286,0.366496,0.675184,76.854813,-27.977188,-118.320404,,,
729860509.614122,44.886344,-14.605829,-31.328517,0.098236,0.745102,0.222046,-3.194629,-0.028098,0.631053,76.854813,-27.977188,-118.320404,,,
729860509.617717,43.93137,-14.577849,-31.422323,0.098236,0.745102,0.222046,-3.194629,-0.028098,0.631053,75.740311,-24.975357,-123.760559,,,
729860509.621025,43.93137,-14.577849,-31.422323,0.098236,0.745102,0.222046,-3.194629,-0.028098,0.631053,75.740311,-24.975357,-123.760559,,,
729860509.624355,42.961036,-14.563752,-31.530901,0.123749,0.677628,0.263794,-3.35216,-0.227393,0.577898,75.740311,-24.975357,-123.760559,,,
729860509.627701,41.989842,-14.543925,-31.646779,0.123749,0.677628,0.263794,-3.35216,-0.227393,0.577898,75.740311,-24.975357,-123.760559,,,
729860509.631078,41.989842,-14.543925,-31.646779,0.123749,0.677628,0.263794,-3.35216,-0.227393,0.577898,75.740311,-24.975357,-123.760559,,,
729860509.634347,41.027142,-14.501379,-31.760752,0.170502,0.567627,0.546387,-3.31065,-0.086718,0.54846,75.740311,-24.975357,-123.760559,,,
729860509.637693,40.07937,-14.428859,-31.861715,0.170502,0.567627,0.546387,-3.31065,-0.086718,0.54846,75.740311,-24.975357,-123.760559,,,
729860509.641033,40.07937,-14.428859,-31.861715,0.170502,0.567627,0.546387,-3.31065,-0.086718,0.54846,75.740311,-24.975357,-123.760559,,,
729860509.644353,39.14819,-14.325755,-31.939103,0.177429,0.47728,0.788361,-3.172421,0.231424,0.613853,75.740311,-24.975357,-123.760559,,,
729860509.647686,38.228975,-14.194274,-31.985677,0.177429,0.47728,0.788361,-3.172421,0.231424,0.613853,75.740311,-24.975357,-123.760559,,,
729860509.651025,38.228975,-14.194274,-31.985677,0.177429,0.47728,0.788361,-3.172421,0.231424,0.613853,75.740311,-24.975357,-123.760559,,,
729860509.654372,37.314632,-14.038047,-31.997001,0.153336,0.389603,0.878159,-3.086662,0.565813,0.76449,75.740311,-24.975357,-123.760559,,,
729860509.657687,36.402402,-13.860277,-31.972152,0.153336,0.389603,0.878159,-3.086662,0.565813,0.76449,74.983551,-21.547363,-129.492752,,,
729860509.661017,36.402402,-13.860277,-31.972152,0.153336,0.389603,0.878159,-3.086662,0.565813,0.76449,74.983551,-21.547363,-129.492752,,,
729860509.664367,35.493908,-13.665942,-31.913505,0.140121,0.341705,0.873825,-3.025311,0.830368,0.933262,74.983551,-21.547363,-129.492752,,,
729860509.667686,34.59226,-13.460261,-31.826397,0.140121,0.341705,0.873825,-3.025311,0.830368,0.933262,74.983551,-21.547363,-129.492752,,,
729860509.671029,34.59226,-13.460261,-31.826397,0.140121,0.341705,0.873825,-3.025311,0.830368,0.933262,74.983551,-21.547363,-129.492752,,,
729860509.674367,33.699938,-13.248228,-31.719175,0.159882,0.337219,0.904114,-2.942071,0.966595,1.026473,74.983551,-21.547363,-129.492752,,,
729860509.677688,32.820847,-13.038162,-31.60136,0.159882,0.337219,0.904114,-2.942071,0.966595,1.026473,74.983551,-21.547363,-129.492752,,,
729860509.681113,32.820847,-13.038162,-31.60136,0.159882,0.337219,0.904114,-2.942071,0.966595,1.026473,74.983551,-21.547363,-129.492752,,,
729860509.684351,31.963604,-12.844494,-31.481477,0.187439,0.359818,0.887344,-2.813015,0.885221,1.006174,74.983551,-21.547363,-129.492752,,,
729860509.687695,31.14111,-12.68468,-31.368817,0.187439,0.359818,0.887344,-2.813015,0.885221,1.006174,74.983551,-21.547363,-129.492752,,,
729860509.691039,31.14111,-12.68468,-31.368817,0.187439,0.359818,0.887344,-2.813015,0.885221,1.006174,74.983551,-21.547363,-129.492752,,,
729860509.694369,30.36352,-12.56841,-31.273735,0.231812,0.374527,0.885895,-2.540261,0.525553,0.84479,74.983551,-21.547363,-129.492752,,,
729860509.697701,29.635155,-12.49552,-31.205864,0.231812,0.374527,0.885895,-2.540261,0.525553,0.84479,74.381256,-17.286224,-134.121185,,,
729860509.701046,29.635155,-12.49552,-31.205864,0.231812,0.374527,0.885895,-2.540261,0.525553,0.84479,74.381256,-17.286224,-134.121185,,,
729860509.704408,28.954514,-12.459444,-31.171702,0.293457,0.367035,0.917236,-2.258235,0.142993,0.576358,74.381256,-17.286224,-134.121185,,,
729860509.707758,28.313971,-12.450984,-31.174025,0.293457,0.367035,0.917236,-2.258235,0.142993,0.576358,74.381256,-17.286224,-134.121185,,,
729860509.711027,28.313971,-12.450984,-31.174025,0.293457,0.367035,0.917236,-2.258235,0.142993,0.576358,74.381256,-17.286224,-134.121185,,,
729860509.714386,27.700488,-12.46193,-31.21283,0.313095,0.369598,0.89949,-2.093951,-0.1264,0.312486,74.381256,-17.286224,-134.121185,,,
729860509.717818,27.099696,-12.485774,-31.283456,0.313095,0.369598,0.89949,-2.093951,-0.1264,0.312486,74.381256,-17.286224,-134.121185,,,
729860509.721068,27.099696,-12.485774,-31.283456,0.313095,0.369598,0.89949,-2.093951,-0.1264,0.312486,74.381256,-17.286224,-134.121185,,,
729860509.724362,26.49713,-12.514204,-31.379757,0.293365,0.398956,0.824112,-2.120702,-0.258131,0.139672,74.381256,-17.286224,-134.121185,,,
729860509.727693,25.879236,-12.53298,-31.495904,0.293365,0.398956,0.824112,-2.120702,-0.258131,0.139672,74.381256,-17.286224,-134.121185,,,
729860509.731042,25.879236,-12.53298,-31.495904,0.293365,0.398956,0.824112,-2.120702,-0.258131,0.139672,74.381256,-17.286224,-134.121185,,,
729860509.734362,25.236326,-12.524099,-31.624011,0.262665,0.431732,0.755539,-2.294976,-0.135464,0.085606,74.381256,-17.286224,-134.121185,,,
729860509.737751,24.562611,-12.470504,-31.754883,0.262665,0.431732,0.755539,-2.294976,-0.135464,0.085606,74.381256,-17.286224,-134.121185,,,
729860509.741099,24.562611,-12.470504,-31.754883,0.262665,0.431732,0.755539,-2.294976,-0.135464,0.085606,73.858398,-14.225937,-137.416901,,,
729860509.744359,23.854712,-12.360812,-31.878986,0.219345,0.419342,0.807831,-2.521514,0.262953,0.155179,73.858398,-14.225937,-137.416901,,,
729860509.747705,23.11376,-12.192274,-31.986164,0.219345,0.419342,0.807831,-2.521514,0.262953,0.155179,73.858398,-14.225937,-137.416901,,,
729860509.751023,23.11376,-12.192274,-31.986164,0.219345,0.419342,0.807831,-2.521514,0.262953,0.155179,73.858398,-14.225937,-137.416901,,,
729860509.754422,22.348043,-11.971355,-32.067653,0.167572,0.35614,0.889343,-2.68014,0.720723,0.322054,73.858398,-14.225937,-137.416901,,,
729860509.757684,21.570058,-11.713844,-32.117347,0.167572,0.35614,0.889343,-2.68014,0.720723,0.322054,73.858398,-14.225937,-137.416901,,,
729860509.761032,21.570058,-11.713844,-32.117347,0.167572,0.35614,0.889343,-2.68014,0.720723,0.322054,73.858398,-14.225937,-137.416901,,,
729860509.764356,20.79358,-11.439143,-32.133375,0.129227,0.276688,0.975494,-2.649203,0.962591,0.515249,73.858398,-14.225937,-137.416901,,,
729860509.767697,20.029734,-11.161384,-32.118612,0.129227,0.276688,0.975494,-2.649203,0.962591,0.515249,73.858398,-14.225937,-137.416901,,,
729860509.771049,20.029734,-11.161384,-32.118612,0.129227,0.276688,0.975494,-2.649203,0.962591,0.515249,73.858398,-14.225937,-137.416901,,,
729860509.774377,19.283101,-10.888995,-32.079851,0.123779,0.203873,1.033615,-2.508919,0.996193,0.634597,73.858398,-14.225937,-137.416901,,,
729860509.777691,18.55445,-10.629269,-32.026997,0.123779,0.203873,1.033615,-2.508919,0.996193,0.634597,73.858398,-14.225937,-137.416901,,,
729860509.78102,18.55445,-10.629269,-32.026997,0.123779,0.203873,1.033615,-2.508919,0.996193,0.634597,74.84758,-9.872116,-140.955627,,,
729860509.784373,17.841296,-10.387042,-31.970201,0.146896,0.171234,1.021133,-2.395827,0.895126,0.634099,74.84758,-9.872116,-140.955627,,,
729860509.787684,17.138969,-10.16593,-31.91873,0.146896,0.171234,1.021133,-2.395827,0.895126,0.634099,74.84758,-9.872116,-140.955627,,,
729860509.791028,17.138969,-10.16593,-31.91873,0.146896,0.171234,1.021133,-2.395827,0.895126,0.634099,74.84758,-9.872116,-140.955627,,,
729860509.794372,16.44353,-9.969237,-31.880772,0.167953,0.191772,0.947754,-2.361642,0.700352,0.532384,74.84758,-9.872116,-140.955627,,,
729860509.79771,15.753735,-9.798731,-31.863353,0.167953,0.191772,0.947754,-2.361642,0.700352,0.532384,74.84758,-9.872116,-140.955627,,,
729860509.801041,15.753735,-9.798731,-31.863353,0.167953,0.191772,0.947754,-2.361642,0.700352,0.532384,74.84758,-9.872116,-140.955627,,,
729860509.804448,15.073137,-9.655689,-31.870558,0.198441,0.230789,0.882065,-2.335966,0.463197,0.351119,74.84758,-9.872116,-140.955627,,,
729860509.80771,14.406868,-9.538026,-31.902877,0.198441,0.230789,0.882065,-2.335966,0.463197,0.351119,74.84758,-9.872116,-140.955627,,,
729860509.811124,14.406868,-9.538026,-31.902877,0.198441,0.230789,0.882065,-2.335966,0.463197,0.351119,74.84758,-9.872116,-140.955627,,,
729860509.814354,13.758576,-9.438609,-31.957722,0.223328,0.229706,0.913177,-2.244362,0.282129,0.166261,74.84758,-9.872116,-140.955627,,,
729860509.817728,13.131923,-9.347867,-32.029335,0.223328,0.229706,0.913177,-2.244362,0.282129,0.166261,74.84758,-9.872116,-140.955627,,,
729860509.821027,13.131923,-9.347867,-32.029335,0.223328,0.229706,0.913177,-2.244362,0.282129,0.166261,75.371826,-5.732269,-143.190369,,,
729860509.824364,12.531827,-9.25696,-32.108931,0.211655,0.183548,1.000702,-2.081161,0.254478,0.060151,75.371826,-5.732269,-143.190369,,,
729860509.827799,11.960367,-9.16049,-32.185652,0.211655,0.183548,1.000702,-2.081161,0.254478,0.060151,75.371826,-5.732269,-143.190369,,,
729860509.831068,11.960367,-9.16049,-32.185652,0.211655,0.183548,1.000702,-2.081161,0.254478,0.060151,75.371826,-5.732269,-143.190369,,,
729860509.834379,11.414968,-9.056046,-32.248819,0.159317,0.10498,1.099625,-1.883747,0.336047,0.095365,75.371826,-5.732269,-143.190369,,,
729860509.837706,10.891919,-8.944538,-32.289608,0.159317,0.10498,1.099625,-1.883747,0.336047,0.095365,75.371826,-5.732269,-143.190369,,,
729860509.841091,10.891919,-8.944538,-32.289608,0.159317,0.10498,1.099625,-1.883747,0.336047,0.095365,75.371826,-5.732269,-143.190369,,,
729860509.844353,10.386963,-8.828858,-32.302763,0.09021,0.043015,1.131729,-1.727206,0.405506,0.24645,75.371826,-5.732269,-143.190369,,,
729860509.847724,9.896543,-8.710822,-32.287004,0.09021,0.043015,1.131729,-1.727206,0.405506,0.24645,75.371826,-5.732269,-143.190369,,,
729860509.851032,9.896543,-8.710822,-32.287004,0.09021,0.043015,1.131729,-1.727206,0.405506,0.24645,75.371826,-5.732269,-143.190369,,,
729860509.854435,9.416667,-8.592288,-32.24544,0.059509,0.031647,1.110229,-1.618215,0.446925,0.410345,75.371826,-5.732269,-143.190369,,,
729860509.857721,8.940905,-8.478108,-32.186377,0.059509,0.031647,1.110229,-1.618215,0.446925,0.410345,75.371826,-5.732269,-143.190369,,,
729860509.861024,8.940905,-8.478108,-32.186377,0.059509,0.031647,1.110229,-1.618215,0.446925,0.410345,75.646591,-2.321991,-145.045868,,,
729860509.864362,8.465277,-8.374966,-32.121315,0.078613,0.065887,1.067642,-1.606009,0.386163,0.468589,75.646591,-2.321991,-145.045868,,,
729860509.867753,7.991001,-8.287508,-32.06136,0.078613,0.065887,1.067642,-1.606009,0.386163,0.468589,75.646591,-2.321991,-145.045868,,,
729860509.871048,7.991001,-8.287508,-32.06136,0.078613,0.065887,1.067642,-1.606009,0.386163,0.468589,75.646591,-2.321991,-145.045868,,,
729860509.87439,7.52319,-8.214832,-32.016236,0.157974,0.115265,1.007751,-1.584093,0.261643,0.370569,75.646591,-2.321991,-145.045868,,,
729860509.877688,7.52319,-8.155153,-31.99211,0.157974,0.115265,1.007751,-1.584093,0.261643,0.370569,75.646591,-2.321991,-145.045868,,,
729860509.881103,7.068193,-8.155153,-31.99211,0.157974,0.115265,1.007751,-1.584093,0.261643,0.370569,75.646591,-2.321991,-145.045868,,,
729860509.884357,6.630248,-8.106701,-31.991593,0.214752,0.129044,1.027191,-1.497062,0.161555,0.191452,75.646591,-2.321991,-145.045868,,,
729860509.887735,6.213899,-8.065912,-32.014228,0.214752,0.129044,1.027191,-1.497062,0.161555,0.191452,75.646591,-2.321991,-145.045868,,,
729860509.891041,6.213899,-8.065912,-32.014228,0.214752,0.129044,1.027191,-1.497062,0.161555,0.191452,75.646591,-2.321991,-145.045868,,,
729860509.894358,5.826489,-8.029832,-32.054414,0.221451,0.102707,1.083649,-1.330349,0.109865,0.029517,75.646591,-2.321991,-145.045868,,,
729860509.897732,5.826489,-7.996134,-32.102874,0.221451,0.102707,1.083649,-1.330349,0.109865,0.029517,75.646591,-2.321991,-145.045868,,,
729860509.901026,5.476769,-7.996134,-32.102874,0.221451,0.102707,1.083649,-1.330349,0.109865,0.029517,75.646591,-2.321991,-145.045868,,,
729860509.904372,5.170649,-7.964401,-32.149093,0.191589,0.055511,1.189529,-1.040832,0.096522,-0.012858,75.799789,0.257233,-146.566391,,,
729860509.907789,4.910449,-7.934625,-32.183829,0.191589,0.055511,1.189529,-1.040832,0.096522,-0.012858,75.799789,0.257233,-146.566391,,,
729860509.91102,4.910449,-7.934625,-32.183829,0.191589,0.055511,1.189529,-1.040832,0.096522,-0.012858,75.799789,0.257233,-146.566391,,,
729860509.914362,4.695064,-7.905271,-32.200532,0.134811,-0.003418,1.282364,-0.710243,0.1012,0.055728,75.799789,0.257233,-146.566391,,,
729860509.917706,4.695064,-7.905271,-32.200532,0.134811,-0.003418,1.282364,-0.710243,0.1012,0.055728,75.799789,0.257233,-146.566391,,,
729860509.921077,4.519864,-7.873189,-32.195662,0.134811,-0.003418,1.282364,-0.710243,0.1012,0.055728,75.799789,0.257233,-146.566391,,,
729860509.924362,4.379469,-7.834589,-32.168122,0.093979,-0.031555,1.295898,-0.437506,0.1544,0.177192,75.799789,0.257233,-146.566391,,,
729860509.927692,4.379469,-7.834589,-32.168122,0.093979,-0.031555,1.295898,-0.437506,0.1544,0.177192,75.799789,0.257233,-146.566391,,,
729860509.931038,4.265948,-7.789235,-32.119162,0.093979,-0.031555,1.295898,-0.437506,0.1544,0.177192,75.799789,0.257233,-146.566391,,,
729860509.934358,4.169187,-7.740684,-32.054001,0.077667,-0.013077,1.251526,-0.289033,0.191425,0.278107,75.799789,0.257233,-146.566391,,,
729860509.937703,4.169187,-7.740684,-32.054001,0.077667,-0.013077,1.251526,-0.289033,0.191425,0.278107,75.799789,0.257233,-146.566391,,,
729860509.941039,4.080024,-7.69408,-31.979276,0.077667,-0.013077,1.251526,-0.289033,0.191425,0.278107,75.799789,0.257233,-146.566391,,,
729860509.94436,3.990333,-7.653706,-31.901126,0.098297,0.035919,1.142471,-0.272272,0.154411,0.312905,76.051987,0.991974,-146.689056,,,
729860509.947767,3.990333,-7.653706,-31.826949,0.098297,0.035919,1.142471,-0.272272,0.154411,0.312905,76.051987,0.991974,-146.689056,,,
729860509.951033,3.89332,-7.621862,-31.826949,0.098297,0.035919,1.142471,-0.272272,0.154411,0.312905,76.051987,0.991974,-146.689056,,,
729860509.954373,3.784397,-7.599849,-31.763032,0.136063,0.082153,1.031921,-0.357732,0.083271,0.261623,76.051987,0.991974,-146.689056,,,
729860509.957716,3.784397,-7.599849,-31.763032,0.136063,0.082153,1.031921,-0.357732,0.083271,0.261623,76.051987,0.991974,-146.689056,,,
729860509.961027,3.662704,-7.588491,-31.712583,0.136063,0.082153,1.031921,-0.357732,0.083271,0.261623,76.051987,0.991974,-146.689056,,,
729860509.964363,3.529184,-7.588307,-31.676978,0.158356,0.112076,0.954498,-0.456525,0.00133,0.172507,76.051987,0.991974,-146.689056,,,
729860509.967708,3.529184,-7.588307,-31.676978,0.158356,0.112076,0.954498,-0.456525,0.00133,0.172507,76.051987,0.991974,-146.689056,,,
729860509.971038,3.384978,-7.599559,-31.654826,0.158356,0.112076,0.954498,-0.456525,0.00133,0.172507,76.051987,0.991974,-146.689056,,,
729860509.974359,3.231507,-7.62184,-31.643348,0.165573,0.11171,0.935104,-0.532852,-0.082203,0.099398,76.051987,0.991974,-146.689056,,,
729860509.977692,3.231507,-7.62184,-31.643348,0.165573,0.11171,0.935104,-0.532852,-0.082203,0.099398,76.051987,0.991974,-146.689056,,,
729860509.981044,3.069083,-7.655143,-31.639966,0.165573,0.11171,0.935104,-0.532852,-0.082203,0.099398,76.051987,0.991974,-146.689056,,,
729860509.984358,2.897488,-7.698079,-31.641113,0.154999,0.09108,0.935257,-0.598081,-0.15412,0.076092,75.664368,1.804535,-147.280762,,,
729860509.987733,2.897488,-7.698079,-31.641113,0.154999,0.09108,0.935257,-0.598081,-0.15412,0.076092,75.664368,1.804535,-147.280762,,,
729860509.991022,2.719404,-7.748325,-31.643276,0.154999,0.09108,0.935257,-0.598081,-0.15412,0.076092,75.664368,1.804535,-147.280762,,,
729860509.99436,2.538402,-7.802412,-31.643971,0.143356,0.065277,0.948502,-0.628008,-0.187337,0.083892,75.664368,1.804535,-147.280762,,,
729860509.997693,2.538402,-7.802412,-31.643971,0.143356,0.065277,0.948502,-0.628008,-0.187337,0.083892,75.664368,1.804535,-147.280762,,,
729860510.001119,2.358022,-7.855143,-31.640384,0.143356,0.065277,0.948502,-0.628008,-0.187337,0.083892,75.664368,1.804535,-147.280762,,,
729860510.004378,2.18218,-7.901643,-31.630349,0.133621,0.033646,1.003113,-0.597694,-0.151441,0.121513,75.664368,1.804535,-147.280762,,,
729860510.007768,2.18218,-7.901643,-31.630349,0.133621,0.033646,1.003113,-0.597694,-0.151441,0.121513,75.664368,1.804535,-147.280762,,,
729860510.011028,2.014324,-7.939164,-31.611671,0.133621,0.033646,1.003113,-0.597694,-0.151441,0.121513,75.664368,1.804535,-147.280762,,,
729860510.014369,1.856427,-7.967777,-31.583152,0.126816,0.009567,1.075378,-0.522758,-0.086026,0.181243,75.664368,1.804535,-147.280762,,,
729860510.017713,1.856427,-7.967777,-31.583152,0.126816,0.009567,1.075378,-0.522758,-0.086026,0.181243,75.664368,1.804535,-147.280762,,,
729860510.021042,1.70918,-7.990727,-31.546099,0.126816,0.009567,1.075378,-0.522758,-0.086026,0.181243,75.664368,1.804535,-147.280762,,,
729860510.024373,1.573664,-8.010728,-31.502258,0.138763,0.000519,1.095718,-0.434287,-0.056391,0.218731,75.664368,1.804535,-147.280762,,,
729860510.027748,1.573664,-8.010728,-31.502258,0.138763,0.000519,1.095718,-0.434287,-0.056391,0.218731,75.456116,3.007584,-147.59993,,,
729860510.031051,1.448803,-8.028663,-31.455306,0.138763,0.000519,1.095718,-0.434287,-0.056391,0.218731,75.456116,3.007584,-147.59993,,,
729860510.034366,1.331833,-8.044338,-31.409926,0.161209,0.009644,1.075409,-0.374337,-0.045525,0.209815,75.456116,3.007584,-147.59993,,,
729860510.037689,1.331833,-8.044338,-31.409926,0.161209,0.009644,1.075409,-0.374337,-0.045525,0.209815,75.456116,3.007584,-147.59993,,,
729860510.041159,1.220089,-8.057345,-31.369548,0.161209,0.009644,1.075409,-0.374337,-0.045525,0.209815,75.456116,3.007584,-147.59993,,,
729860510.044395,1.110304,-8.067649,-31.336941,0.182739,0.034058,1.034378,-0.361616,-0.030336,0.156762,75.456116,3.007584,-147.59993,,,
729860510.047724,1.110304,-8.067649,-31.336941,0.182739,0.034058,1.034378,-0.361616,-0.030336,0.156762,75.456116,3.007584,-147.59993,,,
729860510.051043,1.000252,-8.074219,-31.314113,0.182739,0.034058,1.034378,-0.361616,-0.030336,0.156762,75.456116,3.007584,-147.59993,,,
729860510.054369,0.889907,-8.075958,-31.300868,0.200256,0.050949,0.99501,-0.371758,0.002986,0.090954,75.456116,3.007584,-147.59993,,,
729860510.057701,0.889907,-8.075958,-31.300868,0.200256,0.050949,0.99501,-0.371758,0.002986,0.090954,75.456116,3.007584,-147.59993,,,
729860510.061065,0.780285,-8.07273,-31.296287,0.200256,0.050949,0.99501,-0.371758,0.002986,0.090954,75.456116,3.007584,-147.59993,,,
729860510.064365,0.673673,-8.065289,-31.299135,0.199677,0.0336,0.988708,-0.367102,0.031287,0.035249,75.456116,3.007584,-147.59993,,,
729860510.067699,0.673673,-8.065289,-31.299135,0.199677,0.0336,0.988708,-0.367102,0.031287,0.035249,75.329269,3.876144,-147.742599,,,
729860510.071046,0.572966,-8.054335,-31.307094,0.199677,0.0336,0.988708,-0.367102,0.031287,0.035249,75.329269,3.876144,-147.742599,,,
729860510.074366,0.480416,-8.040038,-31.316826,0.192322,0.022232,1.021729,-0.316461,0.05714,0.006061,75.329269,3.876144,-147.742599,,,
729860510.077695,0.480416,-8.040038,-31.316826,0.192322,0.022232,1.021729,-0.316461,0.05714,0.006061,75.329269,3.876144,-147.742599,,,
729860510.081053,0.397746,-8.023207,-31.325448,0.192322,0.022232,1.021729,-0.316461,0.05714,0.006061,75.329269,3.876144,-147.742599,,,
729860510.084368,0.325043,-8.005387,-31.330662,0.176178,0.001617,1.05751,-0.241701,0.06433,0.019081,75.329269,3.876144,-147.742599,,,
729860510.087715,0.325043,-8.005387,-31.330662,0.176178,0.001617,1.05751,-0.241701,0.06433,0.019081,75.329269,3.876144,-147.742599,,,
729860510.091035,0.261011,-7.987084,-31.331299,0.176178,0.001617,1.05751,-0.241701,0.06433,0.019081,75.329269,3.876144,-147.742599,,,
729860510.09438,0.203539,-7.967922,-31.328262,0.161469,-0.010132,1.055298,-0.187322,0.069836,0.040211,75.329269,3.876144,-147.742599,,,
729860510.097712,0.203539,-7.967922,-31.328262,0.161469,-0.010132,1.055298,-0.187322,0.069836,0.040211,75.329269,3.876144,-147.742599,,,
729860510.101135,0.150216,-7.948181,-31.32256,0.161469,-0.010132,1.055298,-0.187322,0.069836,0.040211,75.329269,3.876144,-147.742599,,,
729860510.104357,0.097318,-7.928292,-31.316221,0.157196,0.000885,1.031281,-0.180227,0.073045,0.046452,75.329269,3.876144,-147.742599,,,
729860510.107694,0.097318,-7.928292,-31.316221,0.157196,0.000885,1.031281,-0.180227,0.073045,0.046452,75.114227,4.295654,-148.091248,,,
729860510.111033,0.04136,-7.908799,-31.311817,0.157196,0.000885,1.031281,-0.180227,0.073045,0.046452,75.114227,4.295654,-148.091248,,,
729860510.114397,-0.020315,-7.890759,-31.311619,0.16098,0.018417,0.989929,-0.217913,0.06454,0.025309,75.114227,4.295654,-148.091248,,,
729860510.117803,-0.020315,-7.890759,-31.311619,0.16098,0.018417,0.989929,-0.217913,0.06454,0.025309,75.114227,4.295654,-148.091248,,,
729860510.121054,-0.088271,-7.874955,-31.317209,0.16098,0.018417,0.989929,-0.217913,0.06454,0.025309,75.114227,4.295654,-148.091248,,,
729860510.124374,-0.160183,-7.860264,-31.329335,0.169434,0.027664,0.952423,-0.261256,0.054281,-0.01325,75.114227,4.295654,-148.091248,,,
729860510.127699,-0.160183,-7.860264,-31.329335,0.169434,0.027664,0.952423,-0.261256,0.054281,-0.01325,75.114227,4.295654,-148.091248,,,
729860510.131108,-0.23203,-7.844897,-31.347385,0.169434,0.027664,0.952423,-0.261256,0.054281,-0.01325,75.114227,4.295654,-148.091248,,,
729860510.134358,-0.298639,-7.827181,-31.368678,0.167862,0.017654,0.972473,-0.231746,0.068164,-0.045726,75.114227,4.295654,-148.091248,,,
729860510.137708,-0.298639,-7.827181,-31.368678,0.167862,0.017654,0.972473,-0.231746,0.068164,-0.045726,75.114227,4.295654,-148.091248,,,
729860510.14105,-0.355826,-7.80529,-31.389738,0.167862,0.017654,0.972473,-0.231746,0.068164,-0.045726,75.114227,4.295654,-148.091248,,,
729860510.144368,-0.400658,-7.779547,-31.406477,0.145844,-0.010788,1.047745,-0.1499,0.096604,-0.035429,75.114227,4.295654,-148.091248,,,
729860510.147698,-0.400658,-7.779547,-31.406477,0.145844,-0.010788,1.047745,-0.1499,0.096604,-0.035429,75.429871,4.74556,-147.916443,,,
729860510.151055,-0.431926,-7.752814,-31.415616,0.145844,-0.010788,1.047745,-0.1499,0.096604,-0.035429,75.429871,4.74556,-147.916443,,,
729860510.154366,-0.449951,-7.727258,-31.415958,0.122025,-0.033005,1.090698,-0.049956,0.091959,0.011468,75.429871,4.74556,-147.916443,,,
729860510.157757,-0.449951,-7.727258,-31.415958,0.122025,-0.033005,1.090698,-0.049956,0.091959,0.011468,75.429871,4.74556,-147.916443,,,
729860510.161031,-0.455438,-7.703993,-31.407404,0.122025,-0.033005,1.090698,-0.049956,0.091959,0.011468,75.429871,4.74556,-147.916443,,,
729860510.164369,-0.448927,-7.683036,-31.391751,0.117752,-0.043594,1.095383,0.043558,0.074091,0.053857,75.429871,4.74556,-147.916443,,,
729860510.167715,-0.448927,-7.683036,-31.391751,0.117752,-0.043594,1.095383,0.043558,0.074091,0.053857,75.429871,4.74556,-147.916443,,,
729860510.171103,-0.430983,-7.664199,-31.372103,0.117752,-0.043594,1.095383,0.043558,0.074091,0.053857,75.429871,4.74556,-147.916443,,,
729860510.17436,-0.403892,-7.647456,-31.351216,0.126312,-0.031754,1.081619,0.113318,0.058966,0.060799,75.429871,4.74556,-147.916443,,,
729860510.177697,-0.403892,-7.647456,-31.351216,0.126312,-0.031754,1.081619,0.113318,0.058966,0.060799,75.429871,4.74556,-147.916443,,,
729860510.181057,-0.371272,-7.633852,-31.332084,0.126312,-0.031754,1.081619,0.113318,0.058966,0.060799,75.429871,4.74556,-147.916443,,,
729860510.184469,-0.338142,-7.624748,-31.318624,0.141876,-0.008453,1.045074,0.119877,0.030193,0.022418,75.429871,4.74556,-147.916443,,,
729860510.18771,-0.338142,-7.624748,-31.318624,0.141876,-0.008453,1.045074,0.119877,0.030193,0.022418,75.429871,4.74556,-147.916443,,,
729860510.19105,-0.308102,-7.622582,-31.313366,0.141876,-0.008453,1.045074,0.119877,0.030193,0.022418,75.40271,4.466537,-147.767395,,,
729860510.194367,-0.283728,-7.625792,-31.316301,0.153091,0.016251,0.987091,0.079861,-0.014382,-0.029049,75.40271,4.466537,-147.767395,,,
729860510.197775,-0.283728,-7.625792,-31.316301,0.153091,0.016251,0.987091,0.079861,-0.014382,-0.029049,75.40271,4.466537,-147.767395,,,
729860510.201042,-0.261402,-7.63575,-31.325999,0.153091,0.016251,0.987091,0.079861,-0.014382,-0.029049,75.40271,4.466537,-147.767395,,,
729860510.204369,-0.241676,-7.645783,-31.340669,0.15329,0.019653,0.966415,0.061668,-0.034696,-0.065739,75.40271,4.466537,-147.767395,,,
729860510.20771,-0.241676,-7.645783,-31.340669,0.15329,0.019653,0.966415,0.061668,-0.034696,-0.065739,75.40271,4.466537,-147.767395,,,
729860510.211104,-0.220263,-7.658165,-31.358375,0.15329,0.019653,0.966415,0.061668,-0.034696,-0.065739,75.40271,4.466537,-147.767395,,,
729860510.214364,-0.198171,-7.666335,-31.375641,0.133423,0.002914,0.989243,0.071344,-0.023413,-0.070305,75.40271,4.466537,-147.767395,,,
729860510.217712,-0.198171,-7.666335,-31.375641,0.133423,0.002914,0.989243,0.071344,-0.023413,-0.070305,75.40271,4.466537,-147.767395,,,
729860510.221102,-0.172666,-7.673168,-31.389027,0.133423,0.002914,0.989243,0.071344,-0.023413,-0.070305,75.40271,4.466537,-147.767395,,,
729860510.224365,-0.144652,-7.675722,-31.396278,0.111603,-0.013321,1.018402,0.092769,-0.003472,-0.036009,75.40271,4.466537,-147.767395,,,
729860510.227697,-0.144652,-7.675722,-31.396278,0.111603,-0.013321,1.018402,0.092769,-0.003472,-0.036009,75.40271,4.466537,-147.767395,,,
729860510.231052,-0.116377,-7.67458,-31.396532,0.111603,-0.013321,1.018402,0.092769,-0.003472,-0.036009,75.682068,4.523895,-148.083527,,,
729860510.234367,-0.087454,-7.671152,-31.390112,0.098953,-0.024567,1.018616,0.102877,0.017368,0.013913,75.682068,4.523895,-148.083527,,,
729860510.237708,-0.087454,-7.671152,-31.390112,0.098953,-0.024567,1.018616,0.102877,0.017368,0.013913,75.682068,4.523895,-148.083527,,,
729860510.241047,-0.061859,-7.661497,-31.377633,0.098953,-0.024567,1.018616,0.102877,0.017368,0.013913,75.682068,4.523895,-148.083527,,,
729860510.244393,-0.036461,-7.648488,-31.360588,0.102066,-0.019043,1.005341,0.093054,0.052988,0.049382,75.682068,4.523895,-148.083527,,,
729860510.247763,-0.036461,-7.648488,-31.360588,0.102066,-0.019043,1.005341,0.093054,0.052988,0.049382,75.682068,4.523895,-148.083527,,,
729860510.251043,-0.015835,-7.629333,-31.340923,0.102066,-0.019043,1.005341,0.093054,0.052988,0.049382,75.682068,4.523895,-148.083527,,,
729860510.254371,0.00308,-7.608776,-31.32067,0.108139,-0.006973,0.988815,0.070638,0.074851,0.061401,75.682068,4.523895,-148.083527,,,
729860510.257751,0.00308,-7.608776,-31.32067,0.108139,-0.006973,0.988815,0.070638,0.074851,0.061401,75.682068,4.523895,-148.083527,,,
729860510.261052,0.01724,-7.587863,-31.302145,0.108139,-0.006973,0.988815,0.070638,0.074851,0.061401,75.682068,4.523895,-148.083527,,,
729860510.264363,0.028786,-7.569613,-31.287294,0.12439,0.005646,0.959869,0.04508,0.062246,0.043134,75.682068,4.523895,-148.083527,,,
729860510.267731,0.028786,-7.569613,-31.287294,0.12439,0.005646,0.959869,0.04508,0.062246,0.043134,75.682068,4.523895,-148.083527,,,
729860510.271036,0.03895,-7.556118,-31.276605,0.12439,0.005646,0.959869,0.04508,0.062246,0.043134,75.627777,4.450378,-147.832184,,,
729860510.274369,0.049231,-7.546604,-31.270427,0.134018,0.01033,0.954346,0.037971,0.031035,0.009115,75.627777,4.450378,-147.832184,,,
729860510.277701,0.049231,-7.546604,-31.270427,0.134018,0.01033,0.954346,0.037971,0.031035,0.009115,75.627777,4.450378,-147.832184,,,
729860510.281062,0.062337,-7.544263,-31.269408,0.134018,0.01033,0.954346,0.037971,0.031035,0.009115,75.627777,4.450378,-147.832184,,,
729860510.284367,0.076523,-7.546844,-31.272627,0.133133,0.008682,0.96521,0.048909,-0.011304,-0.024762,75.627777,4.450378,-147.832184,,,
729860510.287704,0.076523,-7.546844,-31.272627,0.133133,0.008682,0.96521,0.048909,-0.011304,-0.024762,75.627777,4.450378,-147.832184,,,
729860510.291085,0.092174,-7.556219,-31.278391,0.133133,0.008682,0.96521,0.048909,-0.011304,-0.024762,75.627777,4.450378,-147.832184,,,
729860510.294396,0.108073,-7.569263,-31.2849,0.126617,0.002472,0.974136,0.052046,-0.046081,-0.032834,75.627777,4.450378,-147.832184,,,
729860510.297795,0.108073,-7.569263,-31.2849,0.126617,0.002472,0.974136,0.052046,-0.046081,-0.032834,75.627777,4.450378,-147.832184,,,
729860510.301041,0.123758,-7.585179,-31.290368,0.126617,0.002472,0.974136,0.052046,-0.046081,-0.032834,75.627777,4.450378,-147.832184,,,
729860510.304369,0.13924,-7.603623,-31.293344,0.116089,-0.004303,0.981018,0.048412,-0.062095,-0.018097,75.627777,4.450378,-147.832184,,,
729860510.307714,0.13924,-7.603623,-31.293344,0.116089,-0.004303,0.981018,0.048412,-0.062095,-0.018097,75.627777,4.450378,-147.832184,,,
729860510.311039,0.152173,-7.619297,-31.292914,0.116089,-0.004303,0.981018,0.048412,-0.062095,-0.018097,75.472717,4.312515,-148.100876,,,
