Time (sec),Pitch (deg),Roll (deg),Yaw(deg),X-Acceleration (g),Y-Acceleration (g),Z-Acceleration (g),Pitch Rate (deg/sec),Roll Rate (deg/sec),Yaw Rate (deg/sec),Magnetic Field in X direction (uT),Magnetic Field in Y direction (uT),Magnetic Field in Z Direction (uT),Latitude (deg),Longitude (deg),Altitude (m)
729860535.834887,-1.884078,-4.127188,-25.939863,0.064987,-0.039352,1.014114,-0.037915,0.083985,0.019774,76.872574,5.632065,-147.888885,,,
729860535.838153,-1.893614,-4.10662,-25.934598,0.064987,-0.039352,1.014114,-0.037915,0.083985,0.019774,76.890442,5.559647,-147.967773,,,
729860535.841579,-1.901261,-4.08716,-25.93081,0.067245,-0.034698,1.012268,-0.023218,0.070087,0.011928,76.890442,5.559647,-147.967773,,,
729860535.844929,-1.905149,-4.074201,-25.928883,0.067245,-0.034698,1.012268,-0.023218,0.070087,0.011928,76.890442,5.559647,-147.967773,,,
729860535.848227,-1.905149,-4.074201,-25.928883,0.067245,-0.034698,1.012268,-0.023218,0.070087,0.011928,76.890442,5.559647,-147.967773,,,
729860535.8515,-1.906268,-4.065154,-25.928837,0.071198,-0.033615,1.007843,0.000547,0.028361,-0.002503,76.890442,5.559647,-147.967773,,,
729860535.854836,-1.906268,-4.065154,-25.928837,0.071198,-0.033615,1.007843,0.000547,0.028361,-0.002503,76.890442,5.559647,-147.967773,,,
729860535.858165,-1.904391,-4.064581,-25.931291,0.071198,-0.033615,1.007843,0.000547,0.028361,-0.002503,76.890442,5.559647,-147.967773,,,
729860535.861552,-1.900863,-4.067013,-25.935649,0.071854,-0.032364,1.00177,0.013159,-0.010343,-0.017648,76.890442,5.559647,-147.967773,,,
729860535.864831,-1.900863,-4.067013,-25.935649,0.071854,-0.032364,1.00177,0.013159,-0.010343,-0.017648,76.890442,5.559647,-147.967773,,,
729860535.868156,-1.894501,-4.07719,-25.941401,0.071854,-0.032364,1.00177,0.013159,-0.010343,-0.017648,76.890442,5.559647,-147.967773,,,
729860535.871498,-1.887036,-4.087776,-25.947574,0.068253,-0.0336,0.995941,0.02707,-0.036364,-0.024172,76.890442,5.559647,-147.967773,,,
729860535.874826,-1.887036,-4.087776,-25.947574,0.068253,-0.0336,0.995941,0.02707,-0.036364,-0.024172,76.890442,5.559647,-147.967773,,,
729860535.878257,-1.877686,-4.102535,-25.953416,0.068253,-0.0336,0.995941,0.02707,-0.036364,-0.024172,76.890442,5.559647,-147.967773,,,
729860535.881502,-1.867727,-4.11603,-25.958139,0.063629,-0.036255,0.996033,0.033681,-0.045241,-0.018289,76.794922,5.46254,-148.279999,,,
729860535.884836,-1.867727,-4.11603,-25.958139,0.063629,-0.036255,0.996033,0.033681,-0.045241,-0.018289,76.794922,5.46254,-148.279999,,,
729860535.888225,-1.857545,-4.129007,-25.961663,0.063629,-0.036255,0.996033,0.033681,-0.045241,-0.018289,76.794922,5.46254,-148.279999,,,
729860535.891492,-1.846776,-4.138972,-25.964684,0.066116,-0.037369,0.997208,0.036612,-0.027596,-0.013085,76.794922,5.46254,-148.279999,,,
729860535.894905,-1.846776,-4.138972,-25.964684,0.066116,-0.037369,0.997208,0.036612,-0.027596,-0.013085,76.794922,5.46254,-148.279999,,,
729860535.898181,-1.838072,-4.143374,-25.96722,0.066116,-0.037369,0.997208,0.036612,-0.027596,-0.013085,76.794922,5.46254,-148.279999,,,
729860535.901561,-1.829399,-4.143739,-25.969258,0.068985,-0.037704,1.001175,0.030509,0.006127,-0.010022,76.794922,5.46254,-148.279999,,,
729860535.904848,-1.829399,-4.143739,-25.969258,0.068985,-0.037704,1.001175,0.030509,0.006127,-0.010022,76.794922,5.46254,-148.279999,,,
729860535.908185,-1.824177,-4.13671,-25.970773,0.068985,-0.037704,1.001175,0.030509,0.006127,-0.010022,76.794922,5.46254,-148.279999,,,
729860535.911525,-1.820792,-4.125732,-25.971348,0.069656,-0.035217,0.997772,0.009815,0.047553,-0.003623,76.794922,5.46254,-148.279999,,,
729860535.914904,-1.820792,-4.125732,-25.971348,0.069656,-0.035217,0.997772,0.009815,0.047553,-0.003623,76.794922,5.46254,-148.279999,,,
729860535.918163,-1.821436,-4.107615,-25.970393,0.069656,-0.035217,0.997772,0.009815,0.047553,-0.003623,76.794922,5.46254,-148.279999,,,
729860535.921521,-1.824157,-4.088661,-25.968234,0.06604,-0.034042,0.990112,-0.011526,0.070623,0.008268,76.914383,5.559402,-148.011856,,,
729860535.924824,-1.824157,-4.088661,-25.968234,0.06604,-0.034042,0.990112,-0.011526,0.070623,0.008268,76.914383,5.559402,-148.011856,,,
729860535.928312,-1.828431,-4.069066,-25.964936,0.06604,-0.034042,0.990112,-0.011526,0.070623,0.008268,76.914383,5.559402,-148.011856,,,
729860535.931336,-1.833391,-4.050232,-25.960267,0.059982,-0.036774,0.982712,-0.015726,0.067116,0.018492,76.914383,5.559402,-148.011856,,,
729860535.934864,-1.833391,-4.050232,-25.960267,0.059982,-0.036774,0.982712,-0.015726,0.067116,0.018492,76.914383,5.559402,-148.011856,,,
729860535.938182,-1.839469,-4.033165,-25.954756,0.059982,-0.036774,0.982712,-0.015726,0.067116,0.018492,76.914383,5.559402,-148.011856,,,
729860535.941501,-1.846049,-4.019771,-25.949085,0.056625,-0.035385,0.978027,-0.021377,0.044836,0.018857,76.914383,5.559402,-148.011856,,,
729860535.944901,-1.846049,-4.019771,-25.949085,0.056625,-0.035385,0.978027,-0.021377,0.044836,0.018857,76.914383,5.559402,-148.011856,,,
729860535.948165,-1.85241,-4.012268,-25.943749,0.056625,-0.035385,0.978027,-0.021377,0.044836,0.018857,76.914383,5.559402,-148.011856,,,
729860535.951503,-1.857558,-4.011361,-25.938911,0.058884,-0.035477,0.971573,-0.016253,-0.001174,0.016616,76.914383,5.559402,-148.011856,,,
729860535.954906,-1.857558,-4.011361,-25.938911,0.058884,-0.035477,0.971573,-0.016253,-0.001174,0.016616,76.914383,5.559402,-148.011856,,,
729860535.958206,-1.861203,-4.01537,-25.935352,0.058884,-0.035477,0.971573,-0.016253,-0.001174,0.016616,76.914383,5.559402,-148.011856,,,
729860535.961542,-1.860726,-4.026281,-25.93377,0.064545,-0.036255,0.976013,0.004381,-0.039911,0.001814,76.929916,5.690674,-148.152405,,,
729860535.964838,-1.860726,-4.026281,-25.93377,0.064545,-0.036255,0.976013,0.004381,-0.039911,0.001814,76.929916,5.690674,-148.152405,,,
729860535.968264,-1.857398,-4.039419,-25.934616,0.064545,-0.036255,0.976013,0.004381,-0.039911,0.001814,76.929916,5.690674,-148.152405,,,
729860535.971492,-1.850542,-4.05597,-25.937939,0.070847,-0.034805,0.990341,0.026058,-0.056574,-0.016398,76.929916,5.690674,-148.152405,,,
729860535.974896,-1.850542,-4.05597,-25.937939,0.070847,-0.034805,0.990341,0.026058,-0.056574,-0.016398,76.929916,5.690674,-148.152405,,,
729860535.978219,-1.842559,-4.072541,-25.942242,0.070847,-0.034805,0.990341,0.026058,-0.056574,-0.016398,76.929916,5.690674,-148.152405,,,
729860535.981495,-1.831899,-4.088843,-25.946825,0.074295,-0.035675,0.997696,0.036711,-0.054413,-0.021932,76.929916,5.690674,-148.152405,,,
729860535.984869,-1.831899,-4.088843,-25.946825,0.074295,-0.035675,0.997696,0.036711,-0.054413,-0.021932,76.929916,5.690674,-148.152405,,,
729860535.98817,-1.821322,-4.102637,-25.950883,0.074295,-0.035675,0.997696,0.036711,-0.054413,-0.021932,76.929916,5.690674,-148.152405,,,
729860535.9915,-1.810711,-4.113054,-25.953433,0.070221,-0.037613,0.994919,0.034866,-0.030227,-0.008755,76.929916,5.690674,-148.152405,,,
729860535.99492,-1.810711,-4.113054,-25.953433,0.070221,-0.037613,0.994919,0.034866,-0.030227,-0.008755,76.929916,5.690674,-148.152405,,,
729860535.998162,-1.802916,-4.117835,-25.953906,0.070221,-0.037613,0.994919,0.034866,-0.030227,-0.008755,76.929916,5.690674,-148.152405,,,
729860536.001529,-1.797773,-4.117339,-25.952271,0.065277,-0.03685,0.993469,0.017463,0.01104,0.005401,76.89679,5.431961,-148.482864,,,
729860536.004948,-1.797773,-4.117339,-25.952271,0.065277,-0.03685,0.993469,0.017463,0.01104,0.005401,76.89679,5.431961,-148.482864,,,
729860536.008242,-1.797316,-4.108825,-25.948527,0.065277,-0.03685,0.993469,0.017463,0.01104,0.005401,76.89679,5.431961,-148.482864,,,
729860536.011545,-1.800997,-4.098654,-25.943056,0.065186,-0.034958,0.984711,-0.016969,0.041453,0.020748,76.89679,5.431961,-148.482864,,,
729860536.014838,-1.800997,-4.098654,-25.943056,0.065186,-0.034958,0.984711,-0.016969,0.041453,0.020748,76.89679,5.431961,-148.482864,,,
729860536.018259,-1.810194,-4.08329,-25.936177,0.065186,-0.034958,0.984711,-0.016969,0.041453,0.020748,76.89679,5.431961,-148.482864,,,
729860536.021526,-1.822367,-4.070652,-25.928761,0.065536,-0.031921,0.968048,-0.044919,0.046959,0.027657,76.89679,5.431961,-148.482864,,,
729860536.024825,-1.822367,-4.070652,-25.928761,0.065536,-0.031921,0.968048,-0.044919,0.046959,0.027657,76.89679,5.431961,-148.482864,,,
729860536.02823,-1.839344,-4.056885,-25.921756,0.065536,-0.031921,0.968048,-0.044919,0.046959,0.027657,76.89679,5.431961,-148.482864,,,
729860536.031492,-1.858168,-4.04944,-25.916362,0.070251,-0.028564,0.957703,-0.064499,0.02603,0.021405,76.89679,5.431961,-148.482864,,,
729860536.034847,-1.858168,-4.04944,-25.916362,0.070251,-0.028564,0.957703,-0.064499,0.02603,0.021405,76.89679,5.431961,-148.482864,,,
729860536.038184,-1.879511,-4.044799,-25.91307,0.070251,-0.028564,0.957703,-0.064499,0.02603,0.021405,76.89679,5.431961,-148.482864,,,
729860536.041498,-1.901939,-4.046006,-25.911753,0.074188,-0.027954,0.9599,-0.078826,-0.005517,0.007067,76.89679,5.431961,-148.482864,,,
729860536.04492,-1.901939,-4.046006,-25.911753,0.074188,-0.027954,0.9599,-0.078826,-0.005517,0.007067,77.125641,5.693344,-148.313141,,,
729860536.048202,-1.92528,-4.051691,-25.912856,0.074188,-0.027954,0.9599,-0.078826,-0.005517,0.007067,77.125641,5.693344,-148.313141,,,
729860536.051501,-1.947046,-4.061991,-25.916308,0.078232,-0.031708,0.970993,-0.075176,-0.037961,-0.008872,77.125641,5.693344,-148.313141,,,
729860536.05493,-1.947046,-4.061991,-25.916308,0.078232,-0.031708,0.970993,-0.075176,-0.037961,-0.008872,77.125641,5.693344,-148.313141,,,
729860536.05824,-1.966035,-4.075451,-25.920844,0.078232,-0.031708,0.970993,-0.075176,-0.037961,-0.008872,77.125641,5.693344,-148.313141,,,
729860536.06157,-1.980398,-4.089463,-25.925962,0.080093,-0.037048,0.997375,-0.046591,-0.044956,-0.017283,77.125641,5.693344,-148.313141,,,
729860536.064848,-1.980398,-4.089463,-25.925962,0.080093,-0.037048,0.997375,-0.046591,-0.044956,-0.017283,77.125641,5.693344,-148.313141,,,
729860536.068249,-1.989844,-4.103129,-25.931084,0.080093,-0.037048,0.997375,-0.046591,-0.044956,-0.017283,77.125641,5.693344,-148.313141,,,
729860536.071514,-1.99532,-4.113778,-25.935517,0.079361,-0.045837,1.022675,-0.015785,-0.030576,-0.015856,77.125641,5.693344,-148.313141,,,
729860536.074833,-1.99532,-4.113778,-25.935517,0.079361,-0.045837,1.022675,-0.015785,-0.030576,-0.015856,77.125641,5.693344,-148.313141,,,
729860536.078224,-1.998067,-4.119568,-25.938364,0.079361,-0.045837,1.022675,-0.015785,-0.030576,-0.015856,77.125641,5.693344,-148.313141,,,
729860536.081496,-1.998167,-4.122218,-25.939182,0.073654,-0.048553,1.030853,0.002329,-0.002153,-0.004624,77.125641,5.693344,-148.313141,,,
729860536.084831,-1.998167,-4.122218,-25.939182,0.073654,-0.048553,1.030853,0.002329,-0.002153,-0.004624,77.01413,5.512039,-148.2621,,,
729860536.088185,-1.997668,-4.118803,-25.938488,0.073654,-0.048553,1.030853,0.002329,-0.002153,-0.004624,77.01413,5.512039,-148.2621,,,
729860536.091502,-1.998063,-4.112391,-25.936822,0.073212,-0.045929,1.023941,-0.001006,0.027862,0.008724,77.01413,5.512039,-148.2621,,,
729860536.094964,-1.998063,-4.112391,-25.936822,0.073212,-0.045929,1.023941,-0.001006,0.027862,0.008724,77.01413,5.512039,-148.2621,,,
729860536.098178,-2.000791,-4.101041,-25.934459,0.073212,-0.045929,1.023941,-0.001006,0.027862,0.008724,77.01413,5.512039,-148.2621,,,
729860536.101504,-2.006413,-4.088481,-25.932496,0.076721,-0.040924,1.008743,-0.021928,0.049144,0.007936,77.01413,5.512039,-148.2621,,,
729860536.104849,-2.006413,-4.088481,-25.932496,0.076721,-0.040924,1.008743,-0.021928,0.049144,0.007936,77.01413,5.512039,-148.2621,,,
729860536.108172,-2.013418,-4.075085,-25.932158,0.076721,-0.040924,1.008743,-0.021928,0.049144,0.007936,77.01413,5.512039,-148.2621,,,
729860536.111546,-2.022071,-4.062614,-25.934104,0.078079,-0.034668,0.99617,-0.031498,0.046375,-0.005367,77.01413,5.512039,-148.2621,,,
729860536.114843,-2.022071,-4.062614,-25.934104,0.078079,-0.034668,0.99617,-0.031498,0.046375,-0.005367,77.01413,5.512039,-148.2621,,,
729860536.118208,-2.030145,-4.054257,-25.937769,0.078079,-0.034668,0.99617,-0.031498,0.046375,-0.005367,77.01413,5.512039,-148.2621,,,
729860536.121503,-2.038954,-4.04884,-25.942646,0.074326,-0.033051,0.991043,-0.032512,0.021328,-0.016898,77.01413,5.512039,-148.2621,,,
729860536.124867,-2.038954,-4.04884,-25.942646,0.074326,-0.033051,0.991043,-0.032512,0.021328,-0.016898,77.101501,5.64621,-148.303055,,,
729860536.128214,-2.045339,-4.049857,-25.948502,0.074326,-0.033051,0.991043,-0.032512,0.021328,-0.016898,77.101501,5.64621,-148.303055,,,
729860536.131501,-2.050375,-4.053068,-25.953902,0.064621,-0.038956,0.996323,-0.015237,-0.011757,-0.016749,77.101501,5.64621,-148.303055,,,
729860536.134837,-2.050375,-4.053068,-25.953902,0.064621,-0.038956,0.996323,-0.015237,-0.011757,-0.016749,77.101501,5.64621,-148.303055,,,
729860536.138183,-2.052908,-4.062339,-25.958093,0.064621,-0.038956,0.996323,-0.015237,-0.011757,-0.016749,77.101501,5.64621,-148.303055,,,
729860536.141584,-2.051371,-4.072748,-25.960849,0.060425,-0.043106,1.006058,0.008275,-0.033791,-0.010206,77.101501,5.64621,-148.303055,,,
729860536.144903,-2.051371,-4.072748,-25.960849,0.060425,-0.043106,1.006058,0.008275,-0.033791,-0.010206,77.101501,5.64621,-148.303055,,,
729860536.14817,-2.04654,-4.087225,-25.961712,0.060425,-0.043106,1.006058,0.008275,-0.033791,-0.010206,77.101501,5.64621,-148.303055,,,
729860536.151504,-2.037835,-4.101285,-25.961171,0.060593,-0.048477,1.012695,0.033156,-0.046736,-0.001215,77.101501,5.64621,-148.303055,,,
729860536.154859,-2.037835,-4.101285,-25.961171,0.060593,-0.048477,1.012695,0.033156,-0.046736,-0.001215,77.101501,5.64621,-148.303055,,,
729860536.158164,-2.028601,-4.116466,-25.960325,0.060593,-0.048477,1.012695,0.033156,-0.046736,-0.001215,77.101501,5.64621,-148.303055,,,
729860536.161548,-2.016025,-4.13235,-25.959169,0.064774,-0.044342,1.010422,0.045201,-0.053321,0.001396,77.101501,5.64621,-148.303055,,,
729860536.164829,-2.016025,-4.13235,-25.959169,0.064774,-0.044342,1.010422,0.045201,-0.053321,0.001396,76.725647,5.813293,-148.292984,,,
729860536.168189,-2.004724,-4.148406,-25.958089,0.064774,-0.044342,1.010422,0.045201,-0.053321,0.001396,76.725647,5.813293,-148.292984,,,
729860536.171498,-1.992825,-4.164796,-25.957934,0.070602,-0.037521,0.996582,0.043382,-0.053746,-0.006242,76.725647,5.813293,-148.292984,,,
729860536.174832,-1.992825,-4.164796,-25.957934,0.070602,-0.037521,0.996582,0.043382,-0.053746,-0.006242,76.725647,5.813293,-148.292984,,,
729860536.178275,-1.983342,-4.181046,-25.959489,0.070602,-0.037521,0.996582,0.043382,-0.053746,-0.006242,76.725647,5.813293,-148.292984,,,
729860536.181495,-1.973896,-4.196268,-25.963058,0.075684,-0.031158,0.983398,0.02962,-0.048519,-0.018904,76.725647,5.813293,-148.292984,,,
729860536.18494,-1.973896,-4.196268,-25.963058,0.075684,-0.031158,0.983398,0.02962,-0.048519,-0.018904,76.725647,5.813293,-148.292984,,,
729860536.18819,-1.966729,-4.211247,-25.969318,0.075684,-0.031158,0.983398,0.02962,-0.048519,-0.018904,76.725647,5.813293,-148.292984,,,
729860536.191505,-1.961527,-4.223061,-25.977668,0.081009,-0.025085,0.977203,0.016252,-0.034827,-0.032374,76.725647,5.813293,-148.292984,,,
729860536.194896,-1.961527,-4.223061,-25.977668,0.081009,-0.025085,0.977203,0.016252,-0.034827,-0.032374,76.725647,5.813293,-148.292984,,,
729860536.198238,-1.958665,-4.232831,-25.986854,0.081009,-0.025085,0.977203,0.016252,-0.034827,-0.032374,76.725647,5.813293,-148.292984,,,
729860536.201494,-1.958645,-4.238929,-25.996063,0.075439,-0.027588,0.979233,-0.002695,-0.012505,-0.033861,76.725647,5.813293,-148.292984,,,
729860536.204874,-1.958645,-4.238929,-25.996063,0.075439,-0.027588,0.979233,-0.002695,-0.012505,-0.033861,76.725647,5.813293,-148.292984,,,
729860536.208186,-1.961872,-4.240235,-26.004724,0.075439,-0.027588,0.979233,-0.002695,-0.012505,-0.033861,76.907211,5.806,-148.435898,,,
729860536.211558,-1.96788,-4.238209,-26.011766,0.06842,-0.032104,0.980927,-0.023344,0.014522,-0.02071,76.907211,5.806,-148.435898,,,
729860536.21484,-1.96788,-4.238209,-26.011766,0.06842,-0.032104,0.980927,-0.023344,0.014522,-0.02071,76.907211,5.806,-148.435898,,,
729860536.21817,-1.978599,-4.228703,-26.015517,0.06842,-0.032104,0.980927,-0.023344,0.014522,-0.02071,76.907211,5.806,-148.435898,,,
729860536.221506,-1.990832,-4.218395,-26.016295,0.059677,-0.038193,0.983032,-0.044611,0.040857,0.003968,76.907211,5.806,-148.435898,,,
729860536.224834,-1.990832,-4.218395,-26.016295,0.059677,-0.038193,0.983032,-0.044611,0.040857,0.003968,76.907211,5.806,-148.435898,,,
729860536.228252,-2.008054,-4.201736,-26.013551,0.059677,-0.038193,0.983032,-0.044611,0.040857,0.003968,76.907211,5.806,-148.435898,,,
729860536.231501,-2.025747,-4.186698,-26.007166,0.055115,-0.040161,0.985809,-0.061088,0.055371,0.028165,76.907211,5.806,-148.435898,,,
729860536.234848,-2.025747,-4.186698,-26.007166,0.055115,-0.040161,0.985809,-0.061088,0.055371,0.028165,76.907211,5.806,-148.435898,,,
729860536.238238,-2.04701,-4.168538,-25.997734,0.055115,-0.040161,0.985809,-0.061088,0.055371,0.028165,76.907211,5.806,-148.435898,,,
729860536.241558,-2.066677,-4.155156,-25.986679,0.05394,-0.038788,0.986267,-0.066126,0.044657,0.043536,76.907211,5.806,-148.435898,,,
729860536.244695,-2.066677,-4.155156,-25.986679,0.05394,-0.038788,0.986267,-0.066126,0.044657,0.043536,76.907211,5.806,-148.435898,,,
729860536.248208,-2.086066,-4.144686,-25.975612,0.05394,-0.038788,0.986267,-0.066126,0.044657,0.043536,77.174057,5.633606,-148.203659,,,
729860536.251499,-2.102629,-4.140076,-25.966388,0.063721,-0.036072,0.984512,-0.054086,0.014377,0.03289,77.174057,5.633606,-148.203659,,,
729860536.25486,-2.102629,-4.140076,-25.966388,0.063721,-0.036072,0.984512,-0.054086,0.014377,0.03289,77.174057,5.633606,-148.203659,,,
729860536.258164,-2.115075,-4.141627,-25.960478,0.063721,-0.036072,0.984512,-0.054086,0.014377,0.03289,77.174057,5.633606,-148.203659,,,
729860536.261542,-2.123283,-4.147755,-25.958567,0.076645,-0.032074,0.995575,-0.025216,-0.022882,0.003846,77.174057,5.633606,-148.203659,,,
729860536.264946,-2.123283,-4.147755,-25.958567,0.076645,-0.032074,0.995575,-0.025216,-0.022882,0.003846,77.174057,5.633606,-148.203659,,,
729860536.2682,-2.124981,-4.160621,-25.960788,0.076645,-0.032074,0.995575,-0.025216,-0.022882,0.003846,77.174057,5.633606,-148.203659,,,
729860536.271589,-2.124664,-4.175068,-25.966064,0.08075,-0.030655,1.004913,0.002787,-0.048786,-0.021837,77.174057,5.633606,-148.203659,,,
729860536.274837,-2.124664,-4.175068,-25.966064,0.08075,-0.030655,1.004913,0.002787,-0.048786,-0.021837,77.174057,5.633606,-148.203659,,,
729860536.278247,-2.11974,-4.19429,-25.973739,0.08075,-0.030655,1.004913,0.002787,-0.048786,-0.021837,77.174057,5.633606,-148.203659,,,
729860536.281369,-2.115317,-4.212171,-25.982051,0.075333,-0.0354,1.002304,0.014075,-0.056802,-0.031815,77.174057,5.633606,-148.203659,,,
729860536.284866,-2.115317,-4.212171,-25.982051,0.075333,-0.0354,1.002304,0.014075,-0.056802,-0.031815,77.174057,5.633606,-148.203659,,,
729860536.288177,-2.110215,-4.227898,-25.989761,0.075333,-0.0354,1.002304,0.014075,-0.056802,-0.031815,76.919403,5.756439,-148.256424,,,
729860536.291535,-2.108539,-4.239534,-25.995969,0.073013,-0.038666,0.996262,0.005155,-0.033197,-0.019847,76.919403,5.756439,-148.256424,,,
729860536.294916,-2.108539,-4.239534,-25.995969,0.073013,-0.038666,0.996262,0.005155,-0.033197,-0.019847,76.919403,5.756439,-148.256424,,,
729860536.2982,-2.110278,-4.242747,-25.999333,0.073013,-0.038666,0.996262,0.005155,-0.033197,-0.019847,76.919403,5.756439,-148.256424,,,
729860536.301509,-2.11626,-4.241911,-25.999696,0.067337,-0.042679,0.991348,-0.023709,0.01405,0.000489,76.919403,5.756439,-148.256424,,,
729860536.304916,-2.11626,-4.241911,-25.999696,0.067337,-0.042679,0.991348,-0.023709,0.01405,0.000489,76.919403,5.756439,-148.256424,,,
729860536.308165,-2.12792,-4.231222,-25.996785,0.067337,-0.042679,0.991348,-0.023709,0.01405,0.000489,76.919403,5.756439,-148.256424,,,
729860536.311561,-2.143625,-4.220234,-25.990984,0.063766,-0.045685,0.98291,-0.060982,0.044991,0.02551,76.919403,5.756439,-148.256424,,,
729860536.314867,-2.143625,-4.220234,-25.990984,0.063766,-0.045685,0.98291,-0.060982,0.044991,0.02551,76.919403,5.756439,-148.256424,,,
729860536.318222,-2.163857,-4.201394,-25.982617,0.063766,-0.045685,0.98291,-0.060982,0.044991,0.02551,76.919403,5.756439,-148.256424,,,
729860536.321504,-2.185956,-4.185278,-25.973351,0.066376,-0.043869,0.98175,-0.076094,0.056621,0.038743,76.919403,5.756439,-148.256424,,,
729860536.324943,-2.185956,-4.185278,-25.973351,0.066376,-0.043869,0.98175,-0.076094,0.056621,0.038743,76.919403,5.756439,-148.256424,,,
729860536.328271,-2.20797,-4.165892,-25.963866,0.066376,-0.043869,0.98175,-0.076094,0.056621,0.038743,76.919403,5.756439,-148.256424,,,
729860536.3315,-2.228511,-4.151854,-25.954998,0.069656,-0.042679,0.990738,-0.067956,0.047852,0.032526,77.100891,5.805115,-148.428146,,,
729860536.334847,-2.228511,-4.151854,-25.954998,0.069656,-0.042679,0.990738,-0.067956,0.047852,0.032526,77.100891,5.805115,-148.428146,,,
729860536.338181,-2.246218,-4.141676,-25.947036,0.069656,-0.042679,0.990738,-0.067956,0.047852,0.032526,77.100891,5.805115,-148.428146,,,
729860536.341505,-2.261227,-4.136475,-25.940784,0.073975,-0.04158,1.000275,-0.047105,0.015814,0.021095,77.100891,5.805115,-148.428146,,,
729860536.34494,-2.261227,-4.136475,-25.940784,0.073975,-0.04158,1.000275,-0.047105,0.015814,0.021095,77.100891,5.805115,-148.428146,,,
729860536.348166,-2.270279,-4.138891,-25.936469,0.073975,-0.04158,1.000275,-0.047105,0.015814,0.021095,77.100891,5.805115,-148.428146,,,
729860536.351508,-2.276615,-4.144957,-25.933118,0.076752,-0.042786,1.002853,-0.016976,-0.023255,0.010521,77.100891,5.805115,-148.428146,,,
729860536.354846,-2.276615,-4.144957,-25.933118,0.076752,-0.042786,1.002853,-0.016976,-0.023255,0.010521,77.100891,5.805115,-148.428146,,,
729860536.358171,-2.277293,-4.157966,-25.930957,0.076752,-0.042786,1.002853,-0.016976,-0.023255,0.010521,77.100891,5.805115,-148.428146,,,
729860536.361558,-2.274416,-4.174738,-25.929814,0.078079,-0.047302,1.006805,0.015789,-0.060453,0.00128,77.100891,5.805115,-148.428146,,,
729860536.364859,-2.274416,-4.174738,-25.929814,0.078079,-0.047302,1.006805,0.015789,-0.060453,0.00128,77.100891,5.805115,-148.428146,,,
729860536.368194,-2.267255,-4.195566,-25.929659,0.078079,-0.047302,1.006805,0.015789,-0.060453,0.00128,77.100891,5.805115,-148.428146,,,
729860536.371502,-2.258281,-4.21875,-25.930156,0.081802,-0.047501,1.003769,0.032088,-0.079949,-0.005364,77.011719,5.847687,-148.508224,,,
729860536.374837,-2.258281,-4.21875,-25.930156,0.081802,-0.047501,1.003769,0.032088,-0.079949,-0.005364,77.011719,5.847687,-148.508224,,,
729860536.37822,-2.248917,-4.240606,-25.931619,0.081802,-0.047501,1.003769,0.032088,-0.079949,-0.005364,77.011719,5.847687,-148.508224,,,
729860536.381499,-2.240098,-4.260412,-25.934745,0.087341,-0.042587,0.999619,0.028743,-0.06609,-0.015874,77.011719,5.847687,-148.508224,,,
729860536.384843,-2.240098,-4.260412,-25.934745,0.087341,-0.042587,0.999619,0.028743,-0.06609,-0.015874,77.011719,5.847687,-148.508224,,,
729860536.388299,-2.234293,-4.274076,-25.938794,0.087341,-0.042587,0.999619,0.028743,-0.06609,-0.015874,77.011719,5.847687,-148.508224,,,
729860536.391494,-2.230823,-4.284906,-25.943953,0.08902,-0.037643,0.99324,0.007789,-0.029354,-0.019544,77.011719,5.847687,-148.508224,,,
729860536.394934,-2.230823,-4.284906,-25.943953,0.08902,-0.037643,0.99324,0.007789,-0.029354,-0.019544,77.011719,5.847687,-148.508224,,,
729860536.398179,-2.233416,-4.286668,-25.950072,0.08902,-0.037643,0.99324,0.007789,-0.029354,-0.019544,77.011719,5.847687,-148.508224,,,
729860536.401512,-2.238479,-4.282338,-25.955892,0.085052,-0.035553,0.991852,-0.021326,0.026247,-0.020952,77.011719,5.847687,-148.508224,,,
729860536.404864,-2.238479,-4.282338,-25.955892,0.085052,-0.035553,0.991852,-0.021326,0.026247,-0.020952,77.011719,5.847687,-148.508224,,,
729860536.40817,-2.246851,-4.270454,-25.960371,0.085052,-0.035553,0.991852,-0.021326,0.026247,-0.020952,77.011719,5.847687,-148.508224,,,
729860536.411549,-2.255905,-4.254507,-25.963435,0.080627,-0.040924,0.996704,-0.033143,0.062501,-0.007424,76.799759,5.784546,-148.117523,,,
729860536.414843,-2.255905,-4.254507,-25.963435,0.080627,-0.040924,0.996704,-0.033143,0.062501,-0.007424,76.799759,5.784546,-148.117523,,,
729860536.418183,-2.266011,-4.234328,-25.96454,0.080627,-0.040924,0.996704,-0.033143,0.062501,-0.007424,76.799759,5.784546,-148.117523,,,
729860536.421514,-2.277248,-4.212328,-25.963838,0.072739,-0.047546,1.000946,-0.039059,0.083008,0.005903,76.799759,5.784546,-148.117523,,,
729860536.424962,-2.277248,-4.212328,-25.963838,0.072739,-0.047546,1.000946,-0.039059,0.083008,0.005903,76.799759,5.784546,-148.117523,,,
729860536.428234,-2.289363,-4.189879,-25.961689,0.072739,-0.047546,1.000946,-0.039059,0.083008,0.005903,76.799759,5.784546,-148.117523,,,
729860536.431508,-2.301249,-4.168106,-25.958169,0.064468,-0.045044,1.003326,-0.040291,0.07701,0.015137,76.799759,5.784546,-148.117523,,,
729860536.434841,-2.301249,-4.168106,-25.958169,0.064468,-0.045044,1.003326,-0.040291,0.07701,0.015137,76.799759,5.784546,-148.117523,,,
729860536.438171,-2.31391,-4.15111,-25.95401,0.064468,-0.045044,1.003326,-0.040291,0.07701,0.015137,76.799759,5.784546,-148.117523,,,
729860536.441513,-2.324447,-4.138829,-25.950019,0.063217,-0.043823,0.99527,-0.033479,0.040105,0.013778,76.799759,5.784546,-148.117523,,,
729860536.444946,-2.324447,-4.138829,-25.950019,0.063217,-0.043823,0.99527,-0.033479,0.040105,0.013778,76.799759,5.784546,-148.117523,,,
729860536.448167,-2.334509,-4.134297,-25.947157,0.063217,-0.043823,0.99527,-0.033479,0.040105,0.013778,76.799759,5.784546,-148.117523,,,
729860536.451513,-2.341281,-4.134831,-25.945996,0.068634,-0.04184,0.986755,-0.018951,-0.00569,0.003639,76.971695,5.660706,-148.165833,,,
729860536.454856,-2.341281,-4.134831,-25.945996,0.068634,-0.04184,0.986755,-0.018951,-0.00569,0.003639,76.971695,5.660706,-148.165833,,,
729860536.458172,-2.347048,-4.144493,-25.946938,0.068634,-0.04184,0.986755,-0.018951,-0.00569,0.003639,76.971695,5.660706,-148.165833,,,
729860536.46155,-2.351536,-4.15627,-25.95038,0.069916,-0.037643,0.980667,-0.017544,-0.040013,-0.015117,76.971695,5.660706,-148.165833,,,
729860536.464857,-2.351536,-4.15627,-25.95038,0.069916,-0.037643,0.980667,-0.017544,-0.040013,-0.015117,76.971695,5.660706,-148.165833,,,
729860536.468171,-2.355752,-4.174914,-25.956607,0.069916,-0.037643,0.980667,-0.017544,-0.040013,-0.015117,76.971695,5.660706,-148.165833,,,
729860536.471513,-2.360751,-4.191219,-25.96478,0.0755,-0.033417,0.976791,-0.019369,-0.053709,-0.029792,76.971695,5.660706,-148.165833,,,
729860536.474839,-2.360751,-4.191219,-25.96478,0.0755,-0.033417,0.976791,-0.019369,-0.053709,-0.029792,76.971695,5.660706,-148.165833,,,
729860536.478218,-2.365262,-4.210049,-25.973911,0.0755,-0.033417,0.976791,-0.019369,-0.053709,-0.029792,76.971695,5.660706,-148.165833,,,
729860536.481501,-2.371168,-4.222316,-25.983441,0.076019,-0.035141,0.97673,-0.025109,-0.035994,-0.035779,76.971695,5.660706,-148.165833,,,
729860536.484935,-2.371168,-4.222316,-25.983441,0.076019,-0.035141,0.97673,-0.025109,-0.035994,-0.035779,76.971695,5.660706,-148.165833,,,
729860536.488181,-2.377115,-4.231883,-25.993568,0.076019,-0.035141,0.97673,-0.025109,-0.035994,-0.035779,76.971695,5.660706,-148.165833,,,
729860536.491514,-2.384241,-4.232907,-26.002955,0.072571,-0.037201,0.983932,-0.028448,0.006694,-0.032347,76.971695,5.660706,-148.165833,,,
729860536.494662,-2.384241,-4.232907,-26.002955,0.072571,-0.037201,0.983932,-0.028448,0.006694,-0.032347,77.040115,5.899139,-148.458542,,,
729860536.498279,-2.393766,-4.227243,-26.010531,0.072571,-0.037201,0.983932,-0.028448,0.006694,-0.032347,77.040115,5.899139,-148.458542,,,
729860536.5015,-2.393766,-4.213892,-26.014942,0.06311,-0.044724,0.993027,-0.04358,0.056265,-0.009732,77.040115,5.899139,-148.458542,,,
729860536.504869,-2.404849,-4.213892,-26.014942,0.06311,-0.044724,0.993027,-0.04358,0.056265,-0.009732,77.040115,5.899139,-148.458542,,,
729860536.508174,-2.419529,-4.193275,-26.015903,0.06311,-0.044724,0.993027,-0.04358,0.056265,-0.009732,77.040115,5.899139,-148.458542,,,
729860536.511568,-2.43582,-4.171714,-26.01329,0.056839,-0.047638,0.990112,-0.055278,0.078707,0.01653,77.040115,5.899139,-148.458542,,,
729860536.514866,-2.43582,-4.171714,-26.01329,0.056839,-0.047638,0.990112,-0.055278,0.078707,0.01653,77.040115,5.899139,-148.458542,,,
729860536.518186,-2.453807,-4.147999,-26.007212,0.056839,-0.047638,0.990112,-0.055278,0.078707,0.01653,77.040115,5.899139,-148.458542,,,
729860536.521508,-2.472935,-4.128984,-25.999453,0.057312,-0.050095,0.985168,-0.067564,0.067924,0.031809,77.040115,5.899139,-148.458542,,,
729860536.52485,-2.472935,-4.128984,-25.999453,0.057312,-0.050095,0.985168,-0.067564,0.067924,0.031809,77.040115,5.899139,-148.458542,,,
729860536.528224,-2.491998,-4.113453,-25.99106,0.057312,-0.050095,0.985168,-0.067564,0.067924,0.031809,77.040115,5.899139,-148.458542,,,
729860536.531502,-2.509564,-4.10675,-25.982983,0.061646,-0.046753,0.980026,-0.057222,0.017692,0.029504,77.040115,5.899139,-148.458542,,,
729860536.534855,-2.509564,-4.10675,-25.982983,0.061646,-0.046753,0.980026,-0.057222,0.017692,0.029504,76.98143,5.980652,-148.380051,,,
729860536.538234,-2.52528,-4.109082,-25.976616,0.061646,-0.046753,0.980026,-0.057222,0.017692,0.029504,76.98143,5.980652,-148.380051,,,
729860536.541605,-2.540742,-4.120076,-25.97295,0.070419,-0.040161,0.973282,-0.052773,-0.043561,0.012753,76.98143,5.980652,-148.380051,,,
729860536.544996,-2.540742,-4.120076,-25.97295,0.070419,-0.040161,0.973282,-0.052773,-0.043561,0.012753,76.98143,5.980652,-148.380051,,,
729860536.548234,-2.554068,-4.139443,-25.972396,0.070419,-0.040161,0.973282,-0.052773,-0.043561,0.012753,76.98143,5.980652,-148.380051,,,
729860536.55151,-2.569671,-4.163654,-25.974959,0.081284,-0.033524,0.970123,-0.056413,-0.083349,-0.00965,76.98143,5.980652,-148.380051,,,
729860536.55485,-2.569671,-4.163654,-25.974959,0.081284,-0.033524,0.970123,-0.056413,-0.083349,-0.00965,76.98143,5.980652,-148.380051,,,
729860536.558177,-2.584607,-4.190658,-25.980351,0.081284,-0.033524,0.970123,-0.056413,-0.083349,-0.00965,76.98143,5.980652,-148.380051,,,
729860536.561553,-2.601726,-4.215036,-25.987495,0.082474,-0.033218,0.976257,-0.05998,-0.07893,-0.022569,76.98143,5.980652,-148.380051,,,
729860536.564889,-2.601726,-4.215036,-25.987495,0.082474,-0.033218,0.976257,-0.05998,-0.07893,-0.022569,76.98143,5.980652,-148.380051,,,
729860536.56818,-2.617824,-4.235327,-25.994724,0.082474,-0.033218,0.976257,-0.05998,-0.07893,-0.022569,76.98143,5.980652,-148.380051,,,
729860536.571535,-2.635439,-4.248653,-26.000534,0.081467,-0.042084,0.991852,-0.061122,-0.036372,-0.013685,76.98143,5.980652,-148.380051,,,
729860536.57485,-2.635439,-4.248653,-26.000534,0.081467,-0.042084,0.991852,-0.061122,-0.036372,-0.013685,76.973953,5.952087,-148.35762,,,
729860536.578216,-2.65245,-4.253452,-26.003606,0.081467,-0.042084,0.991852,-0.061122,-0.036372,-0.013685,76.973953,5.952087,-148.35762,,,
729860536.581599,-2.670241,-4.252087,-26.003953,0.079056,-0.051926,1.003525,-0.06001,0.015523,0.003307,76.973953,5.952087,-148.35762,,,
729860536.584863,-2.670241,-4.252087,-26.003953,0.079056,-0.051926,1.003525,-0.06001,0.015523,0.003307,76.973953,5.952087,-148.35762,,,
729860536.588255,-2.689256,-4.239449,-26.001713,0.079056,-0.051926,1.003525,-0.06001,0.015523,0.003307,76.973953,5.952087,-148.35762,,,
729860536.591556,-2.689256,-4.222603,-25.99771,0.077988,-0.05481,1.005524,-0.066688,0.067267,0.020869,76.973953,5.952087,-148.35762,,,
729860536.594917,-2.70916,-4.222603,-25.99771,0.077988,-0.05481,1.005524,-0.066688,0.067267,0.020869,76.973953,5.952087,-148.35762,,,
729860536.598173,-2.730303,-4.196636,-25.992131,0.077988,-0.05481,1.005524,-0.066688,0.067267,0.020869,76.973953,5.952087,-148.35762,,,
729860536.601549,-2.751948,-4.171224,-25.986593,0.081787,-0.052429,1.006287,-0.071103,0.094103,0.022342,76.973953,5.952087,-148.35762,,,
729860536.604864,-2.751948,-4.171224,-25.986593,0.081787,-0.052429,1.006287,-0.071103,0.094103,0.022342,76.973953,5.952087,-148.35762,,,
729860536.608172,-2.773381,-4.141388,-25.9826,0.081787,-0.052429,1.006287,-0.071103,0.094103,0.022342,76.973953,5.952087,-148.35762,,,
729860536.611549,-2.793386,-4.116094,-25.980641,0.086411,-0.048447,1.003479,-0.069679,0.090081,0.008196,76.973953,5.952087,-148.35762,,,
729860536.614849,-2.793386,-4.116094,-25.980641,0.086411,-0.048447,1.003479,-0.069679,0.090081,0.008196,77.045288,6.509933,-148.073837,,,
729860536.61818,-2.811379,-4.093159,-25.981236,0.086411,-0.048447,1.003479,-0.069679,0.090081,0.008196,77.045288,6.509933,-148.073837,,,
729860536.621536,-2.811379,-4.093159,-25.981236,0.083862,-0.046219,1.004105,-0.055026,0.064961,-0.011476,77.045288,6.509933,-148.073837,,,
729860536.624855,-2.827826,-4.074509,-25.984762,0.083862,-0.046219,1.004105,-0.055026,0.064961,-0.011476,77.045288,6.509933,-148.073837,,,
729860536.628268,-2.839898,-4.06284,-25.990294,0.083862,-0.046219,1.004105,-0.055026,0.064961,-0.011476,77.045288,6.509933,-148.073837,,,
729860536.631559,-2.839898,-4.06284,-25.990294,0.083862,-0.046219,1.004105,-0.055026,0.064961,-0.011476,77.045288,6.509933,-148.073837,,,
729860536.634841,-2.852371,-4.055042,-25.996758,0.076599,-0.044144,1.00058,-0.042225,0.025642,-0.022879,77.045288,6.509933,-148.073837,,,
729860536.638185,-2.859797,-4.055975,-26.004384,0.076599,-0.044144,1.00058,-0.042225,0.025642,-0.022879,77.045288,6.509933,-148.073837,,,
729860536.641475,-2.859797,-4.055975,-26.004384,0.076599,-0.044144,1.00058,-0.042225,0.025642,-0.022879,77.045288,6.509933,-148.073837,,,
729860536.644946,-2.868028,-4.057204,-26.012305,0.069427,-0.050613,0.998993,-0.030678,-0.003375,-0.026802,77.045288,6.509933,-148.073837,,,
729860536.648175,-2.872322,-4.063519,-26.019784,0.069427,-0.050613,0.998993,-0.030678,-0.003375,-0.026802,77.045288,6.509933,-148.073837,,,
729860536.651564,-2.872322,-4.063519,-26.019784,0.069427,-0.050613,0.998993,-0.030678,-0.003375,-0.026802,77.045288,6.509933,-148.073837,,,
729860536.654888,-2.876979,-4.067482,-26.026393,0.065582,-0.053848,1.004333,-0.016885,-0.009559,-0.022497,77.045288,6.509933,-148.073837,,,
729860536.658179,-2.88044,-4.071761,-26.03221,0.065582,-0.053848,1.004333,-0.016885,-0.009559,-0.022497,76.974716,6.46405,-148.454254,,,
729860536.661571,-2.88044,-4.071761,-26.03221,0.065582,-0.053848,1.004333,-0.016885,-0.009559,-0.022497,76.974716,6.46405,-148.454254,,,
729860536.664853,-2.883747,-4.071622,-26.036879,0.062485,-0.052841,1.010468,-0.011796,0.007274,-0.015034,76.974716,6.46405,-148.454254,,,
729860536.668176,-2.887392,-4.069992,-26.040113,0.062485,-0.052841,1.010468,-0.011796,0.007274,-0.015034,76.974716,6.46405,-148.454254,,,
729860536.671577,-2.887392,-4.069992,-26.040113,0.062485,-0.052841,1.010468,-0.011796,0.007274,-0.015034,76.974716,6.46405,-148.454254,,,
729860536.674923,-2.891125,-4.064004,-26.041652,0.061386,-0.054794,1.008926,-0.015062,0.025737,-0.006123,76.974716,6.46405,-148.454254,,,
729860536.678236,-2.895897,-4.058369,-26.042236,0.061386,-0.054794,1.008926,-0.015062,0.025737,-0.006123,76.974716,6.46405,-148.454254,,,
729860536.681589,-2.895897,-4.058369,-26.042236,0.061386,-0.054794,1.008926,-0.015062,0.025737,-0.006123,76.974716,6.46405,-148.454254,,,
729860536.684847,-2.899628,-4.049702,-26.042098,0.06015,-0.05574,1.004623,-0.010831,0.033834,0.001811,76.974716,6.46405,-148.454254,,,
729860536.688176,-2.902506,-4.044298,-26.041206,0.06015,-0.05574,1.004623,-0.010831,0.033834,0.001811,76.974716,6.46405,-148.454254,,,
729860536.691612,-2.902506,-4.044298,-26.041206,0.06015,-0.05574,1.004623,-0.010831,0.033834,0.001811,76.974716,6.46405,-148.454254,,,
729860536.694902,-2.905896,-4.03695,-26.039472,0.060669,-0.055649,1.00087,-0.011958,0.025178,0.005763,76.974716,6.46405,-148.454254,,,
729860536.698174,-2.908485,-4.035256,-26.037534,0.060669,-0.055649,1.00087,-0.011958,0.025178,0.005763,77.05101,6.417892,-148.186783,,,
729860536.701582,-2.908485,-4.035256,-26.037534,0.060669,-0.055649,1.00087,-0.011958,0.025178,0.005763,77.05101,6.417892,-148.186783,,,
729860536.704907,-2.911037,-4.033222,-26.035352,0.059067,-0.054169,0.994568,-0.006182,0.007178,0.007981,77.05101,6.417892,-148.186783,,,
729860536.708179,-2.911992,-4.036685,-26.033802,0.059067,-0.054169,0.994568,-0.006182,0.007178,0.007981,77.05101,6.417892,-148.186783,,,
729860536.711646,-2.911992,-4.036685,-26.033802,0.059067,-0.054169,0.994568,-0.003304,-0.012107,0.005413,77.05101,6.417892,-148.186783,,,
729860536.714838,-2.913181,-4.04071,-26.032442,0.059753,-0.052505,0.991241,-0.003304,-0.012107,0.005413,77.05101,6.417892,-148.186783,,,
729860536.718183,-2.912146,-4.047881,-26.030802,0.059753,-0.052505,0.991241,-0.003304,-0.012107,0.005413,77.05101,6.417892,-148.186783,,,
729860536.72159,-2.912146,-4.047881,-26.030802,0.059753,-0.052505,0.991241,-0.003304,-0.012107,0.005413,77.05101,6.417892,-148.186783,,,
729860536.724836,-2.910211,-4.057117,-26.02901,0.059448,-0.053146,0.990875,0.006487,-0.031003,0.002201,77.05101,6.417892,-148.186783,,,
729860536.728224,-2.906651,-4.06701,-26.027576,0.059448,-0.053146,0.990875,0.006487,-0.031003,0.002201,77.05101,6.417892,-148.186783,,,
729860536.731558,-2.906651,-4.06701,-26.027576,0.059448,-0.053146,0.990875,0.006487,-0.031003,0.002201,77.05101,6.417892,-148.186783,,,
729860536.734854,-2.8992,-4.078658,-26.026742,0.062637,-0.052551,0.997726,0.03319,-0.038136,-0.00141,77.05101,6.417892,-148.186783,,,
729860536.738182,-2.889413,-4.088081,-26.026333,0.062637,-0.052551,0.997726,0.03319,-0.038136,-0.00141,76.908691,6.40332,-148.541718,,,
729860536.741557,-2.889413,-4.088081,-26.026333,0.062637,-0.052551,0.997726,0.03319,-0.038136,-0.00141,76.908691,6.40332,-148.541718,,,
729860536.744912,-2.877564,-4.09887,-26.025976,0.067383,-0.054993,1.00769,0.043863,-0.03388,-0.004395,76.908691,6.40332,-148.541718,,,
729860536.748168,-2.864769,-4.106624,-26.024755,0.067383,-0.054993,1.00769,0.043863,-0.03388,-0.004395,76.908691,6.40332,-148.541718,,,
729860536.751582,-2.864769,-4.106624,-26.024755,0.067383,-0.054993,1.00769,0.043863,-0.03388,-0.004395,76.908691,6.40332,-148.541718,,,
729860536.754854,-2.850493,-4.116178,-26.022778,0.066895,-0.057861,1.007172,0.052685,-0.028272,0.002057,76.908691,6.40332,-148.541718,,,
729860536.758253,-2.836888,-4.121807,-26.019639,0.066895,-0.057861,1.007172,0.052685,-0.028272,0.002057,76.908691,6.40332,-148.541718,,,
729860536.761648,-2.836888,-4.121807,-26.019639,0.066895,-0.057861,1.007172,0.052685,-0.028272,0.002057,76.908691,6.40332,-148.541718,,,
729860536.764846,-2.822337,-4.129902,-26.015561,0.067947,-0.058395,1.001434,0.051726,-0.024171,0.011046,76.908691,6.40332,-148.541718,,,
729860536.768186,-2.808836,-4.134518,-26.010828,0.067947,-0.058395,1.001434,0.051726,-0.024171,0.011046,76.908691,6.40332,-148.541718,,,
729860536.771626,-2.808836,-4.134518,-26.010828,0.067947,-0.058395,1.001434,0.051726,-0.024171,0.011046,76.908691,6.40332,-148.541718,,,
729860536.774869,-2.794479,-4.141797,-26.006529,0.070374,-0.054214,0.995132,0.04912,-0.02434,0.010069,76.908691,6.40332,-148.541718,,,
729860536.778248,-2.782337,-4.145803,-26.00222,0.070374,-0.054214,0.995132,0.04912,-0.02434,0.010069,76.908691,6.40332,-148.541718,,,
729860536.781513,-2.782337,-4.145803,-26.00222,0.070374,-0.054214,0.995132,0.04912,-0.02434,0.010069,76.940994,6.470993,-148.438385,,,
729860536.784902,-2.770343,-4.152243,-25.99864,0.072586,-0.05043,0.99147,0.044319,-0.018962,0.006386,76.940994,6.470993,-148.438385,,,
729860536.788178,-2.760556,-4.155216,-25.995733,0.072586,-0.05043,0.99147,0.044319,-0.018962,0.006386,76.940994,6.470993,-148.438385,,,
729860536.791532,-2.760556,-4.155216,-25.995733,0.072586,-0.05043,0.99147,0.044319,-0.018962,0.006386,76.940994,6.470993,-148.438385,,,
729860536.794922,-2.752443,-4.160686,-25.992753,0.072922,-0.048599,0.984634,0.027146,-0.016418,0.008582,76.940994,6.470993,-148.438385,,,
729860536.798221,-2.747334,-4.162246,-25.989636,0.072922,-0.048599,0.984634,0.027146,-0.016418,0.008582,76.940994,6.470993,-148.438385,,,
729860536.801517,-2.747334,-4.162246,-25.989636,0.072922,-0.048599,0.984634,0.027146,-0.016418,0.008582,76.940994,6.470993,-148.438385,,,
729860536.804866,-2.743188,-4.166788,-25.987102,0.073746,-0.046616,0.978745,0.013737,-0.011938,0.006932,76.940994,6.470993,-148.438385,,,
729860536.808184,-2.742103,-4.168174,-25.984819,0.073746,-0.046616,0.978745,0.013737,-0.011938,0.006932,76.940994,6.470993,-148.438385,,,
729860536.811621,-2.742103,-4.168174,-25.984819,0.073746,-0.046616,0.978745,0.013737,-0.011938,0.006932,76.940994,6.470993,-148.438385,,,
729860536.814843,-2.742435,-4.170966,-25.983092,0.07634,-0.045303,0.979233,-0.003885,-0.008051,0.005129,76.940994,6.470993,-148.438385,,,
729860536.818183,-2.744731,-4.171006,-25.982065,0.07634,-0.045303,0.979233,-0.003885,-0.008051,0.005129,76.940994,6.470993,-148.438385,,,
729860536.821509,-2.744731,-4.171006,-25.982065,0.07634,-0.045303,0.979233,-0.003885,-0.008051,0.005129,77.029663,6.464569,-148.372192,,,
729860536.82495,-2.746229,-4.172189,-25.982165,0.075668,-0.045715,0.983231,-0.00607,-0.000742,-0.001275,77.029663,6.464569,-148.372192,,,
729860536.828226,-2.749299,-4.171953,-25.983271,0.075668,-0.045715,0.983231,-0.00607,-0.000742,-0.001275,77.029663,6.464569,-148.372192,,,
729860536.831403,-2.749299,-4.171953,-25.983271,0.075668,-0.045715,0.983231,-0.00607,-0.000742,-0.001275,77.029663,6.464569,-148.372192,,,
729860536.834884,-2.750706,-4.172617,-25.985405,0.077469,-0.048538,0.989944,-0.002636,0.001135,-0.007885,77.029663,6.464569,-148.372192,,,
729860536.838188,-2.75329,-4.171276,-25.987743,0.077469,-0.048538,0.989944,-0.002636,0.001135,-0.007885,77.029663,6.464569,-148.372192,,,
729860536.841594,-2.75329,-4.171276,-25.987743,0.077469,-0.048538,0.989944,-0.002636,0.001135,-0.007885,77.029663,6.464569,-148.372192,,,
729860536.844915,-2.754492,-4.17141,-25.990105,0.073624,-0.050735,0.991043,-0.003859,0.001252,-0.008126,77.029663,6.464569,-148.372192,,,
729860536.84819,-2.757913,-4.170765,-25.99225,0.073624,-0.050735,0.991043,-0.003859,0.001252,-0.008126,77.029663,6.464569,-148.372192,,,
729860536.851615,-2.757913,-4.170765,-25.99225,0.073624,-0.050735,0.991043,-0.003859,0.001252,-0.008126,77.029663,6.464569,-148.372192,,,
729860536.854857,-2.760704,-4.170631,-25.993929,0.070282,-0.051758,0.986465,-0.011036,0.004542,-0.00485,77.029663,6.464569,-148.372192,,,
729860536.858215,-2.765358,-4.169749,-25.994752,0.070282,-0.051758,0.986465,-0.011036,0.004542,-0.00485,77.029663,6.464569,-148.372192,,,
729860536.861567,-2.765358,-4.169749,-25.994752,0.070282,-0.051758,0.986465,-0.011036,0.004542,-0.00485,77.136765,6.401413,-148.564636,,,
729860536.864914,-2.770833,-4.168108,-25.99474,0.069885,-0.051224,0.982147,-0.019209,0.009717,0.002457,77.136765,6.401413,-148.564636,,,
729860536.868183,-2.778817,-4.165729,-25.994337,0.069885,-0.051224,0.982147,-0.019209,0.009717,0.002457,77.136765,6.401413,-148.564636,,,
729860536.87152,-2.778817,-4.165729,-25.994337,0.069885,-0.051224,0.982147,-0.019209,0.009717,0.002457,77.136765,6.401413,-148.564636,,,
729860536.874856,-2.789697,-4.161037,-25.993652,0.069275,-0.047455,0.979294,-0.041192,0.020685,0.0055,77.136765,6.401413,-148.564636,,,
729860536.878214,-2.803457,-4.155105,-25.992484,0.069275,-0.047455,0.979294,-0.041192,0.020685,0.0055,77.136765,6.401413,-148.564636,,,
729860536.88153,-2.803457,-4.155105,-25.992484,0.069275,-0.047455,0.979294,-0.041192,0.020685,0.0055,77.136765,6.401413,-148.564636,,,
729860536.884855,-2.819638,-4.148258,-25.990897,0.070435,-0.047485,0.976654,-0.055737,0.027537,0.009503,77.136765,6.401413,-148.564636,,,
729860536.888186,-2.837073,-4.142645,-25.988973,0.070435,-0.047485,0.976654,-0.055737,0.027537,0.009503,77.136765,6.401413,-148.564636,,,
729860536.891515,-2.837073,-4.142645,-25.988973,0.070435,-0.047485,0.976654,-0.055737,0.027537,0.009503,77.136765,6.401413,-148.564636,,,
729860536.89491,-2.855305,-4.136262,-25.986301,0.068039,-0.047302,0.980194,-0.061106,0.026594,0.010878,77.136765,6.401413,-148.564636,,,
729860536.89818,-2.872449,-4.131682,-25.983334,0.068039,-0.047302,0.980194,-0.061106,0.026594,0.010878,77.136765,6.401413,-148.564636,,,
729860536.901518,-2.872449,-4.131682,-25.983334,0.068039,-0.047302,0.980194,-0.061106,0.026594,0.010878,76.900238,6.423431,-148.442276,,,
729860536.904924,-2.889592,-4.126888,-25.980469,0.069351,-0.050735,0.987778,-0.056396,0.016969,0.01355,76.900238,6.423431,-148.442276,,,
729860536.908179,-2.90492,-4.124944,-25.97782,0.069351,-0.050735,0.987778,-0.056396,0.016969,0.01355,76.900238,6.423431,-148.442276,,,
729860536.911575,-2.90492,-4.124944,-25.97782,0.069351,-0.050735,0.987778,-0.056396,0.016969,0.01355,76.900238,6.423431,-148.442276,,,
729860536.914855,-2.919185,-4.123419,-25.974445,0.067963,-0.054092,0.993652,-0.045419,0.004373,0.013885,76.900238,6.423431,-148.442276,,,
729860536.918189,-2.932277,-4.12476,-25.970747,0.067963,-0.054092,0.993652,-0.045419,0.004373,0.013885,76.900238,6.423431,-148.442276,,,
729860536.92153,-2.932277,-4.12476,-25.970747,0.067963,-0.054092,0.993652,-0.045419,0.004373,0.013885,76.900238,6.423431,-148.442276,,,
729860536.924851,-2.943682,-4.127197,-25.967275,0.067505,-0.054718,0.994812,-0.035797,-0.008262,0.011403,76.900238,6.423431,-148.442276,,,
729860536.928227,-2.95231,-4.131465,-25.964213,0.067505,-0.054718,0.994812,-0.035797,-0.008262,0.011403,76.900238,6.423431,-148.442276,,,
729860536.931586,-2.95231,-4.131465,-25.964213,0.067505,-0.054718,0.994812,-0.035797,-0.008262,0.011403,76.900238,6.423431,-148.442276,,,
729860536.934844,-2.958675,-4.136021,-25.962376,0.073898,-0.053635,0.997009,-0.020144,-0.011562,0.004013,76.900238,6.423431,-148.442276,,,
729860536.938184,-2.963015,-4.14017,-25.962452,0.073898,-0.053635,0.997009,-0.020144,-0.011562,0.004013,76.900238,6.423431,-148.442276,,,
729860536.941563,-2.963015,-4.14017,-25.962452,0.073898,-0.053635,0.997009,-0.020144,-0.011562,0.004013,76.900238,6.423431,-148.442276,,,
729860536.944995,-2.966191,-4.143833,-25.96431,0.079041,-0.053909,1.001114,-0.011463,-0.010451,-0.005334,76.899139,6.433899,-148.33197,,,
729860536.948174,-2.968808,-4.145708,-25.967093,0.079041,-0.053909,1.001114,-0.011463,-0.010451,-0.005334,76.899139,6.433899,-148.33197,,,
729860536.95155,-2.968808,-4.145708,-25.967093,0.079041,-0.053909,1.001114,-0.011463,-0.010451,-0.005334,76.899139,6.433899,-148.33197,,,
729860536.954859,-2.971378,-4.146934,-25.970358,0.079834,-0.051651,1.001694,-0.008643,0.001674,-0.013367,76.899139,6.433899,-148.33197,,,
729860536.958182,-2.972544,-4.147059,-25.973648,0.079834,-0.051651,1.001694,-0.008643,0.001674,-0.013367,76.899139,6.433899,-148.33197,,,
729860536.961578,-2.972544,-4.147059,-25.973648,0.079834,-0.051651,1.001694,-0.008643,0.001674,-0.013367,76.899139,6.433899,-148.33197,,,
729860536.964971,-2.972623,-4.14653,-25.975858,0.074814,-0.056641,1.004959,0.001328,0.008607,-0.007381,76.899139,6.433899,-148.33197,,,
729860536.968179,-2.971244,-4.145213,-25.976475,0.074814,-0.056641,1.004959,0.001328,0.008607,-0.007381,76.899139,6.433899,-148.33197,,,
729860536.971589,-2.971244,-4.145213,-25.976475,0.074814,-0.056641,1.004959,0.001328,0.008607,-0.007381,76.899139,6.433899,-148.33197,,,
729860536.974866,-2.97026,-4.144959,-25.975393,0.069901,-0.061584,1.0047,0.005866,0.000994,0.007377,76.899139,6.433899,-148.33197,,,
729860536.97823,-2.969563,-4.145207,-25.972466,0.069901,-0.061584,1.0047,0.005866,0.000994,0.007377,76.899139,6.433899,-148.33197,,,
729860536.98153,-2.969563,-4.145207,-25.972466,0.069901,-0.061584,1.0047,0.005866,0.000994,0.007377,76.899139,6.433899,-148.33197,,,
729860536.984911,-2.970702,-4.147288,-25.968243,0.069077,-0.060425,0.994904,-0.001011,-0.007119,0.016475,76.935516,6.696274,-148.567047,,,
729860536.988175,-2.973768,-4.15028,-25.963393,0.069077,-0.060425,0.994904,-0.001011,-0.007119,0.016475,76.935516,6.696274,-148.567047,,,
729860536.991517,-2.973768,-4.15028,-25.963393,0.069077,-0.060425,0.994904,-0.001011,-0.007119,0.016475,76.935516,6.696274,-148.567047,,,
729860536.994898,-2.979348,-4.155961,-25.95935,0.069473,-0.055573,0.982651,-0.020412,-0.017413,0.012803,76.935516,6.696274,-148.567047,,,
729860536.998175,-2.988552,-4.16169,-25.956946,0.069473,-0.055573,0.982651,-0.020412,-0.017413,0.012803,76.935516,6.696274,-148.567047,,,
729860537.001564,-2.988552,-4.16169,-25.956946,0.069473,-0.055573,0.982651,-0.020412,-0.017413,0.012803,76.935516,6.696274,-148.567047,,,
729860537.004854,-2.99914,-4.168883,-25.956455,0.074112,-0.04866,0.975586,-0.040331,-0.021974,0.001645,76.935516,6.696274,-148.567047,,,
729860537.008182,-3.010792,-4.174644,-25.957707,0.074112,-0.04866,0.975586,-0.040331,-0.021974,0.001645,76.935516,6.696274,-148.567047,,,
729860537.011623,-3.010792,-4.174644,-25.957707,0.074112,-0.04866,0.975586,-0.040331,-0.021974,0.001645,76.935516,6.696274,-148.567047,,,
729860537.014852,-3.021572,-4.179716,-25.960158,0.075668,-0.048477,0.98233,-0.038888,-0.012395,-0.008367,76.935516,6.696274,-148.567047,,,
729860537.018183,-3.031235,-4.184494,-25.963541,0.075668,-0.048477,0.98233,-0.038888,-0.012395,-0.008367,76.935516,6.696274,-148.567047,,,
729860537.02161,-3.031235,-4.184494,-25.963541,0.075668,-0.048477,0.98233,-0.038888,-0.012395,-0.008367,76.935516,6.696274,-148.567047,,,
729860537.024842,-3.038439,-4.186065,-25.967221,0.074631,-0.053589,0.997345,-0.021727,0.000399,-0.010582,76.759857,6.986328,-148.562256,,,
729860537.02823,-3.041976,-4.187673,-25.970255,0.074631,-0.053589,0.997345,-0.021727,0.000399,-0.010582,76.759857,6.986328,-148.562256,,,
729860537.031521,-3.041976,-4.187673,-25.970255,0.074631,-0.053589,0.997345,-0.021727,0.000399,-0.010582,76.759857,6.986328,-148.562256,,,
729860537.034912,-3.043816,-4.185968,-25.971832,0.068771,-0.058517,1.011017,-0.00161,0.009909,-0.004975,76.759857,6.986328,-148.562256,,,
729860537.038181,-3.044663,-4.183922,-25.971787,0.068771,-0.058517,1.011017,-0.00161,0.009909,-0.004975,76.759857,6.986328,-148.562256,,,
729860537.041527,-3.044663,-4.183922,-25.971787,0.068771,-0.058517,1.011017,-0.00161,0.009909,-0.004975,76.759857,6.986328,-148.562256,,,
729860537.044957,-3.0448,-4.180518,-25.969562,0.06369,-0.061081,1.005783,-0.000187,0.014114,0.007042,76.759857,6.986328,-148.562256,,,
729860537.048218,-3.046649,-4.176063,-25.965513,0.06369,-0.061081,1.005783,-0.000187,0.014114,0.007042,76.759857,6.986328,-148.562256,,,
729860537.051565,-3.046649,-4.176063,-25.965513,0.06369,-0.061081,1.005783,-0.000187,0.014114,0.007042,76.759857,6.986328,-148.562256,,,
729860537.054877,-3.048974,-4.171927,-25.96052,0.063263,-0.061218,0.992996,-0.008667,0.016564,0.017559,76.759857,6.986328,-148.562256,,,
729860537.058189,-3.054976,-4.167013,-25.954724,0.063263,-0.061218,0.992996,-0.008667,0.016564,0.017559,76.759857,6.986328,-148.562256,,,
729860537.061621,-3.054976,-4.167013,-25.954724,0.063263,-0.061218,0.992996,-0.008667,0.016564,0.017559,76.759857,6.986328,-148.562256,,,
729860537.064844,-3.062952,-4.164216,-25.949168,0.067123,-0.055283,0.985016,-0.026776,0.012177,0.019095,76.858765,6.852768,-148.5578,,,
729860537.068186,-3.075996,-4.161532,-25.944747,0.067123,-0.055283,0.985016,-0.026776,0.012177,0.019095,76.858765,6.852768,-148.5578,,,
729860537.071526,-3.075996,-4.161532,-25.944747,0.067123,-0.055283,0.985016,-0.026776,0.012177,0.019095,76.858765,6.852768,-148.5578,,,
729860537.074934,-3.091741,-4.160281,-25.94212,0.072723,-0.051895,0.978455,-0.057297,0.008295,0.008737,76.858765,6.852768,-148.5578,,,
729860537.078228,-3.109437,-4.160057,-25.941093,0.072723,-0.051895,0.978455,-0.057297,0.008295,0.008737,76.858765,6.852768,-148.5578,,,
729860537.081532,-3.109437,-4.160057,-25.941093,0.072723,-0.051895,0.978455,-0.057297,0.008295,0.008737,76.858765,6.852768,-148.5578,,,
729860537.084878,-3.128328,-4.159864,-25.941388,0.075485,-0.051453,0.983353,-0.064873,0.002488,0.000939,76.858765,6.852768,-148.5578,,,
729860537.088189,-3.145313,-4.161984,-25.942279,0.075485,-0.051453,0.983353,-0.064873,0.002488,0.000939,76.858765,6.852768,-148.5578,,,
729860537.091536,-3.145313,-4.161984,-25.942279,0.075485,-0.051453,0.983353,-0.064873,0.002488,0.000939,76.858765,6.852768,-148.5578,,,
729860537.09491,-3.160763,-4.16417,-25.943207,0.072449,-0.057602,0.997803,-0.052073,-0.005485,-0.000926,76.858765,6.852768,-148.5578,,,
729860537.098186,-3.171902,-4.168047,-25.943919,0.072449,-0.057602,0.997803,-0.052073,-0.005485,-0.000926,76.858765,6.852768,-148.5578,,,
729860537.101595,-3.171902,-4.168047,-25.943919,0.072449,-0.057602,0.997803,-0.052073,-0.005485,-0.000926,76.858765,6.852768,-148.5578,,,
729860537.104856,-3.179659,-4.171741,-25.943469,0.068817,-0.064209,1.011444,-0.023773,-0.007478,0.003306,76.858765,6.852768,-148.5578,,,
729860537.108191,-3.183938,-4.174595,-25.942185,0.068817,-0.064209,1.011444,-0.023773,-0.007478,0.003306,76.904404,6.824127,-148.499115,,,
729860537.111584,-3.183938,-4.174595,-25.942185,0.068817,-0.064209,1.011444,-0.023773,-0.007478,0.003306,76.904404,6.824127,-148.499115,,,
729860537.114887,-3.185087,-4.176718,-25.939667,0.065689,-0.066269,1.018204,0.002126,-0.005293,0.009219,76.904404,6.824127,-148.499115,,,
729860537.11818,-3.184942,-4.176565,-25.935574,0.065689,-0.066269,1.018204,0.002126,-0.005293,0.009219,76.904404,6.824127,-148.499115,,,
729860537.121523,-3.184942,-4.176565,-25.935574,0.065689,-0.066269,1.018204,0.002126,-0.005293,0.009219,76.904404,6.824127,-148.499115,,,
729860537.124944,-3.182596,-4.177599,-25.930995,0.067963,-0.064133,1.009415,0.010118,0.000606,0.012685,76.904404,6.824127,-148.499115,,,
729860537.12824,-3.180671,-4.175245,-25.926691,0.067963,-0.064133,1.009415,0.010118,0.000606,0.012685,76.904404,6.824127,-148.499115,,,
729860537.13153,-3.180671,-4.175245,-25.926691,0.067963,-0.064133,1.009415,0.010118,0.000606,0.012685,76.904404,6.824127,-148.499115,,,
729860537.134858,-3.178073,-4.174344,-25.923324,0.071426,-0.060349,0.999466,0.011248,0.007277,0.009049,76.904404,6.824127,-148.499115,,,
729860537.138188,-3.176655,-4.17044,-25.921013,0.071426,-0.060349,0.999466,0.011248,0.007277,0.009049,76.904404,6.824127,-148.499115,,,
729860537.141552,-3.176655,-4.17044,-25.921013,0.071426,-0.060349,0.999466,0.011248,0.007277,0.009049,76.904404,6.824127,-148.499115,,,
729860537.144903,-3.175298,-4.167599,-25.919468,0.07283,-0.054718,0.99147,0.001167,0.010289,0.005179,76.904404,6.824127,-148.499115,,,
729860537.148187,-3.175303,-4.164249,-25.917674,0.07283,-0.054718,0.99147,0.001167,0.010289,0.005179,76.813568,6.967499,-148.487015,,,
729860537.151525,-3.175303,-4.164249,-25.917674,0.07283,-0.054718,0.99147,0.001167,0.010289,0.005179,76.813568,6.967499,-148.487015,,,
729860537.15494,-3.177406,-4.161071,-25.915999,0.068939,-0.055252,0.987015,-0.007493,0.012355,0.005316,76.813568,6.967499,-148.487015,,,
729860537.158175,-3.179965,-4.158597,-25.913679,0.068939,-0.055252,0.987015,-0.007493,0.012355,0.005316,76.813568,6.967499,-148.487015,,,
729860537.161574,-3.179965,-4.158597,-25.913679,0.068939,-0.055252,0.987015,-0.007493,0.012355,0.005316,76.813568,6.967499,-148.487015,,,
729860537.164862,-3.184805,-4.155499,-25.910163,0.065292,-0.057968,0.985153,-0.015476,0.012139,0.011082,76.813568,6.967499,-148.487015,,,
729860537.168191,-3.191213,-4.153011,-25.905528,0.065292,-0.057968,0.985153,-0.015476,0.012139,0.011082,76.813568,6.967499,-148.487015,,,
729860537.171522,-3.191213,-4.153011,-25.905528,0.065292,-0.057968,0.985153,-0.015476,0.012139,0.011082,76.813568,6.967499,-148.487015,,,
729860537.174857,-3.198714,-4.149002,-25.899728,0.066254,-0.058411,0.983139,-0.024544,0.014403,0.023703,76.813568,6.967499,-148.487015,,,
729860537.178227,-3.208119,-4.143796,-25.89328,0.066254,-0.058411,0.983139,-0.024544,0.014403,0.023703,76.813568,6.967499,-148.487015,,,
729860537.181565,-3.208119,-4.143796,-25.89328,0.066254,-0.058411,0.983139,-0.024544,0.014403,0.023703,76.813568,6.967499,-148.487015,,,
729860537.184859,-3.217082,-4.138679,-25.886082,0.064972,-0.055344,0.985474,-0.032093,0.021535,0.026761,76.813568,6.967499,-148.487015,,,
729860537.188196,-3.227901,-4.132721,-25.878796,0.064972,-0.055344,0.985474,-0.032093,0.021535,0.026761,76.779694,6.713516,-148.373413,,,
729860537.19152,-3.227901,-4.132721,-25.878796,0.064972,-0.055344,0.985474,-0.032093,0.021535,0.026761,76.779694,6.713516,-148.373413,,,
729860537.194901,-3.237131,-4.130649,-25.871729,0.067413,-0.054565,0.981216,-0.029882,0.006821,0.0278,76.779694,6.713516,-148.373413,,,
729860537.198228,-3.246666,-4.129686,-25.864844,0.067413,-0.054565,0.981216,-0.029882,0.006821,0.0278,76.779694,6.713516,-148.373413,,,
729860537.201537,-3.246666,-4.129686,-25.864844,0.067413,-0.054565,0.981216,-0.029882,0.006821,0.0278,76.779694,6.713516,-148.373413,,,
729860537.204927,-3.252905,-4.1338,-25.858461,0.068787,-0.057068,0.981079,-0.019975,-0.014525,0.022636,76.779694,6.713516,-148.373413,,,
729860537.208209,-3.258403,-4.141735,-25.852926,0.068787,-0.057068,0.981079,-0.019975,-0.014525,0.022636,76.779694,6.713516,-148.373413,,,
729860537.211573,-3.258403,-4.141735,-25.852926,0.068787,-0.057068,0.981079,-0.019975,-0.014525,0.022636,76.779694,6.713516,-148.373413,,,
729860537.214857,-3.261802,-4.152888,-25.849075,0.072372,-0.05574,0.982407,-0.01016,-0.040485,0.012953,76.779694,6.713516,-148.373413,,,
729860537.218255,-3.263837,-4.165455,-25.846545,0.072372,-0.05574,0.982407,-0.01016,-0.040485,0.012953,76.779694,6.713516,-148.373413,,,
729860537.221523,-3.263837,-4.165455,-25.846545,0.072372,-0.05574,0.982407,-0.01016,-0.040485,0.012953,76.779694,6.713516,-148.373413,,,
729860537.224863,-3.265642,-4.17751,-25.845529,0.077759,-0.055801,0.983994,-0.006123,-0.039152,0.001731,76.779694,6.713516,-148.373413,,,
729860537.228276,-3.267791,-4.187924,-25.845361,0.077759,-0.055801,0.983994,-0.006123,-0.039152,0.001731,76.779694,6.713516,-148.373413,,,
729860537.231571,-3.267791,-4.187924,-25.845361,0.077759,-0.055801,0.983994,-0.006123,-0.039152,0.001731,76.652008,6.669601,-148.67131,,,
729860537.234653,-3.272029,-4.196794,-25.845489,0.076813,-0.054779,0.984863,-0.015104,-0.024088,-0.000645,76.652008,6.669601,-148.67131,,,
729860537.238233,-3.278008,-4.201497,-25.844747,0.076813,-0.054779,0.984863,-0.015104,-0.024088,-0.000645,76.652008,6.669601,-148.67131,,,
729860537.241512,-3.278008,-4.201497,-25.844747,0.076813,-0.054779,0.984863,-0.015104,-0.024088,-0.000645,76.652008,6.669601,-148.67131,,,
729860537.244984,-3.286074,-4.204769,-25.84272,0.074738,-0.055161,0.977463,-0.029916,-0.005865,0.012052,76.652008,6.669601,-148.67131,,,
729860537.248299,-3.297379,-4.203674,-25.840114,0.074738,-0.055161,0.977463,-0.029916,-0.005865,0.012052,76.652008,6.669601,-148.67131,,,
729860537.251528,-3.297379,-4.203674,-25.840114,0.074738,-0.055161,0.977463,-0.029916,-0.005865,0.012052,76.652008,6.669601,-148.67131,,,
729860537.254873,-3.311363,-4.20018,-25.836992,0.074463,-0.055603,0.971909,-0.047523,0.019463,0.016812,76.652008,6.669601,-148.67131,,,
729860537.258256,-3.327691,-4.190983,-25.832418,0.074463,-0.055603,0.971909,-0.047523,0.019463,0.016812,76.652008,6.669601,-148.67131,,,
729860537.261569,-3.327691,-4.190983,-25.832418,0.074463,-0.055603,0.971909,-0.047523,0.019463,0.016812,76.652008,6.669601,-148.67131,,,
729860537.264874,-3.345619,-4.18047,-25.826232,0.069122,-0.056076,0.973618,-0.059702,0.03957,0.025695,76.652008,6.669601,-148.67131,,,
729860537.268198,-3.364046,-4.168091,-25.818857,0.069122,-0.056076,0.973618,-0.059702,0.03957,0.025695,76.652008,6.669601,-148.67131,,,
729860537.271502,-3.364046,-4.168091,-25.818857,0.069122,-0.056076,0.973618,-0.059702,0.03957,0.025695,76.775635,6.841003,-148.311035,,,
729860537.274893,-3.384126,-4.158583,-25.810937,0.068069,-0.055817,0.97258,-0.069384,0.03191,0.030206,76.775635,6.841003,-148.311035,,,
729860537.278302,-3.404903,-4.15141,-25.802624,0.068069,-0.055817,0.97258,-0.069384,0.03191,0.030206,76.775635,6.841003,-148.311035,,,
729860537.281517,-3.404903,-4.15141,-25.802624,0.068069,-0.055817,0.97258,-0.069384,0.03191,0.030206,76.775635,6.841003,-148.311035,,,
