Time (sec),Pitch (deg),Roll (deg),Yaw(deg),X-Acceleration (g),Y-Acceleration (g),Z-Acceleration (g),Pitch Rate (deg/sec),Roll Rate (deg/sec),Yaw Rate (deg/sec),Magnetic Field in X direction (uT),Magnetic Field in Y direction (uT),Magnetic Field in Z Direction (uT),Latitude (deg),Longitude (deg),Altitude (m)
729861507.556246,31.345585,4.807397,121.602845,-0.083252,0.416351,0.88765,2.033722,-0.137863,-0.042775,68.492661,9.0737,-148.045792,,,
729861507.559822,31.345585,4.807397,121.602845,-0.083252,0.416351,0.88765,2.033722,-0.137863,-0.042775,68.339493,4.918884,-146.765732,,,
729861507.563137,31.9389,4.796737,121.527071,-0.083252,0.416351,0.88765,2.033722,-0.137863,-0.042775,68.339493,4.918884,-146.765732,,,
729861507.56646,32.540024,4.779276,121.449665,-0.079376,0.434998,0.864822,2.104178,-0.196165,-0.056452,68.339493,4.918884,-146.765732,,,
729861507.56987,32.540024,4.779276,121.449665,-0.079376,0.434998,0.864822,2.104178,-0.196165,-0.056452,68.339493,4.918884,-146.765732,,,
729861507.572908,33.149713,4.757926,121.372674,-0.079376,0.434998,0.864822,2.104178,-0.196165,-0.056452,68.339493,4.918884,-146.765732,,,
729861507.576507,33.767982,4.733678,121.298025,-0.083725,0.455872,0.850449,2.160001,-0.220802,-0.042951,68.339493,4.918884,-146.765732,,,
729861507.579826,33.767982,4.733678,121.298025,-0.083725,0.455872,0.850449,2.160001,-0.220802,-0.042951,68.339493,4.918884,-146.765732,,,
729861507.583127,34.394958,4.70875,121.225866,-0.083725,0.455872,0.850449,2.160001,-0.220802,-0.042951,68.339493,4.918884,-146.765732,,,
729861507.58646,35.026889,4.686792,121.155745,-0.090744,0.46756,0.857834,2.208789,-0.216527,-0.024443,68.339493,4.918884,-146.765732,,,
729861507.589556,35.026889,4.686792,121.155745,-0.090744,0.46756,0.857834,2.208789,-0.216527,-0.024443,68.339493,4.918884,-146.765732,,,
729861507.593257,35.662514,4.671801,121.086697,-0.090744,0.46756,0.857834,2.208789,-0.216527,-0.024443,68.339493,4.918884,-146.765732,,,
729861507.596455,36.298591,4.66437,121.019201,-0.08255,0.479065,0.846085,2.227156,-0.166327,-0.014268,68.339493,4.918884,-146.765732,,,
729861507.599834,36.298591,4.66437,121.019201,-0.08255,0.479065,0.846085,2.227156,-0.166327,-0.014268,68.11145,0.661591,-145.260895,,,
729861507.603147,36.93238,4.664929,120.953228,-0.08255,0.479065,0.846085,2.227156,-0.166327,-0.014268,68.11145,0.661591,-145.260895,,,
729861507.606229,37.559393,4.670434,120.89051,-0.083618,0.503937,0.815887,2.199022,-0.111683,-0.000389,68.11145,0.661591,-145.260895,,,
729861507.609824,37.559393,4.670434,120.89051,-0.083618,0.503937,0.815887,2.199022,-0.111683,-0.000389,68.11145,0.661591,-145.260895,,,
729861507.613153,38.178447,4.67947,120.832,-0.083618,0.503937,0.815887,2.199022,-0.111683,-0.000389,68.11145,0.661591,-145.260895,,,
729861507.616466,38.788954,4.691226,120.778414,-0.08905,0.537354,0.760056,2.137831,-0.075989,0.022308,68.11145,0.661591,-145.260895,,,
729861507.619865,38.788954,4.691226,120.778414,-0.08905,0.537354,0.760056,2.137831,-0.075989,0.022308,68.11145,0.661591,-145.260895,,,
729861507.6229,39.39373,4.70637,120.729328,-0.08905,0.537354,0.760056,2.137831,-0.075989,0.022308,68.11145,0.661591,-145.260895,,,
729861507.626499,39.993999,4.722814,120.684962,-0.092422,0.56398,0.728806,2.09769,-0.037329,0.051301,68.11145,0.661591,-145.260895,,,
729861507.629805,39.993999,4.722814,120.684962,-0.092422,0.56398,0.728806,2.09769,-0.037329,0.051301,68.11145,0.661591,-145.260895,,,
729861507.633128,40.59243,4.738775,120.643882,-0.092422,0.56398,0.728806,2.09769,-0.037329,0.051301,68.11145,0.661591,-145.260895,,,
729861507.636463,41.189515,4.750897,120.605953,-0.091125,0.58255,0.725204,2.081514,-0.039196,0.070213,68.11145,0.661591,-145.260895,,,
729861507.639562,41.189515,4.750897,120.605953,-0.091125,0.58255,0.725204,2.081514,-0.039196,0.070213,68.11145,0.661591,-145.260895,,,
729861507.643169,41.787734,4.757258,120.56928,-0.091125,0.58255,0.725204,2.081514,-0.039196,0.070213,67.692947,-3.077789,-143.645981,,,
729861507.64646,42.388432,4.757326,120.532831,-0.091034,0.596802,0.712845,2.093741,-0.07564,0.079214,67.692947,-3.077789,-143.645981,,,
729861507.649817,42.388432,4.757326,120.532831,-0.091034,0.596802,0.712845,2.093741,-0.07564,0.079214,67.692947,-3.077789,-143.645981,,,
729861507.653131,42.991649,4.751681,120.496181,-0.091034,0.596802,0.712845,2.093741,-0.07564,0.079214,67.692947,-3.077789,-143.645981,,,
729861507.656227,43.592882,4.740097,120.45887,-0.086166,0.609177,0.712738,2.101676,-0.122151,0.07938,67.692947,-3.077789,-143.645981,,,
729861507.659853,43.592882,4.740097,120.45887,-0.086166,0.609177,0.712738,2.101676,-0.122151,0.07938,67.692947,-3.077789,-143.645981,,,
729861507.663143,44.187562,4.723638,120.420845,-0.086166,0.609177,0.712738,2.101676,-0.122151,0.07938,67.692947,-3.077789,-143.645981,,,
729861507.666468,44.771328,4.703977,120.382004,-0.080704,0.628967,0.688995,2.046673,-0.157011,0.072371,67.692947,-3.077789,-143.645981,,,
729861507.669874,44.771328,4.703977,120.382004,-0.080704,0.628967,0.688995,2.046673,-0.157011,0.072371,67.692947,-3.077789,-143.645981,,,
729861507.672901,45.342047,4.682736,120.343675,-0.080704,0.628967,0.688995,2.046673,-0.157011,0.072371,67.692947,-3.077789,-143.645981,,,
729861507.676577,45.897971,4.660077,120.308532,-0.079926,0.661621,0.64209,1.951953,-0.164796,0.068874,67.692947,-3.077789,-143.645981,,,
729861507.679788,45.897971,4.660077,120.308532,-0.079926,0.661621,0.64209,1.951953,-0.164796,0.068874,67.692947,-3.077789,-143.645981,,,
729861507.68323,46.440245,4.636258,120.278405,-0.079926,0.661621,0.64209,1.951953,-0.164796,0.068874,67.438736,-6.632843,-141.271408,,,
729861507.686457,46.97052,4.612061,120.25493,-0.084793,0.691483,0.610626,1.854077,-0.146139,0.087614,67.438736,-6.632843,-141.271408,,,
729861507.689597,46.97052,4.612061,120.25493,-0.084793,0.691483,0.610626,1.854077,-0.146139,0.087614,67.438736,-6.632843,-141.271408,,,
729861507.693184,47.49155,4.588217,120.241586,-0.084793,0.691483,0.610626,1.854077,-0.146139,0.087614,67.438736,-6.632843,-141.271408,,,
729861507.696463,48.00335,4.566184,120.240122,-0.08667,0.704666,0.613724,1.788173,-0.087198,0.13259,67.438736,-6.632843,-141.271408,,,
729861507.699809,48.00335,4.566184,120.240122,-0.08667,0.704666,0.613724,1.788173,-0.087198,0.13259,67.438736,-6.632843,-141.271408,,,
729861507.703139,48.507058,4.54807,120.249747,-0.08667,0.704666,0.613724,1.788173,-0.087198,0.13259,67.438736,-6.632843,-141.271408,,,
729861507.70624,49.004501,4.531985,120.270611,-0.089142,0.704102,0.62677,1.726081,-0.000425,0.178395,67.438736,-6.632843,-141.271408,,,
729861507.709819,49.004501,4.531985,120.270611,-0.089142,0.704102,0.62677,1.726081,-0.000425,0.178395,67.438736,-6.632843,-141.271408,,,
729861507.713139,49.496988,4.514903,120.301897,-0.089142,0.704102,0.62677,1.726081,-0.000425,0.178395,67.438736,-6.632843,-141.271408,,,
729861507.716469,49.98458,4.498525,120.34115,-0.079681,0.704315,0.625488,1.691725,0.046384,0.2186,67.438736,-6.632843,-141.271408,,,
729861507.719879,49.98458,4.498525,120.34115,-0.079681,0.704315,0.625488,1.691725,0.046384,0.2186,67.438736,-6.632843,-141.271408,,,
729861507.722909,50.469635,4.483524,120.386326,-0.079681,0.704315,0.625488,1.691725,0.046384,0.2186,67.313278,-9.948212,-138.864059,,,
729861507.726526,50.954093,4.466265,120.437986,-0.080551,0.713821,0.627243,1.674412,0.082008,0.240234,67.313278,-9.948212,-138.864059,,,
729861507.729805,50.954093,4.466265,120.437986,-0.080551,0.713821,0.627243,1.674412,0.082008,0.240234,67.313278,-9.948212,-138.864059,,,
729861507.733221,51.438757,4.444805,120.495028,-0.080551,0.713821,0.627243,1.674412,0.082008,0.240234,67.313278,-9.948212,-138.864059,,,
729861507.736458,51.922934,4.419491,120.555109,-0.066879,0.726349,0.620865,1.673618,0.079656,0.256555,67.313278,-9.948212,-138.864059,,,
729861507.739566,51.922934,4.419491,120.555109,-0.066879,0.726349,0.620865,1.673618,0.079656,0.256555,67.313278,-9.948212,-138.864059,,,
729861507.743173,52.40493,4.390095,120.617133,-0.066879,0.726349,0.620865,1.673618,0.079656,0.256555,67.313278,-9.948212,-138.864059,,,
729861507.746463,52.882619,4.354966,120.681243,-0.064194,0.736526,0.612656,1.654662,0.062683,0.262614,67.313278,-9.948212,-138.864059,,,
729861507.749804,52.882619,4.354966,120.681243,-0.064194,0.736526,0.612656,1.654662,0.062683,0.262614,67.313278,-9.948212,-138.864059,,,
729861507.753147,53.354866,4.311392,120.748635,-0.064194,0.736526,0.612656,1.654662,0.062683,0.262614,67.313278,-9.948212,-138.864059,,,
729861507.756267,53.821495,4.258099,120.819901,-0.062439,0.760406,0.577744,1.613225,0.022554,0.263314,67.313278,-9.948212,-138.864059,,,
729861507.759846,53.821495,4.258099,120.819901,-0.062439,0.760406,0.577744,1.613225,0.022554,0.263314,67.313278,-9.948212,-138.864059,,,
729861507.763158,54.282781,4.195484,120.894632,-0.062439,0.760406,0.577744,1.613225,0.022554,0.263314,67.313278,-9.948212,-138.864059,,,
729861507.766464,54.736104,4.12426,120.97279,-0.066132,0.776993,0.54686,1.574555,-0.022364,0.271153,67.226669,-12.602219,-137.047562,,,
729861507.769869,54.736104,4.12426,120.97279,-0.066132,0.776993,0.54686,1.574555,-0.022364,0.271153,67.226669,-12.602219,-137.047562,,,
729861507.772899,55.177491,4.046693,121.054877,-0.066132,0.776993,0.54686,1.574555,-0.022364,0.271153,67.226669,-12.602219,-137.047562,,,
729861507.776489,55.604808,3.965372,121.141483,-0.058334,0.799438,0.507614,1.486328,-0.035755,0.272729,67.226669,-12.602219,-137.047562,,,
729861507.779817,55.604808,3.965372,121.141483,-0.058334,0.799438,0.507614,1.486328,-0.035755,0.272729,67.226669,-12.602219,-137.047562,,,
729861507.783205,56.018416,3.882731,121.234493,-0.058334,0.799438,0.507614,1.486328,-0.035755,0.272729,67.226669,-12.602219,-137.047562,,,
729861507.786456,56.419219,3.799292,121.336666,-0.06015,0.824921,0.47023,1.391247,-0.000693,0.284432,67.226669,-12.602219,-137.047562,,,
729861507.78956,56.419219,3.799292,121.336666,-0.06015,0.824921,0.47023,1.391247,-0.000693,0.284432,67.226669,-12.602219,-137.047562,,,
729861507.793169,56.807224,3.713796,121.449806,-0.06015,0.824921,0.47023,1.391247,-0.000693,0.284432,67.226669,-12.602219,-137.047562,,,
729861507.796457,57.181646,3.626462,121.574832,-0.060822,0.832169,0.466751,1.299077,0.054834,0.314398,67.226669,-12.602219,-137.047562,,,
729861507.799815,57.181646,3.626462,121.574832,-0.060822,0.832169,0.466751,1.299077,0.054834,0.314398,67.226669,-12.602219,-137.047562,,,
729861507.80314,57.542502,3.539156,121.712521,-0.060822,0.832169,0.466751,1.299077,0.054834,0.314398,67.226669,-12.602219,-137.047562,,,
729861507.806222,57.889786,3.454208,121.861761,-0.055237,0.834579,0.452225,1.201795,0.138412,0.350547,66.711502,-14.479187,-135.259598,,,
729861507.809892,57.889786,3.454208,121.861761,-0.055237,0.834579,0.452225,1.201795,0.138412,0.350547,66.711502,-14.479187,-135.259598,,,
729861507.81313,58.224057,3.371181,122.019687,-0.055237,0.834579,0.452225,1.201795,0.138412,0.350547,66.711502,-14.479187,-135.259598,,,
729861507.816468,58.545473,3.287796,122.182291,-0.046738,0.835526,0.447632,1.112092,0.194126,0.362873,66.711502,-14.479187,-135.259598,,,
729861507.819805,58.545473,3.287796,122.182291,-0.046738,0.835526,0.447632,1.112092,0.194126,0.362873,66.711502,-14.479187,-135.259598,,,
729861507.82298,58.854629,3.201188,122.346261,-0.046738,0.835526,0.447632,1.112092,0.194126,0.362873,66.711502,-14.479187,-135.259598,,,
729861507.82649,59.152567,3.107955,122.510163,-0.035721,0.844574,0.418854,1.029806,0.174538,0.351968,66.711502,-14.479187,-135.259598,,,
729861507.82982,59.152567,3.107955,122.510163,-0.035721,0.844574,0.418854,1.029806,0.174538,0.351968,66.711502,-14.479187,-135.259598,,,
729861507.833125,59.440776,3.007884,122.670876,-0.035721,0.844574,0.418854,1.029806,0.174538,0.351968,66.711502,-14.479187,-135.259598,,,
729861507.836458,59.718858,2.902662,122.826494,-0.029816,0.852341,0.395172,0.965413,0.111722,0.325912,66.711502,-14.479187,-135.259598,,,
729861507.839571,59.718858,2.902662,122.826494,-0.029816,0.852341,0.395172,0.965413,0.111722,0.325912,66.711502,-14.479187,-135.259598,,,
729861507.843173,59.986341,2.794991,122.975832,-0.029816,0.852341,0.395172,0.965413,0.111722,0.325912,66.711502,-14.479187,-135.259598,,,
729861507.846464,60.244075,2.688118,123.117228,-0.01445,0.856934,0.39473,0.89158,0.058744,0.291944,66.370041,-16.043808,-133.751221,,,
729861507.849858,60.244075,2.688118,123.117228,-0.01445,0.856934,0.39473,0.89158,0.058744,0.291944,66.370041,-16.043808,-133.751221,,,
729861507.853129,60.492978,2.582522,123.25297,-0.01445,0.856934,0.39473,0.89158,0.058744,0.291944,66.370041,-16.043808,-133.751221,,,
729861507.85631,60.730995,2.47582,123.386361,-0.008835,0.866104,0.395218,0.830337,0.040608,0.264345,66.370041,-16.043808,-133.751221,,,
729861507.859813,60.730995,2.47582,123.386361,-0.008835,0.866104,0.395218,0.830337,0.040608,0.264345,66.370041,-16.043808,-133.751221,,,
729861507.863202,60.954259,2.364867,123.519096,-0.008835,0.866104,0.395218,0.830337,0.040608,0.264345,66.370041,-16.043808,-133.751221,,,
729861507.866451,61.159469,2.24872,123.65135,-0.007996,0.872299,0.375992,0.725015,0.010027,0.252187,66.370041,-16.043808,-133.751221,,,
729861507.869808,61.159469,2.24872,123.65135,-0.007996,0.872299,0.375992,0.725015,0.010027,0.252187,66.370041,-16.043808,-133.751221,,,
729861507.872864,61.343351,2.126175,123.78305,-0.007996,0.872299,0.375992,0.725015,0.010027,0.252187,66.370041,-16.043808,-133.751221,,,
729861507.876502,61.502917,1.998376,123.913484,-0.008392,0.88678,0.313828,0.57092,-0.04052,0.236735,66.370041,-16.043808,-133.751221,,,
729861507.879794,61.502917,1.998376,123.913484,-0.008392,0.88678,0.313828,0.57092,-0.04052,0.236735,66.370041,-16.043808,-133.751221,,,
729861507.883122,61.637516,1.86943,124.041645,-0.008392,0.88678,0.313828,0.57092,-0.04052,0.236735,66.370041,-16.043808,-133.751221,,,
729861507.886466,61.746744,1.741485,124.168397,-0.002625,0.909668,0.255844,0.39495,-0.054298,0.221483,65.562927,-16.700897,-132.684906,,,
729861507.889627,61.746744,1.741485,124.168397,-0.002625,0.909668,0.255844,0.39495,-0.054298,0.221483,65.562927,-16.700897,-132.684906,,,
729861507.893169,61.82963,1.616874,124.292794,-0.002625,0.909668,0.255844,0.39495,-0.054298,0.221483,65.562927,-16.700897,-132.684906,,,
729861507.896462,61.885086,1.499379,124.411981,0.003708,0.926956,0.241257,0.215328,-0.04413,0.204914,65.562927,-16.700897,-132.684906,,,
729861507.899801,61.885086,1.499379,124.411981,0.003708,0.926956,0.241257,0.215328,-0.04413,0.204914,65.562927,-16.700897,-132.684906,,,
729861507.903196,61.91448,1.392148,124.524092,0.003708,0.926956,0.241257,0.215328,-0.04413,0.204914,65.562927,-16.700897,-132.684906,,,
729861507.906224,61.921552,1.296852,124.627391,0.022339,0.927139,0.231445,0.03844,-0.014617,0.175139,65.562927,-16.700897,-132.684906,,,
729861507.909844,61.921552,1.296852,124.627391,0.022339,0.927139,0.231445,0.03844,-0.014617,0.175139,65.562927,-16.700897,-132.684906,,,
729861507.913166,61.909455,1.212976,124.719234,0.022339,0.927139,0.231445,0.03844,-0.014617,0.175139,65.562927,-16.700897,-132.684906,,,
729861507.916536,61.880393,1.139083,124.796321,0.034042,0.910934,0.254959,-0.089514,-0.010464,0.131466,65.562927,-16.700897,-132.684906,,,
729861507.919816,61.880393,1.139083,124.796321,0.034042,0.910934,0.254959,-0.089514,-0.010464,0.131466,65.562927,-16.700897,-132.684906,,,
729861507.922925,61.83644,1.074623,124.855274,0.034042,0.910934,0.254959,-0.089514,-0.010464,0.131466,65.562927,-16.700897,-132.684906,,,
729861507.926499,61.77973,1.020029,124.892703,0.046432,0.891022,0.27713,-0.189692,-0.064631,0.064274,65.562927,-16.700897,-132.684906,,,
729861507.929875,61.77973,1.020029,124.892703,0.046432,0.891022,0.27713,-0.189692,-0.064631,0.064274,65.367889,-16.646149,-132.48143,,,
729861507.933143,61.711757,0.976643,124.90706,0.046432,0.891022,0.27713,-0.189692,-0.064631,0.064274,65.367889,-16.646149,-132.48143,,,
729861507.93646,61.634118,0.946712,124.899705,0.054321,0.8806,0.294296,-0.265782,-0.122796,-0.00835,65.367889,-16.646149,-132.48143,,,
729861507.93962,61.634118,0.946712,124.899705,0.054321,0.8806,0.294296,-0.265782,-0.122796,-0.00835,65.367889,-16.646149,-132.48143,,,
729861507.943225,61.548413,0.932235,124.874314,0.054321,0.8806,0.294296,-0.265782,-0.122796,-0.00835,65.367889,-16.646149,-132.48143,,,
729861507.946453,61.454973,0.933262,124.835596,0.056564,0.871552,0.334427,-0.312838,-0.121349,-0.067333,65.367889,-16.646149,-132.48143,,,
729861507.949803,61.454973,0.933262,124.835596,0.056564,0.871552,0.334427,-0.312838,-0.121349,-0.067333,65.367889,-16.646149,-132.48143,,,
729861507.953192,61.353613,0.947661,124.791016,0.056564,0.871552,0.334427,-0.312838,-0.121349,-0.067333,65.367889,-16.646149,-132.48143,,,
729861507.956266,61.242717,0.975046,124.74628,0.042725,0.852188,0.374023,-0.376583,-0.053681,-0.083879,65.367889,-16.646149,-132.48143,,,
729861507.959859,61.242717,0.975046,124.74628,0.042725,0.852188,0.374023,-0.376583,-0.053681,-0.083879,65.367889,-16.646149,-132.48143,,,
729861507.963133,61.122049,1.015234,124.705427,0.042725,0.852188,0.374023,-0.376583,-0.053681,-0.083879,65.367889,-16.646149,-132.48143,,,
729861507.966467,60.992246,1.065629,124.673547,0.023041,0.837296,0.3927,-0.442148,0.066129,-0.066657,65.367889,-16.646149,-132.48143,,,
729861507.969798,60.992246,1.065629,124.673547,0.023041,0.837296,0.3927,-0.442148,0.066129,-0.066657,65.496384,-16.155807,-133.560181,,,
729861507.97314,60.853222,1.123669,124.652797,0.023041,0.837296,0.3927,-0.442148,0.066129,-0.066657,65.496384,-16.155807,-133.560181,,,
729861507.976467,60.705446,1.184989,124.644219,0.002167,0.832382,0.413376,-0.50502,0.181967,-0.030196,65.496384,-16.155807,-133.560181,,,
729861507.979862,60.705446,1.184989,124.644219,0.002167,0.832382,0.413376,-0.50502,0.181967,-0.030196,65.496384,-16.155807,-133.560181,,,
729861507.983143,60.54948,1.244921,124.64671,0.002167,0.832382,0.413376,-0.50502,0.181967,-0.030196,65.496384,-16.155807,-133.560181,,,
729861507.986464,60.385401,1.299644,124.657629,-0.015366,0.834427,0.421509,-0.566127,0.229395,0.00419,65.496384,-16.155807,-133.560181,,,
729861507.989564,60.385401,1.299644,124.657629,-0.015366,0.834427,0.421509,-0.566127,0.229395,0.00419,65.496384,-16.155807,-133.560181,,,
729861507.993264,60.212376,1.345085,124.674507,-0.015366,0.834427,0.421509,-0.566127,0.229395,0.00419,65.496384,-16.155807,-133.560181,,,
729861507.996466,60.029699,1.377377,124.695054,-0.024597,0.848465,0.404327,-0.628862,0.191195,0.018511,65.496384,-16.155807,-133.560181,,,
729861507.999803,60.029699,1.377377,124.695054,-0.024597,0.848465,0.404327,-0.628862,0.191195,0.018511,65.496384,-16.155807,-133.560181,,,
729861508.003137,59.836778,1.394023,124.716095,-0.024597,0.848465,0.404327,-0.628862,0.191195,0.018511,65.496384,-16.155807,-133.560181,,,
729861508.00624,59.632178,1.393591,124.733327,-0.030319,0.856949,0.385315,-0.701055,0.075269,0.014954,65.496384,-16.155807,-133.560181,,,
729861508.009843,59.632178,1.393591,124.733327,-0.030319,0.856949,0.385315,-0.701055,0.075269,0.014954,66.030533,-15.381058,-134.658035,,,
729861508.013124,59.413679,1.37587,124.743066,-0.030319,0.856949,0.385315,-0.701055,0.075269,0.014954,66.030533,-15.381058,-134.658035,,,
729861508.016464,59.178952,1.342948,124.742212,-0.028381,0.874756,0.361328,-0.797314,-0.094988,-0.015238,66.030533,-15.381058,-134.658035,,,
729861508.019889,59.178952,1.342948,124.742212,-0.028381,0.874756,0.361328,-0.797314,-0.094988,-0.015238,66.030533,-15.381058,-134.658035,,,
729861508.022904,58.923785,1.29615,124.730271,-0.028381,0.874756,0.361328,-0.797314,-0.094988,-0.015238,66.030533,-15.381058,-134.658035,,,
729861508.026492,58.641538,1.236434,124.70788,-0.019104,0.899185,0.326096,-0.951374,-0.255615,-0.056801,66.030533,-15.381058,-134.658035,,,
729861508.029808,58.641538,1.236434,124.70788,-0.019104,0.899185,0.326096,-0.951374,-0.255615,-0.056801,66.030533,-15.381058,-134.658035,,,
729861508.033207,58.327436,1.164937,124.678784,-0.019104,0.899185,0.326096,-0.951374,-0.255615,-0.056801,66.030533,-15.381058,-134.658035,,,
729861508.036454,57.980862,1.086065,124.648559,-0.018768,0.922195,0.272171,-1.179206,-0.36269,-0.083097,66.030533,-15.381058,-134.658035,,,
729861508.039566,57.980862,1.086065,124.648559,-0.018768,0.922195,0.272171,-1.179206,-0.36269,-0.083097,66.030533,-15.381058,-134.658035,,,
729861508.043164,57.603949,1.00676,124.622088,-0.018768,0.922195,0.272171,-1.179206,-0.36269,-0.083097,66.030533,-15.381058,-134.658035,,,
729861508.046465,57.199365,0.933315,124.604253,-0.019119,0.924454,0.277603,-1.387538,-0.324775,-0.064451,66.030533,-15.381058,-134.658035,,,
729861508.049876,57.199365,0.933315,124.604253,-0.019119,0.924454,0.277603,-1.387538,-0.324775,-0.064451,66.030533,-15.381058,-134.658035,,,
729861508.053117,56.769617,0.873511,124.599394,-0.019119,0.924454,0.277603,-1.387538,-0.324775,-0.064451,65.538208,-13.526428,-136.158646,,,
729861508.056255,56.769617,0.873511,124.599394,-0.018021,0.896393,0.360519,-1.55679,-0.13845,-0.008571,65.538208,-13.526428,-136.158646,,,
729861508.059903,56.317847,0.831778,124.611311,-0.018021,0.896393,0.360519,-1.55679,-0.13845,-0.008571,65.538208,-13.526428,-136.158646,,,
729861508.063138,55.847369,0.807452,124.640872,-0.018021,0.896393,0.360519,-1.55679,-0.13845,-0.008571,65.538208,-13.526428,-136.158646,,,
729861508.066472,55.362484,0.798791,124.686158,-0.022385,0.847595,0.44487,-1.678576,0.081573,0.057386,65.538208,-13.526428,-136.158646,,,
729861508.069801,55.362484,0.798791,124.686158,-0.022385,0.847595,0.44487,-1.678576,0.081573,0.057386,65.538208,-13.526428,-136.158646,,,
729861508.072956,54.867273,0.805654,124.743584,-0.022385,0.847595,0.44487,-1.678576,0.081573,0.057386,65.538208,-13.526428,-136.158646,,,
729861508.076491,54.364951,0.828513,124.80789,-0.020309,0.804764,0.503952,-1.746647,0.246529,0.105004,65.538208,-13.526428,-136.158646,,,
729861508.079796,54.364951,0.828513,124.80789,-0.020309,0.804764,0.503952,-1.746647,0.246529,0.105004,65.538208,-13.526428,-136.158646,,,
729861508.083152,53.857907,0.865665,124.874963,-0.020309,0.804764,0.503952,-1.746647,0.246529,0.105004,65.538208,-13.526428,-136.158646,,,
729861508.086463,53.34653,0.913637,124.94114,-0.015854,0.783005,0.548843,-1.777341,0.35269,0.110734,65.538208,-13.526428,-136.158646,,,
729861508.089568,53.34653,0.913637,124.94114,-0.015854,0.783005,0.548843,-1.777341,0.35269,0.110734,65.538208,-13.526428,-136.158646,,,
729861508.093171,52.828085,0.970275,125.001451,-0.015854,0.783005,0.548843,-1.777341,0.35269,0.110734,65.628922,-10.464279,-138.380508,,,
729861508.096461,52.298207,1.033756,125.054819,-0.007935,0.77536,0.564133,-1.833412,0.368357,0.083291,65.628922,-10.464279,-138.380508,,,
729861508.099871,52.298207,1.033756,125.054819,-0.007935,0.77536,0.564133,-1.833412,0.368357,0.083291,65.628922,-10.464279,-138.380508,,,
729861508.103124,51.755,1.102699,125.104143,-0.007935,0.77536,0.564133,-1.833412,0.368357,0.083291,65.628922,-10.464279,-138.380508,,,
729861508.106182,51.755,1.102699,125.104143,-0.011795,0.777924,0.538757,-1.924968,0.382213,0.066793,65.628922,-10.464279,-138.380508,,,
729861508.109877,51.200585,1.172369,125.154451,-0.011795,0.777924,0.538757,-1.924968,0.382213,0.066793,65.628922,-10.464279,-138.380508,,,
729861508.113184,50.637057,1.235476,125.21098,-0.011795,0.777924,0.538757,-1.924968,0.382213,0.066793,65.628922,-10.464279,-138.380508,,,
729861508.116464,50.637057,1.287117,125.275919,-0.040222,0.743011,0.573105,-1.988611,0.363356,0.093698,65.628922,-10.464279,-138.380508,,,
729861508.119806,50.065042,1.287117,125.275919,-0.040222,0.743011,0.573105,-1.988611,0.363356,0.093698,65.628922,-10.464279,-138.380508,,,
729861508.122895,49.484228,1.326088,125.348782,-0.040222,0.743011,0.573105,-1.988611,0.363356,0.093698,65.628922,-10.464279,-138.380508,,,
729861508.126493,48.892928,1.352718,125.428303,-0.055283,0.710983,0.597702,-2.051435,0.313059,0.12801,65.628922,-10.464279,-138.380508,,,
729861508.129802,48.892928,1.352718,125.428303,-0.055283,0.710983,0.597702,-2.051435,0.313059,0.12801,65.628922,-10.464279,-138.380508,,,
729861508.13314,48.289394,1.368573,125.512204,-0.055283,0.710983,0.597702,-2.051435,0.313059,0.12801,66.198166,-6.993378,-140.695724,,,
729861508.136459,48.289394,1.368573,125.512204,-0.063065,0.712036,0.584259,-2.135055,0.255226,0.149398,66.198166,-6.993378,-140.695724,,,
729861508.139634,47.674992,1.374048,125.597705,-0.063065,0.712036,0.584259,-2.135055,0.255226,0.149398,66.198166,-6.993378,-140.695724,,,
729861508.143158,47.049673,1.365384,125.682322,-0.063065,0.712036,0.584259,-2.135055,0.255226,0.149398,66.198166,-6.993378,-140.695724,,,
729861508.146452,47.049673,1.33944,125.762924,-0.056351,0.70929,0.580948,-2.216006,0.138037,0.139585,66.198166,-6.993378,-140.695724,,,
729861508.149824,46.410659,1.33944,125.762924,-0.056351,0.70929,0.580948,-2.216006,0.138037,0.139585,66.198166,-6.993378,-140.695724,,,
729861508.153193,45.754103,1.295514,125.836362,-0.056351,0.70929,0.580948,-2.216006,0.138037,0.139585,66.198166,-6.993378,-140.695724,,,
729861508.156253,45.754103,1.295514,125.836362,-0.056351,0.70929,0.580948,-2.216006,0.138037,0.139585,66.198166,-6.993378,-140.695724,,,
729861508.159831,45.076771,1.236554,125.899817,-0.038666,0.704117,0.550369,-2.344941,-0.02712,0.105755,66.198166,-6.993378,-140.695724,,,
729861508.163137,44.377702,1.168479,125.952207,-0.038666,0.704117,0.550369,-2.344941,-0.02712,0.105755,66.198166,-6.993378,-140.695724,,,
729861508.166455,44.377702,1.168479,125.952207,-0.02211,0.715012,0.51152,-2.492823,-0.139384,0.058974,66.198166,-6.993378,-140.695724,,,
729861508.169821,43.657205,1.09866,125.993668,-0.02211,0.715012,0.51152,-2.492823,-0.139384,0.058974,66.198166,-6.993378,-140.695724,,,
729861508.172892,42.916183,1.032818,126.025837,-0.02211,0.715012,0.51152,-2.492823,-0.139384,0.058974,66.043076,-2.767319,-143.185043,,,
729861508.176485,42.916183,1.032818,126.025837,-0.004395,0.710144,0.521988,-2.627649,-0.146198,0.021454,66.043076,-2.767319,-143.185043,,,
729861508.179862,42.159093,0.973031,126.052346,-0.004395,0.710144,0.521988,-2.627649,-0.146198,0.021454,66.043076,-2.767319,-143.185043,,,
729861508.183135,41.393982,0.91949,126.076652,-0.004395,0.710144,0.521988,-2.627649,-0.146198,0.021454,66.043076,-2.767319,-143.185043,,,
729861508.18646,41.393982,0.91949,126.076652,0.004288,0.685181,0.558014,-2.669687,-0.111642,0.02195,66.043076,-2.767319,-143.185043,,,
729861508.189567,40.630743,0.873273,126.102335,0.004288,0.685181,0.558014,-2.669687,-0.111642,0.02195,66.043076,-2.767319,-143.185043,,,
729861508.193155,39.878733,0.837869,126.132354,0.004288,0.685181,0.558014,-2.669687,-0.111642,0.02195,66.043076,-2.767319,-143.185043,,,
729861508.19652,39.878733,0.837869,126.132354,-0.00293,0.613937,0.660416,-2.574391,-0.010586,0.05094,66.043076,-2.767319,-143.185043,,,
729861508.199819,39.14665,0.815878,126.167686,-0.00293,0.613937,0.660416,-2.574391,-0.010586,0.05094,66.043076,-2.767319,-143.185043,,,
729861508.203211,38.443988,0.808518,126.209729,-0.00293,0.613937,0.660416,-2.574391,-0.010586,0.05094,66.043076,-2.767319,-143.185043,,,
729861508.206316,38.443988,0.808518,126.209729,-0.00293,0.613937,0.660416,-2.574391,-0.010586,0.05094,66.043076,-2.767319,-143.185043,,,
729861508.20986,37.777748,0.812532,126.258285,-0.001007,0.542572,0.78746,-2.356232,0.116009,0.094805,66.043076,-2.767319,-143.185043,,,
729861508.21315,37.148641,0.820909,126.310617,-0.001007,0.542572,0.78746,-2.356232,0.116009,0.094805,66.043076,-2.767319,-143.185043,,,
729861508.216453,37.148641,0.820909,126.310617,-0.001007,0.542572,0.78746,-2.356232,0.116009,0.094805,65.891647,2.147491,-145.470169,,,
729861508.21981,36.554036,0.829485,126.363487,0.001877,0.474945,0.90535,-2.099955,0.14295,0.118647,65.891647,2.147491,-145.470169,,,
729861508.222889,35.989441,0.837748,126.414093,0.001877,0.474945,0.90535,-2.099955,0.14295,0.118647,65.891647,2.147491,-145.470169,,,
729861508.226542,35.989441,0.837748,126.414093,0.001877,0.474945,0.90535,-2.099955,0.14295,0.118647,65.891647,2.147491,-145.470169,,,
729861508.229852,35.449944,0.847163,126.458282,0.005463,0.421265,0.94136,-1.899321,0.129697,0.105423,65.891647,2.147491,-145.470169,,,
729861508.233159,34.930497,0.858253,126.491769,0.005463,0.421265,0.94136,-1.899321,0.129697,0.105423,65.891647,2.147491,-145.470169,,,
729861508.236436,34.930497,0.858253,126.491769,0.005463,0.421265,0.94136,-1.899321,0.129697,0.105423,65.891647,2.147491,-145.470169,,,
729861508.239581,34.42637,0.869193,126.51231,0.002167,0.392258,0.972763,-1.765929,0.09286,0.042059,65.891647,2.147491,-145.470169,,,
729861508.243162,33.932245,0.877036,126.519162,0.002167,0.392258,0.972763,-1.765929,0.09286,0.042059,65.891647,2.147491,-145.470169,,,
729861508.246446,33.932245,0.877036,126.519162,0.002167,0.392258,0.972763,-1.765929,0.09286,0.042059,65.891647,2.147491,-145.470169,,,
729861508.249829,33.441231,0.879003,126.51318,0.000977,0.404861,0.949036,-1.707475,0.00858,-0.037653,65.891647,2.147491,-145.470169,,,
729861508.252916,32.943982,0.873313,126.496962,0.000977,0.404861,0.949036,-1.707475,0.00858,-0.037653,65.891647,2.147491,-145.470169,,,
729861508.256272,32.943982,0.873313,126.496962,0.000977,0.404861,0.949036,-1.707475,0.00858,-0.037653,66.001083,5.613831,-146.439941,,,
729861508.259868,32.432337,0.861863,126.474038,-0.010666,0.466721,0.870621,-1.763277,-0.077208,-0.093262,66.001083,5.613831,-146.439941,,,
729861508.263129,31.902013,0.849672,126.44942,-0.010666,0.466721,0.870621,-1.763277,-0.077208,-0.093262,66.001083,5.613831,-146.439941,,,
729861508.266529,31.902013,0.849672,126.44942,-0.010666,0.466721,0.870621,-1.763277,-0.077208,-0.093262,66.001083,5.613831,-146.439941,,,
729861508.269575,31.350009,0.842386,126.429391,-0.022919,0.509827,0.777679,-1.900676,-0.06937,-0.096458,66.001083,5.613831,-146.439941,,,
729861508.273162,30.777778,0.844154,126.420764,-0.022919,0.509827,0.777679,-1.900676,-0.06937,-0.096458,66.001083,5.613831,-146.439941,,,
729861508.276536,30.777778,0.844154,126.420764,-0.022919,0.509827,0.777679,-1.900676,-0.06937,-0.096458,66.001083,5.613831,-146.439941,,,
729861508.27985,30.194293,0.855953,126.431,-0.035522,0.522964,0.73819,-2.031133,0.04333,-0.017798,66.001083,5.613831,-146.439941,,,
729861508.283134,29.611815,0.873962,126.464265,-0.035522,0.522964,0.73819,-2.031133,0.04333,-0.017798,66.001083,5.613831,-146.439941,,,
729861508.286224,29.611815,0.873962,126.464265,-0.035522,0.522964,0.73819,-2.031133,0.04333,-0.017798,66.001083,5.613831,-146.439941,,,
729861508.289829,29.043567,0.892164,126.520076,-0.057449,0.483337,0.802094,-2.004107,0.158109,0.121811,66.001083,5.613831,-146.439941,,,
729861508.293132,28.499711,0.906915,126.594259,-0.057449,0.483337,0.802094,-2.004107,0.158109,0.121811,66.001083,5.613831,-146.439941,,,
729861508.296553,28.499711,0.906915,126.594259,-0.057449,0.483337,0.802094,-2.004107,0.158109,0.121811,66.050735,9.620285,-147.646927,,,
729861508.299818,27.983738,0.915963,126.679012,-0.053986,0.421921,0.909958,-1.821389,0.182116,0.22689,66.050735,9.620285,-147.646927,,,
729861508.302936,27.493498,0.918805,126.765497,-0.053986,0.421921,0.909958,-1.821389,0.182116,0.22689,66.050735,9.620285,-147.646927,,,
729861508.306574,27.493498,0.918805,126.765497,-0.053986,0.421921,0.909958,-1.821389,0.182116,0.22689,66.050735,9.620285,-147.646927,,,
729861508.309787,27.026278,0.917678,126.846404,-0.027603,0.386322,0.956009,-1.650119,0.13393,0.231182,66.050735,9.620285,-147.646927,,,
729861508.313128,26.581972,0.914363,126.915992,-0.027603,0.386322,0.956009,-1.650119,0.13393,0.231182,66.050735,9.620285,-147.646927,,,
729861508.316527,26.581972,0.914363,126.915992,-0.027603,0.386322,0.956009,-1.650119,0.13393,0.231182,66.050735,9.620285,-147.646927,,,
729861508.319704,26.160476,0.908509,126.970714,-0.004242,0.37204,0.975433,-1.490148,0.07727,0.157395,66.050735,9.620285,-147.646927,,,
729861508.323147,25.759288,0.898702,127.008536,-0.004242,0.37204,0.975433,-1.490148,0.07727,0.157395,66.050735,9.620285,-147.646927,,,
729861508.326545,25.759288,0.898702,127.008536,-0.004242,0.37204,0.975433,-1.490148,0.07727,0.157395,66.050735,9.620285,-147.646927,,,
729861508.329813,25.374215,0.884888,127.029612,0.009003,0.359451,1.011642,-1.349933,-0.004478,0.053384,66.050735,9.620285,-147.646927,,,
729861508.333131,25.000273,0.870899,127.037189,0.009003,0.359451,1.011642,-1.349933,-0.004478,0.053384,66.050735,9.620285,-147.646927,,,
729861508.336276,25.000273,0.870899,127.037189,0.009003,0.359451,1.011642,-1.349933,-0.004478,0.053384,65.891479,12.841354,-147.849487,,,
729861508.33991,24.632166,0.860152,127.036842,0.005417,0.352798,0.998032,-1.284312,-0.037705,-0.020945,65.891479,12.841354,-147.849487,,,
729861508.343141,24.263821,0.85198,127.036273,0.005417,0.352798,0.998032,-1.284312,-0.037705,-0.020945,65.891479,12.841354,-147.849487,,,
729861508.3466,24.263821,0.85198,127.036273,0.005417,0.352798,0.998032,-1.284312,-0.037705,-0.020945,65.891479,12.841354,-147.849487,,,
729861508.349816,23.888387,0.844367,127.043175,-0.027145,0.35849,0.985718,-1.294892,-0.020265,-0.007567,65.891479,12.841354,-147.849487,,,
729861508.352996,23.49886,0.837375,127.062536,-0.027145,0.35849,0.985718,-1.294892,-0.020265,-0.007567,65.891479,12.841354,-147.849487,,,
729861508.356548,23.49886,0.837375,127.062536,-0.027145,0.35849,0.985718,-1.294892,-0.020265,-0.007567,65.891479,12.841354,-147.849487,,,
729861508.359894,23.089842,0.832366,127.097378,-0.058197,0.348862,0.929871,-1.408595,0.026271,0.074248,65.891479,12.841354,-147.849487,,,
729861508.363137,22.658835,0.829147,127.150332,-0.058197,0.348862,0.929871,-1.408595,0.026271,0.074248,65.891479,12.841354,-147.849487,,,
729861508.366524,22.658835,0.829147,127.150332,-0.058197,0.348862,0.929871,-1.408595,0.026271,0.074248,65.891479,12.841354,-147.849487,,,
729861508.369787,22.20486,0.82354,127.222886,-0.081024,0.367523,0.868973,-1.564669,0.082656,0.1915,65.891479,12.841354,-147.849487,,,
729861508.373139,21.728001,0.809774,127.313982,-0.081024,0.367523,0.868973,-1.564669,0.082656,0.1915,65.891479,12.841354,-147.849487,,,
729861508.376462,21.728001,0.809774,127.313982,-0.081024,0.367523,0.868973,-1.564669,0.082656,0.1915,65.891479,12.841354,-147.849487,,,
729861508.379811,21.230635,0.785124,127.419442,-0.089157,0.367966,0.840302,-1.718668,0.058508,0.309219,66.073135,15.869141,-148.216614,,,
729861508.383132,20.719774,0.747222,127.534846,-0.089157,0.367966,0.840302,-1.718668,0.058508,0.309219,66.073135,15.869141,-148.216614,,,
729861508.386562,20.719774,0.747222,127.534846,-0.089157,0.367966,0.840302,-1.718668,0.058508,0.309219,66.073135,15.869141,-148.216614,,,
729861508.3898,20.205423,0.692535,127.65459,-0.065948,0.355911,0.832458,-1.80203,-0.021463,0.36843,66.073135,15.869141,-148.216614,,,
729861508.393139,19.699198,0.618952,127.769839,-0.065948,0.355911,0.832458,-1.80203,-0.021463,0.36843,66.073135,15.869141,-148.216614,,,
729861508.396462,19.699198,0.618952,127.769839,-0.065948,0.355911,0.832458,-1.80203,-0.021463,0.36843,66.073135,15.869141,-148.216614,,,
729861508.399872,19.210647,0.527064,127.871223,-0.021545,0.32724,0.926117,-1.726777,-0.180566,0.331997,66.073135,15.869141,-148.216614,,,
729861508.403127,18.745109,0.419754,127.951538,-0.021545,0.32724,0.926117,-1.726777,-0.180566,0.331997,66.073135,15.869141,-148.216614,,,
729861508.406464,18.745109,0.419754,127.951538,-0.021545,0.32724,0.926117,-1.726777,-0.180566,0.331997,66.073135,15.869141,-148.216614,,,
729861508.409797,18.304298,0.300689,128.005852,0.041855,0.306595,1.027084,-1.554957,-0.337036,0.192665,66.073135,15.869141,-148.216614,,,
729861508.413139,17.884616,0.173492,128.031347,0.041855,0.306595,1.027084,-1.554957,-0.337036,0.192665,66.073135,15.869141,-148.216614,,,
729861508.416477,17.884616,0.173492,128.031347,0.041855,0.306595,1.027084,-1.554957,-0.337036,0.192665,66.073135,15.869141,-148.216614,,,
729861508.419818,17.480235,0.042713,128.027702,0.088516,0.292679,1.055389,-1.415551,-0.44815,0.007221,65.608139,19.185638,-147.71344,,,
729861508.423132,17.08225,-0.088046,127.997156,0.088516,0.292679,1.055389,-1.415551,-0.44815,0.007221,65.608139,19.185638,-147.71344,,,
729861508.426466,17.08225,-0.088046,127.997156,0.088516,0.292679,1.055389,-1.415551,-0.44815,0.007221,65.608139,19.185638,-147.71344,,,
729861508.42984,16.678094,-0.215195,127.943381,0.11969,0.29335,1.010651,-1.38908,-0.499741,-0.163495,65.608139,19.185638,-147.71344,,,
729861508.43313,16.249628,-0.328742,127.872757,0.11969,0.29335,1.010651,-1.38908,-0.499741,-0.163495,65.608139,19.185638,-147.71344,,,
729861508.436472,16.249628,-0.328742,127.872757,0.11969,0.29335,1.010651,-1.38908,-0.499741,-0.163495,65.608139,19.185638,-147.71344,,,
729861508.439823,15.780506,-0.411889,127.793376,0.119186,0.336487,0.914429,-1.590562,-0.401303,-0.257905,65.608139,19.185638,-147.71344,,,
729861508.443132,15.262837,-0.451423,127.714445,0.119186,0.336487,0.914429,-1.590562,-0.401303,-0.257905,65.608139,19.185638,-147.71344,,,
729861508.446519,15.262837,-0.451423,127.714445,0.119186,0.336487,0.914429,-1.590562,-0.401303,-0.257905,65.608139,19.185638,-147.71344,,,
729861508.449813,14.694858,-0.444076,127.646633,0.071106,0.320374,0.836044,-1.940191,-0.077828,-0.230745,65.608139,19.185638,-147.71344,,,
729861508.453147,14.076598,-0.392229,127.598411,0.071106,0.320374,0.836044,-1.940191,-0.077828,-0.230745,65.608139,19.185638,-147.71344,,,
729861508.456494,14.076598,-0.392229,127.598411,0.071106,0.320374,0.836044,-1.940191,-0.077828,-0.230745,65.608139,19.185638,-147.71344,,,
729861508.459804,13.408382,-0.299625,127.576259,0.007751,0.287643,0.834122,-2.285386,0.267247,-0.0896,65.427719,22.880432,-147.90744,,,
729861508.463129,12.69802,-0.169091,127.586939,0.007751,0.287643,0.834122,-2.285386,0.267247,-0.0896,65.427719,22.880432,-147.90744,,,
729861508.466461,12.69802,-0.169091,127.586939,0.007751,0.287643,0.834122,-2.285386,0.267247,-0.0896,65.427719,22.880432,-147.90744,,,
729861508.469792,11.960645,-0.009786,127.636005,-0.037628,0.242462,0.80632,-2.555691,0.574799,0.136873,65.427719,22.880432,-147.90744,,,
729861508.473127,11.214094,0.160064,127.722985,-0.037628,0.242462,0.80632,-2.555691,0.574799,0.136873,65.427719,22.880432,-147.90744,,,
729861508.476492,11.214094,0.160064,127.722985,-0.037628,0.242462,0.80632,-2.555691,0.574799,0.136873,65.427719,22.880432,-147.90744,,,
729861508.479816,10.476206,0.324794,127.839952,-0.090958,0.141098,0.902618,-2.590566,0.665058,0.373529,65.427719,22.880432,-147.90744,,,
729861508.483133,9.763117,0.476039,127.972785,-0.090958,0.141098,0.902618,-2.590566,0.665058,0.373529,65.427719,22.880432,-147.90744,,,
729861508.486467,9.763117,0.476039,127.972785,-0.090958,0.141098,0.902618,-2.590566,0.665058,0.373529,65.427719,22.880432,-147.90744,,,
729861508.489812,9.08626,0.613029,128.102963,-0.054276,0.036713,1.033569,-2.399916,0.568706,0.442459,65.427719,22.880432,-147.90744,,,
729861508.493131,8.452649,0.738452,128.212082,-0.054276,0.036713,1.033569,-2.399916,0.568706,0.442459,65.427719,22.880432,-147.90744,,,
729861508.496472,8.452649,0.738452,128.212082,-0.054276,0.036713,1.033569,-2.399916,0.568706,0.442459,65.427719,22.880432,-147.90744,,,
729861508.499795,7.868224,0.852841,128.286606,0.027008,0.015305,1.146439,-2.085886,0.455942,0.266969,66.59903,27.870926,-147.558243,,,
729861508.503176,7.337322,0.951286,128.318582,0.027008,0.015305,1.146439,-2.085886,0.455942,0.266969,66.59903,27.870926,-147.558243,,,
729861508.506464,7.337322,0.951286,128.318582,0.027008,0.015305,1.146439,-2.085886,0.455942,0.266969,66.59903,27.870926,-147.558243,,,
729861508.509862,6.86099,1.023168,128.306938,0.089722,0.043518,1.211731,-1.705153,0.28387,-0.032745,66.59903,27.870926,-147.558243,,,
729861508.513139,6.434487,1.057684,128.257705,0.089722,0.043518,1.211731,-1.705153,0.28387,-0.032745,66.59903,27.870926,-147.558243,,,
729861508.516507,6.434487,1.057684,128.257705,0.089722,0.043518,1.211731,-1.705153,0.28387,-0.032745,66.59903,27.870926,-147.558243,,,
729861508.5198,6.047846,1.049085,128.17947,0.10379,0.085785,1.188187,-1.364563,-0.019798,-0.279175,66.59903,27.870926,-147.558243,,,
729861508.523195,5.684512,1.000932,128.081504,0.10379,0.085785,1.188187,-1.364563,-0.019798,-0.279175,66.59903,27.870926,-147.558243,,,
729861508.526547,5.684512,1.000932,128.081504,0.10379,0.085785,1.188187,-1.364563,-0.019798,-0.279175,66.59903,27.870926,-147.558243,,,
729861508.529812,5.326201,0.92578,127.973399,0.065369,0.09935,1.074554,-1.232349,-0.282927,-0.397206,66.59903,27.870926,-147.558243,,,
729861508.533135,4.955606,0.837612,127.863605,0.065369,0.09935,1.074554,-1.232349,-0.282927,-0.397206,66.59903,27.870926,-147.558243,,,
729861508.536477,4.955606,0.837612,127.863605,0.065369,0.09935,1.074554,-1.232349,-0.282927,-0.397206,66.59903,27.870926,-147.558243,,,
729861508.539932,4.555303,0.748597,127.758273,0.010208,0.089401,0.958496,-1.349808,-0.349722,-0.395478,66.59903,27.870926,-147.558243,,,
729861508.543123,4.115792,0.673937,127.664967,0.010208,0.089401,0.958496,-1.349808,-0.349722,-0.395478,66.136887,30.361771,-147.148361,,,
729861508.546464,4.115792,0.673937,127.664967,0.010208,0.089401,0.958496,-1.349808,-0.349722,-0.395478,66.136887,30.361771,-147.148361,,,
729861508.549815,3.64297,0.628954,127.594369,-0.024185,0.082382,0.864197,-1.627522,-0.208215,-0.294532,66.136887,30.361771,-147.148361,,,
729861508.553128,3.155447,0.622534,127.555957,-0.024185,0.082382,0.864197,-1.627522,-0.208215,-0.294532,66.136887,30.361771,-147.148361,,,
729861508.556511,3.155447,0.622534,127.555957,-0.024185,0.082382,0.864197,-1.627522,-0.208215,-0.294532,66.136887,30.361771,-147.148361,,,
729861508.559825,2.676101,0.660601,127.555968,-0.088974,0.045395,0.924011,-1.692614,0.090899,-0.056021,66.136887,30.361771,-147.148361,,,
729861508.563132,2.226376,0.747106,127.596678,-0.088974,0.045395,0.924011,-1.692614,0.090899,-0.056021,66.136887,30.361771,-147.148361,,,
729861508.566532,2.226376,0.747106,127.596678,-0.088974,0.045395,0.924011,-1.692614,0.090899,-0.056021,66.136887,30.361771,-147.148361,,,
729861508.569786,1.822693,0.880788,127.675808,-0.122559,-0.050598,1.143051,-1.454724,0.442034,0.225561,66.136887,30.361771,-147.148361,,,
729861508.573165,1.474473,1.056482,127.787678,-0.122559,-0.050598,1.143051,-1.454724,0.442034,0.225561,66.136887,30.361771,-147.148361,,,
729861508.576471,1.474473,1.056482,127.787678,-0.122559,-0.050598,1.143051,-1.454724,0.442034,0.225561,66.136887,30.361771,-147.148361,,,
729861508.579881,1.184203,1.264933,127.923444,-0.12117,-0.128036,1.279694,-1.066445,0.718555,0.43853,66.136887,30.361771,-147.148361,,,
729861508.583151,0.945808,1.493385,128.073526,-0.12117,-0.128036,1.279694,-1.066445,0.718555,0.43853,67.077835,33.361938,-146.743958,,,
729861508.586557,0.945808,1.493385,128.073526,-0.12117,-0.128036,1.279694,-1.066445,0.718555,0.43853,67.077835,33.361938,-146.743958,,,
729861508.589856,0.748633,1.727268,128.228525,-0.107376,-0.125992,1.28656,-0.726133,0.831766,0.519585,67.077835,33.361938,-146.743958,,,
729861508.593128,0.579707,1.9527,128.380179,-0.107376,-0.125992,1.28656,-0.726133,0.831766,0.519585,67.077835,33.361938,-146.743958,,,
729861508.596487,0.579707,1.9527,128.380179,-0.107376,-0.125992,1.28656,-0.726133,0.831766,0.519585,67.077835,33.361938,-146.743958,,,
729861508.599814,0.424514,2.161001,128.523239,-0.084183,-0.052917,1.17009,-0.561324,0.751379,0.486364,67.077835,33.361938,-146.743958,,,
729861508.603142,0.266512,2.347951,128.653462,-0.084183,-0.052917,1.17009,-0.561324,0.751379,0.486364,67.077835,33.361938,-146.743958,,,
729861508.606582,0.266512,2.347951,128.653462,-0.084183,-0.052917,1.17009,-0.561324,0.751379,0.486364,67.077835,33.361938,-146.743958,,,
729861508.609807,0.088155,2.505745,128.769168,-0.075516,0.004532,1.017609,-0.604833,0.586025,0.391053,67.077835,33.361938,-146.743958,,,
729861508.613129,-0.12224,2.624213,128.868903,-0.075516,0.004532,1.017609,-0.604833,0.586025,0.391053,67.077835,33.361938,-146.743958,,,
729861508.616462,-0.12224,2.624213,128.868903,-0.075516,0.004532,1.017609,-0.604833,0.586025,0.391053,67.077835,33.361938,-146.743958,,,
729861508.61986,-0.366536,2.694248,128.949268,-0.065506,0.02179,0.880615,-0.836307,0.292548,0.259761,67.077835,33.361938,-146.743958,,,
729861508.623159,-0.637779,2.710851,129.006263,-0.065506,0.02179,0.880615,-0.836307,0.292548,0.259761,68.076157,34.854935,-146.00351,,,
729861508.626467,-0.637779,2.710851,129.006263,-0.065506,0.02179,0.880615,-0.836307,0.292548,0.259761,68.076157,34.854935,-146.00351,,,
729861508.629801,-0.922481,2.677977,129.035262,-0.034668,0.033417,0.830566,-0.995432,-0.07727,0.079184,68.076157,34.854935,-146.00351,,,
729861508.633128,-1.205189,2.605527,129.0334,-0.034668,0.033417,0.830566,-0.995432,-0.07727,0.079184,68.076157,34.854935,-146.00351,,,
729861508.636461,-1.205189,2.605527,129.0334,-0.034668,0.033417,0.830566,-0.995432,-0.07727,0.079184,68.076157,34.854935,-146.00351,,,
729861508.639866,-1.472607,2.50392,129.001778,0.010117,0.019547,0.93985,-0.946038,-0.332979,-0.131919,68.076157,34.854935,-146.00351,,,
729861508.643129,-1.716854,2.381711,128.947162,0.010117,0.019547,0.93985,-0.946038,-0.332979,-0.131919,68.076157,34.854935,-146.00351,,,
729861508.64656,-1.716854,2.381711,128.947162,0.010117,0.019547,0.93985,-0.946038,-0.332979,-0.131919,68.076157,34.854935,-146.00351,,,
729861508.649821,-1.934543,2.245449,128.877968,0.012573,-0.004913,1.087799,-0.771723,-0.457916,-0.268472,68.076157,34.854935,-146.00351,,,
729861508.653134,-2.12607,2.10184,128.802222,0.012573,-0.004913,1.087799,-0.771723,-0.457916,-0.268472,68.076157,34.854935,-146.00351,,,
729861508.656524,-2.12607,2.10184,128.802222,0.012573,-0.004913,1.087799,-0.771723,-0.457916,-0.268472,68.076157,34.854935,-146.00351,,,
729861508.659867,-2.295458,1.957261,128.727814,-0.008148,-0.035004,1.139877,-0.593306,-0.494476,-0.288056,68.076157,34.854935,-146.00351,,,
729861508.66313,-2.44852,1.817858,128.660148,-0.008148,-0.035004,1.139877,-0.593306,-0.494476,-0.288056,68.076157,34.854935,-146.00351,,,
729861508.666482,-2.44852,1.817858,128.660148,-0.008148,-0.035004,1.139877,-0.593306,-0.494476,-0.288056,67.260559,36.413269,-145.680176,,,
729861508.66981,-2.593753,1.691854,128.601927,-0.030746,-0.075958,1.121964,-0.497047,-0.443624,-0.228554,67.260559,36.413269,-145.680176,,,
729861508.67317,-2.741043,1.586822,128.554657,-0.030746,-0.075958,1.121964,-0.497047,-0.443624,-0.228554,67.260559,36.413269,-145.680176,,,
729861508.676474,-2.741043,1.586822,128.554657,-0.030746,-0.075958,1.121964,-0.497047,-0.443624,-0.228554,67.260559,36.413269,-145.680176,,,
729861508.679822,-2.897058,1.508332,128.519627,-0.044418,-0.077881,1.079391,-0.527447,-0.289279,-0.147927,67.260559,36.413269,-145.680176,,,
729861508.683123,-3.066273,1.459477,128.496931,-0.044418,-0.077881,1.079391,-0.527447,-0.289279,-0.147927,67.260559,36.413269,-145.680176,,,
729861508.686554,-3.066273,1.459477,128.496931,-0.044418,-0.077881,1.079391,-0.527447,-0.289279,-0.147927,67.260559,36.413269,-145.680176,,,
729861508.689857,-3.253021,1.440714,128.484748,-0.04393,-0.067123,1.039169,-0.63099,-0.087407,-0.066581,67.260559,36.413269,-145.680176,,,
729861508.693129,-3.459421,1.451914,128.482615,-0.04393,-0.067123,1.039169,-0.63099,-0.087407,-0.066581,67.260559,36.413269,-145.680176,,,
729861508.696481,-3.459421,1.451914,128.482615,-0.04393,-0.067123,1.039169,-0.63099,-0.087407,-0.066581,67.260559,36.413269,-145.680176,,,
729861508.699876,-3.684866,1.493235,128.490563,-0.032471,-0.05806,1.005615,-0.767685,0.121763,-0.003104,67.260559,36.413269,-145.680176,,,
729861508.703125,-3.925678,1.563061,128.50756,-0.032471,-0.05806,1.005615,-0.767685,0.121763,-0.003104,67.260559,36.413269,-145.680176,,,
729861508.706506,-3.925678,1.563061,128.50756,-0.032471,-0.05806,1.005615,-0.767685,0.121763,-0.003104,67.072403,37.427521,-145.340271,,,
729861508.709795,-4.174039,1.656638,128.534022,-0.032394,-0.05925,0.996765,-0.868955,0.310007,0.060649,67.072403,37.427521,-145.340271,,,
729861508.71313,-4.419904,1.766398,128.568575,-0.032394,-0.05925,0.996765,-0.868955,0.310007,0.060649,67.072403,37.427521,-145.340271,,,
729861508.716487,-4.419904,1.766398,128.568575,-0.032394,-0.05925,0.996765,-0.868955,0.310007,0.060649,67.072403,37.427521,-145.340271,,,
729861508.719818,-4.653451,1.882073,128.606975,-0.037323,-0.095337,1.03389,-0.833414,0.395342,0.105536,67.072403,37.427521,-145.340271,,,
729861508.723171,-4.866068,1.995035,128.643215,-0.037323,-0.095337,1.03389,-0.833414,0.395342,0.105536,67.072403,37.427521,-145.340271,,,
729861508.726543,-4.866068,1.995035,128.643215,-0.037323,-0.095337,1.03389,-0.833414,0.395342,0.105536,67.072403,37.427521,-145.340271,,,
729861508.729819,-5.048594,2.099816,128.671751,-0.019791,-0.121124,1.086853,-0.671826,0.367087,0.08176,67.072403,37.427521,-145.340271,,,
729861508.733138,-5.192825,2.19253,128.688224,-0.019791,-0.121124,1.086853,-0.671826,0.367087,0.08176,67.072403,37.427521,-145.340271,,,
729861508.736488,-5.192825,2.19253,128.688224,-0.019791,-0.121124,1.086853,-0.671826,0.367087,0.08176,67.072403,37.427521,-145.340271,,,
729861508.739909,-5.292866,2.270629,128.688685,0.010956,-0.110977,1.162598,-0.390137,0.289072,0.001416,67.072403,37.427521,-145.340271,,,
729861508.743126,-5.347038,2.332967,128.672661,0.010956,-0.110977,1.162598,-0.390137,0.289072,0.001416,67.072403,37.427521,-145.340271,,,
729861508.746377,-5.347038,2.332967,128.672661,0.010956,-0.110977,1.162598,-0.390137,0.289072,0.001416,67.734375,38.452118,-144.717575,,,
729861508.749836,-5.35661,2.376966,128.642607,0.020065,-0.128143,1.219772,-0.061728,0.182574,-0.098051,67.734375,38.452118,-144.717575,,,
729861508.753135,-5.326438,2.398438,128.603159,0.020065,-0.128143,1.219772,-0.061728,0.182574,-0.098051,67.734375,38.452118,-144.717575,,,
729861508.756566,-5.326438,2.398438,128.603159,0.020065,-0.128143,1.219772,-0.061728,0.182574,-0.098051,67.734375,38.452118,-144.717575,,,
729861508.759841,-5.265179,2.39538,128.559415,-0.007797,-0.137421,1.215591,0.200069,0.029699,-0.144511,67.734375,38.452118,-144.717575,,,
729861508.763132,-5.18371,2.369849,128.515861,-0.007797,-0.137421,1.215591,0.200069,0.029699,-0.144511,67.734375,38.452118,-144.717575,,,
729861508.766553,-5.18371,2.369849,128.515861,-0.007797,-0.137421,1.215591,0.200069,0.029699,-0.144511,67.734375,38.452118,-144.717575,,,
729861508.769804,-5.092494,2.325883,128.475278,-0.047531,-0.1353,1.141846,0.322718,-0.121619,-0.130505,67.734375,38.452118,-144.717575,,,
729861508.773177,-4.999464,2.269067,128.439203,-0.047531,-0.1353,1.141846,0.322718,-0.121619,-0.130505,67.734375,38.452118,-144.717575,,,
729861508.776488,-4.999464,2.269067,128.439203,-0.047531,-0.1353,1.141846,0.322718,-0.121619,-0.130505,67.734375,38.452118,-144.717575,,,
729861508.77987,-4.911678,2.206372,128.408871,-0.07048,-0.121613,1.060318,0.317945,-0.206145,-0.100058,67.734375,38.452118,-144.717575,,,
729861508.78313,-4.835575,2.144176,128.385412,-0.07048,-0.121613,1.060318,0.317945,-0.206145,-0.100058,67.734375,38.452118,-144.717575,,,
729861508.786469,-4.835575,2.144176,128.385412,-0.07048,-0.121613,1.060318,0.317945,-0.206145,-0.100058,67.394104,38.033615,-144.596329,,,
729861508.789875,-4.775043,2.086966,128.371381,-0.078537,-0.104385,1.01387,0.227937,-0.200356,-0.051416,67.394104,38.033615,-144.596329,,,
729861508.793132,-4.731812,2.037457,128.367694,-0.078537,-0.104385,1.01387,0.227937,-0.200356,-0.051416,67.394104,38.033615,-144.596329,,,
729861508.796506,-4.731812,2.037457,128.367694,-0.078537,-0.104385,1.01387,0.227937,-0.200356,-0.051416,67.394104,38.033615,-144.596329,,,
729861508.799816,-4.705339,1.997322,128.373405,-0.078583,-0.098068,0.993347,0.105217,-0.147509,0.01575,67.394104,38.033615,-144.596329,,,
729861508.803135,-4.690901,1.966659,128.386138,-0.078583,-0.098068,0.993347,0.105217,-0.147509,0.01575,67.394104,38.033615,-144.596329,,,
729861508.806593,-4.690901,1.966659,128.386138,-0.078583,-0.098068,0.993347,0.105217,-0.147509,0.01575,67.394104,38.033615,-144.596329,,,
729861508.809862,-4.682371,1.945692,128.401286,-0.063385,-0.095978,1.00174,0.028453,-0.083771,0.05586,67.394104,38.033615,-144.596329,,,
729861508.813158,-4.675165,1.934988,128.414077,-0.063385,-0.095978,1.00174,0.028453,-0.083771,0.05586,67.394104,38.033615,-144.596329,,,
729861508.816487,-4.675165,1.934988,128.414077,-0.063385,-0.095978,1.00174,0.028453,-0.083771,0.05586,67.394104,38.033615,-144.596329,,,
729861508.819806,-4.664509,1.934303,128.419573,-0.025635,-0.084793,1.043274,0.028888,-0.011225,0.029174,67.394104,38.033615,-144.596329,,,
729861508.823184,-4.647064,1.942813,128.414525,-0.025635,-0.084793,1.043274,0.028888,-0.011225,0.029174,67.394104,38.033615,-144.596329,,,
729861508.826461,-4.647064,1.942813,128.414525,-0.025635,-0.084793,1.043274,0.028888,-0.011225,0.029174,67.394104,38.033615,-144.596329,,,
729861508.829833,-4.62017,1.958953,128.398831,0.010513,-0.069305,1.079376,0.085313,0.055623,-0.043875,67.497238,37.8172,-144.884598,,,
729861508.833137,-4.58203,1.981271,128.374526,0.010513,-0.069305,1.079376,0.085313,0.055623,-0.043875,67.497238,37.8172,-144.884598,,,
729861508.836482,-4.58203,1.981271,128.374526,0.010513,-0.069305,1.079376,0.085313,0.055623,-0.043875,67.497238,37.8172,-144.884598,,,
729861508.839856,-4.533286,2.008382,128.344561,0.014801,-0.067368,1.094666,0.163067,0.103311,-0.096428,67.497238,37.8172,-144.884598,,,
729861508.843131,-4.476122,2.039264,128.311969,0.014801,-0.067368,1.094666,0.163067,0.103311,-0.096428,67.497238,37.8172,-144.884598,,,
729861508.846482,-4.476122,2.039264,128.311969,0.014801,-0.067368,1.094666,0.163067,0.103311,-0.096428,67.497238,37.8172,-144.884598,,,
729861508.849821,-4.41296,2.07306,128.279424,-0.00589,-0.079605,1.083298,0.219469,0.126567,-0.109618,67.497238,37.8172,-144.884598,,,
729861508.853136,-4.346078,2.109276,128.249185,-0.00589,-0.079605,1.083298,0.219469,0.126567,-0.109618,67.497238,37.8172,-144.884598,,,
729861508.856542,-4.346078,2.109276,128.249185,-0.00589,-0.079605,1.083298,0.219469,0.126567,-0.109618,67.497238,37.8172,-144.884598,,,
729861508.859816,-4.276855,2.148162,128.223258,-0.036163,-0.087997,1.053513,0.243329,0.142358,-0.086746,67.497238,37.8172,-144.884598,,,
729861508.863129,-4.205331,2.189095,128.20277,-0.036163,-0.087997,1.053513,0.243329,0.142358,-0.086746,67.497238,37.8172,-144.884598,,,
729861508.866483,-4.205331,2.189095,128.20277,-0.036163,-0.087997,1.053513,0.243329,0.142358,-0.086746,67.497238,37.8172,-144.884598,,,
729861508.869865,-4.130234,2.230736,128.18892,-0.062317,-0.091217,1.032181,0.259913,0.151165,-0.046471,67.688187,37.693832,-144.983246,,,
729861508.873166,-4.050782,2.270759,128.182372,-0.062317,-0.091217,1.032181,0.259913,0.151165,-0.046471,67.688187,37.693832,-144.983246,,,
729861508.87647,-4.050782,2.270759,128.182372,-0.062317,-0.091217,1.032181,0.259913,0.151165,-0.046471,67.688187,37.693832,-144.983246,,,
729861508.879813,-3.967211,2.306488,128.182123,-0.076355,-0.097809,1.026306,0.289279,0.133103,0.004682,67.688187,37.693832,-144.983246,,,
729861508.883133,-3.880256,2.334941,128.186081,-0.076355,-0.097809,1.026306,0.289279,0.133103,0.004682,67.688187,37.693832,-144.983246,,,
729861508.886477,-3.880256,2.334941,128.186081,-0.076355,-0.097809,1.026306,0.289279,0.133103,0.004682,67.688187,37.693832,-144.983246,,,
729861508.889855,-3.790796,2.353145,128.192342,-0.07872,-0.095627,1.013763,0.308135,0.077244,0.034985,67.688187,37.693832,-144.983246,,,
729861508.893129,-3.700331,2.359191,128.198986,-0.07872,-0.095627,1.013763,0.308135,0.077244,0.034985,67.688187,37.693832,-144.983246,,,
729861508.89655,-3.700331,2.359191,128.198986,-0.07872,-0.095627,1.013763,0.308135,0.077244,0.034985,67.688187,37.693832,-144.983246,,,
729861508.899815,-3.610432,2.350757,128.202971,-0.068054,-0.077988,0.98848,0.314574,-0.012635,0.031501,67.688187,37.693832,-144.983246,,,
729861508.903184,-3.522286,2.330552,128.20258,-0.068054,-0.077988,0.98848,0.314574,-0.012635,0.031501,67.688187,37.693832,-144.983246,,,
729861508.906519,-3.522286,2.330552,128.20258,-0.068054,-0.077988,0.98848,0.314574,-0.012635,0.031501,67.688187,37.693832,-144.983246,,,
729861508.9098,-3.43804,2.295252,128.196671,-0.048615,-0.057556,0.968857,0.299645,-0.099228,-0.003157,67.520691,37.000885,-145.348022,,,
729861508.913138,-3.358944,2.253176,128.185252,-0.048615,-0.057556,0.968857,0.299645,-0.099228,-0.003157,67.520691,37.000885,-145.348022,,,
729861508.916476,-3.358944,2.253176,128.185252,-0.048615,-0.057556,0.968857,0.299645,-0.099228,-0.003157,67.520691,37.000885,-145.348022,,,
729861508.919874,-3.287066,2.19936,128.168254,-0.031342,-0.040894,0.948914,0.260798,-0.161295,-0.045161,67.520691,37.000885,-145.348022,,,
729861508.923192,-3.222106,2.14576,128.146561,-0.031342,-0.040894,0.948914,0.260798,-0.161295,-0.045161,67.520691,37.000885,-145.348022,,,
729861508.926478,-3.222106,2.14576,128.146561,-0.031342,-0.040894,0.948914,0.260798,-0.161295,-0.045161,67.520691,37.000885,-145.348022,,,
729861508.929816,-3.163768,2.090294,128.120802,-0.020142,-0.034042,0.942429,0.209933,-0.181935,-0.079604,67.520691,37.000885,-145.348022,,,
729861508.933192,-3.104247,2.041466,128.091829,-0.020142,-0.034042,0.942429,0.209933,-0.181935,-0.079604,67.520691,37.000885,-145.348022,,,
729861508.936467,-3.104247,2.041466,128.091829,-0.020142,-0.034042,0.942429,0.209933,-0.181935,-0.079604,67.520691,37.000885,-145.348022,,,
729861508.939858,-3.04232,2.001503,128.060365,-0.013657,-0.039627,0.969971,0.219826,-0.141378,-0.102255,67.520691,37.000885,-145.348022,,,
729861508.943135,-2.97005,1.971102,128.027733,-0.013657,-0.039627,0.969971,0.219826,-0.141378,-0.102255,67.520691,37.000885,-145.348022,,,
729861508.946525,-2.97005,1.971102,128.027733,-0.013657,-0.039627,0.969971,0.219826,-0.141378,-0.102255,67.520691,37.000885,-145.348022,,,
729861508.949798,-2.890052,1.955974,127.995468,-0.008408,-0.051193,1.026276,0.284752,-0.065706,-0.10561,67.200195,36.283142,-145.384125,,,
729861508.953199,-2.796963,1.949876,127.965185,-0.008408,-0.051193,1.026276,0.284752,-0.065706,-0.10561,67.200195,36.283142,-145.384125,,,
729861508.956534,-2.796963,1.949876,127.965185,-0.008408,-0.051193,1.026276,0.284752,-0.065706,-0.10561,67.200195,36.283142,-145.384125,,,
729861508.959873,-2.699035,1.959425,127.938357,-0.014648,-0.063431,1.053055,0.350834,0.020039,-0.088886,67.200195,36.283142,-145.384125,,,
729861508.96314,-2.590499,1.976577,127.914727,-0.014648,-0.063431,1.053055,0.350834,0.020039,-0.088886,67.200195,36.283142,-145.384125,,,
729861508.966472,-2.590499,1.976577,127.914727,-0.014648,-0.063431,1.053055,0.350834,0.020039,-0.088886,67.200195,36.283142,-145.384125,,,
729861508.969807,-2.474851,2.003673,127.894918,-0.02742,-0.068069,1.053192,0.399032,0.093262,-0.057517,67.200195,36.283142,-145.384125,,,
729861508.973198,-2.353138,2.038574,127.878941,-0.02742,-0.068069,1.053192,0.399032,0.093262,-0.057517,67.200195,36.283142,-145.384125,,,
729861508.976469,-2.353138,2.038574,127.878941,-0.02742,-0.068069,1.053192,0.399032,0.093262,-0.057517,67.200195,36.283142,-145.384125,,,
729861508.979835,-2.228214,2.078243,127.865874,-0.03949,-0.061996,1.036438,0.436945,0.139367,-0.033728,67.200195,36.283142,-145.384125,,,
729861508.98314,-2.104375,2.119322,127.854859,-0.03949,-0.061996,1.036438,0.436945,0.139367,-0.033728,67.200195,36.283142,-145.384125,,,
729861508.986528,-2.104375,2.119322,127.854859,-0.03949,-0.061996,1.036438,0.436945,0.139367,-0.033728,67.200195,36.283142,-145.384125,,,
729861508.98984,-1.98499,2.158072,127.845747,-0.044556,-0.050446,1.008057,0.423846,0.142293,-0.018657,67.200195,36.283142,-145.384125,,,
729861508.993153,-1.873049,2.191152,127.837859,-0.044556,-0.050446,1.008057,0.423846,0.142293,-0.018657,67.352142,35.720535,-145.681549,,,
729861508.996471,-1.873049,2.191152,127.837859,-0.044556,-0.050446,1.008057,0.423846,0.142293,-0.018657,67.352142,35.720535,-145.681549,,,
729861508.999883,-1.77056,2.216559,127.829822,-0.048889,-0.032593,0.960052,0.369195,0.10085,-0.013895,67.352142,35.720535,-145.681549,,,
729861509.003184,-1.680148,2.233262,127.820841,-0.048889,-0.032593,0.960052,0.369195,0.10085,-0.013895,67.352142,35.720535,-145.681549,,,
