Time (sec),Pitch (deg),Roll (deg),Yaw(deg),X-Acceleration (g),Y-Acceleration (g),Z-Acceleration (g),Pitch Rate (deg/sec),Roll Rate (deg/sec),Yaw Rate (deg/sec),Magnetic Field in X direction (uT),Magnetic Field in Y direction (uT),Magnetic Field in Z Direction (uT),Latitude (deg),Longitude (deg),Altitude (m)
729861169.991546,-0.319571,3.691603,49.699815,-0.04277,-0.000793,0.993576,0.048337,0.018862,0.011237,69.260239,15.343887,-150.683975,,,
729861169.994785,-0.312039,3.696461,49.700886,-0.04277,-0.000793,0.993576,0.016593,0.017139,0.000521,69.260239,15.343887,-150.683975,,,
729861170.00016,-0.310279,3.704189,49.700442,-0.04364,0.011505,0.969177,0.016593,0.017139,0.000521,69.260239,15.343887,-150.683975,,,
729861170.001248,-0.310279,3.704189,49.700442,-0.04364,0.011505,0.969177,0.016593,0.017139,0.000521,69.260239,15.343887,-150.683975,,,
729861170.004838,-0.316774,3.706779,49.698799,-0.04364,0.011505,0.969177,-0.033768,0.009315,-0.010925,69.260239,15.343887,-150.683975,,,
729861170.008124,-0.316774,3.706779,49.698799,-0.04364,0.011505,0.969177,-0.033768,0.009315,-0.010925,69.260239,15.343887,-150.683975,,,
729861170.01148,-0.329637,3.710332,49.696428,-0.051025,0.014191,0.954376,-0.033768,0.009315,-0.010925,69.260239,15.343887,-150.683975,,,
729861170.014797,-0.347567,3.709982,49.694142,-0.051025,0.014191,0.954376,-0.066641,-0.002206,-0.012398,69.260239,15.343887,-150.683975,,,
729861170.018194,-0.347567,3.709982,49.694142,-0.051025,0.014191,0.954376,-0.066641,-0.002206,-0.012398,69.260239,15.343887,-150.683975,,,
729861170.021447,-0.369197,3.707917,49.692572,-0.06105,0.010437,0.960266,-0.066641,-0.002206,-0.012398,69.09108,15.318436,-150.675629,,,
729861170.024831,-0.391977,3.702407,49.692185,-0.06105,0.010437,0.960266,-0.079343,-0.021045,-0.004897,69.09108,15.318436,-150.675629,,,
729861170.028156,-0.391977,3.702407,49.692185,-0.06105,0.010437,0.960266,-0.079343,-0.021045,-0.004897,69.09108,15.318436,-150.675629,,,
729861170.031552,-0.415221,3.694924,49.693183,-0.069275,0.002716,0.977432,-0.079343,-0.021045,-0.004897,69.09108,15.318436,-150.675629,,,
729861170.034789,-0.435738,3.687884,49.695053,-0.069275,0.002716,0.977432,-0.066655,-0.022221,0.002007,69.09108,15.318436,-150.675629,,,
729861170.038142,-0.435738,3.687884,49.695053,-0.069275,0.002716,0.977432,-0.066655,-0.022221,0.002007,69.09108,15.318436,-150.675629,,,
729861170.041486,-0.455068,3.678731,49.697688,-0.067703,1.5e-05,0.99202,-0.066655,-0.022221,0.002007,69.09108,15.318436,-150.675629,,,
729861170.044793,-0.469236,3.671186,49.700595,-0.067703,1.5e-05,0.99202,-0.040312,-0.023211,0.005512,69.09108,15.318436,-150.675629,,,
729861170.048143,-0.469236,3.671186,49.700595,-0.067703,1.5e-05,0.99202,-0.040312,-0.023211,0.005512,69.09108,15.318436,-150.675629,,,
729861170.051477,-0.479582,3.662038,49.703586,-0.063049,-0.007675,1.006973,-0.040312,-0.023211,0.005512,69.09108,15.318436,-150.675629,,,
729861170.054794,-0.482267,3.657251,49.706878,-0.063049,-0.007675,1.006973,0.000321,-0.011889,0.010072,69.09108,15.318436,-150.675629,,,
729861170.058203,-0.482267,3.657251,49.706878,-0.063049,-0.007675,1.006973,0.000321,-0.011889,0.010072,69.09108,15.318436,-150.675629,,,
729861170.061456,-0.481001,3.64983,49.709584,-0.06308,-0.009781,1.021179,0.000321,-0.011889,0.010072,69.020721,15.46373,-150.5672,,,
729861170.064867,-0.475168,3.646987,49.711633,-0.06308,-0.009781,1.021179,0.026849,-0.006331,0.007011,69.020721,15.46373,-150.5672,,,
729861170.068136,-0.475168,3.646987,49.711633,-0.06308,-0.009781,1.021179,0.026849,-0.006331,0.007011,69.020721,15.46373,-150.5672,,,
729861170.071531,-0.465946,3.640583,49.712369,-0.056015,-0.003281,1.014923,0.026849,-0.006331,0.007011,69.020721,15.46373,-150.5672,,,
729861170.074863,-0.455991,3.638645,49.711543,-0.056015,-0.003281,1.014923,0.035949,-0.003023,-0.003514,69.020721,15.46373,-150.5672,,,
729861170.078128,-0.455991,3.638645,49.711543,-0.056015,-0.003281,1.014923,0.035949,-0.003023,-0.003514,69.020721,15.46373,-150.5672,,,
729861170.081476,-0.444627,3.633454,49.710169,-0.053085,0.000717,1.001678,0.035949,-0.003023,-0.003514,69.020721,15.46373,-150.5672,,,
729861170.084839,-0.438936,3.633676,49.708772,-0.053085,0.000717,1.001678,0.013658,0.006582,-0.005284,69.020721,15.46373,-150.5672,,,
729861170.088137,-0.438936,3.633676,49.708772,-0.053085,0.000717,1.001678,0.013658,0.006582,-0.005284,69.020721,15.46373,-150.5672,,,
729861170.091479,-0.433385,3.631475,49.707361,-0.054108,0.006195,0.990677,0.013658,0.006582,-0.005284,69.020721,15.46373,-150.5672,,,
729861170.094796,-0.43511,3.631508,49.705956,-0.054108,0.006195,0.990677,-0.012577,0.000821,-0.007007,69.020721,15.46373,-150.5672,,,
729861170.098203,-0.43511,3.631508,49.705956,-0.054108,0.006195,0.990677,-0.012577,0.000821,-0.007007,69.020721,15.46373,-150.5672,,,
729861170.101469,-0.437294,3.63013,49.704008,-0.052704,0.012451,0.986771,-0.012577,0.000821,-0.007007,69.020721,15.46373,-150.5672,,,
729861170.104796,-0.446059,3.628274,49.701523,-0.052704,0.012451,0.986771,-0.036191,-0.006867,-0.012305,68.826782,15.449387,-150.904205,,,
729861170.108134,-0.446059,3.628274,49.701523,-0.052704,0.012451,0.986771,-0.036191,-0.006867,-0.012305,68.826782,15.449387,-150.904205,,,
729861170.111529,-0.455759,3.626247,49.698223,-0.054749,0.006958,0.989914,-0.036191,-0.006867,-0.012305,68.826782,15.449387,-150.904205,,,
729861170.114788,-0.469267,3.621011,49.693638,-0.054749,0.006958,0.989914,-0.048965,-0.017451,-0.02199,68.826782,15.449387,-150.904205,,,
729861170.118131,-0.469267,3.621011,49.693638,-0.054749,0.006958,0.989914,-0.048965,-0.017451,-0.02199,68.826782,15.449387,-150.904205,,,
729861170.121463,-0.482394,3.616056,49.687935,-0.049072,0.00499,0.995773,-0.048965,-0.017451,-0.02199,68.826782,15.449387,-150.904205,,,
729861170.124863,-0.498114,3.608758,49.680843,-0.049072,0.00499,0.995773,-0.054546,-0.021977,-0.031946,68.826782,15.449387,-150.904205,,,
729861170.128121,-0.498114,3.608758,49.680843,-0.049072,0.00499,0.995773,-0.054546,-0.021977,-0.031946,68.826782,15.449387,-150.904205,,,
729861170.131472,-0.513044,3.602654,49.673046,-0.04808,0.000183,1.005676,-0.054546,-0.021977,-0.031946,68.826782,15.449387,-150.904205,,,
729861170.134826,-0.526628,3.598797,49.665393,-0.04808,0.000183,1.005676,-0.041647,-0.005581,-0.030128,68.826782,15.449387,-150.904205,,,
729861170.138138,-0.526628,3.598797,49.665393,-0.04808,0.000183,1.005676,-0.041647,-0.005581,-0.030128,68.826782,15.449387,-150.904205,,,
729861170.141464,-0.537404,3.596457,49.658439,-0.056183,-0.0047,1.020615,-0.041647,-0.005581,-0.030128,68.826782,15.449387,-150.904205,,,
729861170.144796,-0.544011,3.59579,49.652476,-0.056183,-0.0047,1.020615,-0.012768,0.002672,-0.021411,68.83226,15.615723,-150.793381,,,
729861170.148188,-0.544011,3.59579,49.652476,-0.056183,-0.0047,1.020615,-0.012768,0.002672,-0.021411,68.83226,15.615723,-150.793381,,,
729861170.151448,-0.544349,3.594487,49.64729,-0.058838,-0.008224,1.033096,-0.012768,0.002672,-0.021411,68.83226,15.615723,-150.793381,,,
729861170.154794,-0.540459,3.595951,49.642319,-0.058838,-0.008224,1.033096,0.022285,0.011112,-0.017848,68.83226,15.615723,-150.793381,,,
729861170.158136,-0.540459,3.595951,49.642319,-0.058838,-0.008224,1.033096,0.022285,0.011112,-0.017848,68.83226,15.615723,-150.793381,,,
729861170.161508,-0.530904,3.597202,49.637318,-0.059372,-0.012573,1.038589,0.022285,0.011112,-0.017848,68.83226,15.615723,-150.793381,,,
729861170.16479,-0.518946,3.603036,49.63243,-0.059372,-0.012573,1.038589,0.049765,0.025575,-0.015506,68.83226,15.615723,-150.793381,,,
729861170.168132,-0.518946,3.603036,49.63243,-0.059372,-0.012573,1.038589,0.049765,0.025575,-0.015506,68.83226,15.615723,-150.793381,,,
729861170.171466,-0.501078,3.607456,49.627895,-0.064621,-0.011093,1.035522,0.049765,0.025575,-0.015506,68.83226,15.615723,-150.793381,,,
729861170.174791,-0.482874,3.613469,49.624413,-0.064621,-0.011093,1.035522,0.067677,0.021606,-0.007138,68.83226,15.615723,-150.793381,,,
729861170.178132,-0.482874,3.613469,49.624413,-0.064621,-0.011093,1.035522,0.067677,0.021606,-0.007138,68.83226,15.615723,-150.793381,,,
729861170.181503,-0.459617,3.615947,49.621863,-0.06543,-0.005249,1.021622,0.067677,0.021606,-0.007138,68.83226,15.615723,-150.793381,,,
729861170.184832,-0.440482,3.620294,49.620247,-0.06543,-0.005249,1.021622,0.066375,0.014553,-0.000897,68.960892,15.342041,-151.074341,,,
729861170.188249,-0.440482,3.620294,49.620247,-0.06543,-0.005249,1.021622,0.066375,0.014553,-0.000897,68.960892,15.342041,-151.074341,,,
729861170.191485,-0.420781,3.620965,49.619092,-0.070099,-0.001511,1.005478,0.066375,0.014553,-0.000897,68.960892,15.342041,-151.074341,,,
729861170.194804,-0.407593,3.621708,49.617947,-0.070099,-0.001511,1.005478,0.0392,0.001791,-0.002684,68.960892,15.342041,-151.074341,,,
729861170.19814,-0.407593,3.621708,49.617947,-0.070099,-0.001511,1.005478,0.0392,0.001791,-0.002684,68.960892,15.342041,-151.074341,,,
729861170.201537,-0.397087,3.617414,49.616829,-0.071167,0.003479,0.985382,0.0392,0.001791,-0.002684,68.960892,15.342041,-151.074341,,,
729861170.204788,-0.3933,3.613575,49.616313,-0.071167,0.003479,0.985382,0.006502,-0.015105,-0.000744,68.960892,15.342041,-151.074341,,,
729861170.208142,-0.3933,3.613575,49.616313,-0.071167,0.003479,0.985382,0.006502,-0.015105,-0.000744,68.960892,15.342041,-151.074341,,,
729861170.211483,-0.390909,3.602945,49.616716,-0.069656,0.001694,0.978973,0.006502,-0.015105,-0.000744,68.960892,15.342041,-151.074341,,,
729861170.214796,-0.391794,3.59511,49.617521,-0.069656,0.001694,0.978973,-0.004523,-0.027146,0.001115,68.960892,15.342041,-151.074341,,,
729861170.218132,-0.391794,3.59511,49.617521,-0.069656,0.001694,0.978973,-0.004523,-0.027146,0.001115,68.960892,15.342041,-151.074341,,,
729861170.221477,-0.392413,3.583063,49.618232,-0.065598,0.000671,0.99147,-0.004523,-0.027146,0.001115,68.960892,15.342041,-151.074341,,,
729861170.224812,-0.392631,3.573346,49.618554,-0.065598,0.000671,0.99147,0.003077,-0.03066,-0.001224,68.823334,14.962372,-150.883347,,,
729861170.22818,-0.392631,3.573346,49.618554,-0.065598,0.000671,0.99147,0.003077,-0.03066,-0.001224,68.823334,14.962372,-150.883347,,,
729861170.231486,-0.390438,3.562603,49.618432,-0.056686,-0.008148,1.005402,0.003077,-0.03066,-0.001224,68.823334,14.962372,-150.883347,,,
729861170.234798,-0.385418,3.555282,49.617556,-0.056686,-0.008148,1.005402,0.023347,-0.017048,-0.005257,68.823334,14.962372,-150.883347,,,
729861170.238133,-0.385418,3.555282,49.617556,-0.056686,-0.008148,1.005402,0.023347,-0.017048,-0.005257,68.823334,14.962372,-150.883347,,,
729861170.241623,-0.377857,3.549303,49.615518,-0.052551,-0.013107,1.015915,0.023347,-0.017048,-0.005257,68.823334,14.962372,-150.883347,,,
729861170.244849,-0.366658,3.547313,49.612808,-0.052551,-0.013107,1.015915,0.043993,-0.000821,-0.008765,68.823334,14.962372,-150.883347,,,
729861170.248143,-0.366658,3.547313,49.612808,-0.052551,-0.013107,1.015915,0.043993,-0.000821,-0.008765,68.823334,14.962372,-150.883347,,,
729861170.251476,-0.354186,3.547233,49.609236,-0.046951,-0.013611,1.012863,0.043993,-0.000821,-0.008765,68.823334,14.962372,-150.883347,,,
729861170.254811,-0.33897,3.549092,49.604332,-0.046951,-0.013611,1.012863,0.056326,0.012235,-0.017323,68.823334,14.962372,-150.883347,,,
729861170.258132,-0.33897,3.549092,49.604332,-0.046951,-0.013611,1.012863,0.056326,0.012235,-0.017323,68.823334,14.962372,-150.883347,,,
729861170.261476,-0.323604,3.552685,49.598663,-0.048721,-0.0159,1.007385,0.056326,0.012235,-0.017323,68.823334,14.962372,-150.883347,,,
729861170.264799,-0.308596,3.556606,49.592888,-0.048721,-0.0159,1.007385,0.052671,0.017178,-0.018308,68.823334,14.962372,-150.883347,,,
729861170.268134,-0.308596,3.556606,49.592888,-0.048721,-0.0159,1.007385,0.052671,0.017178,-0.018308,68.795593,14.906235,-150.572617,,,
729861170.271475,-0.293544,3.561345,49.587434,-0.057251,-0.015808,0.996429,0.052671,0.017178,-0.018308,68.795593,14.906235,-150.572617,,,
729861170.27481,-0.2789,3.562513,49.582491,-0.057251,-0.015808,0.996429,0.052928,0.003322,-0.014621,68.795593,14.906235,-150.572617,,,
729861170.278125,-0.2789,3.562513,49.582491,-0.057251,-0.015808,0.996429,0.052928,0.003322,-0.014621,68.795593,14.906235,-150.572617,,,
729861170.28148,-0.263083,3.564718,49.577947,-0.062851,-0.017593,0.993423,0.052928,0.003322,-0.014621,68.795593,14.906235,-150.572617,,,
729861170.2848,-0.248553,3.563673,49.573954,-0.062851,-0.017593,0.993423,0.052451,-0.001154,-0.010772,68.795593,14.906235,-150.572617,,,
729861170.288127,-0.248553,3.563673,49.573954,-0.062851,-0.017593,0.993423,0.052451,-0.001154,-0.010772,68.795593,14.906235,-150.572617,,,
729861170.291488,-0.232946,3.564559,49.570282,-0.065109,-0.017258,0.9991,0.052451,-0.001154,-0.010772,68.795593,14.906235,-150.572617,,,
729861170.294796,-0.219266,3.562349,49.566724,-0.065109,-0.017258,0.9991,0.047696,-0.005792,-0.010149,68.795593,14.906235,-150.572617,,,
729861170.298147,-0.219266,3.562349,49.566724,-0.065109,-0.017258,0.9991,0.047696,-0.005792,-0.010149,68.795593,14.906235,-150.572617,,,
729861170.301466,-0.205699,3.561352,49.563635,-0.067764,-0.013519,0.992477,0.047696,-0.005792,-0.010149,68.795593,14.906235,-150.572617,,,
729861170.304799,-0.195665,3.558618,49.560912,-0.067764,-0.013519,0.992477,0.030017,-0.005272,-0.008703,68.795593,14.906235,-150.572617,,,
729861170.308132,-0.195665,3.558618,49.560912,-0.067764,-0.013519,0.992477,0.030017,-0.005272,-0.008703,68.752014,14.586868,-150.732864,,,
729861170.311464,-0.189667,3.555678,49.559155,-0.072281,-0.011185,0.984573,0.030017,-0.005272,-0.008703,68.752014,14.586868,-150.732864,,,
729861170.314799,-0.18588,3.554377,49.558709,-0.072281,-0.011185,0.984573,0.010544,-0.001134,-0.000783,68.752014,14.586868,-150.732864,,,
729861170.318128,-0.18588,3.554377,49.558709,-0.072281,-0.011185,0.984573,0.010544,-0.001134,-0.000783,68.752014,14.586868,-150.732864,,,
729861170.321476,-0.186082,3.55122,49.558337,-0.072769,-0.006516,0.978577,0.010544,-0.001134,-0.000783,68.752014,14.586868,-150.732864,,,
729861170.324809,-0.186703,3.551461,49.557287,-0.072769,-0.006516,0.978577,-0.004222,0.004584,-0.00654,68.752014,14.586868,-150.732864,,,
729861170.328136,-0.186703,3.551461,49.557287,-0.072769,-0.006516,0.978577,-0.004222,0.004584,-0.00654,68.752014,14.586868,-150.732864,,,
729861170.331572,-0.190056,3.548493,49.556185,-0.071701,-0.006012,0.981308,-0.004222,0.004584,-0.00654,68.752014,14.586868,-150.732864,,,
729861170.334796,-0.191753,3.55035,49.55531,-0.071701,-0.006012,0.981308,-0.005722,0.011119,-0.00513,68.752014,14.586868,-150.732864,,,
729861170.338137,-0.191753,3.55035,49.55531,-0.071701,-0.006012,0.981308,-0.005722,0.011119,-0.00513,68.752014,14.586868,-150.732864,,,
729861170.341549,-0.195819,3.54875,49.55483,-0.076721,-0.007523,0.983856,-0.005722,0.011119,-0.00513,68.752014,14.586868,-150.732864,,,
729861170.344849,-0.197222,3.552015,49.554746,-0.076721,-0.007523,0.983856,-0.00394,0.014731,-0.002352,68.752014,14.586868,-150.732864,,,
729861170.348205,-0.197222,3.552015,49.554746,-0.076721,-0.007523,0.983856,-0.00394,0.014731,-0.002352,68.622955,14.586365,-150.929688,,,
729861170.351575,-0.199746,3.553254,49.554782,-0.0737,-0.008301,0.987106,-0.00394,0.014731,-0.002352,68.622955,14.586365,-150.929688,,,
729861170.354799,-0.197373,3.556756,49.554874,-0.0737,-0.008301,0.987106,0.013424,0.016203,-0.000976,68.622955,14.586365,-150.929688,,,
729861170.358133,-0.197373,3.556756,49.554874,-0.0737,-0.008301,0.987106,0.013424,0.016203,-0.000976,68.622955,14.586365,-150.929688,,,
729861170.3615,-0.195095,3.560182,49.554316,-0.072449,-0.012054,0.99585,0.013424,0.016203,-0.000976,68.622955,14.586365,-150.929688,,,
729861170.364792,-0.18853,3.562008,49.55306,-0.072449,-0.012054,0.99585,0.026118,0.005869,-0.005084,68.622955,14.586365,-150.929688,,,
729861170.36814,-0.18853,3.562008,49.55306,-0.072449,-0.012054,0.99585,0.026118,0.005869,-0.005084,68.622955,14.586365,-150.929688,,,
729861170.371515,-0.184561,3.563417,49.550988,-0.069763,-0.009705,0.990845,0.026118,0.005869,-0.005084,68.622955,14.586365,-150.929688,,,
729861170.3748,-0.178499,3.563683,49.548227,-0.069763,-0.009705,0.990845,0.02145,0.003723,-0.010116,68.622955,14.586365,-150.929688,,,
729861170.378237,-0.178499,3.563683,49.548227,-0.069763,-0.009705,0.990845,0.02145,0.003723,-0.010116,68.622955,14.586365,-150.929688,,,
729861170.381484,-0.176477,3.565622,49.545536,-0.065018,-0.002075,0.97934,0.02145,0.003723,-0.010116,68.622955,14.586365,-150.929688,,,
729861170.384803,-0.176317,3.567503,49.542747,-0.065018,-0.002075,0.97934,-0.006237,0.01217,-0.012501,68.622955,14.586365,-150.929688,,,
729861170.388175,-0.176317,3.567503,49.542747,-0.065018,-0.002075,0.97934,-0.006237,0.01217,-0.012501,68.622955,14.586365,-150.929688,,,
729861170.391565,-0.182938,3.573748,49.539966,-0.06366,-0.000778,0.970932,-0.006237,0.01217,-0.012501,68.745026,14.655289,-150.605057,,,
729861170.394793,-0.192025,3.578276,49.538328,-0.06366,-0.000778,0.970932,-0.036474,0.018808,-0.006356,68.745026,14.655289,-150.605057,,,
729861170.39813,-0.192025,3.578276,49.538328,-0.06366,-0.000778,0.970932,-0.036474,0.018808,-0.006356,68.745026,14.655289,-150.605057,,,
729861170.401466,-0.206462,3.58708,49.538455,-0.0625,0.00032,0.963364,-0.036474,0.018808,-0.006356,68.745026,14.655289,-150.605057,,,
729861170.404792,-0.224743,3.594223,49.539443,-0.0625,0.00032,0.963364,-0.069117,0.031834,-0.002261,68.745026,14.655289,-150.605057,,,
729861170.408137,-0.224743,3.594223,49.539443,-0.0625,0.00032,0.963364,-0.069117,0.031834,-0.002261,68.745026,14.655289,-150.605057,,,
729861170.411463,-0.247219,3.606273,49.540193,-0.058212,-0.000916,0.968704,-0.069117,0.031834,-0.002261,68.745026,14.655289,-150.605057,,,
729861170.414793,-0.272354,3.618934,49.541011,-0.058212,-0.000916,0.968704,-0.090036,0.053528,-0.003069,68.745026,14.655289,-150.605057,,,
729861170.418122,-0.272354,3.618934,49.541011,-0.058212,-0.000916,0.968704,-0.090036,0.053528,-0.003069,68.745026,14.655289,-150.605057,,,
729861170.421459,-0.298659,3.636742,49.542723,-0.059692,-0.006256,0.985657,-0.090036,0.053528,-0.003069,68.745026,14.655289,-150.605057,,,
729861170.42479,-0.323417,3.651607,49.545064,-0.059692,-0.006256,0.985657,-0.082598,0.052257,0.001845,68.745026,14.655289,-150.605057,,,
729861170.428145,-0.323417,3.651607,49.545064,-0.059692,-0.006256,0.985657,-0.082598,0.052257,0.001845,68.745026,14.655289,-150.605057,,,
729861170.431529,-0.345258,3.667247,49.547033,-0.058731,-0.015305,0.99968,-0.082598,0.052257,0.001845,68.887344,14.54216,-150.750381,,,
729861170.434783,-0.361856,3.678087,49.547619,-0.058731,-0.015305,0.99968,-0.047778,0.037008,-0.005531,68.887344,14.54216,-150.750381,,,
729861170.438129,-0.361856,3.678087,49.547619,-0.058731,-0.015305,0.99968,-0.047778,0.037008,-0.005531,68.887344,14.54216,-150.750381,,,
729861170.441457,-0.374049,3.689042,49.546314,-0.056519,-0.020889,1.013565,-0.047778,0.037008,-0.005531,68.887344,14.54216,-150.750381,,,
729861170.44479,-0.379771,3.695735,49.543238,-0.056519,-0.020889,1.013565,-0.007216,0.02255,-0.015178,68.887344,14.54216,-150.750381,,,
729861170.448138,-0.379771,3.695735,49.543238,-0.056519,-0.020889,1.013565,-0.007216,0.02255,-0.015178,68.887344,14.54216,-150.750381,,,
729861170.451459,-0.381035,3.702149,49.538705,-0.059372,-0.025864,1.023056,-0.007216,0.02255,-0.015178,68.887344,14.54216,-150.750381,,,
729861170.454822,-0.376479,3.705049,49.534134,-0.059372,-0.025864,1.023056,0.026594,0.010099,-0.013188,68.887344,14.54216,-150.750381,,,
729861170.458214,-0.376479,3.705049,49.534134,-0.059372,-0.025864,1.023056,0.026594,0.010099,-0.013188,68.887344,14.54216,-150.750381,,,
729861170.46146,-0.367195,3.707068,49.531055,-0.063171,-0.022705,1.019745,0.026594,0.010099,-0.013188,68.887344,14.54216,-150.750381,,,
729861170.464789,-0.356562,3.708298,49.529796,-0.063171,-0.022705,1.019745,0.039536,0.008542,0.000394,68.887344,14.54216,-150.750381,,,
729861170.468145,-0.356562,3.708298,49.529796,-0.063171,-0.022705,1.019745,0.039536,0.008542,0.000394,68.887344,14.54216,-150.750381,,,
729861170.471464,-0.344733,3.709432,49.530046,-0.063263,-0.015732,1.009735,0.039536,0.008542,0.000394,68.649948,14.57605,-150.816864,,,
729861170.474781,-0.335139,3.70888,49.530521,-0.063263,-0.015732,1.009735,0.030952,-0.000478,0.001411,68.649948,14.57605,-150.816864,,,
729861170.478166,-0.335139,3.70888,49.530521,-0.063263,-0.015732,1.009735,0.030952,-0.000478,0.001411,68.649948,14.57605,-150.816864,,,
729861170.48146,-0.326866,3.707689,49.529993,-0.053741,-0.006409,0.990784,0.030952,-0.000478,0.001411,68.649948,14.57605,-150.816864,,,
729861170.484786,-0.323536,3.706114,49.527804,-0.053741,-0.006409,0.990784,0.005118,-0.001877,-0.011852,68.649948,14.57605,-150.816864,,,
729861170.488146,-0.323536,3.706114,49.527804,-0.053741,-0.006409,0.990784,0.005118,-0.001877,-0.011852,68.649948,14.57605,-150.816864,,,
729861170.491534,-0.324673,3.704924,49.523609,-0.047012,-6.1e-05,0.979599,0.005118,-0.001877,-0.011852,68.649948,14.57605,-150.816864,,,
729861170.494894,-0.33193,3.707327,49.517832,-0.047012,-6.1e-05,0.979599,-0.030435,0.015542,-0.025228,68.649948,14.57605,-150.816864,,,
729861170.498246,-0.33193,3.707327,49.517832,-0.047012,-6.1e-05,0.979599,-0.030435,0.015542,-0.025228,68.649948,14.57605,-150.816864,,,
729861170.501452,-0.343289,3.710965,49.511936,-0.05011,-0.000198,0.980667,-0.030435,0.015542,-0.025228,68.649948,14.57605,-150.816864,,,
729861170.504792,-0.357972,3.717169,49.506985,-0.05011,-0.000198,0.980667,-0.05182,0.023951,-0.020134,68.649948,14.57605,-150.816864,,,
729861170.508143,-0.357972,3.717169,49.506985,-0.05011,-0.000198,0.980667,-0.05182,0.023951,-0.020134,68.649948,14.57605,-150.816864,,,
729861170.511457,-0.375083,3.721714,49.503533,-0.060745,-0.003098,0.98584,-0.05182,0.023951,-0.020134,68.609909,14.541428,-150.482819,,,
729861170.514821,-0.390473,3.727379,49.502165,-0.060745,-0.003098,0.98584,-0.050641,0.022906,-0.005559,68.609909,14.541428,-150.482819,,,
729861170.518152,-0.390473,3.727379,49.502165,-0.060745,-0.003098,0.98584,-0.050641,0.022906,-0.005559,68.609909,14.541428,-150.482819,,,
729861170.521466,-0.407088,3.730557,49.502056,-0.06694,-0.008774,0.994232,-0.050641,0.022906,-0.005559,68.609909,14.541428,-150.482819,,,
729861170.524803,-0.407088,3.736757,49.502329,-0.06694,-0.008774,0.994232,-0.035916,0.024579,-0.002064,68.609909,14.541428,-150.482819,,,
729861170.528144,-0.419336,3.736757,49.502329,-0.06694,-0.008774,0.994232,-0.035916,0.024579,-0.002064,68.609909,14.541428,-150.482819,,,
729861170.531457,-0.431678,3.740613,49.502824,-0.067169,-0.013718,1.006042,-0.035916,0.024579,-0.002064,68.609909,14.541428,-150.482819,,,
729861170.534788,-0.431678,3.740613,49.503181,-0.067169,-0.013718,1.006042,-0.014767,0.017503,-0.001772,68.609909,14.541428,-150.482819,,,
729861170.538192,-0.437666,3.745608,49.503181,-0.067169,-0.013718,1.006042,-0.014767,0.017503,-0.001772,68.609909,14.541428,-150.482819,,,
729861170.541451,-0.443186,3.748555,49.502929,-0.062225,-0.017624,1.008606,-0.014767,0.017503,-0.001772,68.609909,14.541428,-150.482819,,,
729861170.544826,-0.443186,3.752761,49.501935,-0.062225,-0.017624,1.008606,0.009743,0.017953,-0.00538,68.609909,14.541428,-150.482819,,,
729861170.548124,-0.442247,3.752761,49.501935,-0.062225,-0.017624,1.008606,0.009743,0.017953,-0.00538,68.609909,14.541428,-150.482819,,,
729861170.551456,-0.439589,3.756439,49.499919,-0.060852,-0.01593,1.010269,0.009743,0.017953,-0.00538,68.609909,14.541428,-150.482819,,,
729861170.554813,-0.439589,3.756439,49.499919,-0.060852,-0.01593,1.010269,0.035055,0.021676,-0.010301,68.612671,14.380341,-150.473328,,,
729861170.558119,-0.431479,3.761405,49.496965,-0.060852,-0.01593,1.010269,0.035055,0.021676,-0.010301,68.612671,14.380341,-150.473328,,,
729861170.561458,-0.420548,3.764223,49.493462,-0.065933,-0.015106,1.010742,0.035055,0.021676,-0.010301,68.612671,14.380341,-150.473328,,,
729861170.564861,-0.420548,3.769802,49.490131,-0.065933,-0.015106,1.010742,0.035055,0.021676,-0.010301,68.612671,14.380341,-150.473328,,,
729861170.568128,-0.407609,3.769802,49.490131,-0.065933,-0.015106,1.010742,0.047144,0.023205,-0.008447,68.612671,14.380341,-150.473328,,,
729861170.571457,-0.393291,3.771193,49.487358,-0.069321,-0.014221,1.001221,0.047144,0.023205,-0.008447,68.612671,14.380341,-150.473328,,,
729861170.574828,-0.393291,3.771193,49.487358,-0.069321,-0.014221,1.001221,0.047144,0.023205,-0.008447,68.612671,14.380341,-150.473328,,,
729861170.578188,-0.381325,3.778099,49.485031,-0.069321,-0.014221,1.001221,0.038535,0.027837,-0.006045,68.612671,14.380341,-150.473328,,,
729861170.581448,-0.370168,3.7793,49.482983,-0.073303,-0.007111,0.98616,0.038535,0.027837,-0.006045,68.612671,14.380341,-150.473328,,,
729861170.584795,-0.370168,3.7793,49.482983,-0.073303,-0.007111,0.98616,0.038535,0.027837,-0.006045,68.612671,14.380341,-150.473328,,,
729861170.588122,-0.362122,3.782105,49.481286,-0.073303,-0.007111,0.98616,0.024683,0.00662,-0.004707,68.612671,14.380341,-150.473328,,,
729861170.591468,-0.35538,3.779548,49.48054,-0.077972,-0.00592,0.974396,0.024683,0.00662,-0.004707,68.612671,14.380341,-150.473328,,,
729861170.594811,-0.35538,3.779548,49.48054,-0.077972,-0.00592,0.974396,0.024683,0.00662,-0.004707,68.613022,14.501846,-150.589188,,,
729861170.598123,-0.35121,3.77605,49.480742,-0.077972,-0.00592,0.974396,0.012401,-0.013978,0.001046,68.613022,14.501846,-150.589188,,,
729861170.601458,-0.349373,3.770705,49.482101,-0.079132,-0.006012,0.979233,0.012401,-0.013978,0.001046,68.613022,14.501846,-150.589188,,,
729861170.604816,-0.349373,3.770705,49.482101,-0.079132,-0.006012,0.979233,0.012401,-0.013978,0.001046,68.613022,14.501846,-150.589188,,,
729861170.60814,-0.349646,3.763806,49.485206,-0.079132,-0.006012,0.979233,-0.005556,-0.023393,0.012036,68.613022,14.501846,-150.589188,,,
729861170.611458,-0.352815,3.75657,49.490154,-0.078995,-0.009018,0.980072,-0.005556,-0.023393,0.012036,68.613022,14.501846,-150.589188,,,
729861170.614827,-0.352815,3.75657,49.490154,-0.078995,-0.009018,0.980072,-0.005556,-0.023393,0.012036,68.613022,14.501846,-150.589188,,,
729861170.618212,-0.355657,3.748294,49.496671,-0.078995,-0.009018,0.980072,-0.011973,-0.026086,0.022567,68.613022,14.501846,-150.589188,,,
729861170.621457,-0.361086,3.739834,49.504587,-0.074966,-0.00705,0.984528,-0.011973,-0.026086,0.022567,68.613022,14.501846,-150.589188,,,
729861170.62485,-0.361086,3.739834,49.504587,-0.074966,-0.00705,0.984528,-0.011973,-0.026086,0.022567,68.613022,14.501846,-150.589188,,,
729861170.628144,-0.365195,3.733951,49.513905,-0.074966,-0.00705,0.984528,-0.016861,-0.014511,0.031953,68.613022,14.501846,-150.589188,,,
729861170.631465,-0.371778,3.729063,49.52394,-0.073288,-0.007599,0.993103,-0.016861,-0.014511,0.031953,68.613022,14.501846,-150.589188,,,
729861170.634828,-0.371778,3.729063,49.52394,-0.073288,-0.007599,0.993103,-0.016861,-0.014511,0.031953,68.45491,14.378601,-150.379501,,,
729861170.638148,-0.376563,3.728008,49.534274,-0.073288,-0.007599,0.993103,-0.017935,0.002323,0.033975,68.45491,14.378601,-150.379501,,,
729861170.641462,-0.381495,3.728212,49.543625,-0.065247,-0.009705,0.999802,-0.017935,0.002323,0.033975,68.45491,14.378601,-150.379501,,,
729861170.644823,-0.381495,3.728212,49.543625,-0.065247,-0.009705,0.999802,-0.017935,0.002323,0.033975,68.45491,14.378601,-150.379501,,,
729861170.648136,-0.383015,3.728966,49.550498,-0.065247,-0.009705,0.999802,-0.003237,0.005196,0.017577,68.45491,14.378601,-150.379501,,,
729861170.651467,-0.383376,3.730439,49.554781,-0.056137,-0.011063,1.00148,-0.003237,0.005196,0.017577,68.45491,14.378601,-150.379501,,,
729861170.654894,-0.383376,3.730439,49.554781,-0.056137,-0.011063,1.00148,-0.003237,0.005196,0.017577,68.45491,14.378601,-150.379501,,,
729861170.658125,-0.379166,3.731127,49.556998,-0.056137,-0.011063,1.00148,0.019173,0.004895,0.004631,68.45491,14.378601,-150.379501,,,
729861170.661468,-0.372387,3.733965,49.557614,-0.057465,-0.017517,1.009201,0.019173,0.004895,0.004631,68.45491,14.378601,-150.379501,,,
729861170.664867,-0.372387,3.733965,49.557614,-0.057465,-0.017517,1.009201,0.019173,0.004895,0.004631,68.45491,14.378601,-150.379501,,,
729861170.668211,-0.362438,3.73307,49.557278,-0.057465,-0.017517,1.009201,0.038246,-0.00341,-0.000601,68.45491,14.378601,-150.379501,,,
729861170.671565,-0.351303,3.733764,49.556787,-0.06279,-0.015396,1.003113,0.038246,-0.00341,-0.000601,68.45491,14.378601,-150.379501,,,
729861170.674837,-0.351303,3.733764,49.556787,-0.06279,-0.015396,1.003113,0.038246,-0.00341,-0.000601,68.824326,14.484604,-150.687653,,,
729861170.678177,-0.341365,3.728923,49.55657,-0.06279,-0.015396,1.003113,0.03021,-0.017358,0.000925,68.824326,14.484604,-150.687653,,,
729861170.681466,-0.334035,3.728079,49.556867,-0.064621,-0.009811,0.990021,0.03021,-0.017358,0.000925,68.824326,14.484604,-150.687653,,,
729861170.684814,-0.334035,3.728079,49.556867,-0.064621,-0.009811,0.990021,0.03021,-0.017358,0.000925,68.824326,14.484604,-150.687653,,,
729861170.688127,-0.329048,3.724203,49.558089,-0.064621,-0.009811,0.990021,0.012961,-0.007332,0.00641,68.824326,14.484604,-150.687653,,,
729861170.691461,-0.327048,3.725932,49.560187,-0.061844,-0.006424,0.991577,0.012961,-0.007332,0.00641,68.824326,14.484604,-150.687653,,,
729861170.694896,-0.327048,3.725932,49.560187,-0.061844,-0.006424,0.991577,0.012961,-0.007332,0.00641,68.824326,14.484604,-150.687653,,,
729861170.698242,-0.326821,3.724183,49.562081,-0.061844,-0.006424,0.991577,-0.003629,-0.002788,0.004062,68.824326,14.484604,-150.687653,,,
729861170.701469,-0.329386,3.725792,49.563726,-0.062225,-0.005676,0.987091,-0.003629,-0.002788,0.004062,68.824326,14.484604,-150.687653,,,
729861170.70482,-0.329386,3.725792,49.563726,-0.062225,-0.005676,0.987091,-0.003629,-0.002788,0.004062,68.824326,14.484604,-150.687653,,,
729861170.708202,-0.333628,3.724422,49.565535,-0.062225,-0.005676,0.987091,-0.018012,0.00052,0.004381,68.824326,14.484604,-150.687653,,,
729861170.711467,-0.339919,3.727352,49.567612,-0.063187,-0.007782,0.986374,-0.018012,0.00052,0.004381,68.824326,14.484604,-150.687653,,,
729861170.714803,-0.339919,3.727352,49.567612,-0.063187,-0.007782,0.986374,-0.018012,0.00052,0.004381,68.824326,14.484604,-150.687653,,,
729861170.718144,-0.347381,3.728729,49.569702,-0.063187,-0.007782,0.986374,-0.027895,0.008252,0.004011,68.592346,14.420334,-150.411346,,,
729861170.721455,-0.357387,3.731232,49.572261,-0.0634,-0.004395,0.983673,-0.027895,0.008252,0.004011,68.592346,14.420334,-150.411346,,,
729861170.724817,-0.357387,3.731232,49.572261,-0.0634,-0.004395,0.983673,-0.027895,0.008252,0.004011,68.592346,14.420334,-150.411346,,,
729861170.728133,-0.368258,3.732085,49.575595,-0.0634,-0.004395,0.983673,-0.0397,0.001936,0.008706,68.592346,14.420334,-150.411346,,,
729861170.731459,-0.380946,3.729378,49.57922,-0.062134,-0.00145,0.976578,-0.0397,0.001936,0.008706,68.592346,14.420334,-150.411346,,,
729861170.73489,-0.380946,3.729378,49.57922,-0.062134,-0.00145,0.976578,-0.0397,0.001936,0.008706,68.592346,14.420334,-150.411346,,,
729861170.738177,-0.392738,3.72834,49.582342,-0.062134,-0.00145,0.976578,-0.037782,-0.000971,0.005162,68.592346,14.420334,-150.411346,,,
729861170.741516,-0.404921,3.725263,49.584445,-0.055817,-0.009384,0.987823,-0.037782,-0.000971,0.005162,68.592346,14.420334,-150.411346,,,
729861170.744807,-0.404921,3.725263,49.584445,-0.055817,-0.009384,0.987823,-0.037782,-0.000971,0.005162,68.592346,14.420334,-150.411346,,,
729861170.748236,-0.413175,3.725439,49.585405,-0.055817,-0.009384,0.987823,-0.021778,0.003567,-0.001985,68.592346,14.420334,-150.411346,,,
729861170.751462,-0.419085,3.724486,49.584726,-0.053802,-0.019653,1.007751,-0.021778,0.003567,-0.001985,68.592346,14.420334,-150.411346,,,
729861170.754813,-0.419085,3.724486,49.584726,-0.053802,-0.019653,1.007751,-0.021778,0.003567,-0.001985,68.592346,14.420334,-150.411346,,,
729861170.758139,-0.418789,3.724128,49.582959,-0.053802,-0.019653,1.007751,0.009945,0.000606,-0.007572,68.840866,14.656662,-150.645233,,,
729861170.76147,-0.415683,3.723204,49.580811,-0.057724,-0.020264,1.016174,0.009945,0.000606,-0.007572,68.840866,14.656662,-150.645233,,,
729861170.76482,-0.415683,3.723204,49.580811,-0.057724,-0.020264,1.016174,0.009945,0.000606,-0.007572,68.840866,14.656662,-150.645233,,,
729861170.76814,-0.409345,3.722089,49.578394,-0.057724,-0.020264,1.016174,0.027902,-0.000479,-0.008243,68.840866,14.656662,-150.645233,,,
729861170.771466,-0.401591,3.721269,49.575337,-0.060135,-0.017014,1.010117,0.027902,-0.000479,-0.008243,68.840866,14.656662,-150.645233,,,
729861170.774883,-0.401591,3.721269,49.575337,-0.060135,-0.017014,1.010117,0.027902,-0.000479,-0.008243,68.840866,14.656662,-150.645233,,,
729861170.778138,-0.395693,3.722071,49.57137,-0.060135,-0.017014,1.010117,0.01622,0.007178,-0.015262,68.840866,14.656662,-150.645233,,,
729861170.781461,-0.393214,3.722957,49.566526,-0.054169,-0.009781,0.993607,0.01622,0.007178,-0.015262,68.840866,14.656662,-150.645233,,,
729861170.784805,-0.393214,3.722957,49.566526,-0.054169,-0.009781,0.993607,0.01622,0.007178,-0.015262,68.840866,14.656662,-150.645233,,,
729861170.788199,-0.395218,3.724903,49.560556,-0.054169,-0.009781,0.993607,-0.011618,0.010225,-0.024911,68.840866,14.656662,-150.645233,,,
729861170.791453,-0.40057,3.726331,49.554507,-0.06189,-0.002228,0.984344,-0.011618,0.010225,-0.024911,68.840866,14.656662,-150.645233,,,
729861170.794805,-0.40057,3.726331,49.554507,-0.06189,-0.002228,0.984344,-0.011618,0.010225,-0.024911,68.840866,14.656662,-150.645233,,,
729861170.79813,-0.408333,3.726806,49.54911,-0.06189,-0.002228,0.984344,-0.029314,0.001606,-0.021509,68.834946,14.720764,-150.580765,,,
729861170.801457,-0.41812,3.725442,49.54423,-0.072952,-0.000732,0.984772,-0.029314,0.001606,-0.021509,68.834946,14.720764,-150.580765,,,
729861170.804809,-0.41812,3.725442,49.54423,-0.072952,-0.000732,0.984772,-0.029314,0.001606,-0.021509,68.834946,14.720764,-150.580765,,,
729861170.808126,-0.429665,3.72301,49.539935,-0.072952,-0.000732,0.984772,-0.040126,-0.008132,-0.018249,68.834946,14.720764,-150.580765,,,
729861170.811454,-0.440622,3.720144,49.535726,-0.072723,-0.004913,0.985886,-0.040126,-0.008132,-0.018249,68.834946,14.720764,-150.580765,,,
729861170.814874,-0.440622,3.720144,49.535726,-0.072723,-0.004913,0.985886,-0.040126,-0.008132,-0.018249,68.834946,14.720764,-150.580765,,,
729861170.818152,-0.452171,3.717542,49.530718,-0.072723,-0.004913,0.985886,-0.036289,-0.006286,-0.023535,68.834946,14.720764,-150.580765,,,
729861170.821467,-0.461913,3.71379,49.523951,-0.066437,-0.005356,0.998032,-0.036289,-0.006286,-0.023535,68.834946,14.720764,-150.580765,,,
729861170.82482,-0.461913,3.71379,49.523951,-0.066437,-0.005356,0.998032,-0.036289,-0.006286,-0.023535,68.834946,14.720764,-150.580765,,,
729861170.828193,-0.468931,3.714149,49.517052,-0.066437,-0.005356,0.998032,-0.015037,0.008083,-0.023254,68.834946,14.720764,-150.580765,,,
729861170.831445,-0.473535,3.71436,49.512215,-0.072968,-0.015976,1.013306,-0.015037,0.008083,-0.023254,68.834946,14.720764,-150.580765,,,
729861170.83479,-0.473535,3.71436,49.512215,-0.072968,-0.015976,1.013306,-0.015037,0.008083,-0.023254,68.834946,14.720764,-150.580765,,,
729861170.838138,-0.471831,3.720609,49.510796,-0.072968,-0.015976,1.013306,0.015434,0.028907,0.002422,68.834946,14.720764,-150.580765,,,
729861170.841458,-0.468218,3.724946,49.512592,-0.088211,-0.020126,1.017395,0.015434,0.028907,0.002422,68.651886,14.514542,-150.87825,,,
729861170.844798,-0.468218,3.724946,49.512592,-0.088211,-0.020126,1.017395,0.015434,0.028907,0.002422,68.651886,14.514542,-150.87825,,,
729861170.848225,-0.459854,3.729849,49.516532,-0.088211,-0.020126,1.017395,0.031678,0.013974,0.018282,68.651886,14.514542,-150.87825,,,
729861170.851459,-0.451879,3.729902,49.52175,-0.07486,-0.008469,0.999283,0.031678,0.013974,0.018282,68.651886,14.514542,-150.87825,,,
729861170.85488,-0.451879,3.729902,49.52175,-0.07486,-0.008469,0.999283,0.031678,0.013974,0.018282,68.651886,14.514542,-150.87825,,,
729861170.858138,-0.442414,3.728728,49.526463,-0.07486,-0.008469,0.999283,0.029546,-0.004345,0.014489,68.651886,14.514542,-150.87825,,,
729861170.861469,-0.435432,3.72386,49.529751,-0.062424,-0.007324,0.988129,0.029546,-0.004345,0.014489,68.651886,14.514542,-150.87825,,,
729861170.86481,-0.435432,3.72386,49.529751,-0.062424,-0.007324,0.988129,0.029546,-0.004345,0.014489,68.651886,14.514542,-150.87825,,,
729861170.868195,-0.429334,3.722157,49.53149,-0.062424,-0.007324,0.988129,0.018186,-0.002006,0.002782,68.651886,14.514542,-150.87825,,,
729861170.87145,-0.424513,3.718696,49.532226,-0.057663,-0.002869,0.983612,0.018186,-0.002006,0.002782,68.651886,14.514542,-150.87825,,,
729861170.874807,-0.424513,3.718696,49.532226,-0.057663,-0.002869,0.983612,0.018186,-0.002006,0.002782,68.651886,14.514542,-150.87825,,,
729861170.878134,-0.423512,3.71566,49.53322,-0.057663,-0.002869,0.983612,-0.002555,-0.008966,0.003098,68.651886,14.514542,-150.87825,,,
729861170.881459,-0.423469,3.713961,49.535225,-0.064407,0.001907,0.981445,-0.002555,-0.008966,0.003098,68.684647,14.603088,-150.478546,,,
729861170.884805,-0.423469,3.713961,49.535225,-0.064407,0.001907,0.981445,-0.002555,-0.008966,0.003098,68.684647,14.603088,-150.478546,,,
729861170.888137,-0.42618,3.710379,49.538425,-0.064407,0.001907,0.981445,-0.014078,-0.007281,0.010829,68.684647,14.603088,-150.478546,,,
729861170.89146,-0.430345,3.712258,49.542683,-0.064148,-0.001358,0.991547,-0.014078,-0.007281,0.010829,68.684647,14.603088,-150.478546,,,
729861170.89486,-0.430345,3.712258,49.542683,-0.064148,-0.001358,0.991547,-0.014078,-0.007281,0.010829,68.684647,14.603088,-150.478546,,,
729861170.898117,-0.436441,3.715869,49.547497,-0.064148,-0.001358,0.991547,-0.023233,0.023025,0.014212,68.684647,14.603088,-150.478546,,,
729861170.901462,-0.442716,3.723524,49.552424,-0.065903,-0.005219,1.000198,-0.023233,0.023025,0.014212,68.684647,14.603088,-150.478546,,,
729861170.904817,-0.442716,3.723524,49.552424,-0.065903,-0.005219,1.000198,-0.023233,0.023025,0.014212,68.684647,14.603088,-150.478546,,,
729861170.908194,-0.448657,3.730865,49.557451,-0.065903,-0.005219,1.000198,-0.019385,0.028836,0.015209,68.684647,14.603088,-150.478546,,,
729861170.911453,-0.453094,3.738099,49.561912,-0.066849,-0.00766,1.000977,-0.019385,0.028836,0.015209,68.684647,14.603088,-150.478546,,,
729861170.914815,-0.453094,3.738099,49.561912,-0.066849,-0.00766,1.000977,-0.019385,0.028836,0.015209,68.684647,14.603088,-150.478546,,,
729861170.91814,-0.454131,3.742122,49.565275,-0.066849,-0.00766,1.000977,-0.000188,0.011696,0.008885,68.684647,14.603088,-150.478546,,,
729861170.921499,-0.455131,3.747764,49.567499,-0.071533,-0.013824,1.001358,-0.000188,0.011696,0.008885,68.776505,14.69278,-150.722229,,,
729861170.924808,-0.455131,3.747764,49.567499,-0.071533,-0.013824,1.001358,-0.000188,0.011696,0.008885,68.776505,14.69278,-150.722229,,,
729861170.928137,-0.45014,3.742581,49.569183,-0.071533,-0.013824,1.001358,0.024032,-0.025545,0.007006,68.776505,14.69278,-150.722229,,,
729861170.931463,-0.442177,3.735525,49.571164,-0.077042,-0.011414,1.001526,0.024032,-0.025545,0.007006,68.776505,14.69278,-150.722229,,,
729861170.934881,-0.442177,3.735525,49.571164,-0.077042,-0.011414,1.001526,0.024032,-0.025545,0.007006,68.776505,14.69278,-150.722229,,,
729861170.938142,-0.430986,3.719497,49.574184,-0.077042,-0.011414,1.001526,0.041964,-0.060095,0.015657,68.776505,14.69278,-150.722229,,,
729861170.94147,-0.418221,3.700538,49.579061,-0.077225,-0.012238,1.000763,0.041964,-0.060095,0.015657,68.776505,14.69278,-150.722229,,,
729861170.944806,-0.418221,3.700538,49.579061,-0.077225,-0.012238,1.000763,0.041964,-0.060095,0.015657,68.776505,14.69278,-150.722229,,,
729861170.948176,-0.405251,3.680701,49.584825,-0.077225,-0.012238,1.000763,0.043427,-0.066404,0.021942,68.776505,14.69278,-150.722229,,,
729861170.951465,-0.392311,3.659753,49.591015,-0.065247,-0.007523,0.994843,0.043427,-0.066404,0.021942,68.776505,14.69278,-150.722229,,,
729861170.954807,-0.392311,3.659753,49.591015,-0.065247,-0.007523,0.994843,0.043427,-0.066404,0.021942,68.776505,14.69278,-150.722229,,,
729861170.958144,-0.380725,3.641302,49.597976,-0.065247,-0.007523,0.994843,0.037977,-0.058437,0.026908,68.776505,14.69278,-150.722229,,,
729861170.961221,-0.368518,3.625646,49.605219,-0.053757,-0.003128,0.992905,0.037977,-0.058437,0.026908,68.776505,14.69278,-150.722229,,,
729861170.964852,-0.368518,3.625646,49.605219,-0.053757,-0.003128,0.992905,0.037977,-0.058437,0.026908,68.658569,14.651474,-150.702545,,,
729861170.96814,-0.359141,3.614193,49.612484,-0.053757,-0.003128,0.992905,0.028554,-0.029263,0.026426,68.658569,14.651474,-150.702545,,,
729861170.971469,-0.350249,3.608247,49.619417,-0.048172,-0.000732,0.99411,0.028554,-0.029263,0.026426,68.658569,14.651474,-150.702545,,,
729861170.974896,-0.350249,3.608247,49.619417,-0.048172,-0.000732,0.99411,0.028554,-0.029263,0.026426,68.658569,14.651474,-150.702545,,,
729861170.978125,-0.344919,3.607558,49.625787,-0.048172,-0.000732,0.99411,0.012016,0.011902,0.021498,68.658569,14.651474,-150.702545,,,
729861170.981478,-0.341997,3.613843,49.63224,-0.046631,-0.000473,0.992294,0.012016,0.011902,0.021498,68.658569,14.651474,-150.702545,,,
729861170.984816,-0.341997,3.613843,49.63224,-0.046631,-0.000473,0.992294,0.012016,0.011902,0.021498,68.658569,14.651474,-150.702545,,,
729861170.988201,-0.341386,3.624089,49.638964,-0.046631,-0.000473,0.992294,-0.00275,0.04443,0.022522,68.658569,14.651474,-150.702545,,,
729861170.991452,-0.342728,3.637312,49.646458,-0.054855,0.001862,0.984848,-0.00275,0.04443,0.022522,68.658569,14.651474,-150.702545,,,
729861170.994832,-0.342728,3.637312,49.646458,-0.054855,0.001862,0.984848,-0.00275,0.04443,0.022522,68.658569,14.651474,-150.702545,,,
729861170.998152,-0.344622,3.648432,49.654564,-0.054855,0.001862,0.984848,-0.007733,0.036957,0.02651,68.658569,14.651474,-150.702545,,,
729861171.001607,-0.348176,3.658348,49.662331,-0.05687,0.001175,0.976181,-0.007733,0.036957,0.02651,68.658569,14.651474,-150.702545,,,
729861171.004784,-0.348176,3.658348,49.662331,-0.05687,0.001175,0.976181,-0.007733,0.036957,0.02651,68.706314,14.570038,-150.383163,,,
729861171.00816,-0.350981,3.663823,49.668849,-0.05687,0.001175,0.976181,-0.010992,0.017303,0.017672,68.706314,14.570038,-150.383163,,,
729861171.011467,-0.35499,3.669854,49.673663,-0.055725,-0.00029,0.977341,-0.010992,0.017303,0.017672,68.706314,14.570038,-150.383163,,,
729861171.01487,-0.35499,3.669854,49.673663,-0.055725,-0.00029,0.977341,-0.010992,0.017303,0.017672,68.706314,14.570038,-150.383163,,,
729861171.018141,-0.358237,3.669665,49.676412,-0.055725,-0.00029,0.977341,-0.012639,-0.003307,0.003286,68.706314,14.570038,-150.383163,,,
729861171.021461,-0.364032,3.670984,49.677309,-0.054565,0.00119,0.97319,-0.012639,-0.003307,0.003286,68.706314,14.570038,-150.383163,,,
729861171.024793,-0.364032,3.670984,49.677309,-0.054565,0.00119,0.97319,-0.012639,-0.003307,0.003286,68.706314,14.570038,-150.383163,,,
729861171.028197,-0.37069,3.666565,49.677157,-0.054565,0.00119,0.97319,-0.025828,-0.016038,-0.004694,68.706314,14.570038,-150.383163,,,
729861171.03145,-0.380333,3.663576,49.676123,-0.048325,0.000763,0.974823,-0.025828,-0.016038,-0.004694,68.706314,14.570038,-150.383163,,,
729861171.034807,-0.380333,3.663576,49.676123,-0.048325,0.000763,0.974823,-0.025828,-0.016038,-0.004694,68.706314,14.570038,-150.383163,,,
729861171.038135,-0.391062,3.662164,49.674279,-0.048325,0.000763,0.974823,-0.036761,0.00485,-0.011071,68.706314,14.570038,-150.383163,,,
729861171.041469,-0.401674,3.662062,49.671984,-0.047638,-0.001862,0.991577,-0.036761,0.00485,-0.011071,68.706314,14.570038,-150.383163,,,
729861171.044792,-0.401674,3.662062,49.671984,-0.047638,-0.001862,0.991577,-0.036761,0.00485,-0.011071,68.823349,14.731598,-150.940308,,,
729861171.048146,-0.412786,3.665865,49.669234,-0.047638,-0.001862,0.991577,-0.036651,0.019669,-0.014325,68.823349,14.731598,-150.940308,,,
729861171.051459,-0.421981,3.667602,49.665608,-0.047882,-0.006607,1.003891,-0.036651,0.019669,-0.014325,68.823349,14.731598,-150.940308,,,
729861171.054794,-0.421981,3.667602,49.665608,-0.047882,-0.006607,1.003891,-0.036651,0.019669,-0.014325,68.823349,14.731598,-150.940308,,,
729861171.058138,-0.430586,3.675038,49.660892,-0.047882,-0.006607,1.003891,-0.024011,0.03162,-0.021372,68.823349,14.731598,-150.940308,,,
729861171.061462,-0.435805,3.678721,49.654091,-0.04715,-0.00708,1.011902,-0.024011,0.03162,-0.021372,68.823349,14.731598,-150.940308,,,
729861171.06486,-0.435805,3.678721,49.654091,-0.04715,-0.00708,1.011902,-0.024011,0.03162,-0.021372,68.823349,14.731598,-150.940308,,,
729861171.068125,-0.44031,3.688339,49.644757,-0.04715,-0.00708,1.011902,-0.008576,0.03858,-0.038307,68.823349,14.731598,-150.940308,,,
729861171.071479,-0.440466,3.694765,49.633391,-0.052109,-0.011978,1.019318,-0.008576,0.03858,-0.038307,68.823349,14.731598,-150.940308,,,
729861171.074827,-0.440466,3.694765,49.633391,-0.052109,-0.011978,1.019318,-0.008576,0.03858,-0.038307,68.823349,14.731598,-150.940308,,,
729861171.078216,-0.439752,3.702705,49.620147,-0.052109,-0.011978,1.019318,0.009324,0.02849,-0.05041,68.823349,14.731598,-150.940308,,,
729861171.081494,-0.435916,3.707817,49.605743,-0.060837,-0.011261,1.017258,0.009324,0.02849,-0.05041,68.823349,14.731598,-150.940308,,,
729861171.084804,-0.435916,3.707817,49.605743,-0.060837,-0.011261,1.017258,0.009324,0.02849,-0.05041,68.94693,14.395996,-151.091354,,,
729861171.088161,-0.43352,3.713594,49.5911,-0.060837,-0.011261,1.017258,0.011189,0.021893,-0.052079,68.94693,14.395996,-151.091354,,,
729861171.091462,-0.430373,3.716655,49.57706,-0.071594,-0.00856,1.0112,0.011189,0.021893,-0.052079,68.94693,14.395996,-151.091354,,,
729861171.094819,-0.430373,3.716655,49.57706,-0.071594,-0.00856,1.0112,0.011189,0.021893,-0.052079,68.94693,14.395996,-151.091354,,,
729861171.098144,-0.431095,3.720857,49.564865,-0.071594,-0.00856,1.0112,-0.006621,0.014642,-0.040415,68.94693,14.395996,-151.091354,,,
729861171.101527,-0.434295,3.721437,49.554414,-0.080566,-0.003815,0.992859,-0.006621,0.014642,-0.040415,68.94693,14.395996,-151.091354,,,
729861171.10487,-0.434295,3.721437,49.554414,-0.080566,-0.003815,0.992859,-0.006621,0.014642,-0.040415,68.94693,14.395996,-151.091354,,,
729861171.108146,-0.443545,3.722714,49.545879,-0.080566,-0.003815,0.992859,-0.039088,0.003837,-0.029333,68.94693,14.395996,-151.091354,,,
729861171.111506,-0.455628,3.717969,49.539397,-0.083344,0.000595,0.977707,-0.039088,0.003837,-0.029333,68.94693,14.395996,-151.091354,,,
729861171.114808,-0.455628,3.717969,49.539397,-0.083344,0.000595,0.977707,-0.039088,0.003837,-0.029333,68.94693,14.395996,-151.091354,,,
729861171.118198,-0.472707,3.715606,49.533997,-0.083344,0.000595,0.977707,-0.063269,-0.006095,-0.023612,68.94693,14.395996,-151.091354,,,
729861171.121478,-0.491234,3.708389,49.528509,-0.077957,0.001587,0.980927,-0.063269,-0.006095,-0.023612,68.94693,14.395996,-151.091354,,,
729861171.124878,-0.491234,3.708389,49.528509,-0.077957,0.001587,0.980927,-0.063269,-0.006095,-0.023612,68.993332,14.503601,-151.07692,,,
729861171.128117,-0.51256,3.707479,49.523036,-0.077957,0.001587,0.980927,-0.073956,0.005109,-0.02446,68.993332,14.503601,-151.07692,,,
729861171.131492,-0.532401,3.70569,49.518115,-0.073181,-0.008698,1.001587,-0.073956,0.005109,-0.02446,68.993332,14.503601,-151.07692,,,
729861171.134812,-0.532401,3.70569,49.518115,-0.073181,-0.008698,1.001587,-0.073956,0.005109,-0.02446,68.993332,14.503601,-151.07692,,,
729861171.138143,-0.550728,3.71241,49.51359,-0.073181,-0.008698,1.001587,-0.059537,0.032509,-0.020997,68.993332,14.503601,-151.07692,,,
729861171.141461,-0.566912,3.717469,49.509616,-0.072571,-0.014175,1.011566,-0.059537,0.032509,-0.020997,68.993332,14.503601,-151.07692,,,
729861171.144881,-0.566912,3.717469,49.509616,-0.072571,-0.014175,1.011566,-0.059537,0.032509,-0.020997,68.993332,14.503601,-151.07692,,,
729861171.148137,-0.580907,3.729372,49.506507,-0.072571,-0.014175,1.011566,-0.040992,0.046893,-0.014086,68.993332,14.503601,-151.07692,,,
729861171.151477,-0.590937,3.738206,49.503318,-0.066986,-0.016113,1.015579,-0.040992,0.046893,-0.014086,68.993332,14.503601,-151.07692,,,
729861171.154797,-0.590937,3.738206,49.503318,-0.066986,-0.016113,1.015579,-0.040992,0.046893,-0.014086,68.993332,14.503601,-151.07692,,,
729861171.158137,-0.597053,3.751745,49.499282,-0.066986,-0.016113,1.015579,-0.013057,0.050525,-0.018506,68.993332,14.503601,-151.07692,,,
729861171.161501,-0.60046,3.763341,49.49371,-0.070862,-0.018967,1.01683,-0.013057,0.050525,-0.018506,68.993332,14.503601,-151.07692,,,
729861171.16481,-0.60046,3.763341,49.49371,-0.070862,-0.018967,1.01683,-0.013057,0.050525,-0.018506,68.993332,14.503601,-151.07692,,,
729861171.168194,-0.601519,3.776716,49.486967,-0.070862,-0.018967,1.01683,0.001107,0.046265,-0.025921,69.023529,14.692001,-151.146744,,,
729861171.171491,-0.601247,3.787638,49.479734,-0.069458,-0.01561,1.000656,0.001107,0.046265,-0.025921,69.023529,14.692001,-151.146744,,,
729861171.174812,-0.601247,3.787638,49.479734,-0.069458,-0.01561,1.000656,0.001107,0.046265,-0.025921,69.023529,14.692001,-151.146744,,,
729861171.178144,-0.601823,3.794728,49.47242,-0.069458,-0.01561,1.000656,-0.003574,0.024204,-0.026717,69.023529,14.692001,-151.146744,,,
729861171.181497,-0.601823,3.794728,49.464928,-0.067902,-0.012955,0.98967,-0.003574,0.024204,-0.026717,69.023529,14.692001,-151.146744,,,
729861171.184821,-0.602825,3.80285,49.464928,-0.067902,-0.012955,0.98967,-0.003574,0.024204,-0.026717,69.023529,14.692001,-151.146744,,,
729861171.188161,-0.605517,3.805053,49.457309,-0.067902,-0.012955,0.98967,-0.008252,0.005509,-0.027653,69.023529,14.692001,-151.146744,,,
729861171.191486,-0.605517,3.809579,49.449497,-0.066986,-0.011185,0.988434,-0.008252,0.005509,-0.027653,69.023529,14.692001,-151.146744,,,
729861171.194859,-0.607187,3.809579,49.449497,-0.066986,-0.011185,0.988434,-0.008252,0.005509,-0.027653,69.023529,14.692001,-151.146744,,,
729861171.198137,-0.611925,3.807759,49.440963,-0.066986,-0.011185,0.988434,-0.016228,-0.004332,-0.032919,69.023529,14.692001,-151.146744,,,
729861171.201458,-0.611925,3.807759,49.440963,-0.067184,-0.016891,0.991135,-0.016228,-0.004332,-0.032919,69.023529,14.692001,-151.146744,,,
729861171.204815,-0.614959,3.809716,49.431895,-0.067184,-0.016891,0.991135,-0.016228,-0.004332,-0.032919,69.023529,14.692001,-151.146744,,,
729861171.208214,-0.62088,3.809127,49.422949,-0.067184,-0.016891,0.991135,-0.019413,0.004932,-0.032056,68.934875,14.840759,-150.854645,,,
729861171.211495,-0.626795,3.813819,49.41498,-0.06424,-0.018356,1.00177,-0.019413,0.004932,-0.032056,68.934875,14.840759,-150.854645,,,
729861171.214808,-0.626795,3.813819,49.41498,-0.06424,-0.018356,1.00177,-0.019413,0.004932,-0.032056,68.934875,14.840759,-150.854645,,,
729861171.218141,-0.634884,3.820811,49.408242,-0.06424,-0.018356,1.00177,-0.028318,0.034025,-0.023936,68.934875,14.840759,-150.854645,,,
729861171.221537,-0.634884,3.820811,49.408242,-0.064194,-0.016403,1.004959,-0.028318,0.034025,-0.023936,68.934875,14.840759,-150.854645,,,
729861171.224811,-0.644497,3.83324,49.402991,-0.064194,-0.016403,1.004959,-0.028318,0.034025,-0.023936,68.934875,14.840759,-150.854645,,,
729861171.228207,-0.654192,3.847973,49.398876,-0.064194,-0.016403,1.004959,-0.033276,0.061471,-0.01628,68.934875,14.840759,-150.854645,,,
729861171.231497,-0.654192,3.86557,49.395687,-0.069229,-0.014359,1.001144,-0.033276,0.061471,-0.01628,68.934875,14.840759,-150.854645,,,
729861171.234862,-0.665028,3.86557,49.395687,-0.069229,-0.014359,1.001144,-0.033276,0.061471,-0.01628,68.934875,14.840759,-150.854645,,,
729861171.238135,-0.6758,3.884373,49.393001,-0.069229,-0.014359,1.001144,-0.036867,0.069562,-0.013096,68.934875,14.840759,-150.854645,,,
729861171.241566,-0.6758,3.884373,49.393001,-0.069229,-0.014359,1.001144,-0.036867,0.069562,-0.013096,68.934875,14.840759,-150.854645,,,
729861171.244811,-0.687846,3.903968,49.389653,-0.074432,-0.01358,1.000153,-0.036867,0.069562,-0.013096,68.934875,14.840759,-150.854645,,,
729861171.24813,-0.698163,3.922971,49.385705,-0.074432,-0.01358,1.000153,-0.033489,0.067858,-0.016956,69.303101,14.842621,-151.060669,,,
729861171.251464,-0.698163,3.922971,49.385705,-0.078812,-0.012421,0.997086,-0.033489,0.067858,-0.016956,69.303101,14.842621,-151.060669,,,
729861171.254815,-0.708212,3.940888,49.382434,-0.078812,-0.012421,0.997086,-0.033489,0.067858,-0.016956,69.303101,14.842621,-151.060669,,,
729861171.25814,-0.71411,3.954731,49.38009,-0.078812,-0.012421,0.997086,-0.012015,0.042381,-0.008942,69.303101,14.842621,-151.060669,,,
729861171.261555,-0.71411,3.954731,49.38009,-0.078812,-0.012421,0.997086,-0.012015,0.042381,-0.008942,69.303101,14.842621,-151.060669,,,
729861171.264811,-0.715668,3.963761,49.378948,-0.085785,-0.018311,1.003311,-0.012015,0.042381,-0.008942,69.303101,14.842621,-151.060669,,,
729861171.268151,-0.712691,3.969239,49.379181,-0.085785,-0.018311,1.003311,0.018137,0.016115,0.002811,69.303101,14.842621,-151.060669,,,
729861171.271486,-0.712691,3.969239,49.379181,-0.085785,-0.018311,1.003311,0.018137,0.016115,0.002811,69.303101,14.842621,-151.060669,,,
729861171.274851,-0.704282,3.971538,49.381208,-0.095245,-0.024231,1.016296,0.018137,0.016115,0.002811,69.303101,14.842621,-151.060669,,,
729861171.278142,-0.690368,3.972476,49.385406,-0.095245,-0.024231,1.016296,0.057279,0.003534,0.020647,69.303101,14.842621,-151.060669,,,
729861171.28149,-0.690368,3.972476,49.385406,-0.095245,-0.024231,1.016296,0.057279,0.003534,0.020647,69.303101,14.842621,-151.060669,,,
729861171.284803,-0.672473,3.971446,49.39127,-0.089676,-0.026398,1.020706,0.057279,0.003534,0.020647,69.303101,14.842621,-151.060669,,,
729861171.288197,-0.65159,3.97023,49.398283,-0.089676,-0.026398,1.020706,0.072912,-0.000981,0.029824,69.303101,14.842621,-151.060669,,,
729861171.291475,-0.65159,3.97023,49.398283,-0.089676,-0.026398,1.020706,0.072912,-0.000981,0.029824,69.365967,14.781204,-151.265396,,,
729861171.294805,-0.631933,3.968539,49.406185,-0.078995,-0.018387,1.009506,0.072912,-0.000981,0.029824,69.365967,14.781204,-151.265396,,,
729861171.298159,-0.612808,3.967459,49.414186,-0.078995,-0.018387,1.009506,0.059377,-0.002957,0.029521,69.365967,14.781204,-151.265396,,,
729861171.301554,-0.612808,3.967459,49.414186,-0.078995,-0.018387,1.009506,0.059377,-0.002957,0.029521,69.365967,14.781204,-151.265396,,,
729861171.304839,-0.59874,3.963667,49.421724,-0.071091,-0.009933,0.986542,0.059377,-0.002957,0.029521,69.365967,14.781204,-151.265396,,,
729861171.308165,-0.588592,3.960361,49.428718,-0.071091,-0.009933,0.986542,0.024992,-0.010853,0.023254,69.365967,14.781204,-151.265396,,,
729861171.31158,-0.588592,3.960361,49.428718,-0.071091,-0.009933,0.986542,0.024992,-0.010853,0.023254,69.365967,14.781204,-151.265396,,,
729861171.314815,-0.584577,3.956771,49.434619,-0.065323,-0.001678,0.972794,0.024992,-0.010853,0.023254,69.365967,14.781204,-151.265396,,,
729861171.318146,-0.584506,3.95456,49.439771,-0.065323,-0.001678,0.972794,-0.008009,-0.003751,0.015678,69.365967,14.781204,-151.265396,,,
729861171.321509,-0.584506,3.95456,49.439771,-0.065323,-0.001678,0.972794,-0.008009,-0.003751,0.015678,69.365967,14.781204,-151.265396,,,
729861171.324897,-0.589686,3.953398,49.444727,-0.060608,-0.001328,0.972305,-0.008009,-0.003751,0.015678,69.365967,14.781204,-151.265396,,,
729861171.32815,-0.59817,3.950181,49.449152,-0.060608,-0.001328,0.972305,-0.035318,-0.010321,0.010203,69.365967,14.781204,-151.265396,,,
729861171.331486,-0.59817,3.950181,49.449152,-0.060608,-0.001328,0.972305,-0.035318,-0.010321,0.010203,69.15419,14.792892,-151.081238,,,
729861171.334806,-0.609386,3.947287,49.453014,-0.062805,-0.003738,0.972275,-0.035318,-0.010321,0.010203,69.15419,14.792892,-151.081238,,,
729861171.338138,-0.621318,3.940699,49.456182,-0.062805,-0.003738,0.972275,-0.042712,-0.020379,0.004993,69.15419,14.792892,-151.081238,,,
729861171.341502,-0.621318,3.940699,49.456182,-0.062805,-0.003738,0.972275,-0.042712,-0.020379,0.004993,69.15419,14.792892,-151.081238,,,
729861171.344802,-0.63354,3.939297,49.458968,-0.068954,-0.011154,0.98967,-0.042712,-0.020379,0.004993,69.15419,14.792892,-151.081238,,,
729861171.348216,-0.643044,3.935379,49.462424,-0.068954,-0.011154,0.98967,-0.030555,-0.009809,0.010851,69.15419,14.792892,-151.081238,,,
729861171.351555,-0.643044,3.935379,49.462424,-0.068954,-0.011154,0.98967,-0.030555,-0.009809,0.010851,69.15419,14.792892,-151.081238,,,
729861171.354818,-0.651935,3.938001,49.467306,-0.072266,-0.019119,1.003204,-0.030555,-0.009809,0.010851,69.15419,14.792892,-151.081238,,,
729861171.358152,-0.654034,3.934076,49.473511,-0.072266,-0.019119,1.003204,0.000449,-0.010503,0.02275,69.15419,14.792892,-151.081238,,,
729861171.361554,-0.654034,3.934076,49.473511,-0.072266,-0.019119,1.003204,0.000449,-0.010503,0.02275,69.15419,14.792892,-151.081238,,,
729861171.364809,-0.654337,3.936805,49.480411,-0.071274,-0.02037,1.011063,0.000449,-0.010503,0.02275,69.15419,14.792892,-151.081238,,,
729861171.368136,-0.648391,3.935749,49.487325,-0.071274,-0.02037,1.011063,0.025032,0.004846,0.024983,69.15419,14.792892,-151.081238,,,
729861171.371466,-0.648391,3.935749,49.487325,-0.071274,-0.02037,1.011063,0.025032,0.004846,0.024983,69.245377,14.73912,-151.029236,,,
729861171.37484,-0.641216,3.941343,49.494034,-0.068298,-0.022293,1.019363,0.025032,0.004846,0.024983,69.245377,14.73912,-151.029236,,,
729861171.378132,-0.629846,3.946532,49.500685,-0.068298,-0.022293,1.019363,0.041642,0.023858,0.025965,69.245377,14.73912,-151.029236,,,
729861171.381471,-0.629846,3.946532,49.500685,-0.068298,-0.022293,1.019363,0.041642,0.023858,0.025965,69.245377,14.73912,-151.029236,,,
729861171.384807,-0.616455,3.953918,49.508298,-0.070847,-0.022232,1.011108,0.041642,0.023858,0.025965,69.245377,14.73912,-151.029236,,,
729861171.388214,-0.601562,3.960146,49.516916,-0.070847,-0.022232,1.011108,0.050221,0.02337,0.033708,69.245377,14.73912,-151.029236,,,
729861171.391469,-0.601562,3.960146,49.516916,-0.070847,-0.022232,1.011108,0.050221,0.02337,0.033708,69.245377,14.73912,-151.029236,,,
729861171.394816,-0.585478,3.965015,49.526394,-0.070908,-0.014435,0.998795,0.050221,0.02337,0.033708,69.245377,14.73912,-151.029236,,,
729861171.398144,-0.571908,3.969624,49.536926,-0.070908,-0.014435,0.998795,0.042025,0.018477,0.040457,69.245377,14.73912,-151.029236,,,
729861171.401534,-0.571908,3.969624,49.536926,-0.070908,-0.014435,0.998795,0.042025,0.018477,0.040457,69.245377,14.73912,-151.029236,,,
729861171.404793,-0.558514,3.972057,49.547509,-0.068466,-0.008072,0.991959,0.042025,0.018477,0.040457,69.245377,14.73912,-151.029236,,,
729861171.408134,-0.549137,3.973379,49.557202,-0.068466,-0.008072,0.991959,0.026943,-0.000901,0.033071,69.245377,14.73912,-151.029236,,,
729861171.411459,-0.549137,3.973379,49.557202,-0.068466,-0.008072,0.991959,0.026943,-0.000901,0.033071,69.119934,14.875809,-150.83963,,,
729861171.414858,-0.54061,3.968988,49.565141,-0.064072,-0.002808,0.978333,0.026943,-0.000901,0.033071,69.119934,14.875809,-150.83963,,,
729861171.418125,-0.534499,3.962454,49.570599,-0.064072,-0.002808,0.978333,0.019045,-0.026367,0.015061,69.119934,14.875809,-150.83963,,,
729861171.421482,-0.534499,3.962454,49.570599,-0.064072,-0.002808,0.978333,0.019045,-0.026367,0.015061,69.119934,14.875809,-150.83963,,,
729861171.424803,-0.529673,3.952791,49.574533,-0.062897,-0.000977,0.977966,0.019045,-0.026367,0.015061,69.119934,14.875809,-150.83963,,,
729861171.428132,-0.525838,3.941861,49.577526,-0.062897,-0.000977,0.977966,0.013014,-0.037516,0.008081,69.119934,14.875809,-150.83963,,,
729861171.431484,-0.525838,3.941861,49.577526,-0.062897,-0.000977,0.977966,0.013014,-0.037516,0.008081,69.119934,14.875809,-150.83963,,,
729861171.434811,-0.524696,3.931379,49.579361,-0.062027,-0.000854,0.981049,0.013014,-0.037516,0.008081,69.119934,14.875809,-150.83963,,,
729861171.438131,-0.524374,3.920948,49.580793,-0.062027,-0.000854,0.981049,-0.00307,-0.0311,0.004237,69.119934,14.875809,-150.83963,,,
