Time (sec),Pitch (deg),Roll (deg),Yaw(deg),X-Acceleration (g),Y-Acceleration (g),Z-Acceleration (g),Pitch Rate (deg/sec),Roll Rate (deg/sec),Yaw Rate (deg/sec),Magnetic Field in X direction (uT),Magnetic Field in Y direction (uT),Magnetic Field in Z Direction (uT),Latitude (deg),Longitude (deg),Altitude (m)
729861443.312663,1.516244,1.390268,128.204009,-0.018539,0.027039,1.000671,0.021053,0.053512,0.03737,66.675644,32.798111,-146.348923,,,
729861443.316,1.523555,1.412554,128.213966,-0.017914,0.027084,1.000443,0.020782,0.056378,0.033737,66.675644,32.798111,-146.348923,,,
729861443.319349,1.523555,1.412554,128.213966,-0.017914,0.027084,1.000443,0.020782,0.056378,0.033737,66.675644,32.798111,-146.348923,,,
729861443.322658,1.53102,1.425765,128.222878,-0.017914,0.027084,1.000443,0.020782,0.056378,0.033737,66.675644,32.798111,-146.348923,,,
729861443.326001,1.539848,1.442863,128.229588,-0.015518,0.02655,0.999969,0.029512,0.043901,0.026505,66.675644,32.798111,-146.348923,,,
729861443.329321,1.539848,1.442863,128.229588,-0.015518,0.02655,0.999969,0.029512,0.043901,0.026505,66.675644,32.798111,-146.348923,,,
729861443.33266,1.549142,1.450269,128.234413,-0.015518,0.02655,0.999969,0.029512,0.043901,0.026505,66.675644,32.798111,-146.348923,,,
729861443.335998,1.558461,1.458782,128.237963,-0.017212,0.026443,0.994659,0.03156,0.019976,0.012832,66.675644,32.798111,-146.348923,,,
729861443.33924,1.558461,1.458782,128.237963,-0.017212,0.026443,0.994659,0.03156,0.019976,0.012832,66.675644,32.798111,-146.348923,,,
729861443.342849,1.567556,1.458926,128.2407,-0.017212,0.026443,0.994659,0.03156,0.019976,0.012832,66.948822,32.7724,-146.079285,,,
729861443.346052,1.576198,1.459231,128.242936,-0.020615,0.025818,0.991943,0.032659,-0.008091,0.009582,66.948822,32.7724,-146.079285,,,
729861443.349456,1.576198,1.459231,128.242936,-0.020615,0.025818,0.991943,0.032659,-0.008091,0.009582,66.948822,32.7724,-146.079285,,,
729861443.352735,1.585214,1.450636,128.245892,-0.020615,0.025818,0.991943,0.032659,-0.008091,0.009582,66.948822,32.7724,-146.079285,,,
729861443.356065,1.591901,1.442391,128.250116,-0.025314,0.023056,0.987717,0.029508,-0.032754,0.011919,66.948822,32.7724,-146.079285,,,
729861443.359397,1.591901,1.442391,128.250116,-0.025314,0.023056,0.987717,0.029508,-0.032754,0.011919,66.948822,32.7724,-146.079285,,,
729861443.362772,1.599093,1.430829,128.255537,-0.025314,0.023056,0.987717,0.029508,-0.032754,0.011919,66.948822,32.7724,-146.079285,,,
729861443.366064,1.603541,1.42093,128.261724,-0.028671,0.023865,0.984161,0.024048,-0.035524,0.017483,66.948822,32.7724,-146.079285,,,
729861443.369395,1.603541,1.42093,128.261724,-0.028671,0.023865,0.984161,0.024048,-0.035524,0.017483,66.948822,32.7724,-146.079285,,,
729861443.372731,1.606911,1.41186,128.268678,-0.028671,0.023865,0.984161,0.024048,-0.035524,0.017483,66.948822,32.7724,-146.079285,,,
729861443.376061,1.608194,1.404,128.275884,-0.024384,0.024536,0.983948,0.008486,-0.023949,0.024733,66.948822,32.7724,-146.079285,,,
729861443.379393,1.608194,1.404,128.275884,-0.024384,0.024536,0.983948,0.008486,-0.023949,0.024733,66.948822,32.7724,-146.079285,,,
729861443.38274,1.608658,1.401017,128.283143,-0.024384,0.024536,0.983948,0.008486,-0.023949,0.024733,67.030991,32.666473,-146.318939,,,
729861443.386062,1.607467,1.399638,128.290581,-0.017761,0.024872,0.987198,-0.000261,-0.000232,0.025855,67.030991,32.666473,-146.318939,,,
729861443.389437,1.607467,1.399638,128.290581,-0.017761,0.024872,0.987198,-0.000261,-0.000232,0.025855,67.030991,32.666473,-146.318939,,,
729861443.392743,1.605342,1.403314,128.297717,-0.017761,0.024872,0.987198,-0.000261,-0.000232,0.025855,67.030991,32.666473,-146.318939,,,
729861443.396061,1.601414,1.407579,128.304477,-0.009003,0.025787,0.991043,-0.010531,0.024401,0.023105,67.030991,32.666473,-146.318939,,,
729861443.399406,1.601414,1.407579,128.304477,-0.009003,0.025787,0.991043,-0.010531,0.024401,0.023105,67.030991,32.666473,-146.318939,,,
729861443.402734,1.595983,1.416624,128.310658,-0.009003,0.025787,0.991043,-0.010531,0.024401,0.023105,67.030991,32.666473,-146.318939,,,
729861443.406063,1.588328,1.423955,128.31579,-0.011276,0.02681,0.992157,-0.022528,0.037068,0.01786,67.030991,32.666473,-146.318939,,,
729861443.409396,1.588328,1.423955,128.31579,-0.011276,0.02681,0.992157,-0.022528,0.037068,0.01786,67.030991,32.666473,-146.318939,,,
729861443.412747,1.58027,1.433538,128.320158,-0.011276,0.02681,0.992157,-0.022528,0.037068,0.01786,67.030991,32.666473,-146.318939,,,
729861443.41606,1.571385,1.439562,128.32423,-0.011322,0.027786,0.988998,-0.03054,0.033198,0.012204,67.030991,32.666473,-146.318939,,,
729861443.419393,1.571385,1.439562,128.32423,-0.011322,0.027786,0.988998,-0.03054,0.033198,0.012204,67.030991,32.666473,-146.318939,,,
729861443.422727,1.561428,1.44557,128.327896,-0.011322,0.027786,0.988998,-0.03054,0.033198,0.012204,67.005005,32.708389,-146.41275,,,
729861443.426061,1.551066,1.448114,128.331178,-0.01535,0.027451,0.985886,-0.036082,0.016796,0.009456,67.005005,32.708389,-146.41275,,,
729861443.429451,1.551066,1.448114,128.331178,-0.01535,0.027451,0.985886,-0.036082,0.016796,0.009456,67.005005,32.708389,-146.41275,,,
729861443.432737,1.5414,1.448482,128.333987,-0.01535,0.027451,0.985886,-0.036082,0.016796,0.009456,67.005005,32.708389,-146.41275,,,
729861443.436081,1.530593,1.446462,128.336525,-0.017654,0.027283,0.986816,-0.034375,-0.005073,0.006258,67.005005,32.708389,-146.41275,,,
729861443.439408,1.530593,1.446462,128.336525,-0.017654,0.027283,0.986816,-0.034375,-0.005073,0.006258,67.005005,32.708389,-146.41275,,,
729861443.442828,1.521295,1.440135,128.338947,-0.017654,0.027283,0.986816,-0.034375,-0.005073,0.006258,67.005005,32.708389,-146.41275,,,
729861443.44606,1.512633,1.43119,128.341171,-0.016754,0.024155,0.987564,-0.028803,-0.028359,0.00665,67.005005,32.708389,-146.41275,,,
729861443.449421,1.512633,1.43119,128.341171,-0.016754,0.024155,0.987564,-0.028803,-0.028359,0.00665,67.005005,32.708389,-146.41275,,,
729861443.452729,1.505076,1.418231,128.342916,-0.016754,0.024155,0.987564,-0.028803,-0.028359,0.00665,67.005005,32.708389,-146.41275,,,
729861443.45613,1.498361,1.402259,128.343691,-0.0159,0.022034,0.993607,-0.022068,-0.046072,0.001556,67.005005,32.708389,-146.41275,,,
729861443.459398,1.498361,1.402259,128.343691,-0.0159,0.022034,0.993607,-0.022068,-0.046072,0.001556,67.005005,32.708389,-146.41275,,,
729861443.462734,1.492983,1.38639,128.343101,-0.0159,0.022034,0.993607,-0.022068,-0.046072,0.001556,66.821991,32.900955,-146.500015,,,
729861443.466065,1.488329,1.368722,128.341766,-0.012939,0.021179,1.001648,-0.015037,-0.051757,-0.00516,66.821991,32.900955,-146.500015,,,
729861443.469399,1.488329,1.368722,128.341766,-0.012939,0.021179,1.001648,-0.015037,-0.051757,-0.00516,66.821991,32.900955,-146.500015,,,
729861443.472742,1.484862,1.356495,128.339911,-0.012939,0.021179,1.001648,-0.015037,-0.051757,-0.00516,66.821991,32.900955,-146.500015,,,
729861443.476068,1.482373,1.343712,128.337797,-0.007858,0.024231,1.010696,-0.010158,-0.029011,-0.009686,66.821991,32.900955,-146.500015,,,
729861443.47941,1.482373,1.343712,128.337797,-0.007858,0.024231,1.010696,-0.010158,-0.029011,-0.009686,66.821991,32.900955,-146.500015,,,
729861443.482728,1.480562,1.340803,128.335972,-0.007858,0.024231,1.010696,-0.010158,-0.029011,-0.009686,66.821991,32.900955,-146.500015,,,
729861443.486073,1.478685,1.340318,128.334982,-0.012436,0.024719,1.019653,-0.005867,0.008461,-0.003971,66.821991,32.900955,-146.500015,,,
729861443.489418,1.478685,1.340318,128.334982,-0.012436,0.024719,1.019653,-0.005867,0.008461,-0.003971,66.821991,32.900955,-146.500015,,,
729861443.492736,1.475806,1.349953,128.334503,-0.012436,0.024719,1.019653,-0.005867,0.008461,-0.003971,66.821991,32.900955,-146.500015,,,
729861443.496065,1.472941,1.361792,128.334924,-0.015335,0.027145,1.020325,-0.010339,0.052703,-0.001951,66.821991,32.900955,-146.500015,,,
729861443.49942,1.472941,1.361792,128.334924,-0.015335,0.027145,1.020325,-0.010339,0.052703,-0.001951,66.821991,32.900955,-146.500015,,,
729861443.502744,1.468862,1.381377,128.335886,-0.015335,0.027145,1.020325,-0.010339,0.052703,-0.001951,66.821991,32.900955,-146.500015,,,
729861443.506061,1.46459,1.400415,128.337629,-0.017548,0.02713,1.012314,-0.016149,0.076112,0.003964,66.868546,32.993576,-145.812881,,,
729861443.509508,1.46459,1.400415,128.337629,-0.017548,0.02713,1.012314,-0.016149,0.076112,0.003964,66.868546,32.993576,-145.812881,,,
729861443.512754,1.458852,1.420815,128.3397,-0.017548,0.02713,1.012314,-0.016149,0.076112,0.003964,66.868546,32.993576,-145.812881,,,
729861443.516075,1.451383,1.43576,128.341772,-0.024384,0.026581,0.997284,-0.023937,0.068733,0.007316,66.868546,32.993576,-145.812881,,,
729861443.519406,1.451383,1.43576,128.341772,-0.024384,0.026581,0.997284,-0.023937,0.068733,0.007316,66.868546,32.993576,-145.812881,,,
729861443.522761,1.44036,1.447529,128.343606,-0.024384,0.026581,0.997284,-0.023937,0.068733,0.007316,66.868546,32.993576,-145.812881,,,
729861443.526181,1.425698,1.450084,128.345177,-0.030899,0.02771,0.979691,-0.047176,0.027971,0.002892,66.868546,32.993576,-145.812881,,,
729861443.529421,1.425698,1.450084,128.345177,-0.030899,0.02771,0.979691,-0.047176,0.027971,0.002892,66.868546,32.993576,-145.812881,,,
729861443.532751,1.408211,1.447951,128.346349,-0.030899,0.02771,0.979691,-0.047176,0.027971,0.002892,66.868546,32.993576,-145.812881,,,
729861443.536068,1.386764,1.434568,128.346878,-0.034973,0.027802,0.968552,-0.06837,-0.026321,-0.002344,66.868546,32.993576,-145.812881,,,
729861443.539395,1.386764,1.434568,128.346878,-0.034973,0.027802,0.968552,-0.06837,-0.026321,-0.002344,66.868546,32.993576,-145.812881,,,
729861443.542755,1.364262,1.417007,128.34648,-0.034973,0.027802,0.968552,-0.06837,-0.026321,-0.002344,66.868546,32.993576,-145.812881,,,
729861443.546079,1.341967,1.390282,128.345865,-0.033432,0.027725,0.971725,-0.076426,-0.074635,-0.004396,66.871658,33.186798,-146.273544,,,
729861443.549453,1.341967,1.390282,128.345865,-0.033432,0.027725,0.971725,-0.076426,-0.074635,-0.004396,66.871658,33.186798,-146.273544,,,
729861443.552732,1.322905,1.365098,128.34504,-0.033432,0.027725,0.971725,-0.076426,-0.074635,-0.004396,66.871658,33.186798,-146.273544,,,
729861443.556072,1.308881,1.334165,128.3447,-0.030655,0.024063,0.99144,-0.056554,-0.089591,-0.005537,66.871658,33.186798,-146.273544,,,
729861443.55942,1.308881,1.334165,128.3447,-0.030655,0.024063,0.99144,-0.056554,-0.089591,-0.005537,66.871658,33.186798,-146.273544,,,
729861443.562797,1.30009,1.310428,128.345018,-0.030655,0.024063,0.99144,-0.056554,-0.089591,-0.005537,66.871658,33.186798,-146.273544,,,
729861443.566106,1.298348,1.289642,128.346182,-0.023224,0.018906,1.019379,-0.013451,-0.068501,0.001811,66.871658,33.186798,-146.273544,,,
729861443.56956,1.298348,1.289642,128.346182,-0.023224,0.018906,1.019379,-0.013451,-0.068501,0.001811,66.871658,33.186798,-146.273544,,,
729861443.572786,1.303516,1.279505,128.348122,-0.023224,0.018906,1.019379,-0.013451,-0.068501,0.001811,66.871658,33.186798,-146.273544,,,
729861443.576052,1.316562,1.276055,128.351667,-0.018539,0.013458,1.044739,0.039089,-0.011781,0.011597,66.871658,33.186798,-146.273544,,,
729861443.579369,1.316562,1.276055,128.351667,-0.018539,0.013458,1.044739,0.039089,-0.011781,0.011597,66.871658,33.186798,-146.273544,,,
729861443.582727,1.333769,1.282663,128.356947,-0.018539,0.013458,1.044739,0.039089,-0.011781,0.011597,66.871658,33.186798,-146.273544,,,
729861443.58606,1.354594,1.295065,128.363416,-0.020096,0.016144,1.050385,0.06896,0.043993,0.020135,66.838928,33.192917,-146.275314,,,
729861443.589437,1.354594,1.295065,128.363416,-0.020096,0.016144,1.050385,0.06896,0.043993,0.020135,66.838928,33.192917,-146.275314,,,
729861443.592732,1.376214,1.312401,128.370647,-0.020096,0.016144,1.050385,0.06896,0.043993,0.020135,66.838928,33.192917,-146.275314,,,
729861443.596057,1.397418,1.333362,128.377927,-0.022797,0.022247,1.028519,0.073449,0.071983,0.025979,66.838928,33.192917,-146.275314,,,
729861443.599363,1.397418,1.333362,128.377927,-0.022797,0.022247,1.028519,0.073449,0.071983,0.025979,66.838928,33.192917,-146.275314,,,
729861443.602777,1.41537,1.35374,128.384342,-0.022797,0.022247,1.028519,0.073449,0.071983,0.025979,66.838928,33.192917,-146.275314,,,
729861443.605988,1.430197,1.374524,128.389313,-0.026581,0.031021,0.997345,0.052732,0.069811,0.01871,66.838928,33.192917,-146.275314,,,
729861443.609334,1.430197,1.374524,128.389313,-0.026581,0.031021,0.997345,0.052732,0.069811,0.01871,66.838928,33.192917,-146.275314,,,
729861443.612662,1.43928,1.389699,128.393137,-0.026581,0.031021,0.997345,0.052732,0.069811,0.01871,66.838928,33.192917,-146.275314,,,
729861443.615994,1.443402,1.402708,128.39588,-0.028732,0.036652,0.973862,0.016804,0.0447,0.006811,66.838928,33.192917,-146.275314,,,
729861443.619344,1.443402,1.402708,128.39588,-0.028732,0.036652,0.973862,0.016804,0.0447,0.006811,66.838928,33.192917,-146.275314,,,
729861443.622658,1.441989,1.407742,128.397468,-0.028732,0.036652,0.973862,0.016804,0.0447,0.006811,66.838928,33.192917,-146.275314,,,
729861443.626086,1.436643,1.408903,128.397406,-0.029587,0.040512,0.960251,-0.017341,0.003881,-0.000123,66.838928,33.192917,-146.275314,,,
729861443.629326,1.436643,1.408903,128.397406,-0.029587,0.040512,0.960251,-0.017341,0.003881,-0.000123,66.862366,33.040527,-145.99823,,,
729861443.63267,1.427679,1.403575,128.396294,-0.029587,0.040512,0.960251,-0.017341,0.003881,-0.000123,66.862366,33.040527,-145.99823,,,
729861443.635993,1.416075,1.394884,128.394388,-0.033417,0.038589,0.961731,-0.03706,-0.026299,-0.008293,66.862366,33.040527,-145.99823,,,
729861443.639327,1.416075,1.394884,128.394388,-0.033417,0.038589,0.961731,-0.03706,-0.026299,-0.008293,66.862366,33.040527,-145.99823,,,
729861443.642673,1.404402,1.382519,128.392372,-0.033417,0.038589,0.961731,-0.03706,-0.026299,-0.008293,66.862366,33.040527,-145.99823,,,
729861443.645992,1.392834,1.366953,128.391056,-0.036133,0.028397,0.977997,-0.039556,-0.049654,-0.008681,66.862366,33.040527,-145.99823,,,
729861443.649335,1.392834,1.366953,128.391056,-0.036133,0.028397,0.977997,-0.039556,-0.049654,-0.008681,66.862366,33.040527,-145.99823,,,
729861443.652669,1.38497,1.351294,128.390589,-0.036133,0.028397,0.977997,-0.039556,-0.049654,-0.008681,66.862366,33.040527,-145.99823,,,
729861443.655822,1.379599,1.335888,128.39115,-0.036057,0.020248,0.998337,-0.016517,-0.04727,-0.00265,66.862366,33.040527,-145.99823,,,
729861443.659364,1.379599,1.335888,128.39115,-0.036057,0.020248,0.998337,-0.016517,-0.04727,-0.00265,66.862366,33.040527,-145.99823,,,
729861443.662661,1.380958,1.324543,128.392497,-0.036057,0.020248,0.998337,-0.016517,-0.04727,-0.00265,66.862366,33.040527,-145.99823,,,
729861443.665666,1.380958,1.324543,128.392497,-0.037949,0.012665,1.023743,0.021657,-0.02526,0.009242,66.862366,33.040527,-145.99823,,,
729861443.669371,1.387872,1.316824,128.395304,-0.037949,0.012665,1.023743,0.021657,-0.02526,0.009242,66.977539,33.037109,-146.305695,,,
729861443.672659,1.401078,1.313588,128.399626,-0.037949,0.012665,1.023743,0.021657,-0.02526,0.009242,66.977539,33.037109,-146.305695,,,
729861443.675996,1.418742,1.314262,128.406012,-0.038818,0.008438,1.036362,0.05984,0.002265,0.020491,66.977539,33.037109,-146.305695,,,
729861443.679352,1.418742,1.314262,128.406012,-0.038818,0.008438,1.036362,0.05984,0.002265,0.020491,66.977539,33.037109,-146.305695,,,
729861443.682662,1.440034,1.317903,128.414473,-0.038818,0.008438,1.036362,0.05984,0.002265,0.020491,66.977539,33.037109,-146.305695,,,
729861443.686003,1.464143,1.323824,128.423908,-0.035889,0.010269,1.028915,0.080226,0.021269,0.034045,66.977539,33.037109,-146.305695,,,
729861443.68933,1.464143,1.323824,128.423908,-0.035889,0.010269,1.028915,0.080226,0.021269,0.034045,66.977539,33.037109,-146.305695,,,
729861443.692759,1.487042,1.329905,128.433965,-0.035889,0.010269,1.028915,0.080226,0.021269,0.034045,66.977539,33.037109,-146.305695,,,
729861443.696087,1.510091,1.336664,128.443884,-0.033249,0.016647,1.009811,0.075287,0.025963,0.037565,66.977539,33.037109,-146.305695,,,
729861443.699405,1.510091,1.336664,128.443884,-0.033249,0.016647,1.009811,0.075287,0.025963,0.037565,66.977539,33.037109,-146.305695,,,
729861443.702738,1.528744,1.34028,128.45339,-0.033249,0.016647,1.009811,0.075287,0.025963,0.037565,66.977539,33.037109,-146.305695,,,
729861443.706143,1.545498,1.342362,128.461954,-0.027161,0.025696,0.986099,0.054722,0.009733,0.033614,66.977539,33.037109,-146.305695,,,
729861443.709396,1.545498,1.342362,128.461954,-0.027161,0.025696,0.986099,0.054722,0.009733,0.033614,66.813416,32.764282,-145.908188,,,
729861443.712732,1.555931,1.339761,128.468997,-0.027161,0.025696,0.986099,0.054722,0.009733,0.033614,66.813416,32.764282,-145.908188,,,
729861443.716071,1.562917,1.33676,128.473883,-0.022522,0.033569,0.968094,0.024469,-0.01239,0.01913,66.813416,32.764282,-145.908188,,,
729861443.71942,1.562917,1.33676,128.473883,-0.022522,0.033569,0.968094,0.024469,-0.01239,0.01913,66.813416,32.764282,-145.908188,,,
729861443.72273,1.563582,1.329902,128.476656,-0.022522,0.033569,0.968094,0.024469,-0.01239,0.01913,66.813416,32.764282,-145.908188,,,
729861443.72607,1.559102,1.322444,128.477432,-0.014755,0.039185,0.960693,-0.008783,-0.029005,0.003839,66.813416,32.764282,-145.908188,,,
729861443.7294,1.559102,1.322444,128.477432,-0.014755,0.039185,0.960693,-0.008783,-0.029005,0.003839,66.813416,32.764282,-145.908188,,,
729861443.732782,1.55158,1.311455,128.476822,-0.014755,0.039185,0.960693,-0.008783,-0.029005,0.003839,66.813416,32.764282,-145.908188,,,
729861443.73606,1.539895,1.30263,128.475363,-0.011566,0.037827,0.962128,-0.036898,-0.036258,-0.005046,66.813416,32.764282,-145.908188,,,
729861443.739407,1.539895,1.30263,128.475363,-0.011566,0.037827,0.962128,-0.036898,-0.036258,-0.005046,66.813416,32.764282,-145.908188,,,
729861443.742739,1.526775,1.292644,128.473815,-0.011566,0.037827,0.962128,-0.036898,-0.036258,-0.005046,66.813416,32.764282,-145.908188,,,
729861443.746065,1.526775,1.292644,128.473815,-0.014008,0.032486,0.972382,-0.045171,-0.026246,-0.008865,66.813416,32.764282,-145.908188,,,
729861443.749392,1.510561,1.287527,128.472557,-0.014008,0.032486,0.972382,-0.045171,-0.026246,-0.008865,66.612473,32.972916,-146.308395,,,
729861443.75275,1.497478,1.283031,128.472168,-0.014008,0.032486,0.972382,-0.045171,-0.026246,-0.008865,66.612473,32.972916,-146.308395,,,
729861443.756061,1.497478,1.283031,128.472168,-0.017761,0.02475,0.987778,-0.041513,-0.00386,0.001441,66.612473,32.972916,-146.308395,,,
729861443.759403,1.482985,1.284563,128.473818,-0.017761,0.02475,0.987778,-0.041513,-0.00386,0.001441,66.612473,32.972916,-146.308395,,,
729861443.762731,1.474352,1.284587,128.477857,-0.017761,0.02475,0.987778,-0.041513,-0.00386,0.001441,66.612473,32.972916,-146.308395,,,
729861443.766063,1.474352,1.284587,128.477857,-0.023483,0.015518,0.999542,-0.019792,0.007281,0.017437,66.612473,32.972916,-146.308395,,,
729861443.769403,1.467427,1.28896,128.483332,-0.023483,0.015518,0.999542,-0.019792,0.007281,0.017437,66.612473,32.972916,-146.308395,,,
729861443.772731,1.467424,1.292433,128.490125,-0.023483,0.015518,0.999542,-0.019792,0.007281,0.017437,66.612473,32.972916,-146.308395,,,
729861443.776067,1.467424,1.292433,128.490125,-0.023849,0.011368,1.011551,0.010667,0.014555,0.023684,66.612473,32.972916,-146.308395,,,
729861443.77941,1.47047,1.298198,128.496724,-0.023849,0.011368,1.011551,0.010667,0.014555,0.023684,66.612473,32.972916,-146.308395,,,
729861443.782846,1.477403,1.302189,128.502088,-0.023849,0.011368,1.011551,0.010667,0.014555,0.023684,66.612473,32.972916,-146.308395,,,
729861443.786051,1.477403,1.302189,128.502088,-0.023849,0.011368,1.011551,0.025505,0.017761,0.015312,66.612473,32.972916,-146.308395,,,
729861443.789419,1.486589,1.307138,128.505776,-0.016907,0.017334,1.013153,0.025505,0.017761,0.015312,66.612473,32.972916,-146.308395,,,
729861443.792747,1.495201,1.310143,128.508023,-0.016907,0.017334,1.013153,0.025505,0.017761,0.015312,66.427734,33.102829,-146.286972,,,
729861443.79606,1.495201,1.310143,128.508023,-0.012466,0.022064,1.00119,0.029714,0.009998,0.006393,66.427734,33.102829,-146.286972,,,
729861443.799408,1.505149,1.310309,128.509217,-0.012466,0.022064,1.00119,0.029714,0.009998,0.006393,66.427734,33.102829,-146.286972,,,
729861443.802807,1.510251,1.309408,128.509535,-0.012466,0.022064,1.00119,0.029714,0.009998,0.006393,66.427734,33.102829,-146.286972,,,
729861443.806056,1.510251,1.309408,128.509535,-0.012466,0.022064,1.00119,0.029714,0.009998,0.006393,66.427734,33.102829,-146.286972,,,
729861443.809424,1.514663,1.304932,128.509453,-0.012558,0.026047,0.98378,0.01127,-0.004838,-0.002234,66.427734,33.102829,-146.286972,,,
729861443.812738,1.511959,1.300981,128.508595,-0.012558,0.026047,0.98378,0.01127,-0.004838,-0.002234,66.427734,33.102829,-146.286972,,,
729861443.816096,1.511959,1.300981,128.508595,-0.012558,0.026047,0.98378,0.01127,-0.004838,-0.002234,66.427734,33.102829,-146.286972,,,
729861443.819408,1.506145,1.293555,128.506814,-0.013611,0.032425,0.969528,-0.022649,-0.013948,-0.008245,66.427734,33.102829,-146.286972,,,
729861443.822739,1.493549,1.288263,128.504334,-0.013611,0.032425,0.969528,-0.022649,-0.013948,-0.008245,66.427734,33.102829,-146.286972,,,
729861443.826138,1.493549,1.288263,128.504334,-0.013229,0.034958,0.963348,-0.057187,-0.013115,-0.010614,66.427734,33.102829,-146.286972,,,
729861443.82941,1.477332,1.28195,128.50138,-0.013229,0.034958,0.963348,-0.057187,-0.013115,-0.010614,66.427734,33.102829,-146.286972,,,
729861443.832738,1.456934,1.278389,128.497707,-0.013229,0.034958,0.963348,-0.057187,-0.013115,-0.010614,66.537186,33.262589,-146.025101,,,
729861443.836132,1.456934,1.278389,128.497707,-0.013229,0.034958,0.963348,-0.057187,-0.013115,-0.010614,66.537186,33.262589,-146.025101,,,
729861443.839411,1.434596,1.275815,128.494119,-0.015656,0.032242,0.96698,-0.074717,-0.005966,-0.014762,66.537186,33.262589,-146.025101,,,
729861443.842738,1.412963,1.275074,128.49105,-0.015656,0.032242,0.96698,-0.074717,-0.005966,-0.014762,66.537186,33.262589,-146.025101,,,
729861443.846134,1.412963,1.275074,128.49105,-0.019211,0.027634,0.98378,-0.070464,0.002576,-0.012208,66.537186,33.262589,-146.025101,,,
729861443.84947,1.39064,1.275758,128.488597,-0.019211,0.027634,0.98378,-0.070464,0.002576,-0.012208,66.537186,33.262589,-146.025101,,,
729861443.852744,1.371812,1.277623,128.486404,-0.019211,0.027634,0.98378,-0.070464,0.002576,-0.012208,66.537186,33.262589,-146.025101,,,
729861443.856096,1.371812,1.277623,128.486404,-0.019821,0.021042,1.000717,-0.059369,0.011909,-0.009574,66.537186,33.262589,-146.025101,,,
729861443.859401,1.352913,1.280684,128.484407,-0.019821,0.021042,1.000717,-0.059369,0.011909,-0.009574,66.537186,33.262589,-146.025101,,,
729861443.862778,1.337536,1.284555,128.482336,-0.019821,0.021042,1.000717,-0.059369,0.011909,-0.009574,66.537186,33.262589,-146.025101,,,
729861443.866185,1.337536,1.284555,128.482336,-0.019821,0.021042,1.000717,-0.059369,0.011909,-0.009574,66.537186,33.262589,-146.025101,,,
729861443.869373,1.323987,1.286953,128.479888,-0.020569,0.018082,1.011932,-0.044844,0.018445,-0.011546,66.537186,33.262589,-146.025101,,,
729861443.872727,1.313831,1.29186,128.477426,-0.020569,0.018082,1.011932,-0.044844,0.018445,-0.011546,66.506592,33.168076,-146.120499,,,
729861443.876063,1.313831,1.29186,128.477426,-0.020569,0.018082,1.011932,-0.025818,0.020449,-0.009837,66.506592,33.168076,-146.120499,,,
729861443.879347,1.306755,1.293594,128.474586,-0.019501,0.016464,1.019592,-0.025818,0.020449,-0.009837,66.506592,33.168076,-146.120499,,,
729861443.882496,1.302107,1.297183,128.471354,-0.019501,0.016464,1.019592,-0.025818,0.020449,-0.009837,66.506592,33.168076,-146.120499,,,
729861443.88622,1.302107,1.297183,128.471354,-0.019501,0.016464,1.019592,-0.025818,0.020449,-0.009837,66.506592,33.168076,-146.120499,,,
729861443.889378,1.300382,1.295914,128.468334,-0.023193,0.018646,1.018234,-0.010092,0.009133,-0.011894,66.506592,33.168076,-146.120499,,,
729861443.892698,1.297387,1.295931,128.464968,-0.023193,0.018646,1.018234,-0.010092,0.009133,-0.011894,66.506592,33.168076,-146.120499,,,
729861443.896094,1.297387,1.295931,128.464968,-0.023193,0.018646,1.018234,-0.010092,0.009133,-0.011894,66.506592,33.168076,-146.120499,,,
729861443.899364,1.296773,1.290495,128.461501,-0.022568,0.022064,1.010727,-0.01236,-0.001929,-0.013314,66.506592,33.168076,-146.120499,,,
729861443.902702,1.292074,1.284582,128.458435,-0.022568,0.022064,1.010727,-0.01236,-0.001929,-0.013314,66.506592,33.168076,-146.120499,,,
729861443.906005,1.292074,1.284582,128.458435,-0.022568,0.022064,1.010727,-0.01236,-0.001929,-0.013314,66.506592,33.168076,-146.120499,,,
729861443.909336,1.289129,1.273494,128.45499,-0.020615,0.026062,1.000626,-0.019162,-0.023931,-0.016329,66.506592,33.168076,-146.120499,,,
729861443.912666,1.281443,1.263427,128.450039,-0.020615,0.026062,1.000626,-0.019162,-0.023931,-0.016329,66.581253,33.152023,-146.441071,,,
729861443.916084,1.281443,1.263427,128.450039,-0.020691,0.029724,0.99646,-0.029618,-0.032493,-0.021958,66.581253,33.152023,-146.441071,,,
729861443.919342,1.275049,1.251626,128.444454,-0.020691,0.029724,0.99646,-0.029618,-0.032493,-0.021958,66.581253,33.152023,-146.441071,,,
729861443.922668,1.265336,1.242565,128.438945,-0.020691,0.029724,0.99646,-0.029618,-0.032493,-0.021958,66.581253,33.152023,-146.441071,,,
729861443.926001,1.265336,1.242565,128.438945,-0.020691,0.029724,0.99646,-0.029618,-0.032493,-0.021958,66.581253,33.152023,-146.441071,,,
729861443.929334,1.257085,1.234569,128.433853,-0.019775,0.025421,1.003098,-0.032467,-0.025342,-0.022641,66.581253,33.152023,-146.441071,,,
729861443.932662,1.249687,1.22963,128.429018,-0.019775,0.025421,1.003098,-0.032467,-0.025342,-0.022641,66.581253,33.152023,-146.441071,,,
729861443.93601,1.249687,1.22963,128.429018,-0.019775,0.025421,1.003098,-0.032467,-0.025342,-0.022641,66.581253,33.152023,-146.441071,,,
729861443.939327,1.243261,1.226917,128.424883,-0.020569,0.01828,1.011948,-0.018909,-0.009258,-0.013463,66.581253,33.152023,-146.441071,,,
729861443.942664,1.238987,1.227469,128.421886,-0.020569,0.01828,1.011948,-0.018909,-0.009258,-0.013463,66.581253,33.152023,-146.441071,,,
729861443.945996,1.238987,1.227469,128.421886,-0.020569,0.01828,1.011948,-0.018909,-0.009258,-0.013463,66.581253,33.152023,-146.441071,,,
729861443.949336,1.234515,1.230258,128.41972,-0.022049,0.018784,1.016632,-0.011195,0.008866,-0.008105,66.581253,33.152023,-146.441071,,,
729861443.952744,1.231154,1.235464,128.417423,-0.022049,0.018784,1.016632,-0.011195,0.008866,-0.008105,66.581253,33.152023,-146.441071,,,
729861443.956034,1.231154,1.235464,128.417423,-0.022049,0.018784,1.016632,-0.011195,0.008866,-0.008105,66.63591,33.285431,-146.205582,,,
729861443.959344,1.225695,1.241407,128.414969,-0.02327,0.021729,1.011902,-0.012566,0.027457,-0.010416,66.63591,33.285431,-146.205582,,,
729861443.962444,1.221088,1.247994,128.412947,-0.02327,0.021729,1.011902,-0.012566,0.027457,-0.010416,66.63591,33.285431,-146.205582,,,
729861443.966023,1.221088,1.247994,128.412947,-0.02327,0.021729,1.011902,-0.012566,0.027457,-0.010416,66.63591,33.285431,-146.205582,,,
729861443.969389,1.214972,1.253752,128.411827,-0.027084,0.02446,0.999008,-0.017311,0.023664,-0.007343,66.63591,33.285431,-146.205582,,,
729861443.972339,1.208564,1.256415,128.41154,-0.027084,0.02446,0.999008,-0.017311,0.023664,-0.007343,66.63591,33.285431,-146.205582,,,
729861443.976037,1.208564,1.256415,128.41154,-0.027084,0.02446,0.999008,-0.017311,0.023664,-0.007343,66.63591,33.285431,-146.205582,,,
729861443.979336,1.202227,1.256422,128.411945,-0.034363,0.022873,0.99118,-0.022543,0.006252,-0.000397,66.63591,33.285431,-146.205582,,,
729861443.982657,1.193813,1.253945,128.413031,-0.034363,0.022873,0.99118,-0.022543,0.006252,-0.000397,66.63591,33.285431,-146.205582,,,
729861443.986163,1.193813,1.253945,128.413031,-0.034363,0.022873,0.99118,-0.022543,0.006252,-0.000397,66.63591,33.285431,-146.205582,,,
729861443.989395,1.186092,1.247995,128.414719,-0.033798,0.021698,0.987381,-0.031291,-0.015501,0.005128,66.63591,33.285431,-146.205582,,,
729861443.99274,1.175295,1.23866,128.416973,-0.033798,0.021698,0.987381,-0.031291,-0.015501,0.005128,66.63591,33.285431,-146.205582,,,
729861443.996065,1.175295,1.23866,128.416973,-0.033798,0.021698,0.987381,-0.031291,-0.015501,0.005128,66.504715,33.380325,-145.951416,,,
729861443.999412,1.164822,1.225497,128.419304,-0.029266,0.023392,0.986008,-0.044792,-0.038797,0.004926,66.504715,33.380325,-145.951416,,,
729861444.002743,1.151818,1.210752,128.421126,-0.029266,0.023392,0.986008,-0.044792,-0.038797,0.004926,66.504715,33.380325,-145.951416,,,
729861444.006105,1.151818,1.210752,128.421126,-0.029266,0.023392,0.986008,-0.044792,-0.038797,0.004926,66.504715,33.380325,-145.951416,,,
729861444.009422,1.140246,1.195099,128.422044,-0.023361,0.024429,0.991409,-0.042572,-0.049611,0.003519,66.504715,33.380325,-145.951416,,,
729861444.012741,1.130975,1.18003,128.422885,-0.023361,0.024429,0.991409,-0.042572,-0.049611,0.003519,66.504715,33.380325,-145.951416,,,
729861444.016064,1.130975,1.18003,128.422885,-0.023361,0.024429,0.991409,-0.042572,-0.049611,0.003519,66.504715,33.380325,-145.951416,,,
729861444.019415,1.124244,1.165432,128.423755,-0.020767,0.019241,1.004913,-0.02148,-0.048255,0.00211,66.504715,33.380325,-145.951416,,,
729861444.022736,1.121253,1.15167,128.424665,-0.020767,0.019241,1.004913,-0.02148,-0.048255,0.00211,66.504715,33.380325,-145.951416,,,
729861444.026074,1.121253,1.15167,128.424665,-0.020767,0.019241,1.004913,-0.02148,-0.048255,0.00211,66.504715,33.380325,-145.951416,,,
729861444.029411,1.121272,1.140212,128.425758,-0.019791,0.017487,1.015427,-0.000331,-0.041914,0.002311,66.504715,33.380325,-145.951416,,,
729861444.03274,1.124771,1.131038,128.427557,-0.019791,0.017487,1.015427,-0.000331,-0.041914,0.002311,66.504715,33.380325,-145.951416,,,
729861444.036081,1.124771,1.131038,128.427557,-0.019791,0.017487,1.015427,-0.000331,-0.041914,0.002311,66.51767,33.18277,-146.52269,,,
729861444.03947,1.133041,1.12603,128.43016,-0.019836,0.016571,1.016769,0.023009,-0.020156,0.00769,66.51767,33.18277,-146.52269,,,
729861444.042726,1.142975,1.123294,128.433007,-0.019836,0.016571,1.016769,0.023009,-0.020156,0.00769,66.51767,33.18277,-146.52269,,,
729861444.046113,1.142975,1.123294,128.433007,-0.019836,0.016571,1.016769,0.023009,-0.020156,0.00769,66.51767,33.18277,-146.52269,,,
729861444.04943,1.156127,1.127794,128.436681,-0.018921,0.013458,1.02002,0.040341,0.001526,0.012493,66.51767,33.18277,-146.52269,,,
729861444.052741,1.170008,1.13073,128.440355,-0.018921,0.013458,1.02002,0.040341,0.001526,0.012493,66.51767,33.18277,-146.52269,,,
729861444.056148,1.170008,1.13073,128.440355,-0.018921,0.013458,1.02002,0.040341,0.001526,0.012493,66.51767,33.18277,-146.52269,,,
729861444.059409,1.185026,1.139571,128.443059,-0.018875,0.015076,1.015213,0.053258,0.015914,0.009109,66.51767,33.18277,-146.52269,,,
729861444.062743,1.198598,1.14335,128.445152,-0.018875,0.015076,1.015213,0.053258,0.015914,0.009109,66.51767,33.18277,-146.52269,,,
729861444.06607,1.198598,1.14335,128.445152,-0.018875,0.015076,1.015213,0.053258,0.015914,0.009109,66.51767,33.18277,-146.52269,,,
729861444.069402,1.210683,1.150072,128.445467,-0.013306,0.02066,0.998993,0.043209,0.011252,0.003813,66.51767,33.18277,-146.52269,,,
729861444.072732,1.220528,1.152018,128.444417,-0.013306,0.02066,0.998993,0.043209,0.011252,0.003813,66.51767,33.18277,-146.52269,,,
729861444.076072,1.220528,1.152018,128.444417,-0.013306,0.02066,0.998993,0.043209,0.011252,0.003813,66.51767,33.18277,-146.52269,,,
729861444.079416,1.227776,1.155826,128.442699,-0.012451,0.027542,0.981705,0.02568,0.004685,-0.005316,66.423187,33.107971,-146.597275,,,
729861444.082733,1.230894,1.156533,128.440302,-0.012451,0.027542,0.981705,0.02568,0.004685,-0.005316,66.423187,33.107971,-146.597275,,,
729861444.086067,1.230894,1.156533,128.440302,-0.012451,0.027542,0.981705,0.02568,0.004685,-0.005316,66.423187,33.107971,-146.597275,,,
729861444.089425,1.231453,1.157148,128.438228,-0.017426,0.029068,0.975372,0.002788,0.005621,-0.008417,66.423187,33.107971,-146.597275,,,
729861444.092736,1.229037,1.157145,128.437688,-0.017426,0.029068,0.975372,0.002788,0.005621,-0.008417,66.423187,33.107971,-146.597275,,,
729861444.096142,1.229037,1.157145,128.437688,-0.017426,0.029068,0.975372,0.002788,0.005621,-0.008417,66.423187,33.107971,-146.597275,,,
729861444.099406,1.22431,1.157161,128.438212,-0.022583,0.025436,0.97821,-0.009626,0.003094,-0.000672,66.423187,33.107971,-146.597275,,,
729861444.102739,1.220026,1.156274,128.439301,-0.022583,0.025436,0.97821,-0.009626,0.003094,-0.000672,66.423187,33.107971,-146.597275,,,
729861444.106076,1.220026,1.156274,128.439301,-0.022583,0.025436,0.97821,-0.009626,0.003094,-0.000672,66.423187,33.107971,-146.597275,,,
729861444.109465,1.21447,1.154534,128.441286,-0.026047,0.021744,0.981003,-0.017869,-0.001584,0.004983,66.423187,33.107971,-146.597275,,,
729861444.112725,1.210638,1.152639,128.443021,-0.026047,0.021744,0.981003,-0.017869,-0.001584,0.004983,66.423187,33.107971,-146.597275,,,
729861444.116076,1.210638,1.152639,128.443021,-0.026047,0.021744,0.981003,-0.017869,-0.001584,0.004983,66.423187,33.107971,-146.597275,,,
729861444.119573,1.206433,1.149887,128.443421,-0.021088,0.023605,0.991196,-0.011295,-0.007589,0.002668,66.337357,33.247253,-146.356155,,,
729861444.122727,1.205832,1.147578,128.442942,-0.021088,0.023605,0.991196,-0.011295,-0.007589,0.002668,66.337357,33.247253,-146.356155,,,
729861444.126085,1.205832,1.147578,128.442942,-0.021088,0.023605,0.991196,-0.011295,-0.007589,0.002668,66.337357,33.247253,-146.356155,,,
729861444.129412,1.205736,1.145189,128.44162,-0.016022,0.023026,0.999969,0.005905,-0.004001,-0.00688,66.337357,33.247253,-146.356155,,,
729861444.132735,1.210436,1.144121,128.439638,-0.016022,0.023026,0.999969,0.005905,-0.004001,-0.00688,66.337357,33.247253,-146.356155,,,
729861444.136082,1.210436,1.144121,128.439638,-0.016022,0.023026,0.999969,0.005905,-0.004001,-0.00688,66.337357,33.247253,-146.356155,,,
729861444.139429,1.217064,1.143077,128.437053,-0.014664,0.020966,1.008041,0.025325,0.001005,-0.008364,66.337357,33.247253,-146.356155,,,
729861444.142741,1.227025,1.144138,128.433957,-0.014664,0.020966,1.008041,0.025325,0.001005,-0.008364,66.337357,33.247253,-146.356155,,,
729861444.146073,1.227025,1.144138,128.433957,-0.014664,0.020966,1.008041,0.025325,0.001005,-0.008364,66.337357,33.247253,-146.356155,,,
729861444.149411,1.239302,1.144461,128.430978,-0.013458,0.017776,1.010941,0.04377,0.011805,-0.011499,66.337357,33.247253,-146.356155,,,
729861444.152738,1.251784,1.149991,128.427866,-0.013458,0.017776,1.010941,0.04377,0.011805,-0.011499,66.337357,33.247253,-146.356155,,,
729861444.156004,1.251784,1.149991,128.427866,-0.013458,0.017776,1.010941,0.04377,0.011805,-0.011499,66.337357,33.247253,-146.356155,,,
729861444.159386,1.265957,1.155899,128.425089,-0.016327,0.019577,1.009537,0.044724,0.026175,-0.011237,66.620819,33.203979,-146.238205,,,
729861444.162747,1.277147,1.165039,128.423236,-0.016327,0.019577,1.009537,0.044724,0.026175,-0.011237,66.620819,33.203979,-146.238205,,,
729861444.166092,1.277147,1.165039,128.423236,-0.016327,0.019577,1.009537,0.044724,0.026175,-0.011237,66.620819,33.203979,-146.238205,,,
729861444.169409,1.287636,1.174129,128.422215,-0.021469,0.021881,0.996475,0.034984,0.03388,-0.004822,66.620819,33.203979,-146.238205,,,
729861444.172733,1.293635,1.183049,128.421516,-0.021469,0.021881,0.996475,0.034984,0.03388,-0.004822,66.620819,33.203979,-146.238205,,,
729861444.176092,1.293635,1.183049,128.421516,-0.021469,0.021881,0.996475,0.034984,0.03388,-0.004822,66.620819,33.203979,-146.238205,,,
729861444.179422,1.296596,1.192771,128.421061,-0.026764,0.024673,0.982651,0.010507,0.033486,-0.001989,66.620819,33.203979,-146.238205,,,
729861444.182679,1.295177,1.199996,128.421153,-0.026764,0.024673,0.982651,0.010507,0.033486,-0.001989,66.620819,33.203979,-146.238205,,,
729861444.18602,1.295177,1.199996,128.421153,-0.026764,0.024673,0.982651,0.010507,0.033486,-0.001989,66.620819,33.203979,-146.238205,,,
729861444.189352,1.290238,1.207084,128.421134,-0.028107,0.027466,0.971115,-0.014941,0.02374,-0.001435,66.620819,33.203979,-146.238205,,,
729861444.192673,1.282004,1.210766,128.421124,-0.028107,0.027466,0.971115,-0.014941,0.02374,-0.001435,66.620819,33.203979,-146.238205,,,
729861444.196076,1.282004,1.210766,128.421124,-0.028107,0.027466,0.971115,-0.014941,0.02374,-0.001435,66.620819,33.203979,-146.238205,,,
729861444.199326,1.272361,1.212802,128.42082,-0.028244,0.028397,0.969894,-0.033945,0.01159,-0.002787,66.69696,33.100143,-146.440323,,,
729861444.20267,1.263047,1.215265,128.420096,-0.028244,0.028397,0.969894,-0.033945,0.01159,-0.002787,66.69696,33.100143,-146.440323,,,
729861444.206002,1.263047,1.215265,128.420096,-0.028244,0.028397,0.969894,-0.033945,0.01159,-0.002787,66.69696,33.100143,-146.440323,,,
729861444.209337,1.255732,1.215658,128.419034,-0.024979,0.024933,0.986282,-0.027495,0.012204,-0.004017,66.69696,33.100143,-146.440323,,,
729861444.212662,1.250857,1.21755,128.417801,-0.024979,0.024933,0.986282,-0.027495,0.012204,-0.004017,66.69696,33.100143,-146.440323,,,
729861444.215995,1.250857,1.21755,128.417801,-0.024979,0.024933,0.986282,-0.027495,0.012204,-0.004017,66.69696,33.100143,-146.440323,,,
729861444.219338,1.249029,1.215996,128.416971,-0.02655,0.020065,1.00238,-0.007162,0.007305,-0.004952,66.69696,33.100143,-146.440323,,,
729861444.222673,1.250935,1.215914,128.416718,-0.02655,0.020065,1.00238,-0.007162,0.007305,-0.004952,66.69696,33.100143,-146.440323,,,
729861444.225992,1.250935,1.215914,128.416718,-0.02655,0.020065,1.00238,-0.007162,0.007305,-0.004952,66.69696,33.100143,-146.440323,,,
729861444.229422,1.254317,1.213648,128.417319,-0.031158,0.016159,1.007874,0.015154,0.001048,-0.001615,66.69696,33.100143,-146.440323,,,
729861444.23266,1.260701,1.214434,128.418309,-0.031158,0.016159,1.007874,0.015154,0.001048,-0.001615,66.69696,33.100143,-146.440323,,,
729861444.236001,1.260701,1.214434,128.418309,-0.031158,0.016159,1.007874,0.015154,0.001048,-0.001615,66.69696,33.100143,-146.440323,,,
729861444.239333,1.266958,1.214992,128.420293,-0.03331,0.015121,1.00676,0.026017,0.007612,0.003821,66.69696,33.100143,-146.440323,,,
729861444.242663,1.273681,1.217226,128.423885,-0.03331,0.015121,1.00676,0.026017,0.007612,0.003821,66.398529,33.156647,-146.42247,,,
729861444.246007,1.273681,1.217226,128.423885,-0.03331,0.015121,1.00676,0.026017,0.007612,0.003821,66.398529,33.156647,-146.42247,,,
729861444.249329,1.279785,1.220088,128.429338,-0.037354,0.015427,1.001587,0.023902,0.011221,0.016317,66.398529,33.156647,-146.42247,,,
729861444.252697,1.284382,1.22211,128.436022,-0.037354,0.015427,1.001587,0.023902,0.011221,0.016317,66.398529,33.156647,-146.42247,,,
729861444.255803,1.284382,1.22211,128.436022,-0.037354,0.015427,1.001587,0.023902,0.011221,0.016317,66.398529,33.156647,-146.42247,,,
729861444.259364,1.288018,1.226598,128.443301,-0.033157,0.01889,0.987534,0.010857,0.013153,0.023925,66.398529,33.156647,-146.42247,,,
729861444.262758,1.288786,1.228927,128.451025,-0.033157,0.01889,0.987534,0.010857,0.013153,0.023925,66.398529,33.156647,-146.42247,,,
729861444.266073,1.288786,1.228927,128.451025,-0.033157,0.01889,0.987534,0.010857,0.013153,0.023925,66.398529,33.156647,-146.42247,,,
729861444.269421,1.290253,1.23303,128.4582,-0.029358,0.021866,0.979462,0.000228,0.011643,0.024823,66.398529,33.156647,-146.42247,,,
729861444.272733,1.289432,1.234223,128.464003,-0.029358,0.021866,0.979462,0.000228,0.011643,0.024823,66.398529,33.156647,-146.42247,,,
729861444.276068,1.289432,1.234223,128.464003,-0.029358,0.021866,0.979462,0.000228,0.011643,0.024823,66.398529,33.156647,-146.42247,,,
729861444.279403,1.289443,1.237482,128.46757,-0.020355,0.029114,0.983215,-0.003713,0.005455,0.012158,66.398529,33.156647,-146.42247,,,
729861444.282734,1.287895,1.237982,128.468836,-0.020355,0.029114,0.983215,-0.003713,0.005455,0.012158,66.684875,33.141281,-146.365463,,,
729861444.286065,1.287895,1.237982,128.468836,-0.020355,0.029114,0.983215,-0.003713,0.005455,0.012158,66.684875,33.141281,-146.365463,,,
729861444.289405,1.286021,1.239593,128.46781,-0.014679,0.030548,0.986496,-0.005608,0.003923,-0.002235,66.684875,33.141281,-146.365463,,,
729861444.292732,1.282987,1.241077,128.464866,-0.014679,0.030548,0.986496,-0.005608,0.003923,-0.002235,66.684875,33.141281,-146.365463,,,
729861444.296105,1.282987,1.241077,128.464866,-0.014679,0.030548,0.986496,-0.005608,0.003923,-0.002235,66.684875,33.141281,-146.365463,,,
729861444.299396,1.27793,1.24667,128.461028,-0.014069,0.031387,0.991699,-0.012913,0.010414,-0.016066,66.684875,33.141281,-146.365463,,,
729861444.302755,1.272597,1.252087,128.457403,-0.014069,0.031387,0.991699,-0.012913,0.010414,-0.016066,66.684875,33.141281,-146.365463,,,
729861444.306063,1.272597,1.252087,128.457403,-0.014069,0.031387,0.991699,-0.012913,0.010414,-0.016066,66.684875,33.141281,-146.365463,,,
729861444.309401,1.264259,1.263232,128.454572,-0.020187,0.02562,0.99585,-0.022276,0.02894,-0.012193,66.684875,33.141281,-146.365463,,,
729861444.312733,1.256907,1.274697,128.453996,-0.020187,0.02562,0.99585,-0.022276,0.02894,-0.012193,66.684875,33.141281,-146.365463,,,
729861444.316082,1.256907,1.274697,128.453996,-0.020187,0.02562,0.99585,-0.022276,0.02894,-0.012193,66.684875,33.141281,-146.365463,,,
729861444.319399,1.248092,1.292821,128.456364,-0.031464,0.019943,0.999283,-0.027727,0.049644,0.005923,66.684875,33.141281,-146.365463,,,
729861444.322732,1.240389,1.308009,128.461671,-0.031464,0.019943,0.999283,-0.027727,0.049644,0.005923,66.552429,33.277435,-146.408768,,,
729861444.326091,1.240389,1.308009,128.461671,-0.031464,0.019943,0.999283,-0.027727,0.049644,0.005923,66.552429,33.277435,-146.408768,,,
729861444.329419,1.231539,1.326847,128.469208,-0.038055,0.016052,0.99852,-0.026511,0.054393,0.025509,66.552429,33.277435,-146.408768,,,
729861444.332729,1.224331,1.339647,128.477854,-0.038055,0.016052,0.99852,-0.026511,0.054393,0.025509,66.552429,33.277435,-146.408768,,,
729861444.336074,1.224331,1.339647,128.477854,-0.038055,0.016052,0.99852,-0.026511,0.054393,0.025509,66.552429,33.277435,-146.408768,,,
729861444.339422,1.21778,1.353428,128.486466,-0.03804,0.017731,0.994186,-0.023612,0.045028,0.030855,66.552429,33.277435,-146.408768,,,
729861444.342759,1.213057,1.36088,128.494688,-0.03804,0.017731,0.994186,-0.023612,0.045028,0.030855,66.552429,33.277435,-146.408768,,,
729861444.346074,1.213057,1.36088,128.494688,-0.03804,0.017731,0.994186,-0.023612,0.045028,0.030855,66.552429,33.277435,-146.408768,,,
729861444.349513,1.210728,1.364503,128.50132,-0.032593,0.018539,0.994659,-0.013982,0.018194,0.027865,66.552429,33.277435,-146.408768,,,
729861444.35272,1.208651,1.362701,128.506518,-0.032593,0.018539,0.994659,-0.013982,0.018194,0.027865,66.552429,33.277435,-146.408768,,,
729861444.356072,1.208651,1.362701,128.506518,-0.032593,0.018539,0.994659,-0.013982,0.018194,0.027865,66.552429,33.277435,-146.408768,,,
729861444.359408,1.208894,1.354867,128.510362,-0.027267,0.023132,0.992279,-0.003992,-0.014341,0.014333,66.552429,33.277435,-146.408768,,,
729861444.362731,1.205805,1.345826,128.512677,-0.027267,0.023132,0.992279,-0.003992,-0.014341,0.014333,66.766342,33.422607,-146.259445,,,
729861444.366095,1.205805,1.345826,128.512677,-0.027267,0.023132,0.992279,-0.003992,-0.014341,0.014333,66.766342,33.422607,-146.259445,,,
729861444.369397,1.203544,1.331178,128.514124,-0.025192,0.023605,0.987564,-0.013665,-0.033558,0.001903,66.766342,33.422607,-146.259445,,,
729861444.372732,1.196773,1.31882,128.514362,-0.025192,0.023605,0.987564,-0.013665,-0.033558,0.001903,66.766342,33.422607,-146.259445,,,
729861444.376182,1.196773,1.31882,128.514362,-0.025192,0.023605,0.987564,-0.013665,-0.033558,0.001903,66.766342,33.422607,-146.259445,,,
729861444.379405,1.190918,1.30458,128.514691,-0.025345,0.025116,0.984406,-0.026792,-0.036558,-0.001973,66.766342,33.422607,-146.259445,,,
729861444.382746,1.182084,1.294158,128.516163,-0.025345,0.025116,0.984406,-0.026792,-0.036558,-0.001973,66.766342,33.422607,-146.259445,,,
729861444.386074,1.182084,1.294158,128.516163,-0.025345,0.025116,0.984406,-0.026792,-0.036558,-0.001973,66.766342,33.422607,-146.259445,,,
729861444.389408,1.173644,1.286193,128.518863,-0.028,0.018906,0.993317,-0.031896,-0.026868,0.005137,66.766342,33.422607,-146.259445,,,
729861444.392743,1.163575,1.280212,128.523006,-0.028,0.018906,0.993317,-0.031896,-0.026868,0.005137,66.766342,33.422607,-146.259445,,,
729861444.396089,1.163575,1.280212,128.523006,-0.028,0.018906,0.993317,-0.031896,-0.026868,0.005137,66.766342,33.422607,-146.259445,,,
729861444.399494,1.15215,1.281136,128.529061,-0.028473,0.012833,1.003143,-0.03545,-0.010341,0.018865,66.766342,33.422607,-146.259445,,,
729861444.402739,1.141365,1.280254,128.53703,-0.028473,0.012833,1.003143,-0.03545,-0.010341,0.018865,66.766342,33.422607,-146.259445,,,
729861444.406096,1.141365,1.280254,128.53703,-0.028473,0.012833,1.003143,-0.03545,-0.010341,0.018865,66.650223,33.204025,-146.126419,,,
729861444.409402,1.130047,1.286414,128.545673,-0.024979,0.011749,1.006683,-0.037607,0.005849,0.026346,66.650223,33.204025,-146.126419,,,
729861444.41274,1.120879,1.288806,128.554904,-0.024979,0.011749,1.006683,-0.037607,0.005849,0.026346,66.650223,33.204025,-146.126419,,,
729861444.41609,1.120879,1.288806,128.554904,-0.024979,0.011749,1.006683,-0.037607,0.005849,0.026346,66.650223,33.204025,-146.126419,,,
729861444.419405,1.113429,1.296786,128.56398,-0.022278,0.012985,1.012421,-0.02758,0.014222,0.028865,66.650223,33.204025,-146.126419,,,
729861444.42274,1.108742,1.300399,128.572492,-0.022278,0.012985,1.012421,-0.02758,0.014222,0.028865,66.650223,33.204025,-146.126419,,,
729861444.426145,1.108742,1.300399,128.572492,-0.022278,0.012985,1.012421,-0.02758,0.014222,0.028865,66.650223,33.204025,-146.126419,,,
729861444.429416,1.107074,1.307224,128.580064,-0.015945,0.014191,1.017807,-0.009779,0.01655,0.024794,66.650223,33.204025,-146.126419,,,
729861444.432733,1.108724,1.312604,128.586525,-0.015945,0.014191,1.017807,-0.009779,0.01655,0.024794,66.650223,33.204025,-146.126419,,,
729861444.436069,1.108724,1.312604,128.586525,-0.015945,0.014191,1.017807,-0.009779,0.01655,0.024794,66.650223,33.204025,-146.126419,,,
729861444.439399,1.113495,1.319625,128.592046,-0.008942,0.014587,1.021515,0.012446,0.023029,0.020011,66.650223,33.204025,-146.126419,,,
729861444.442733,1.11915,1.326016,128.596872,-0.008942,0.014587,1.021515,0.012446,0.023029,0.020011,66.650223,33.204025,-146.126419,,,
729861444.446083,1.11915,1.326016,128.596872,-0.008942,0.014587,1.021515,0.012446,0.023029,0.020011,66.983414,33.07959,-146.14447,,,
729861444.449481,1.127782,1.332563,128.601177,-0.007172,0.015839,1.021484,0.021756,0.025518,0.0138,66.983414,33.07959,-146.14447,,,
729861444.45272,1.135168,1.336691,128.604688,-0.007172,0.015839,1.021484,0.021756,0.025518,0.0138,66.983414,33.07959,-146.14447,,,
729861444.456084,1.135168,1.336691,128.604688,-0.007172,0.015839,1.021484,0.021756,0.025518,0.0138,66.983414,33.07959,-146.14447,,,
729861444.459411,1.143387,1.339655,128.606946,-0.010864,0.01741,1.009079,0.027091,0.01193,0.006611,66.983414,33.07959,-146.14447,,,
729861444.462728,1.149849,1.33978,128.60815,-0.010864,0.01741,1.009079,0.027091,0.01193,0.006611,66.983414,33.07959,-146.14447,,,
729861444.466071,1.149849,1.33978,128.60815,-0.010864,0.01741,1.009079,0.027091,0.01193,0.006611,66.983414,33.07959,-146.14447,,,
729861444.46955,1.154467,1.341209,128.608166,-0.008972,0.021011,0.996231,0.020022,0.000821,-0.000728,66.983414,33.07959,-146.14447,,,
729861444.472772,1.160518,1.341558,128.607315,-0.008972,0.021011,0.996231,0.020022,0.000821,-0.000728,66.983414,33.07959,-146.14447,,,
729861444.476151,1.160518,1.341558,128.607315,-0.008972,0.021011,0.996231,0.020022,0.000821,-0.000728,66.983414,33.07959,-146.14447,,,
729861444.479368,1.164422,1.344052,128.605447,-0.00885,0.02153,0.995956,0.020683,0.007386,-0.005057,66.983414,33.07959,-146.14447,,,
729861444.48271,1.170687,1.347621,128.602799,-0.00885,0.02153,0.995956,0.020683,0.007386,-0.005057,66.983414,33.07959,-146.14447,,,
729861444.486095,1.170687,1.347621,128.602799,-0.00885,0.02153,0.995956,0.020683,0.007386,-0.005057,66.772614,33.278198,-146.22554,,,
729861444.489353,1.176144,1.353239,128.600457,-0.012009,0.018448,1.005569,0.02894,0.022551,-0.010015,66.772614,33.278198,-146.22554,,,
729861444.492752,1.184693,1.360129,128.598092,-0.012009,0.018448,1.005569,0.02894,0.022551,-0.010015,66.772614,33.278198,-146.22554,,,
729861444.496004,1.184693,1.360129,128.598092,-0.012009,0.018448,1.005569,0.02894,0.022551,-0.010015,66.772614,33.278198,-146.22554,,,
729861444.499354,1.190343,1.367104,128.595472,-0.012161,0.017639,1.004333,0.028115,0.029092,-0.009748,66.772614,33.278198,-146.22554,,,
729861444.502711,1.195706,1.375047,128.592336,-0.012161,0.017639,1.004333,0.028115,0.029092,-0.009748,66.772614,33.278198,-146.22554,,,
729861444.505782,1.195706,1.375047,128.592336,-0.012161,0.017639,1.004333,0.028115,0.029092,-0.009748,66.772614,33.278198,-146.22554,,,
729861444.509367,1.196982,1.378755,128.588236,-0.014786,0.019455,0.993713,0.013488,0.027538,-0.014203,66.772614,33.278198,-146.22554,,,
729861444.512694,1.197928,1.38562,128.583903,-0.014786,0.019455,0.993713,0.013488,0.027538,-0.014203,66.772614,33.278198,-146.22554,,,
729861444.516006,1.197928,1.38562,128.583903,-0.014786,0.019455,0.993713,0.013488,0.027538,-0.014203,66.772614,33.278198,-146.22554,,,
729861444.519334,1.194979,1.38637,128.580011,-0.016006,0.02533,0.983902,-0.002515,0.024124,-0.017978,66.772614,33.278198,-146.22554,,,
729861444.522692,1.191824,1.391532,128.575989,-0.016006,0.02533,0.983902,-0.002515,0.024124,-0.017978,66.772614,33.278198,-146.22554,,,
729861444.526096,1.191824,1.391532,128.575989,-0.016006,0.02533,0.983902,-0.002515,0.024124,-0.017978,66.772614,33.278198,-146.22554,,,
729861444.529407,1.187698,1.390735,128.572284,-0.019043,0.023773,0.979782,-0.010135,0.019221,-0.014848,66.865585,33.300797,-146.48407,,,
729861444.532738,1.185436,1.394168,128.569598,-0.019043,0.023773,0.979782,-0.010135,0.019221,-0.014848,66.865585,33.300797,-146.48407,,,
729861444.536072,1.185436,1.394168,128.569598,-0.019043,0.023773,0.979782,-0.010135,0.019221,-0.014848,66.865585,33.300797,-146.48407,,,
729861444.539406,1.183976,1.392061,128.568644,-0.021484,0.017776,0.987244,-0.006593,0.01205,-0.007765,66.865585,33.300797,-146.48407,,,
729861444.54274,1.185782,1.392128,128.568767,-0.021484,0.017776,0.987244,-0.006593,0.01205,-0.007765,66.865585,33.300797,-146.48407,,,
729861444.54607,1.185782,1.392128,128.568767,-0.021484,0.017776,0.987244,-0.006593,0.01205,-0.007765,66.865585,33.300797,-146.48407,,,
729861444.549447,1.189981,1.384519,128.568889,-0.026306,0.013,0.994797,0.013359,-0.003599,-0.000378,66.865585,33.300797,-146.48407,,,
729861444.55277,1.195142,1.380642,128.56779,-0.026306,0.013,0.994797,0.013359,-0.003599,-0.000378,66.865585,33.300797,-146.48407,,,
729861444.556086,1.195142,1.380642,128.56779,-0.026306,0.013,0.994797,0.013359,-0.003599,-0.000378,66.865585,33.300797,-146.48407,,,
729861444.559412,1.200861,1.371782,128.565211,-0.023117,0.016037,0.998215,0.021206,-0.010538,-0.006822,66.865585,33.300797,-146.48407,,,
729861444.562801,1.206644,1.366445,128.561229,-0.023117,0.016037,0.998215,0.021206,-0.010538,-0.006822,66.865585,33.300797,-146.48407,,,
729861444.566063,1.206644,1.366445,128.561229,-0.023117,0.016037,0.998215,0.021206,-0.010538,-0.006822,66.865585,33.300797,-146.48407,,,
729861444.569405,1.211264,1.356342,128.556959,-0.020081,0.018433,1.000183,0.022323,-0.018703,-0.015904,66.685684,33.11142,-146.402451,,,
729861444.572753,1.215872,1.350111,128.552559,-0.020081,0.018433,1.000183,0.022323,-0.018703,-0.015904,66.685684,33.11142,-146.402451,,,
729861444.576146,1.215872,1.350111,128.552559,-0.020081,0.018433,1.000183,0.022323,-0.018703,-0.015904,66.685684,33.11142,-146.402451,,,
729861444.579415,1.218029,1.341638,128.547976,-0.022568,0.018387,0.996109,0.011689,-0.015424,-0.016963,66.685684,33.11142,-146.402451,,,
729861444.58278,1.219567,1.339188,128.543506,-0.022568,0.018387,0.996109,0.011689,-0.015424,-0.016963,66.685684,33.11142,-146.402451,,,
729861444.586065,1.219567,1.339188,128.543506,-0.022568,0.018387,0.996109,0.011689,-0.015424,-0.016963,66.685684,33.11142,-146.402451,,,
729861444.589399,1.220791,1.338413,128.53937,-0.02211,0.021088,0.995346,0.001789,0.004903,-0.016864,66.685684,33.11142,-146.402451,,,
729861444.592775,1.221265,1.344831,128.53551,-0.02211,0.021088,0.995346,0.001789,0.004903,-0.016864,66.685684,33.11142,-146.402451,,,
729861444.59607,1.221265,1.344831,128.53551,-0.02211,0.021088,0.995346,0.001789,0.004903,-0.016864,66.685684,33.11142,-146.402451,,,
729861444.59948,1.223214,1.353316,128.532215,-0.021454,0.021729,0.998428,0.00116,0.037477,-0.01362,66.685684,33.11142,-146.402451,,,
729861444.602783,1.224743,1.367501,128.52926,-0.021454,0.021729,0.998428,0.00116,0.037477,-0.01362,66.685684,33.11142,-146.402451,,,
729861444.606087,1.224743,1.367501,128.52926,-0.021454,0.021729,0.998428,0.00116,0.037477,-0.01362,66.685684,33.11142,-146.402451,,,
729861444.609411,1.226898,1.383114,128.526691,-0.021393,0.019424,1.003464,0.00684,0.059745,-0.008962,66.835526,33.035873,-146.363632,,,
729861444.612836,1.229044,1.400564,128.524642,-0.021393,0.019424,1.003464,0.00684,0.059745,-0.008962,66.835526,33.035873,-146.363632,,,
729861444.616065,1.229044,1.400564,128.524642,-0.021393,0.019424,1.003464,0.00684,0.059745,-0.008962,66.835526,33.035873,-146.363632,,,
729861444.619415,1.229279,1.416114,128.522706,-0.02655,0.018509,0.998856,0.005471,0.059924,-0.007718,66.835526,33.035873,-146.363632,,,
729861444.62274,1.229279,1.416114,128.520751,-0.02655,0.018509,0.998856,0.005471,0.059924,-0.007718,66.835526,33.035873,-146.363632,,,
729861444.626187,1.229382,1.428633,128.520751,-0.02655,0.018509,0.998856,0.005471,0.059924,-0.007718,66.835526,33.035873,-146.363632,,,
729861444.629419,1.225531,1.436721,128.519034,-0.031631,0.019714,0.987106,-0.002748,0.034663,-0.009164,66.835526,33.035873,-146.363632,,,
729861444.632756,1.225531,1.436721,128.517031,-0.031631,0.019714,0.987106,-0.002748,0.034663,-0.009164,66.835526,33.035873,-146.363632,,,
729861444.636064,1.221429,1.438774,128.517031,-0.031631,0.019714,0.987106,-0.002748,0.034663,-0.009164,66.835526,33.035873,-146.363632,,,
729861444.639408,1.214134,1.434544,128.514446,-0.033997,0.022476,0.972977,-0.019658,-0.00368,-0.010308,66.835526,33.035873,-146.363632,,,
729861444.64275,1.214134,1.434544,128.514446,-0.033997,0.022476,0.972977,-0.019658,-0.00368,-0.010308,66.835526,33.035873,-146.363632,,,
729861444.646067,1.205306,1.427491,128.510765,-0.033997,0.022476,0.972977,-0.019658,-0.00368,-0.010308,66.835526,33.035873,-146.363632,,,
729861444.649413,1.193513,1.415158,128.506516,-0.032715,0.021133,0.971268,-0.036622,-0.034642,-0.016438,66.835526,33.035873,-146.363632,,,
729861444.652746,1.193513,1.415158,128.506516,-0.032715,0.021133,0.971268,-0.036622,-0.034642,-0.016438,66.680588,33.087097,-146.434021,,,
729861444.656084,1.180983,1.400768,128.502408,-0.032715,0.021133,0.971268,-0.036622,-0.034642,-0.016438,66.680588,33.087097,-146.434021,,,
729861444.659422,1.167701,1.385072,128.498138,-0.028076,0.024567,0.981094,-0.045608,-0.050187,-0.019145,66.680588,33.087097,-146.434021,,,
729861444.662747,1.167701,1.385072,128.498138,-0.028076,0.024567,0.981094,-0.045608,-0.050187,-0.019145,66.680588,33.087097,-146.434021,,,
729861444.666159,1.156137,1.372025,128.493706,-0.028076,0.024567,0.981094,-0.045608,-0.050187,-0.019145,66.680588,33.087097,-146.434021,,,
729861444.669406,1.147448,1.363159,128.489809,-0.027374,0.022903,0.996887,-0.035023,-0.031756,-0.017753,66.680588,33.087097,-146.434021,,,
729861444.672747,1.147448,1.363159,128.489809,-0.027374,0.022903,0.996887,-0.035023,-0.031756,-0.017753,66.680588,33.087097,-146.434021,,,
729861444.67609,1.14204,1.361587,128.48742,-0.027374,0.022903,0.996887,-0.035023,-0.031756,-0.017753,66.680588,33.087097,-146.434021,,,
729861444.679467,1.140943,1.366421,128.486599,-0.025574,0.014557,1.022919,-0.00487,0.018503,-0.004924,66.680588,33.087097,-146.434021,,,
729861444.682744,1.140943,1.366421,128.486599,-0.025574,0.014557,1.022919,-0.00487,0.018503,-0.004924,66.680588,33.087097,-146.434021,,,
729861444.686081,1.143334,1.379191,128.487229,-0.025574,0.014557,1.022919,-0.00487,0.018503,-0.004924,66.680588,33.087097,-146.434021,,,
729861444.689406,1.148107,1.397298,128.489782,-0.02626,0.009689,1.031479,0.014863,0.063273,0.006389,66.680588,33.087097,-146.434021,,,
729861444.692587,1.148107,1.397298,128.489782,-0.02626,0.009689,1.031479,0.014863,0.063273,0.006389,66.658493,33.204636,-146.201416,,,
729861444.696102,1.155053,1.419985,128.493416,-0.02626,0.009689,1.031479,0.014863,0.063273,0.006389,66.658493,33.204636,-146.201416,,,
729861444.699428,1.163007,1.446216,128.496962,-0.026917,0.008865,1.020691,0.030314,0.08921,0.013547,66.658493,33.204636,-146.201416,,,
729861444.702734,1.163007,1.446216,128.496962,-0.026917,0.008865,1.020691,0.030314,0.08921,0.013547,66.658493,33.204636,-146.201416,,,
729861444.706071,1.172437,1.4707,128.500264,-0.026917,0.008865,1.020691,0.030314,0.08921,0.013547,66.658493,33.204636,-146.201416,,,
729861444.70943,1.182451,1.495292,128.502958,-0.024277,0.012573,1.005081,0.036085,0.082071,0.010883,66.658493,33.204636,-146.201416,,,
729861444.712753,1.182451,1.495292,128.502958,-0.024277,0.012573,1.005081,0.036085,0.082071,0.010883,66.658493,33.204636,-146.201416,,,
729861444.71616,1.191364,1.51358,128.504574,-0.024277,0.012573,1.005081,0.036085,0.082071,0.010883,66.658493,33.204636,-146.201416,,,
729861444.719408,1.198875,1.528945,128.504973,-0.025024,0.018768,0.985977,0.02746,0.054347,-0.000284,66.658493,33.204636,-146.201416,,,
729861444.722757,1.198875,1.528945,128.504973,-0.025024,0.018768,0.985977,0.02746,0.054347,-0.000284,66.658493,33.204636,-146.201416,,,
729861444.726067,1.203047,1.535348,128.504266,-0.025024,0.018768,0.985977,0.02746,0.054347,-0.000284,66.658493,33.204636,-146.201416,,,
729861444.729404,1.204478,1.536847,128.502389,-0.027802,0.025238,0.971344,0.009408,0.00781,-0.005289,66.658493,33.204636,-146.201416,,,
729861444.732734,1.204478,1.536847,128.502389,-0.027802,0.025238,0.971344,0.009408,0.00781,-0.005289,66.974472,33.177094,-146.189209,,,
729861444.736069,1.20183,1.530754,128.499704,-0.027802,0.025238,0.971344,0.009408,0.00781,-0.005289,66.974472,33.177094,-146.189209,,,
729861444.73941,1.196674,1.520369,128.495699,-0.026199,0.029938,0.962753,-0.016329,-0.03121,-0.01451,66.974472,33.177094,-146.189209,,,
729861444.742815,1.196674,1.520369,128.495699,-0.026199,0.029938,0.962753,-0.016329,-0.03121,-0.01451,66.974472,33.177094,-146.189209,,,
729861444.746069,1.18726,1.506658,128.490234,-0.026199,0.029938,0.962753,-0.016329,-0.03121,-0.01451,66.974472,33.177094,-146.189209,,,
729861444.749411,1.175174,1.491294,128.48357,-0.022186,0.031586,0.965088,-0.038342,-0.050715,-0.025728,66.974472,33.177094,-146.189209,,,
729861444.752769,1.175174,1.491294,128.48357,-0.022186,0.031586,0.965088,-0.038342,-0.050715,-0.025728,66.974472,33.177094,-146.189209,,,
729861444.756098,1.161436,1.475807,128.475499,-0.022186,0.031586,0.965088,-0.038342,-0.050715,-0.025728,66.974472,33.177094,-146.189209,,,
729861444.75955,1.143729,1.461381,128.466607,-0.018387,0.032166,0.975754,-0.051306,-0.04832,-0.031728,66.974472,33.177094,-146.189209,,,
729861444.762763,1.143729,1.461381,128.466607,-0.018387,0.032166,0.975754,-0.051306,-0.04832,-0.031728,66.974472,33.177094,-146.189209,,,
729861444.766057,1.127834,1.450332,128.457695,-0.018387,0.032166,0.975754,-0.051306,-0.04832,-0.031728,66.974472,33.177094,-146.189209,,,
729861444.769388,1.109559,1.444251,128.449343,-0.020477,0.029221,0.987137,-0.051874,-0.026322,-0.032297,66.974472,33.177094,-146.189209,,,
