Time (sec),Pitch (deg),Roll (deg),Yaw(deg),X-Acceleration (g),Y-Acceleration (g),Z-Acceleration (g),Pitch Rate (deg/sec),Roll Rate (deg/sec),Yaw Rate (deg/sec),Magnetic Field in X direction (uT),Magnetic Field in Y direction (uT),Magnetic Field in Z Direction (uT),Latitude (deg),Longitude (deg),Altitude (m)
729862872.228557,-2.31293,-1.892114,-161.486711,0.035843,-0.042084,1.003448,0.00569,-0.024009,0.017121,57.219437,32.149597,-143.050385,,,
729862872.231833,-2.312004,-1.900071,-161.48113,0.035187,-0.046082,1.002548,0.00569,-0.024009,0.017121,57.219437,32.149597,-143.050385,,,
729862872.23515,-2.312004,-1.900071,-161.48113,0.035187,-0.046082,1.002548,0.00569,-0.024009,0.017121,57.219437,32.149597,-143.050385,,,
729862872.238494,-2.311048,-1.903347,-161.474841,0.035187,-0.046082,1.002548,-0.005874,0.005657,0.01801,57.219437,32.149597,-143.050385,,,
729862872.241879,-2.312475,-1.903807,-161.468909,0.040558,-0.038712,1.005173,-0.005874,0.005657,0.01801,57.219437,32.149597,-143.050385,,,
729862872.245242,-2.312475,-1.903807,-161.468909,0.040558,-0.038712,1.005173,-0.005874,0.005657,0.01801,57.219437,32.149597,-143.050385,,,
729862872.248498,-2.315998,-1.899815,-161.464035,0.040558,-0.038712,1.005173,-0.008739,0.023279,0.008937,57.254089,32.337387,-143.024673,,,
729862872.251843,-2.318573,-1.894622,-161.461249,0.051376,-0.034668,1.006058,-0.008739,0.023279,0.008937,57.254089,32.337387,-143.024673,,,
729862872.255177,-2.318573,-1.894622,-161.461249,0.051376,-0.034668,1.006058,-0.008739,0.023279,0.008937,57.254089,32.337387,-143.024673,,,
729862872.258497,-2.322011,-1.886808,-161.460683,0.051376,-0.034668,1.006058,-0.010372,0.041941,-0.00826,57.254089,32.337387,-143.024673,,,
729862872.261825,-2.325092,-1.876397,-161.461985,0.055679,-0.033447,1.005981,-0.010372,0.041941,-0.00826,57.254089,32.337387,-143.024673,,,
729862872.26516,-2.325092,-1.876397,-161.461985,0.055679,-0.033447,1.005981,-0.010372,0.041941,-0.00826,57.254089,32.337387,-143.024673,,,
729862872.268566,-2.329573,-1.862981,-161.465243,0.055679,-0.033447,1.005981,-0.019104,0.041562,-0.015619,57.254089,32.337387,-143.024673,,,
729862872.271813,-2.335236,-1.851829,-161.469643,0.049973,-0.030151,0.998138,-0.019104,0.041562,-0.015619,57.254089,32.337387,-143.024673,,,
729862872.275205,-2.335236,-1.851829,-161.469643,0.049973,-0.030151,0.998138,-0.019104,0.041562,-0.015619,57.254089,32.337387,-143.024673,,,
729862872.27826,-2.34248,-1.838376,-161.473396,0.049973,-0.030151,0.998138,-0.018569,0.036128,-0.013121,57.254089,32.337387,-143.024673,,,
729862872.281867,-2.347637,-1.829007,-161.476516,0.036285,-0.040421,1.00061,-0.018569,0.036128,-0.013121,57.254089,32.337387,-143.024673,,,
729862872.285183,-2.347637,-1.829007,-161.476516,0.036285,-0.040421,1.00061,-0.018569,0.036128,-0.013121,57.254089,32.337387,-143.024673,,,
729862872.288498,-2.350417,-1.821057,-161.478844,0.036285,-0.040421,1.00061,0.006655,0.019863,-0.005048,57.173264,32.055191,-143.003571,,,
729862872.291816,-2.349268,-1.815996,-161.480248,0.032303,-0.047318,1.012985,0.006655,0.019863,-0.005048,57.173264,32.055191,-143.003571,,,
729862872.295162,-2.349268,-1.815996,-161.480248,0.032303,-0.047318,1.012985,0.006655,0.019863,-0.005048,57.173264,32.055191,-143.003571,,,
729862872.298486,-2.343586,-1.817617,-161.482105,0.032303,-0.047318,1.012985,0.031033,-0.023921,-0.017387,57.173264,32.055191,-143.003571,,,
729862872.30188,-2.335552,-1.823735,-161.485778,0.036179,-0.042709,1.010086,0.031033,-0.023921,-0.017387,57.173264,32.055191,-143.003571,,,
729862872.305207,-2.335552,-1.823735,-161.485778,0.036179,-0.042709,1.010086,0.031033,-0.023921,-0.017387,57.173264,32.055191,-143.003571,,,
729862872.308501,-2.326107,-1.835223,-161.491521,0.036179,-0.042709,1.010086,0.041648,-0.041764,-0.023293,57.173264,32.055191,-143.003571,,,
729862872.31182,-2.314354,-1.84827,-161.497738,0.033188,-0.038483,1.007675,0.041648,-0.041764,-0.023293,57.173264,32.055191,-143.003571,,,
729862872.315197,-2.314354,-1.84827,-161.497738,0.033188,-0.038483,1.007675,0.041648,-0.041764,-0.023293,57.173264,32.055191,-143.003571,,,
729862872.318572,-2.303728,-1.862178,-161.502531,0.033188,-0.038483,1.007675,0.037022,-0.036193,-0.00718,57.173264,32.055191,-143.003571,,,
729862872.321814,-2.293454,-1.873467,-161.505,0.025055,-0.044296,1.004303,0.037022,-0.036193,-0.00718,57.173264,32.055191,-143.003571,,,
729862872.325213,-2.293454,-1.873467,-161.505,0.025055,-0.044296,1.004303,0.037022,-0.036193,-0.00718,57.173264,32.055191,-143.003571,,,
729862872.328489,-2.284184,-1.883854,-161.505505,0.025055,-0.044296,1.004303,0.021307,-0.003857,-0.002893,57.110397,32.046646,-143.08136,,,
729862872.331825,-2.277684,-1.88683,-161.504893,0.029221,-0.039841,1.000687,0.021307,-0.003857,-0.002893,57.110397,32.046646,-143.08136,,,
729862872.335202,-2.277684,-1.88683,-161.504893,0.029221,-0.039841,1.000687,0.021307,-0.003857,-0.002893,57.110397,32.046646,-143.08136,,,
729862872.338494,-2.271596,-1.89006,-161.504976,0.029221,-0.039841,1.000687,0.009449,0.028441,-0.003516,57.110397,32.046646,-143.08136,,,
729862872.341822,-2.268479,-1.883876,-161.50554,0.035797,-0.03476,1.001038,0.009449,0.028441,-0.003516,57.110397,32.046646,-143.08136,,,
729862872.345156,-2.268479,-1.883876,-161.50554,0.035797,-0.03476,1.001038,0.009449,0.028441,-0.003516,57.110397,32.046646,-143.08136,,,
729862872.348573,-2.264947,-1.880382,-161.506889,0.035797,-0.03476,1.001038,0.008944,0.04053,-0.009864,57.110397,32.046646,-143.08136,,,
729862872.351815,-2.262881,-1.869995,-161.509578,0.040665,-0.037521,1.001328,0.008944,0.04053,-0.009864,57.110397,32.046646,-143.08136,,,
729862872.35517,-2.262881,-1.869995,-161.509578,0.040665,-0.037521,1.001328,0.008944,0.04053,-0.009864,57.110397,32.046646,-143.08136,,,
729862872.358488,-2.258865,-1.86406,-161.51424,0.040665,-0.037521,1.001328,0.008838,0.022086,-0.020912,57.110397,32.046646,-143.08136,,,
729862872.36182,-2.256487,-1.856716,-161.519729,0.036469,-0.035324,0.994003,0.008838,0.022086,-0.020912,57.110397,32.046646,-143.08136,,,
729862872.365198,-2.256487,-1.856716,-161.519729,0.036469,-0.035324,0.994003,0.008838,0.022086,-0.020912,57.110397,32.046646,-143.08136,,,
729862872.368532,-2.255029,-1.85298,-161.525529,0.036469,-0.035324,0.994003,0.007637,0.000681,-0.017669,57.044296,32.144745,-143.069656,,,
729862872.371829,-2.252744,-1.852177,-161.530686,0.024597,-0.037949,0.987,0.007637,0.000681,-0.017669,57.044296,32.144745,-143.069656,,,
729862872.375311,-2.252744,-1.852177,-161.530686,0.024597,-0.037949,0.987,0.007637,0.000681,-0.017669,57.044296,32.144745,-143.069656,,,
729862872.378561,-2.251052,-1.85509,-161.534175,0.024597,-0.037949,0.987,0.019416,-0.020326,-0.007287,57.044296,32.144745,-143.069656,,,
729862872.381834,-2.245898,-1.860918,-161.536436,0.016571,-0.045319,0.991745,0.019416,-0.020326,-0.007287,57.044296,32.144745,-143.069656,,,
729862872.385187,-2.245898,-1.860918,-161.536436,0.016571,-0.045319,0.991745,0.019416,-0.020326,-0.007287,57.044296,32.144745,-143.069656,,,
729862872.388513,-2.239218,-1.869882,-161.537895,0.016571,-0.045319,0.991745,0.03205,-0.031188,-0.005958,57.044296,32.144745,-143.069656,,,
729862872.391822,-2.231084,-1.879507,-161.53916,0.02327,-0.04303,0.995102,0.03205,-0.031188,-0.005958,57.044296,32.144745,-143.069656,,,
729862872.395157,-2.231084,-1.879507,-161.53916,0.02327,-0.04303,0.995102,0.03205,-0.031188,-0.005958,57.044296,32.144745,-143.069656,,,
729862872.398529,-2.222332,-1.889886,-161.541594,0.02327,-0.04303,0.995102,0.033176,-0.038922,-0.014684,57.044296,32.144745,-143.069656,,,
729862872.401833,-2.212844,-1.901934,-161.544946,0.036911,-0.03363,0.993347,0.033176,-0.038922,-0.014684,57.044296,32.144745,-143.069656,,,
729862872.405164,-2.212844,-1.901934,-161.544946,0.036911,-0.03363,0.993347,0.033176,-0.038922,-0.014684,57.044296,32.144745,-143.069656,,,
729862872.408498,-2.204918,-1.91122,-161.547876,0.036911,-0.03363,0.993347,0.025692,-0.026326,-0.006741,57.044296,32.144745,-143.069656,,,
729862872.411826,-2.196965,-1.920357,-161.549299,0.027985,-0.03978,0.988403,0.025692,-0.026326,-0.006741,56.876968,32.0681,-142.977478,,,
729862872.415229,-2.196965,-1.920357,-161.549299,0.027985,-0.03978,0.988403,0.025692,-0.026326,-0.006741,56.876968,32.0681,-142.977478,,,
729862872.418484,-2.190785,-1.925337,-161.547904,0.027985,-0.03978,0.988403,0.013104,0.002818,0.017349,56.876968,32.0681,-142.977478,,,
729862872.421832,-2.186957,-1.926211,-161.543451,0.018646,-0.044632,0.99054,0.013104,0.002818,0.017349,56.876968,32.0681,-142.977478,,,
729862872.425151,-2.186957,-1.926211,-161.543451,0.018646,-0.044632,0.99054,0.013104,0.002818,0.017349,56.876968,32.0681,-142.977478,,,
729862872.42849,-2.184584,-1.923428,-161.537199,0.018646,-0.044632,0.99054,-0.001378,0.02397,0.022269,56.876968,32.0681,-142.977478,,,
729862872.431817,-2.184573,-1.917111,-161.530465,0.024567,-0.042984,0.993759,-0.001378,0.02397,0.022269,56.876968,32.0681,-142.977478,,,
729862872.435177,-2.184573,-1.917111,-161.530465,0.024567,-0.042984,0.993759,-0.001378,0.02397,0.022269,56.876968,32.0681,-142.977478,,,
729862872.438546,-2.184906,-1.91197,-161.524449,0.024567,-0.042984,0.993759,0.00399,0.026682,0.007872,56.876968,32.0681,-142.977478,,,
729862872.441823,-2.184699,-1.905261,-161.520353,0.041428,-0.037796,0.996185,0.00399,0.026682,0.007872,56.876968,32.0681,-142.977478,,,
729862872.445155,-2.184699,-1.905261,-161.520353,0.041428,-0.037796,0.996185,0.00399,0.026682,0.007872,56.876968,32.0681,-142.977478,,,
729862872.448516,-2.182615,-1.899323,-161.518066,0.041428,-0.037796,0.996185,0.011953,0.019489,0.002091,56.876968,32.0681,-142.977478,,,
729862872.451831,-2.179942,-1.894523,-161.51681,0.046249,-0.03685,0.997299,0.011953,0.019489,0.002091,56.978607,32.069138,-143.066559,,,
729862872.455153,-2.179942,-1.894523,-161.51681,0.046249,-0.03685,0.997299,0.011953,0.019489,0.002091,56.978607,32.069138,-143.066559,,,
729862872.458506,-2.177183,-1.888042,-161.516359,0.046249,-0.03685,0.997299,0.01144,0.010445,-0.00297,56.978607,32.069138,-143.066559,,,
729862872.461831,-2.173569,-1.88521,-161.516525,0.036346,-0.039307,0.992523,0.01144,0.010445,-0.00297,56.978607,32.069138,-143.066559,,,
729862872.465188,-2.173569,-1.88521,-161.516525,0.036346,-0.039307,0.992523,0.01144,0.010445,-0.00297,56.978607,32.069138,-143.066559,,,
729862872.468528,-2.17277,-1.879284,-161.516364,0.036346,-0.039307,0.992523,-0.000798,0.005244,-0.002823,56.978607,32.069138,-143.066559,,,
729862872.471838,-2.172519,-1.878527,-161.51689,0.037704,-0.034988,0.980682,-0.000798,0.005244,-0.002823,56.978607,32.069138,-143.066559,,,
729862872.475213,-2.172519,-1.878527,-161.51689,0.037704,-0.034988,0.980682,-0.000798,0.005244,-0.002823,56.978607,32.069138,-143.066559,,,
729862872.478503,-2.175191,-1.877772,-161.518074,0.037704,-0.034988,0.980682,-0.012663,-0.008654,-0.012577,56.978607,32.069138,-143.066559,,,
729862872.481844,-2.178591,-1.87991,-161.520286,0.0401,-0.029205,0.973862,-0.012663,-0.008654,-0.012577,56.978607,32.069138,-143.066559,,,
729862872.485161,-2.178591,-1.87991,-161.520286,0.0401,-0.029205,0.973862,-0.012663,-0.008654,-0.012577,56.978607,32.069138,-143.066559,,,
729862872.488586,-2.182399,-1.88508,-161.524131,0.0401,-0.029205,0.973862,-0.022528,-0.020371,-0.016902,56.978607,32.069138,-143.066559,,,
729862872.491821,-2.188596,-1.891257,-161.52865,0.038406,-0.029953,0.970047,-0.022528,-0.020371,-0.016902,57.038254,32.048508,-142.852402,,,
729862872.495154,-2.188596,-1.891257,-161.52865,0.038406,-0.029953,0.970047,-0.022528,-0.020371,-0.016902,57.038254,32.048508,-142.852402,,,
729862872.498504,-2.195791,-1.89725,-161.533572,0.038406,-0.029953,0.970047,-0.024533,-0.02756,-0.018845,57.038254,32.048508,-142.852402,,,
729862872.501821,-2.201928,-1.906306,-161.538988,0.034576,-0.033646,0.976196,-0.024533,-0.02756,-0.018845,57.038254,32.048508,-142.852402,,,
729862872.505149,-2.201928,-1.906306,-161.538988,0.034576,-0.033646,0.976196,-0.024533,-0.02756,-0.018845,57.038254,32.048508,-142.852402,,,
729862872.508498,-2.209808,-1.912055,-161.544891,0.034576,-0.033646,0.976196,-0.018729,-0.033321,-0.020647,57.038254,32.048508,-142.852402,,,
729862872.511821,-2.215658,-1.921631,-161.550981,0.036148,-0.036652,0.986267,-0.018729,-0.033321,-0.020647,57.038254,32.048508,-142.852402,,,
729862872.515154,-2.215658,-1.921631,-161.550981,0.036148,-0.036652,0.986267,-0.018729,-0.033321,-0.020647,57.038254,32.048508,-142.852402,,,
729862872.518516,-2.221611,-1.928447,-161.556276,0.036148,-0.036652,0.986267,-0.011473,-0.00909,-0.011181,57.038254,32.048508,-142.852402,,,
729862872.521821,-2.225911,-1.93263,-161.559965,0.032074,-0.041885,0.994308,-0.011473,-0.00909,-0.011181,57.038254,32.048508,-142.852402,,,
729862872.525225,-2.225911,-1.93263,-161.559965,0.032074,-0.041885,0.994308,-0.011473,-0.00909,-0.011181,57.038254,32.048508,-142.852402,,,
729862872.528478,-2.228729,-1.934555,-161.561014,0.032074,-0.041885,0.994308,-0.006516,0.032134,0.008921,57.038254,32.048508,-142.852402,,,
729862872.531822,-2.231134,-1.927942,-161.559285,0.022354,-0.049942,1.007248,-0.006516,0.032134,0.008921,57.004898,32.188385,-142.865265,,,
729862872.535168,-2.231134,-1.927942,-161.559285,0.022354,-0.049942,1.007248,-0.006516,0.032134,0.008921,57.004898,32.188385,-142.865265,,,
729862872.538573,-2.2321,-1.919475,-161.555278,0.022354,-0.049942,1.007248,0.00232,0.055877,0.019837,57.004898,32.188385,-142.865265,,,
729862872.54182,-2.232237,-1.904607,-161.549701,0.022339,-0.048355,1.014114,0.00232,0.055877,0.019837,57.004898,32.188385,-142.865265,,,
729862872.545158,-2.232237,-1.904607,-161.549701,0.022339,-0.048355,1.014114,0.00232,0.055877,0.019837,57.004898,32.188385,-142.865265,,,
729862872.548509,-2.231287,-1.888689,-161.543901,0.022339,-0.048355,1.014114,0.005364,0.058944,0.016678,57.004898,32.188385,-142.865265,,,
729862872.551828,-2.230026,-1.872163,-161.538558,0.030945,-0.041473,1.008957,0.005364,0.058944,0.016678,57.004898,32.188385,-142.865265,,,
729862872.55518,-2.230026,-1.872163,-161.538558,0.030945,-0.041473,1.008957,0.005364,0.058944,0.016678,57.004898,32.188385,-142.865265,,,
729862872.558508,-2.228308,-1.858491,-161.534365,0.030945,-0.041473,1.008957,0.002846,0.047034,0.006736,57.004898,32.188385,-142.865265,,,
729862872.561828,-2.227923,-1.845186,-161.531398,0.031281,-0.034134,0.997284,0.002846,0.047034,0.006736,57.004898,32.188385,-142.865265,,,
729862872.565243,-2.227923,-1.845186,-161.531398,0.031281,-0.034134,0.997284,0.002846,0.047034,0.006736,57.004898,32.188385,-142.865265,,,
729862872.568504,-2.226024,-1.83749,-161.528951,0.031281,-0.034134,0.997284,-0.002464,0.024796,0.00255,57.004898,32.188385,-142.865265,,,
729862872.571831,-2.226371,-1.830012,-161.527008,0.026413,-0.035187,0.997131,-0.002464,0.024796,0.00255,57.004898,32.188385,-142.865265,,,
729862872.575232,-2.226371,-1.830012,-161.527008,0.026413,-0.035187,0.997131,-0.002464,0.024796,0.00255,57.005997,32.21669,-142.997238,,,
729862872.57852,-2.224232,-1.826564,-161.526293,0.026413,-0.035187,0.997131,0.009462,0.011664,-0.002721,57.005997,32.21669,-142.997238,,,
729862872.581838,-2.222502,-1.824338,-161.526383,0.026154,-0.036774,1.005325,0.009462,0.011664,-0.002721,57.005997,32.21669,-142.997238,,,
729862872.585161,-2.222502,-1.824338,-161.526383,0.026154,-0.036774,1.005325,0.009462,0.011664,-0.002721,57.005997,32.21669,-142.997238,,,
729862872.588582,-2.219609,-1.825702,-161.527445,0.026154,-0.036774,1.005325,0.00792,-0.009821,-0.007853,57.005997,32.21669,-142.997238,,,
729862872.591824,-2.217397,-1.828628,-161.529313,0.029556,-0.033112,1.000015,0.00792,-0.009821,-0.007853,57.005997,32.21669,-142.997238,,,
729862872.595188,-2.217397,-1.828628,-161.529313,0.029556,-0.033112,1.000015,0.00792,-0.009821,-0.007853,57.005997,32.21669,-142.997238,,,
729862872.598586,-2.215606,-1.834638,-161.531454,0.029556,-0.033112,1.000015,-0.000556,-0.017281,-0.006406,57.005997,32.21669,-142.997238,,,
729862872.601823,-2.215561,-1.84057,-161.533866,0.02803,-0.032562,0.993805,-0.000556,-0.017281,-0.006406,57.005997,32.21669,-142.997238,,,
729862872.605162,-2.215561,-1.84057,-161.533866,0.02803,-0.032562,0.993805,-0.000556,-0.017281,-0.006406,57.005997,32.21669,-142.997238,,,
729862872.608515,-2.218668,-1.846057,-161.535561,0.02803,-0.032562,0.993805,-0.014,-0.022639,-0.002889,57.005997,32.21669,-142.997238,,,
729862872.611831,-2.222688,-1.852694,-161.535927,0.023666,-0.033463,0.987534,-0.014,-0.022639,-0.002889,57.005997,32.21669,-142.997238,,,
729862872.615199,-2.222688,-1.852694,-161.535927,0.023666,-0.033463,0.987534,-0.014,-0.022639,-0.002889,57.084259,32.40683,-143.066635,,,
729862872.618495,-2.231289,-1.857142,-161.53553,0.023666,-0.033463,0.987534,-0.028651,-0.022805,-0.001312,57.084259,32.40683,-143.066635,,,
729862872.621829,-2.238981,-1.865027,-161.534898,0.02742,-0.033768,0.985764,-0.028651,-0.022805,-0.001312,57.084259,32.40683,-143.066635,,,
729862872.625217,-2.238981,-1.865027,-161.534898,0.02742,-0.033768,0.985764,-0.028651,-0.022805,-0.001312,57.084259,32.40683,-143.066635,,,
729862872.628517,-2.249884,-1.87005,-161.534065,0.02742,-0.033768,0.985764,-0.035403,-0.01627,0.008614,57.084259,32.40683,-143.066635,,,
729862872.631827,-2.260402,-1.875839,-161.532431,0.029648,-0.038101,0.995544,-0.035403,-0.01627,0.008614,57.084259,32.40683,-143.066635,,,
729862872.635179,-2.260402,-1.875839,-161.532431,0.029648,-0.038101,0.995544,-0.035403,-0.01627,0.008614,57.084259,32.40683,-143.066635,,,
729862872.638589,-2.270004,-1.879585,-161.529608,0.029648,-0.038101,0.995544,-0.025219,-0.006435,0.013459,57.084259,32.40683,-143.066635,,,
729862872.64185,-2.27749,-1.882155,-161.525897,0.035583,-0.045563,1.010529,-0.025219,-0.006435,0.013459,57.084259,32.40683,-143.066635,,,
729862872.645191,-2.27749,-1.882155,-161.525897,0.035583,-0.045563,1.010529,-0.025219,-0.006435,0.013459,57.084259,32.40683,-143.066635,,,
729862872.648528,-2.280879,-1.883301,-161.521931,0.035583,-0.045563,1.010529,0.000324,-0.000533,0.008242,57.084259,32.40683,-143.066635,,,
729862872.651829,-2.282578,-1.884352,-161.518592,0.04248,-0.047821,1.02153,0.000324,-0.000533,0.008242,57.084259,32.40683,-143.066635,,,
729862872.655168,-2.282578,-1.884352,-161.518592,0.04248,-0.047821,1.02153,0.000324,-0.000533,0.008242,57.064835,32.318115,-143.186874,,,
729862872.658488,-2.280056,-1.883493,-161.51559,0.04248,-0.047821,1.02153,0.017856,-0.00606,0.00591,57.064835,32.318115,-143.186874,,,
729862872.661829,-2.27548,-1.885371,-161.512988,0.042709,-0.045792,1.020706,0.017856,-0.00606,0.00591,57.064835,32.318115,-143.186874,,,
729862872.665188,-2.27548,-1.885371,-161.512988,0.042709,-0.045792,1.020706,0.017856,-0.00606,0.00591,57.064835,32.318115,-143.186874,,,
729862872.668491,-2.268248,-1.886577,-161.510618,0.042709,-0.045792,1.020706,0.034788,-0.009762,0.006709,57.064835,32.318115,-143.186874,,,
729862872.671828,-2.259856,-1.88987,-161.508419,0.043259,-0.048355,1.016052,0.034788,-0.009762,0.006709,57.064835,32.318115,-143.186874,,,
729862872.675232,-2.259856,-1.88987,-161.508419,0.043259,-0.048355,1.016052,0.034788,-0.009762,0.006709,57.064835,32.318115,-143.186874,,,
729862872.678491,-2.249188,-1.891849,-161.5068,0.043259,-0.048355,1.016052,0.030409,-0.007796,-0.003295,57.064835,32.318115,-143.186874,,,
729862872.681833,-2.240726,-1.894872,-161.506387,0.048065,-0.041931,1.005676,0.030409,-0.007796,-0.003295,57.064835,32.318115,-143.186874,,,
729862872.685172,-2.240726,-1.894872,-161.506387,0.048065,-0.041931,1.005676,0.030409,-0.007796,-0.003295,57.064835,32.318115,-143.186874,,,
729862872.688606,-2.232488,-1.89583,-161.506736,0.048065,-0.041931,1.005676,0.016944,0.002318,-0.004596,57.064835,32.318115,-143.186874,,,
729862872.691576,-2.227423,-1.89655,-161.507475,0.046661,-0.036194,0.995605,0.016944,0.002318,-0.004596,57.064835,32.318115,-143.186874,,,
729862872.69525,-2.227423,-1.89655,-161.507475,0.046661,-0.036194,0.995605,0.016944,0.002318,-0.004596,57.064835,32.318115,-143.186874,,,
729862872.698523,-2.222902,-1.893312,-161.508295,0.046661,-0.036194,0.995605,0.008631,0.013869,-0.003478,57.216461,32.207764,-143.173447,,,
729862872.701829,-2.220606,-1.890335,-161.50895,0.045044,-0.038086,0.996933,0.008631,0.013869,-0.003478,57.216461,32.207764,-143.173447,,,
729862872.70518,-2.220606,-1.890335,-161.50895,0.045044,-0.038086,0.996933,0.008631,0.013869,-0.003478,57.216461,32.207764,-143.173447,,,
729862872.708517,-2.217331,-1.884703,-161.509317,0.045044,-0.038086,0.996933,0.009106,0.018914,-0.00409,57.216461,32.207764,-143.173447,,,
729862872.711833,-2.214704,-1.880149,-161.510328,0.045151,-0.038956,0.999573,0.009106,0.018914,-0.00409,57.216461,32.207764,-143.173447,,,
729862872.715155,-2.214704,-1.880149,-161.510328,0.045151,-0.038956,0.999573,0.009106,0.018914,-0.00409,57.216461,32.207764,-143.173447,,,
729862872.71852,-2.2125,-1.875533,-161.512271,0.045151,-0.038956,0.999573,0.010196,0.013422,-0.014077,57.216461,32.207764,-143.173447,,,
729862872.721827,-2.209691,-1.872007,-161.515351,0.047028,-0.035751,0.995346,0.010196,0.013422,-0.014077,57.216461,32.207764,-143.173447,,,
729862872.725263,-2.209691,-1.872007,-161.515351,0.047028,-0.035751,0.995346,0.010196,0.013422,-0.014077,57.216461,32.207764,-143.173447,,,
729862872.728494,-2.20812,-1.869896,-161.51948,0.047028,-0.035751,0.995346,0.016637,0.010069,-0.014268,57.216461,32.207764,-143.173447,,,
729862872.731905,-2.204064,-1.867256,-161.523473,0.041061,-0.03714,0.996628,0.016637,0.010069,-0.014268,57.216461,32.207764,-143.173447,,,
729862872.735172,-2.204064,-1.867256,-161.523473,0.041061,-0.03714,0.996628,0.016637,0.010069,-0.014268,57.216461,32.207764,-143.173447,,,
729862872.738564,-2.200745,-1.868124,-161.526605,0.041061,-0.03714,0.996628,0.021419,0.002543,-0.010532,57.141464,32.278946,-143.394836,,,
729862872.741815,-2.195331,-1.867561,-161.529061,0.035065,-0.040329,0.994705,0.021419,0.002543,-0.010532,57.141464,32.278946,-143.394836,,,
729862872.745159,-2.195331,-1.867561,-161.529061,0.035065,-0.040329,0.994705,0.021419,0.002543,-0.010532,57.141464,32.278946,-143.394836,,,
729862872.748525,-2.191873,-1.869782,-161.531935,0.035065,-0.040329,0.994705,0.014797,0.001475,-0.012529,57.141464,32.278946,-143.394836,,,
729862872.751818,-2.188058,-1.870035,-161.535164,0.034912,-0.03389,0.990677,0.014797,0.001475,-0.012529,57.141464,32.278946,-143.394836,,,
729862872.755167,-2.188058,-1.870035,-161.535164,0.034912,-0.03389,0.990677,0.014797,0.001475,-0.012529,57.141464,32.278946,-143.394836,,,
729862872.758495,-2.186468,-1.873293,-161.538682,0.034912,-0.03389,0.990677,0.010633,0.003291,-0.017222,57.141464,32.278946,-143.394836,,,
729862872.761826,-2.183367,-1.873994,-161.542888,0.034195,-0.036911,0.98967,0.010633,0.003291,-0.017222,57.141464,32.278946,-143.394836,,,
729862872.765154,-2.183367,-1.873994,-161.542888,0.034195,-0.036911,0.98967,0.010633,0.003291,-0.017222,57.141464,32.278946,-143.394836,,,
729862872.768494,-2.180817,-1.878817,-161.54824,0.034195,-0.036911,0.98967,0.005293,2e-06,-0.02001,57.141464,32.278946,-143.394836,,,
729862872.77182,-2.178751,-1.879716,-161.553766,0.03511,-0.038269,0.993256,0.005293,2e-06,-0.02001,57.141464,32.278946,-143.394836,,,
729862872.775217,-2.178751,-1.879716,-161.553766,0.03511,-0.038269,0.993256,0.005293,2e-06,-0.02001,57.141464,32.278946,-143.394836,,,
729862872.77849,-2.177912,-1.883987,-161.559143,0.03511,-0.038269,0.993256,-0.00576,1.4e-05,-0.015812,57.179382,31.98349,-143.066483,,,
729862872.781817,-2.178668,-1.885169,-161.563625,0.025681,-0.03627,0.990402,-0.00576,1.4e-05,-0.015812,57.179382,31.98349,-143.066483,,,
729862872.785166,-2.178668,-1.885169,-161.563625,0.025681,-0.03627,0.990402,-0.00576,1.4e-05,-0.015812,57.179382,31.98349,-143.066483,,,
729862872.788539,-2.181007,-1.889839,-161.567033,0.025681,-0.03627,0.990402,-0.013614,-0.000975,-0.006066,57.179382,31.98349,-143.066483,,,
729862872.791815,-2.184293,-1.891228,-161.568661,0.019012,-0.040817,0.98671,-0.013614,-0.000975,-0.006066,57.179382,31.98349,-143.066483,,,
729862872.795256,-2.184293,-1.891228,-161.568661,0.019012,-0.040817,0.98671,-0.013614,-0.000975,-0.006066,57.179382,31.98349,-143.066483,,,
729862872.798498,-2.188302,-1.895329,-161.569415,0.019012,-0.040817,0.98671,-0.013714,0.00478,0.000717,57.179382,31.98349,-143.066483,,,
729862872.80183,-2.192223,-1.895549,-161.56891,0.01619,-0.041702,0.993362,-0.013714,0.00478,0.000717,57.179382,31.98349,-143.066483,,,
729862872.805167,-2.192223,-1.895549,-161.56891,0.01619,-0.041702,0.993362,-0.013714,0.00478,0.000717,57.179382,31.98349,-143.066483,,,
729862872.808507,-2.195119,-1.898371,-161.567423,0.01619,-0.041702,0.993362,-0.009751,0.005613,0.004541,57.179382,31.98349,-143.066483,,,
729862872.81183,-2.19802,-1.897533,-161.565778,0.023926,-0.045395,0.999191,-0.009751,0.005613,0.004541,57.179382,31.98349,-143.066483,,,
729862872.815226,-2.19802,-1.897533,-161.565778,0.023926,-0.045395,0.999191,-0.009751,0.005613,0.004541,57.179382,31.98349,-143.066483,,,
729862872.818478,-2.199247,-1.898938,-161.564835,0.023926,-0.045395,0.999191,0.009698,-0.003726,0.001458,56.992172,31.937119,-143.399429,,,
729862872.82182,-2.197941,-1.899651,-161.564297,0.026413,-0.041626,1.00531,0.009698,-0.003726,0.001458,56.992172,31.937119,-143.399429,,,
729862872.825169,-2.197941,-1.899651,-161.564297,0.026413,-0.041626,1.00531,0.009698,-0.003726,0.001458,56.992172,31.937119,-143.399429,,,
729862872.828548,-2.194401,-1.901545,-161.563614,0.026413,-0.041626,1.00531,0.018832,-0.000266,0.003776,56.992172,31.937119,-143.399429,,,
729862872.831815,-2.189274,-1.903085,-161.562448,0.021286,-0.043106,1.005768,0.018832,-0.000266,0.003776,56.992172,31.937119,-143.399429,,,
729862872.835167,-2.189274,-1.903085,-161.562448,0.021286,-0.043106,1.005768,0.018832,-0.000266,0.003776,56.992172,31.937119,-143.399429,,,
729862872.83849,-2.182679,-1.905237,-161.559877,0.021286,-0.043106,1.005768,0.024123,-0.005216,0.012876,56.992172,31.937119,-143.399429,,,
729862872.841822,-2.176455,-1.907181,-161.555953,0.020493,-0.042633,0.998032,0.024123,-0.005216,0.012876,56.992172,31.937119,-143.399429,,,
729862872.845154,-2.176455,-1.907181,-161.555953,0.020493,-0.042633,0.998032,0.024123,-0.005216,0.012876,56.992172,31.937119,-143.399429,,,
729862872.848484,-2.170201,-1.910352,-161.552376,0.020493,-0.042633,0.998032,0.025144,-0.007193,0.008961,56.992172,31.937119,-143.399429,,,
729862872.851822,-2.163609,-1.913304,-161.549438,0.025558,-0.036316,0.993301,0.025144,-0.007193,0.008961,56.992172,31.937119,-143.399429,,,
729862872.855215,-2.163609,-1.913304,-161.549438,0.025558,-0.036316,0.993301,0.025144,-0.007193,0.008961,56.992172,31.937119,-143.399429,,,
729862872.858496,-2.157347,-1.915259,-161.546962,0.025558,-0.036316,0.993301,0.015782,0.001486,0.005519,56.992172,31.937119,-143.399429,,,
729862872.861823,-2.152558,-1.915799,-161.545112,0.033066,-0.034332,0.994476,0.015782,0.001486,0.005519,57.034241,31.88414,-142.876556,,,
729862872.865152,-2.152558,-1.915799,-161.545112,0.033066,-0.034332,0.994476,0.015782,0.001486,0.005519,57.034241,31.88414,-142.876556,,,
729862872.868495,-2.148507,-1.913081,-161.543843,0.033066,-0.034332,0.994476,0.012496,-0.001918,-0.004486,57.034241,31.88414,-142.876556,,,
729862872.871819,-2.144568,-1.913997,-161.544215,0.038681,-0.032104,0.991394,0.012496,-0.001918,-0.004486,57.034241,31.88414,-142.876556,,,
729862872.875207,-2.144568,-1.913997,-161.544215,0.038681,-0.032104,0.991394,0.012496,-0.001918,-0.004486,57.034241,31.88414,-142.876556,,,
729862872.8785,-2.141816,-1.913155,-161.546165,0.038681,-0.032104,0.991394,0.011823,-0.018593,-0.01585,57.034241,31.88414,-142.876556,,,
729862872.881882,-2.138438,-1.918263,-161.549015,0.040771,-0.028946,0.98613,0.011823,-0.018593,-0.01585,57.034241,31.88414,-142.876556,,,
729862872.885157,-2.138438,-1.918263,-161.549015,0.040771,-0.028946,0.98613,0.011823,-0.018593,-0.01585,57.034241,31.88414,-142.876556,,,
729862872.888512,-2.136112,-1.919264,-161.551504,0.040771,-0.028946,0.98613,0.010294,-0.002847,-0.003423,57.034241,31.88414,-142.876556,,,
729862872.891824,-2.132825,-1.922053,-161.552812,0.031876,-0.037445,0.99324,0.010294,-0.002847,-0.003423,57.034241,31.88414,-142.876556,,,
729862872.895159,-2.132825,-1.922053,-161.552812,0.031876,-0.037445,0.99324,0.010294,-0.002847,-0.003423,57.034241,31.88414,-142.876556,,,
729862872.898502,-2.131598,-1.919511,-161.551649,0.031876,-0.037445,0.99324,0.016579,0.013829,0.010845,57.034241,31.88414,-142.876556,,,
729862872.90182,-2.128162,-1.916375,-161.548736,0.029266,-0.044525,0.998505,0.016579,0.013829,0.010845,57.15033,31.565079,-143.007202,,,
729862872.905156,-2.128162,-1.916375,-161.548736,0.029266,-0.044525,0.998505,0.016579,0.013829,0.010845,57.15033,31.565079,-143.007202,,,
729862872.908489,-2.1257,-1.909907,-161.545162,0.029266,-0.044525,0.998505,0.009573,0.018923,0.002244,57.15033,31.565079,-143.007202,,,
729862872.911913,-2.123632,-1.905137,-161.542902,0.035385,-0.034775,0.988708,0.009573,0.018923,0.002244,57.15033,31.565079,-143.007202,,,
729862872.915151,-2.123632,-1.905137,-161.542902,0.035385,-0.034775,0.988708,0.009573,0.018923,0.002244,57.15033,31.565079,-143.007202,,,
729862872.918492,-2.124213,-1.89651,-161.542084,0.035385,-0.034775,0.988708,-0.000642,0.026055,-0.000883,57.15033,31.565079,-143.007202,,,
729862872.921825,-2.124429,-1.889963,-161.541808,0.042999,-0.029465,0.985443,-0.000642,0.026055,-0.000883,57.15033,31.565079,-143.007202,,,
729862872.925176,-2.124429,-1.889963,-161.541808,0.042999,-0.029465,0.985443,-0.000642,0.026055,-0.000883,57.15033,31.565079,-143.007202,,,
729862872.928553,-2.127253,-1.879271,-161.541139,0.042999,-0.029465,0.985443,-0.010373,0.025025,0.0052,57.15033,31.565079,-143.007202,,,
729862872.931916,-2.130476,-1.871726,-161.539873,0.034973,-0.036957,0.986282,-0.010373,0.025025,0.0052,57.15033,31.565079,-143.007202,,,
729862872.93516,-2.130476,-1.871726,-161.539873,0.034973,-0.036957,0.986282,-0.010373,0.025025,0.0052,57.15033,31.565079,-143.007202,,,
729862872.938497,-2.13368,-1.864854,-161.538498,0.034973,-0.036957,0.986282,-0.008799,0.007896,0.003478,57.15033,31.565079,-143.007202,,,
729862872.941904,-2.137174,-1.862325,-161.537486,0.03244,-0.035904,0.988754,-0.008799,0.007896,0.003478,57.133926,31.600494,-142.927841,,,
729862872.945153,-2.137174,-1.862325,-161.537486,0.03244,-0.035904,0.988754,-0.008799,0.007896,0.003478,57.133926,31.600494,-142.927841,,,
729862872.948495,-2.138749,-1.864034,-161.537602,0.03244,-0.035904,0.988754,0.000819,-0.015249,-0.003505,57.133926,31.600494,-142.927841,,,
729862872.951833,-2.139002,-1.868404,-161.538199,0.037399,-0.033737,0.996735,0.000819,-0.015249,-0.003505,57.133926,31.600494,-142.927841,,,
729862872.955218,-2.139002,-1.868404,-161.538199,0.037399,-0.033737,0.996735,0.000819,-0.015249,-0.003505,57.133926,31.600494,-142.927841,,,
729862872.958491,-2.135549,-1.8777,-161.538711,0.037399,-0.033737,0.996735,0.01377,-0.027664,-0.001492,57.133926,31.600494,-142.927841,,,
729862872.96191,-2.131844,-1.88608,-161.538846,0.035187,-0.040039,1.006042,0.01377,-0.027664,-0.001492,57.133926,31.600494,-142.927841,,,
729862872.965167,-2.131844,-1.88608,-161.538846,0.035187,-0.040039,1.006042,0.01377,-0.027664,-0.001492,57.133926,31.600494,-142.927841,,,
729862872.96855,-2.12519,-1.896197,-161.538077,0.035187,-0.040039,1.006042,0.019622,-0.0247,-0.001143,57.133926,31.600494,-142.927841,,,
729862872.971823,-2.119375,-1.904135,-161.537298,0.034973,-0.038925,1.004593,0.019622,-0.0247,-0.001143,57.133926,31.600494,-142.927841,,,
729862872.97517,-2.119375,-1.904135,-161.537298,0.034973,-0.038925,1.004593,0.019622,-0.0247,-0.001143,57.133926,31.600494,-142.927841,,,
729862872.978504,-2.115245,-1.910249,-161.537782,0.034973,-0.038925,1.004593,0.010731,-0.01104,-0.009496,57.133926,31.600494,-142.927841,,,
729862872.981873,-2.112159,-1.914798,-161.539862,0.046951,-0.028,0.998596,0.010731,-0.01104,-0.009496,56.994308,31.858078,-143.01178,,,
729862872.985164,-2.112159,-1.914798,-161.539862,0.046951,-0.028,0.998596,0.010731,-0.01104,-0.009496,56.994308,31.858078,-143.01178,,,
729862872.988495,-2.112125,-1.91464,-161.542943,0.046951,-0.028,0.998596,-0.001316,0.017277,-0.011063,56.994308,31.858078,-143.01178,,,
729862872.991853,-2.112125,-1.911215,-161.545907,0.046951,-0.028,0.998596,-0.001316,0.017277,-0.011063,56.994308,31.858078,-143.01178,,,
729862872.995178,-2.112278,-1.911215,-161.545907,0.048935,-0.027451,0.998123,-0.001316,0.017277,-0.011063,56.994308,31.858078,-143.01178,,,
729862872.998502,-2.1129,-1.904815,-161.548133,0.048935,-0.027451,0.998123,-0.012153,0.047766,-0.005386,56.994308,31.858078,-143.01178,,,
729862873.001825,-2.1129,-1.904815,-161.548133,0.039062,-0.031616,0.998596,-0.012153,0.047766,-0.005386,56.994308,31.858078,-143.01178,,,
729862873.005206,-2.115795,-1.893199,-161.549721,0.039062,-0.031616,0.998596,-0.012153,0.047766,-0.005386,56.994308,31.858078,-143.01178,,,
729862873.00849,-2.118456,-1.881931,-161.551205,0.039062,-0.031616,0.998596,-0.015695,0.05146,-0.007502,56.994308,31.858078,-143.01178,,,
729862873.011919,-2.122605,-1.867478,-161.553183,0.036484,-0.031372,0.998398,-0.015695,0.05146,-0.007502,56.994308,31.858078,-143.01178,,,
729862873.015154,-2.122605,-1.867478,-161.553183,0.036484,-0.031372,0.998398,-0.015695,0.05146,-0.007502,56.994308,31.858078,-143.01178,,,
729862873.018549,-2.126113,-1.853655,-161.555588,0.036484,-0.031372,0.998398,-0.000625,0.049659,-0.004037,56.994308,31.858078,-143.01178,,,
729862873.021873,-2.126113,-1.853655,-161.557069,0.036484,-0.031372,0.998398,-0.000625,0.049659,-0.004037,56.994308,31.858078,-143.01178,,,
729862873.02516,-2.127683,-1.840343,-161.557069,0.031616,-0.038467,1.006516,-0.000625,0.049659,-0.004037,57.103073,31.752563,-143.08577,,,
729862873.02849,-2.125923,-1.82942,-161.556942,0.031616,-0.038467,1.006516,0.018405,0.024629,0.005253,57.103073,31.752563,-143.08577,,,
729862873.031909,-2.121234,-1.821515,-161.555411,0.022324,-0.048111,1.01001,0.018405,0.024629,0.005253,57.103073,31.752563,-143.08577,,,
729862873.035162,-2.121234,-1.821515,-161.555411,0.022324,-0.048111,1.01001,0.018405,0.024629,0.005253,57.103073,31.752563,-143.08577,,,
729862873.038494,-2.114538,-1.819643,-161.553026,0.022324,-0.048111,1.01001,0.023074,-0.004173,0.007601,57.103073,31.752563,-143.08577,,,
729862873.041983,-2.108723,-1.820624,-161.550355,0.01828,-0.040558,0.998642,0.023074,-0.004173,0.007601,57.103073,31.752563,-143.08577,,,
729862873.045172,-2.108723,-1.820624,-161.550355,0.01828,-0.040558,0.998642,0.023074,-0.004173,0.007601,57.103073,31.752563,-143.08577,,,
729862873.048495,-2.105504,-1.82632,-161.548145,0.01828,-0.040558,0.998642,0.006593,-0.032798,0.001806,57.103073,31.752563,-143.08577,,,
729862873.051836,-2.105504,-1.82632,-161.548145,0.01828,-0.040558,0.998642,0.006593,-0.032798,0.001806,57.103073,31.752563,-143.08577,,,
729862873.055166,-2.103212,-1.835315,-161.547042,0.027969,-0.032852,0.985992,0.006593,-0.032798,0.001806,57.103073,31.752563,-143.08577,,,
729862873.058546,-2.10267,-1.849017,-161.547658,0.027969,-0.032852,0.985992,-0.003662,-0.049414,-0.008127,57.103073,31.752563,-143.08577,,,
729862873.061828,-2.10267,-1.849017,-161.547658,0.027969,-0.032852,0.985992,-0.003662,-0.049414,-0.008127,57.103073,31.752563,-143.08577,,,
729862873.065159,-2.103413,-1.863618,-161.549542,0.034729,-0.029419,0.983322,-0.003662,-0.049414,-0.008127,57.147659,31.855957,-142.733841,,,
729862873.068488,-2.102621,-1.882978,-161.552258,0.034729,-0.029419,0.983322,-0.003145,-0.041356,-0.008751,57.147659,31.855957,-142.733841,,,
729862873.071884,-2.102621,-1.882978,-161.552258,0.034729,-0.029419,0.983322,-0.003145,-0.041356,-0.008751,57.147659,31.855957,-142.733841,,,
729862873.075157,-2.103994,-1.896271,-161.554819,0.037216,-0.034531,1.0009,-0.003145,-0.041356,-0.008751,57.147659,31.855957,-142.733841,,,
729862873.07849,-2.102428,-1.909548,-161.556715,0.037216,-0.034531,1.0009,0.000843,-0.011115,-0.002084,57.147659,31.855957,-142.733841,,,
729862873.081836,-2.102428,-1.909548,-161.556715,0.037216,-0.034531,1.0009,0.000843,-0.011115,-0.002084,57.147659,31.855957,-142.733841,,,
729862873.085239,-2.101553,-1.915153,-161.556801,0.037201,-0.041321,1.016052,0.000843,-0.011115,-0.002084,57.147659,31.855957,-142.733841,,,
729862873.088498,-2.098886,-1.917483,-161.555883,0.037201,-0.041321,1.016052,0.0122,0.016237,0.004312,57.147659,31.855957,-142.733841,,,
729862873.091842,-2.098886,-1.917483,-161.555883,0.037201,-0.041321,1.016052,0.0122,0.016237,0.004312,57.147659,31.855957,-142.733841,,,
729862873.095163,-2.095639,-1.915102,-161.554815,0.035248,-0.040558,1.016541,0.0122,0.016237,0.004312,57.147659,31.855957,-142.733841,,,
729862873.098566,-2.089205,-1.910435,-161.553459,0.035248,-0.040558,1.016541,0.024763,0.029677,0.002288,57.147659,31.855957,-142.733841,,,
729862873.101874,-2.089205,-1.910435,-161.553459,0.035248,-0.040558,1.016541,0.024763,0.029677,0.002288,57.147659,31.855957,-142.733841,,,
729862873.105187,-2.082363,-1.902833,-161.552305,0.039047,-0.038528,1.013245,0.024763,0.029677,0.002288,57.069412,31.767105,-143.284714,,,
729862873.108549,-2.075681,-1.893132,-161.551991,0.039047,-0.038528,1.013245,0.026543,0.032982,-0.001894,57.069412,31.767105,-143.284714,,,
729862873.111918,-2.075681,-1.893132,-161.551991,0.039047,-0.038528,1.013245,0.026543,0.032982,-0.001894,57.069412,31.767105,-143.284714,,,
729862873.115163,-2.06842,-1.884239,-161.552175,0.039444,-0.034592,1.000946,0.026543,0.032982,-0.001894,57.069412,31.767105,-143.284714,,,
729862873.118497,-2.064661,-1.872131,-161.551741,0.039444,-0.034592,1.000946,0.016261,0.034849,0.009427,57.069412,31.767105,-143.284714,,,
729862873.121867,-2.064661,-1.872131,-161.551741,0.039444,-0.034592,1.000946,0.016261,0.034849,0.009427,57.069412,31.767105,-143.284714,,,
729862873.125229,-2.059979,-1.863066,-161.54976,0.025482,-0.035828,0.988846,0.016261,0.034849,0.009427,57.069412,31.767105,-143.284714,,,
729862873.128488,-2.057325,-1.850801,-161.545792,0.025482,-0.035828,0.988846,0.004768,0.026814,0.012306,57.069412,31.767105,-143.284714,,,
729862873.131875,-2.057325,-1.850801,-161.545792,0.025482,-0.035828,0.988846,0.004768,0.026814,0.012306,57.069412,31.767105,-143.284714,,,
729862873.135258,-2.055683,-1.843533,-161.541162,0.021317,-0.039322,0.981934,0.004768,0.026814,0.012306,57.069412,31.767105,-143.284714,,,
729862873.138487,-2.054355,-1.839367,-161.536967,0.021317,-0.039322,0.981934,-0.001861,-0.004089,0.009095,57.069412,31.767105,-143.284714,,,
729862873.141843,-2.054355,-1.839367,-161.536967,0.021317,-0.039322,0.981934,-0.001861,-0.004089,0.009095,57.069412,31.767105,-143.284714,,,
729862873.145175,-2.054522,-1.839827,-161.533581,0.028229,-0.035065,0.981415,-0.001861,-0.004089,0.009095,57.069412,31.767105,-143.284714,,,
729862873.148542,-2.053649,-1.845615,-161.531368,0.028229,-0.035065,0.981415,0.005784,-0.028179,0.00326,57.148178,31.792755,-143.000153,,,
729862873.151822,-2.053649,-1.845615,-161.531368,0.028229,-0.035065,0.981415,0.005784,-0.028179,0.00326,57.148178,31.792755,-143.000153,,,
729862873.155185,-2.053034,-1.854105,-161.530241,0.032257,-0.036606,0.98793,0.005784,-0.028179,0.00326,57.148178,31.792755,-143.000153,,,
729862873.15849,-2.051157,-1.86669,-161.529601,0.032257,-0.036606,0.98793,0.006798,-0.040607,0.003124,57.148178,31.792755,-143.000153,,,
729862873.161826,-2.051157,-1.86669,-161.529601,0.032257,-0.036606,0.98793,0.006798,-0.040607,0.003124,57.148178,31.792755,-143.000153,,,
729862873.165168,-2.049198,-1.878797,-161.528816,0.034958,-0.039322,0.993729,0.006798,-0.040607,0.003124,57.148178,31.792755,-143.000153,,,
729862873.168487,-2.048329,-1.891091,-161.527945,0.034958,-0.039322,0.993729,0.006489,-0.032178,0.002715,57.148178,31.792755,-143.000153,,,
729862873.171911,-2.048329,-1.891091,-161.527945,0.034958,-0.039322,0.993729,0.006489,-0.032178,0.002715,57.148178,31.792755,-143.000153,,,
729862873.175156,-2.046088,-1.900947,-161.526906,0.036331,-0.036774,0.995285,0.006489,-0.032178,0.002715,57.148178,31.792755,-143.000153,,,
729862873.178498,-2.044463,-1.909736,-161.526065,0.036331,-0.036774,0.995285,0.01495,-0.019372,-0.001399,57.148178,31.792755,-143.000153,,,
729862873.181828,-2.044463,-1.909736,-161.526065,0.036331,-0.036774,0.995285,0.01495,-0.019372,-0.001399,57.148178,31.792755,-143.000153,,,
729862873.185227,-2.041405,-1.91647,-161.525906,0.042725,-0.035904,1.000595,0.01495,-0.019372,-0.001399,57.148178,31.792755,-143.000153,,,
729862873.188337,-2.038074,-1.923366,-161.527098,0.042725,-0.035904,1.000595,0.019332,-0.009375,-0.01033,57.439529,31.894928,-143.058319,,,
729862873.191854,-2.038074,-1.923366,-161.527098,0.042725,-0.035904,1.000595,0.019332,-0.009375,-0.01033,57.439529,31.894928,-143.058319,,,
729862873.195174,-2.033343,-1.927193,-161.529394,0.043961,-0.0345,0.99881,0.019332,-0.009375,-0.01033,57.439529,31.894928,-143.058319,,,
729862873.198495,-2.027798,-1.928968,-161.531715,0.043961,-0.0345,0.99881,0.01214,0.011642,-0.005903,57.439529,31.894928,-143.058319,,,
729862873.201839,-2.027798,-1.928968,-161.531715,0.043961,-0.0345,0.99881,0.01214,0.011642,-0.005903,57.439529,31.894928,-143.058319,,,
729862873.205166,-2.023765,-1.926708,-161.533299,0.039246,-0.03656,0.9991,0.01214,0.011642,-0.005903,57.439529,31.894928,-143.058319,,,
729862873.208491,-2.021489,-1.918624,-161.533331,0.039246,-0.03656,0.9991,0.007202,0.027078,0.008341,57.439529,31.894928,-143.058319,,,
729862873.211823,-2.021489,-1.918624,-161.533331,0.039246,-0.03656,0.9991,0.007202,0.027078,0.008341,57.439529,31.894928,-143.058319,,,
729862873.215163,-2.019848,-1.911264,-161.531369,0.032837,-0.038788,0.994049,0.007202,0.027078,0.008341,57.439529,31.894928,-143.058319,,,
729862873.218491,-2.020426,-1.899896,-161.527405,0.032837,-0.038788,0.994049,-0.003557,0.035524,0.017213,57.439529,31.894928,-143.058319,,,
729862873.221916,-2.020426,-1.899896,-161.527405,0.032837,-0.038788,0.994049,-0.003557,0.035524,0.017213,57.439529,31.894928,-143.058319,,,
729862873.225165,-2.021253,-1.890578,-161.522389,0.023849,-0.041901,0.991074,-0.003557,0.035524,0.017213,57.439529,31.894928,-143.058319,,,
729862873.228499,-2.023095,-1.880805,-161.517225,0.023849,-0.041901,0.991074,-0.010834,0.025612,0.010477,57.338821,31.911469,-143.099655,,,
729862873.231825,-2.023095,-1.880805,-161.517225,0.023849,-0.041901,0.991074,-0.010834,0.025612,0.010477,57.338821,31.911469,-143.099655,,,
729862873.235224,-2.026464,-1.873468,-161.513244,0.029526,-0.036133,0.986481,-0.010834,0.025612,0.010477,57.338821,31.911469,-143.099655,,,
729862873.238481,-2.031144,-1.868981,-161.51091,0.029526,-0.036133,0.986481,-0.018325,0.008504,0.005825,57.338821,31.911469,-143.099655,,,
729862873.241853,-2.031144,-1.868981,-161.51091,0.029526,-0.036133,0.986481,-0.018325,0.008504,0.005825,57.338821,31.911469,-143.099655,,,
729862873.245175,-2.036438,-1.866639,-161.509796,0.037979,-0.031479,0.985123,-0.018325,0.008504,0.005825,57.338821,31.911469,-143.099655,,,
729862873.248495,-2.04326,-1.867237,-161.509466,0.037979,-0.031479,0.985123,-0.017829,-0.007526,-0.001723,57.338821,31.911469,-143.099655,,,
729862873.251845,-2.04326,-1.867237,-161.509466,0.037979,-0.031479,0.985123,-0.017829,-0.007526,-0.001723,57.338821,31.911469,-143.099655,,,
729862873.255177,-2.048901,-1.86933,-161.510052,0.03656,-0.03392,0.989532,-0.017829,-0.007526,-0.001723,57.338821,31.911469,-143.099655,,,
729862873.258488,-2.053478,-1.874076,-161.511652,0.03656,-0.03392,0.989532,-0.008467,-0.011999,-0.00653,57.338821,31.911469,-143.099655,,,
729862873.261823,-2.053478,-1.874076,-161.511652,0.03656,-0.03392,0.989532,-0.008467,-0.011999,-0.00653,57.338821,31.911469,-143.099655,,,
729862873.265187,-2.056343,-1.87795,-161.513319,0.035873,-0.036636,0.996948,-0.008467,-0.011999,-0.00653,57.338821,31.911469,-143.099655,,,
729862873.268486,-2.057827,-1.884156,-161.514917,0.035873,-0.036636,0.996948,-0.001014,-0.006873,-0.009083,57.352646,31.714111,-143.084686,,,
729862873.271887,-2.057827,-1.884156,-161.514917,0.035873,-0.036636,0.996948,-0.001014,-0.006873,-0.009083,57.352646,31.714111,-143.084686,,,
729862873.275158,-2.057658,-1.886662,-161.516817,0.037018,-0.035553,1.004684,-0.001014,-0.006873,-0.009083,57.352646,31.714111,-143.084686,,,
729862873.278506,-2.055269,-1.892021,-161.518815,0.037018,-0.035553,1.004684,0.011704,-0.01255,-0.009263,57.352646,31.714111,-143.084686,,,
729862873.28188,-2.055269,-1.892021,-161.518815,0.037018,-0.035553,1.004684,0.011704,-0.01255,-0.009263,57.352646,31.714111,-143.084686,,,
729862873.285261,-2.052017,-1.896192,-161.520625,0.035477,-0.033218,0.99913,0.011704,-0.01255,-0.009263,57.352646,31.714111,-143.084686,,,
729862873.288486,-2.048884,-1.902165,-161.522716,0.035477,-0.033218,0.99913,0.015566,-0.011554,-0.005165,57.352646,31.714111,-143.084686,,,
729862873.291989,-2.048884,-1.902165,-161.522716,0.035477,-0.033218,0.99913,0.015566,-0.011554,-0.005165,57.352646,31.714111,-143.084686,,,
729862873.2952,-2.044918,-1.906205,-161.52417,0.032349,-0.031952,0.99324,0.015566,-0.011554,-0.005165,57.352646,31.714111,-143.084686,,,
729862873.298495,-2.041814,-1.908124,-161.524444,0.032349,-0.031952,0.99324,0.016502,0.002242,0.001829,57.352646,31.714111,-143.084686,,,
729862873.301908,-2.041814,-1.908124,-161.524444,0.032349,-0.031952,0.99324,0.016502,0.002242,0.001829,57.352646,31.714111,-143.084686,,,
729862873.305182,-2.03781,-1.909172,-161.523715,0.030609,-0.035706,0.993576,0.016502,0.002242,0.001829,57.352646,31.714111,-143.084686,,,
729862873.308493,-2.035034,-1.906611,-161.522202,0.030609,-0.035706,0.993576,0.013422,0.00481,0.004634,57.352646,31.714111,-143.084686,,,
729862873.311834,-2.035034,-1.906611,-161.522202,0.030609,-0.035706,0.993576,0.013422,0.00481,0.004634,57.183807,31.932068,-143.053574,,,
729862873.315179,-2.031534,-1.905016,-161.520748,0.031158,-0.035248,0.995041,0.013422,0.00481,0.004634,57.183807,31.932068,-143.053574,,,
729862873.318495,-2.02815,-1.902023,-161.518966,0.031158,-0.035248,0.995041,0.007808,0.024283,0.009342,57.183807,31.932068,-143.053574,,,
729862873.321896,-2.02815,-1.902023,-161.518966,0.031158,-0.035248,0.995041,0.007808,0.024283,0.009342,57.183807,31.932068,-143.053574,,,
729862873.325156,-2.02581,-1.896496,-161.516339,0.033783,-0.035507,0.99765,0.007808,0.024283,0.009342,57.183807,31.932068,-143.053574,,,
729862873.328495,-2.024913,-1.889093,-161.51344,0.033783,-0.035507,0.99765,-0.005564,0.038864,0.005594,57.183807,31.932068,-143.053574,,,
729862873.331838,-2.024913,-1.889093,-161.51344,0.033783,-0.035507,0.99765,-0.005564,0.038864,0.005594,57.183807,31.932068,-143.053574,,,
729862873.335268,-2.026962,-1.878672,-161.511295,0.042908,-0.03157,0.992432,-0.005564,0.038864,0.005594,57.183807,31.932068,-143.053574,,,
729862873.338495,-2.030284,-1.869191,-161.510989,0.042908,-0.03157,0.992432,-0.016626,0.036486,-0.007772,57.183807,31.932068,-143.053574,,,
729862873.341854,-2.030284,-1.869191,-161.510989,0.042908,-0.03157,0.992432,-0.016626,0.036486,-0.007772,57.183807,31.932068,-143.053574,,,
729862873.345187,-2.034856,-1.859389,-161.512732,0.045425,-0.0271,0.984558,-0.016626,0.036486,-0.007772,57.183807,31.932068,-143.053574,,,
729862873.348498,-2.041219,-1.851155,-161.516214,0.045425,-0.0271,0.984558,-0.025225,0.029932,-0.019659,57.183807,31.932068,-143.053574,,,
729862873.351849,-2.041219,-1.851155,-161.516214,0.045425,-0.0271,0.984558,-0.025225,0.029932,-0.019659,57.184052,31.871429,-143.469437,,,
729862873.355179,-2.048741,-1.842951,-161.520714,0.044052,-0.027069,0.985794,-0.025225,0.029932,-0.019659,57.184052,31.871429,-143.469437,,,
729862873.358494,-2.056812,-1.837883,-161.526275,0.044052,-0.027069,0.985794,-0.028839,0.013074,-0.024431,57.184052,31.871429,-143.469437,,,
729862873.361823,-2.056812,-1.837883,-161.526275,0.044052,-0.027069,0.985794,-0.028839,0.013074,-0.024431,57.184052,31.871429,-143.469437,,,
729862873.365186,-2.065025,-1.834618,-161.533067,0.036835,-0.030029,0.985565,-0.028839,0.013074,-0.024431,57.184052,31.871429,-143.469437,,,
729862873.368497,-2.072783,-1.83486,-161.540615,0.036835,-0.030029,0.985565,-0.030522,-0.006054,-0.023102,57.184052,31.871429,-143.469437,,,
729862873.371904,-2.072783,-1.83486,-161.540615,0.036835,-0.030029,0.985565,-0.030522,-0.006054,-0.023102,57.184052,31.871429,-143.469437,,,
729862873.375152,-2.081613,-1.837088,-161.547832,0.028076,-0.032303,0.989731,-0.030522,-0.006054,-0.023102,57.184052,31.871429,-143.469437,,,
729862873.378553,-2.088364,-1.841412,-161.553978,0.028076,-0.032303,0.989731,-0.021359,-0.021954,-0.014365,57.184052,31.871429,-143.469437,,,
729862873.381852,-2.088364,-1.841412,-161.553978,0.028076,-0.032303,0.989731,-0.021359,-0.021954,-0.014365,57.184052,31.871429,-143.469437,,,
729862873.385246,-2.094625,-1.84775,-161.559135,0.022598,-0.039658,0.99733,-0.021359,-0.021954,-0.014365,57.184052,31.871429,-143.469437,,,
729862873.388498,-2.099726,-1.854641,-161.562958,0.022598,-0.039658,0.99733,-0.01312,-0.016373,-0.006522,57.184052,31.871429,-143.469437,,,
729862873.391831,-2.099726,-1.854641,-161.562958,0.022598,-0.039658,0.99733,-0.01312,-0.016373,-0.006522,57.203552,31.81012,-143.177109,,,
729862873.395189,-2.103691,-1.860805,-161.564882,0.020218,-0.045349,1.004242,-0.01312,-0.016373,-0.006522,57.203552,31.81012,-143.177109,,,
729862873.398497,-2.105454,-1.864115,-161.565093,0.020218,-0.045349,1.004242,0.002971,-0.000186,0.004887,57.203552,31.81012,-143.177109,,,
729862873.401845,-2.105454,-1.864115,-161.565093,0.020218,-0.045349,1.004242,0.002971,-0.000186,0.004887,57.203552,31.81012,-143.177109,,,
729862873.405185,-2.105281,-1.865036,-161.563918,0.022049,-0.048264,1.017761,0.002971,-0.000186,0.004887,57.203552,31.81012,-143.177109,,,
729862873.408497,-2.102463,-1.863947,-161.561379,0.022049,-0.048264,1.017761,0.021727,0.015228,0.010428,57.203552,31.81012,-143.177109,,,
729862873.411832,-2.102463,-1.863947,-161.561379,0.022049,-0.048264,1.017761,0.021727,0.015228,0.010428,57.203552,31.81012,-143.177109,,,
729862873.415176,-2.097418,-1.859759,-161.557934,0.024673,-0.050308,1.020676,0.021727,0.015228,0.010428,57.203552,31.81012,-143.177109,,,
729862873.418502,-2.089364,-1.857289,-161.554347,0.024673,-0.050308,1.020676,0.025103,0.025073,0.013731,57.203552,31.81012,-143.177109,,,
729862873.421909,-2.089364,-1.857289,-161.554347,0.024673,-0.050308,1.020676,0.025103,0.025073,0.013731,57.203552,31.81012,-143.177109,,,
729862873.425199,-2.082611,-1.850989,-161.550209,0.027817,-0.045837,1.01445,0.025103,0.025073,0.013731,57.203552,31.81012,-143.177109,,,
729862873.428489,-2.074474,-1.847602,-161.545286,0.027817,-0.045837,1.01445,0.016905,0.021533,0.018789,57.203552,31.81012,-143.177109,,,
729862873.431823,-2.074474,-1.847602,-161.545286,0.027817,-0.045837,1.01445,0.016905,0.021533,0.018789,57.206543,31.827026,-143.347839,,,
729862873.435157,-2.070107,-1.841267,-161.539691,0.026413,-0.04097,0.999588,0.016905,0.021533,0.018789,57.206543,31.827026,-143.347839,,,
729862873.438493,-2.066354,-1.839832,-161.533961,0.026413,-0.04097,0.999588,-0.005786,0.005765,0.01862,57.206543,31.827026,-143.347839,,,
729862873.441831,-2.066354,-1.839832,-161.533961,0.026413,-0.04097,0.999588,-0.005786,0.005765,0.01862,57.206543,31.827026,-143.347839,,,
729862873.445171,-2.067021,-1.837732,-161.527996,0.026855,-0.036697,0.986191,-0.005786,0.005765,0.01862,57.206543,31.827026,-143.347839,,,
729862873.448502,-2.068927,-1.838795,-161.522505,0.026855,-0.036697,0.986191,-0.014306,-0.009021,0.013356,57.206543,31.827026,-143.347839,,,
729862873.451865,-2.068927,-1.838795,-161.522505,0.026855,-0.036697,0.986191,-0.014306,-0.009021,0.013356,57.206543,31.827026,-143.347839,,,
729862873.45517,-2.073233,-1.841828,-161.518212,0.03627,-0.03093,0.987488,-0.014306,-0.009021,0.013356,57.206543,31.827026,-143.347839,,,
729862873.458493,-2.077501,-1.845057,-161.515426,0.03627,-0.03093,0.987488,-0.01995,-0.020369,-0.001545,57.206543,31.827026,-143.347839,,,
729862873.461826,-2.077501,-1.845057,-161.515426,0.03627,-0.03093,0.987488,-0.01995,-0.020369,-0.001545,57.206543,31.827026,-143.347839,,,
729862873.465171,-2.08281,-1.85112,-161.514658,0.045746,-0.030106,0.992035,-0.01995,-0.020369,-0.001545,57.206543,31.827026,-143.347839,,,
729862873.468235,-2.090513,-1.85513,-161.516322,0.045746,-0.030106,0.992035,-0.030177,-0.017521,-0.013902,57.206543,31.827026,-143.347839,,,
729862873.47196,-2.090513,-1.85513,-161.516322,0.045746,-0.030106,0.992035,-0.030177,-0.017521,-0.013902,57.206543,31.827026,-143.347839,,,
729862873.475185,-2.099152,-1.861521,-161.519666,0.053619,-0.025223,0.990143,-0.030177,-0.017521,-0.013902,57.252686,31.856232,-143.365158,,,
729862873.478502,-2.111306,-1.86298,-161.523319,0.053619,-0.025223,0.990143,-0.03583,-0.003484,-0.012508,57.252686,31.856232,-143.365158,,,
729862873.481858,-2.111306,-1.86298,-161.523319,0.053619,-0.025223,0.990143,-0.03583,-0.003484,-0.012508,57.252686,31.856232,-143.365158,,,
729862873.485232,-2.121567,-1.865156,-161.527117,0.047852,-0.030182,0.993164,-0.03583,-0.003484,-0.012508,57.252686,31.856232,-143.365158,,,
729862873.488492,-2.133888,-1.862766,-161.530316,0.047852,-0.030182,0.993164,-0.029979,0.006331,-0.00815,57.252686,31.856232,-143.365158,,,
729862873.491841,-2.133888,-1.862766,-161.530316,0.047852,-0.030182,0.993164,-0.029979,0.006331,-0.00815,57.252686,31.856232,-143.365158,,,
729862873.495176,-2.14261,-1.862203,-161.53281,0.042206,-0.039597,0.999161,-0.029979,0.006331,-0.00815,57.252686,31.856232,-143.365158,,,
729862873.498496,-2.152023,-1.859554,-161.534802,0.042206,-0.039597,0.999161,-0.015268,0.008167,-0.012768,57.252686,31.856232,-143.365158,,,
729862873.501839,-2.152023,-1.859554,-161.534802,0.042206,-0.039597,0.999161,-0.015268,0.008167,-0.012768,57.252686,31.856232,-143.365158,,,
729862873.505172,-2.157263,-1.858239,-161.537363,0.044434,-0.039169,1.001541,-0.015268,0.008167,-0.012768,57.252686,31.856232,-143.365158,,,
729862873.508494,-2.160702,-1.855397,-161.540473,0.044434,-0.039169,1.001541,0.012898,0.007095,-0.011441,57.252686,31.856232,-143.365158,,,
729862873.511825,-2.160702,-1.855397,-161.540473,0.044434,-0.039169,1.001541,0.012898,0.007095,-0.011441,57.252686,31.856232,-143.365158,,,
729862873.515164,-2.15866,-1.854022,-161.543301,0.038315,-0.044159,1.013641,0.012898,0.007095,-0.011441,57.058441,32.098862,-143.200073,,,
729862873.518481,-2.153215,-1.851355,-161.545303,0.038315,-0.044159,1.013641,0.032233,0.003085,-0.003504,57.058441,32.098862,-143.200073,,,
729862873.521909,-2.153215,-1.851355,-161.545303,0.038315,-0.044159,1.013641,0.032233,0.003085,-0.003504,57.058441,32.098862,-143.200073,,,
729862873.525166,-2.144828,-1.851114,-161.546148,0.029327,-0.052383,1.014282,0.032233,0.003085,-0.003504,57.058441,32.098862,-143.200073,,,
729862873.528281,-2.135473,-1.850566,-161.546076,0.029327,-0.052383,1.014282,0.026726,-0.001766,-0.004357,57.058441,32.098862,-143.200073,,,
729862873.531853,-2.135473,-1.850566,-161.546076,0.029327,-0.052383,1.014282,0.026726,-0.001766,-0.004357,57.058441,32.098862,-143.200073,,,
729862873.535236,-2.127838,-1.851763,-161.54645,0.03067,-0.043365,0.9991,0.026726,-0.001766,-0.004357,57.058441,32.098862,-143.200073,,,
729862873.538489,-2.1215,-1.855785,-161.547753,0.03067,-0.043365,0.9991,0.003269,-0.006596,-0.006196,57.058441,32.098862,-143.200073,,,
729862873.541844,-2.1215,-1.855785,-161.547753,0.03067,-0.043365,0.9991,0.003269,-0.006596,-0.006196,57.058441,32.098862,-143.200073,,,
729862873.545184,-2.11977,-1.858505,-161.549645,0.031799,-0.035202,0.981018,0.003269,-0.006596,-0.006196,57.058441,32.098862,-143.200073,,,
729862873.5485,-2.119972,-1.864805,-161.551447,0.031799,-0.035202,0.981018,-0.021396,0.005208,7.7e-05,57.058441,32.098862,-143.200073,,,
729862873.551842,-2.119972,-1.864805,-161.551447,0.031799,-0.035202,0.981018,-0.021396,0.005208,7.7e-05,57.058441,32.098862,-143.200073,,,
729862873.555167,-2.125121,-1.864774,-161.55185,0.026917,-0.036438,0.985687,-0.021396,0.005208,7.7e-05,57.091293,31.937363,-142.772415,,,
729862873.558494,-2.130227,-1.867091,-161.551898,0.026917,-0.036438,0.985687,-0.024753,0.024686,0.002272,57.091293,31.937363,-142.772415,,,
729862873.561897,-2.130227,-1.867091,-161.551898,0.026917,-0.036438,0.985687,-0.024753,0.024686,0.002272,57.091293,31.937363,-142.772415,,,
729862873.565155,-2.138283,-1.8614,-161.551384,0.030151,-0.041153,1.000275,-0.024753,0.024686,0.002272,57.091293,31.937363,-142.772415,,,
729862873.568545,-2.144376,-1.857622,-161.550943,0.030151,-0.041153,1.000275,-0.012375,0.028706,-0.000585,57.091293,31.937363,-142.772415,,,
729862873.571865,-2.144376,-1.857622,-161.550943,0.030151,-0.041153,1.000275,-0.012375,0.028706,-0.000585,57.091293,31.937363,-142.772415,,,
729862873.57516,-2.149258,-1.850249,-161.551023,0.034027,-0.04158,1.009171,-0.012375,0.028706,-0.000585,57.091293,31.937363,-142.772415,,,
729862873.578547,-2.152585,-1.846657,-161.552008,0.034027,-0.04158,1.009171,-0.001372,0.009215,-0.009926,57.091293,31.937363,-142.772415,,,
729862873.581828,-2.152585,-1.846657,-161.552008,0.034027,-0.04158,1.009171,-0.001372,0.009215,-0.009926,57.091293,31.937363,-142.772415,,,
729862873.585177,-2.153383,-1.842932,-161.553884,0.03479,-0.039246,1.004333,-0.001372,0.009215,-0.009926,57.091293,31.937363,-142.772415,,,
729862873.588488,-2.153144,-1.846236,-161.556709,0.03479,-0.039246,1.004333,0.001751,-0.012818,-0.013238,57.091293,31.937363,-142.772415,,,
729862873.591826,-2.153144,-1.846236,-161.556709,0.03479,-0.039246,1.004333,0.001751,-0.012818,-0.013238,57.091293,31.937363,-142.772415,,,
729862873.595253,-2.152965,-1.850005,-161.560402,0.0298,-0.035797,0.988449,0.001751,-0.012818,-0.013238,57.108871,31.872467,-143.000656,,,
729862873.598604,-2.155393,-1.857044,-161.564738,0.0298,-0.035797,0.988449,-0.005552,-0.026778,-0.015809,57.108871,31.872467,-143.000656,,,
729862873.60193,-2.155393,-1.857044,-161.564738,0.0298,-0.035797,0.988449,-0.005552,-0.026778,-0.015809,57.108871,31.872467,-143.000656,,,
729862873.605181,-2.156308,-1.864712,-161.568808,0.02742,-0.034912,0.982468,-0.005552,-0.026778,-0.015809,57.108871,31.872467,-143.000656,,,
729862873.608533,-2.160749,-1.871501,-161.572151,0.02742,-0.034912,0.982468,-0.006718,-0.022452,-0.010872,57.108871,31.872467,-143.000656,,,
729862873.611831,-2.160749,-1.871501,-161.572151,0.02742,-0.034912,0.982468,-0.006718,-0.022452,-0.010872,57.108871,31.872467,-143.000656,,,
729862873.61516,-2.162685,-1.879266,-161.575112,0.02742,-0.039139,0.986115,-0.006718,-0.022452,-0.010872,57.108871,31.872467,-143.000656,,,
729862873.6185,-2.165327,-1.88598,-161.577949,0.02742,-0.039139,0.986115,-0.002591,-0.011453,-0.01289,57.108871,31.872467,-143.000656,,,
729862873.621926,-2.165327,-1.88598,-161.577949,0.02742,-0.039139,0.986115,-0.002591,-0.011453,-0.01289,57.108871,31.872467,-143.000656,,,
729862873.625195,-2.166532,-1.890838,-161.581182,0.029678,-0.038376,0.993484,-0.002591,-0.011453,-0.01289,57.108871,31.872467,-143.000656,,,
729862873.628523,-2.165713,-1.892652,-161.584974,0.029678,-0.038376,0.993484,0.009125,0.006387,-0.012058,57.108871,31.872467,-143.000656,,,
729862873.63184,-2.165713,-1.892652,-161.584974,0.029678,-0.038376,0.993484,0.009125,0.006387,-0.012058,57.108871,31.872467,-143.000656,,,
729862873.635259,-2.163565,-1.892355,-161.588055,0.03006,-0.04129,1.002396,0.009125,0.006387,-0.012058,57.108871,31.872467,-143.000656,,,
729862873.638493,-2.159894,-1.889088,-161.589619,0.03006,-0.04129,1.002396,0.020328,0.010678,-0.006105,57.36171,31.848709,-143.232758,,,
729862873.641832,-2.159894,-1.889088,-161.589619,0.03006,-0.04129,1.002396,0.020328,0.010678,-0.006105,57.36171,31.848709,-143.232758,,,
729862873.645186,-2.154619,-1.886783,-161.591125,0.028427,-0.043365,1.003769,0.020328,0.010678,-0.006105,57.36171,31.848709,-143.232758,,,
729862873.648497,-2.148997,-1.882522,-161.592442,0.028427,-0.043365,1.003769,0.026055,0.018185,-0.002475,57.36171,31.848709,-143.232758,,,
729862873.651711,-2.148997,-1.882522,-161.592442,0.028427,-0.043365,1.003769,0.026055,0.018185,-0.002475,57.36171,31.848709,-143.232758,,,
729862873.655185,-2.141689,-1.878119,-161.592911,0.026932,-0.041748,1.004715,0.026055,0.018185,-0.002475,57.36171,31.848709,-143.232758,,,
