Time (sec),Pitch (deg),Roll (deg),Yaw(deg),X-Acceleration (g),Y-Acceleration (g),Z-Acceleration (g),Pitch Rate (deg/sec),Roll Rate (deg/sec),Yaw Rate (deg/sec),Magnetic Field in X direction (uT),Magnetic Field in Y direction (uT),Magnetic Field in Z Direction (uT),Latitude (deg),Longitude (deg),Altitude (m)
729860197.202047,0.855706,0.674978,-19.50347,-0.026596,0.007675,0.990921,-0.037618,0.013402,-0.001083,78.986023,1.439499,-146.824524,,,
729860197.205455,0.848301,0.675329,-19.507379,-0.019775,0.01384,0.994431,-0.022895,0.000979,-0.017177,78.986023,1.439499,-146.824524,,,
729860197.208724,0.845376,0.67045,-19.513619,-0.019775,0.01384,0.994431,-0.022895,0.000979,-0.017177,78.986023,1.439499,-146.824524,,,
729860197.21205,0.845376,0.67045,-19.513619,-0.019775,0.01384,0.994431,-0.022895,0.000979,-0.017177,78.986023,1.439499,-146.824524,,,
729860197.215455,0.84669,0.664536,-19.521211,-0.013702,0.010498,1.006317,0.009107,-0.020632,-0.029737,78.986023,1.439499,-146.824524,,,
729860197.218776,0.85284,0.654264,-19.529273,-0.013702,0.010498,1.006317,0.009107,-0.020632,-0.029737,78.986023,1.439499,-146.824524,,,
729860197.22204,0.85284,0.654264,-19.529273,-0.013702,0.010498,1.006317,0.009107,-0.020632,-0.029737,78.986023,1.439499,-146.824524,,,
729860197.225386,0.862132,0.644265,-19.537174,-0.01918,0.005692,1.01506,0.035682,-0.035612,-0.026553,78.986023,1.439499,-146.824524,,,
729860197.228711,0.874302,0.632129,-19.543718,-0.01918,0.005692,1.01506,0.035682,-0.035612,-0.026553,78.913513,1.476288,-146.797699,,,
729860197.232118,0.874302,0.632129,-19.543718,-0.01918,0.005692,1.01506,0.035682,-0.035612,-0.026553,78.913513,1.476288,-146.797699,,,
729860197.235376,0.888407,0.620764,-19.548454,-0.029694,0.001923,1.012894,0.052424,-0.037394,-0.016413,78.913513,1.476288,-146.797699,,,
729860197.238716,0.888407,0.620764,-19.548454,-0.029694,0.001923,1.012894,0.052424,-0.037394,-0.016413,78.913513,1.476288,-146.797699,,,
729860197.242046,0.902287,0.611803,-19.551726,-0.029694,0.001923,1.012894,0.052424,-0.037394,-0.016413,78.913513,1.476288,-146.797699,,,
729860197.245467,0.915375,0.604033,-19.55447,-0.032227,0.003967,1.00592,0.04428,-0.022058,-0.007713,78.913513,1.476288,-146.797699,,,
729860197.248711,0.915375,0.604033,-19.55447,-0.032227,0.003967,1.00592,0.04428,-0.022058,-0.007713,78.913513,1.476288,-146.797699,,,
729860197.252049,0.922887,0.601444,-19.55716,-0.032227,0.003967,1.00592,0.04428,-0.022058,-0.007713,78.913513,1.476288,-146.797699,,,
729860197.255392,0.927527,0.598337,-19.559751,-0.025162,0.011993,0.987167,0.012794,-0.006224,-0.011078,78.913513,1.476288,-146.797699,,,
729860197.258765,0.927527,0.598337,-19.559751,-0.025162,0.011993,0.987167,0.012794,-0.006224,-0.011078,78.913513,1.476288,-146.797699,,,
729860197.262122,0.925052,0.601063,-19.562478,-0.025162,0.011993,0.987167,0.012794,-0.006224,-0.011078,78.913513,1.476288,-146.797699,,,
729860197.265397,0.919914,0.601919,-19.564016,-0.023254,0.017258,0.974792,-0.020497,0.006009,-0.004594,78.913513,1.476288,-146.797699,,,
729860197.268729,0.919914,0.601919,-19.564016,-0.023254,0.017258,0.974792,-0.020497,0.006009,-0.004594,78.913513,1.476288,-146.797699,,,
729860197.272105,0.909591,0.606332,-19.564069,-0.023254,0.017258,0.974792,-0.020497,0.006009,-0.004594,78.765213,1.334229,-146.792709,,,
729860197.275375,0.8981,0.607209,-19.562439,-0.028351,0.015076,0.972656,-0.044424,0.003872,0.003234,78.765213,1.334229,-146.792709,,,
729860197.27872,0.8981,0.607209,-19.562439,-0.028351,0.015076,0.972656,-0.044424,0.003872,0.003234,78.765213,1.334229,-146.792709,,,
729860197.282069,0.884018,0.608741,-19.559172,-0.028351,0.015076,0.972656,-0.044424,0.003872,0.003234,78.765213,1.334229,-146.792709,,,
729860197.285372,0.868425,0.607455,-19.554951,-0.029953,0.010559,0.976776,-0.05467,-0.00229,0.013167,78.765213,1.334229,-146.792709,,,
729860197.288712,0.868425,0.607455,-19.554951,-0.029953,0.010559,0.976776,-0.05467,-0.00229,0.013167,78.765213,1.334229,-146.792709,,,
729860197.292055,0.850944,0.606698,-19.550052,-0.029953,0.010559,0.976776,-0.05467,-0.00229,0.013167,78.765213,1.334229,-146.792709,,,
729860197.295469,0.834401,0.605468,-19.54457,-0.025864,0.010864,0.984894,-0.055822,-0.000206,0.0188,78.765213,1.334229,-146.792709,,,
729860197.298713,0.834401,0.605468,-19.54457,-0.025864,0.010864,0.984894,-0.055822,-0.000206,0.0188,78.765213,1.334229,-146.792709,,,
729860197.302056,0.818574,0.605747,-19.538791,-0.025864,0.010864,0.984894,-0.055822,-0.000206,0.0188,78.765213,1.334229,-146.792709,,,
729860197.305398,0.805253,0.606152,-19.532498,-0.020325,0.007156,1.002228,-0.043696,0.002182,0.021027,78.765213,1.334229,-146.792709,,,
729860197.30878,0.805253,0.606152,-19.532498,-0.020325,0.007156,1.002228,-0.043696,0.002182,0.021027,78.765213,1.334229,-146.792709,,,
729860197.312049,0.792134,0.608664,-19.525632,-0.020325,0.007156,1.002228,-0.043696,0.002182,0.021027,78.958847,1.697876,-147.120865,,,
729860197.31539,0.78252,0.607797,-19.518977,-0.01564,0.004761,1.013824,-0.029574,-0.001723,0.020433,78.958847,1.697876,-147.120865,,,
729860197.318724,0.78252,0.607797,-19.518977,-0.01564,0.004761,1.013824,-0.029574,-0.001723,0.020433,78.958847,1.697876,-147.120865,,,
729860197.322078,0.773428,0.607972,-19.513528,-0.01564,0.004761,1.013824,-0.029574,-0.001723,0.020433,78.958847,1.697876,-147.120865,,,
729860197.325444,0.767738,0.602565,-19.509942,-0.008865,0.004272,1.012283,-0.016469,-0.019412,0.0083,78.958847,1.697876,-147.120865,,,
729860197.328736,0.767738,0.602565,-19.509942,-0.008865,0.004272,1.012283,-0.016469,-0.019412,0.0083,78.958847,1.697876,-147.120865,,,
729860197.332078,0.764258,0.597729,-19.509053,-0.008865,0.004272,1.012283,-0.016469,-0.019412,0.0083,78.958847,1.697876,-147.120865,,,
729860197.335479,0.764566,0.589189,-19.50969,-0.004761,0.005356,1.015137,0.002354,-0.026428,-0.004064,78.958847,1.697876,-147.120865,,,
729860197.338697,0.764566,0.589189,-19.50969,-0.004761,0.005356,1.015137,0.002354,-0.026428,-0.004064,78.958847,1.697876,-147.120865,,,
729860197.342075,0.766884,0.583389,-19.510654,-0.004761,0.005356,1.015137,0.002354,-0.026428,-0.004064,78.958847,1.697876,-147.120865,,,
729860197.345424,0.769087,0.57689,-19.511313,-0.007797,0.00618,1.017334,0.009066,-0.017914,-0.003524,78.958847,1.697876,-147.120865,,,
729860197.348801,0.769087,0.57689,-19.511313,-0.007797,0.00618,1.017334,0.009066,-0.017914,-0.003524,78.958847,1.697876,-147.120865,,,
729860197.352036,0.770765,0.573892,-19.510291,-0.007797,0.00618,1.017334,0.009066,-0.017914,-0.003524,78.959763,1.606903,-147.218658,,,
729860197.355379,0.769765,0.570031,-19.507651,-0.011703,0.005783,1.007431,-0.005537,-0.008578,0.007964,78.959763,1.606903,-147.218658,,,
729860197.358718,0.769765,0.570031,-19.507651,-0.011703,0.005783,1.007431,-0.005537,-0.008578,0.007964,78.959763,1.606903,-147.218658,,,
729860197.362121,0.766015,0.571522,-19.504439,-0.011703,0.005783,1.007431,-0.005537,-0.008578,0.007964,78.959763,1.606903,-147.218658,,,
729860197.365368,0.759888,0.571793,-19.49971,-0.01619,0.006607,0.995087,-0.020634,0.004939,0.015647,78.959763,1.606903,-147.218658,,,
729860197.368733,0.759888,0.571793,-19.49971,-0.01619,0.006607,0.995087,-0.020634,0.004939,0.015647,78.959763,1.606903,-147.218658,,,
729860197.372056,0.751989,0.575756,-19.493636,-0.01619,0.006607,0.995087,-0.020634,0.004939,0.015647,78.959763,1.606903,-147.218658,,,
729860197.375371,0.744258,0.577209,-19.48749,-0.013092,0.00856,0.994766,-0.026891,0.008728,0.020419,78.959763,1.606903,-147.218658,,,
729860197.378707,0.744258,0.577209,-19.48749,-0.013092,0.00856,0.994766,-0.026891,0.008728,0.020419,78.959763,1.606903,-147.218658,,,
729860197.382144,0.736204,0.58026,-19.481343,-0.013092,0.00856,0.994766,-0.026891,0.008728,0.020419,78.959763,1.606903,-147.218658,,,
729860197.385367,0.729092,0.580089,-19.475091,-0.010208,0.008728,0.996063,-0.022505,0.00186,0.02033,78.959763,1.606903,-147.218658,,,
729860197.388784,0.729092,0.580089,-19.475091,-0.010208,0.008728,0.996063,-0.022505,0.00186,0.02033,78.959763,1.606903,-147.218658,,,
729860197.392031,0.721797,0.579438,-19.469247,-0.010208,0.008728,0.996063,-0.022505,0.00186,0.02033,78.909149,1.757812,-146.957077,,,
729860197.395382,0.716626,0.576452,-19.463289,-0.009354,0.007568,0.995438,-0.015137,-0.007297,0.021577,78.909149,1.757812,-146.957077,,,
729860197.398707,0.716626,0.576452,-19.463289,-0.009354,0.007568,0.995438,-0.015137,-0.007297,0.021577,78.909149,1.757812,-146.957077,,,
729860197.402112,0.712643,0.573274,-19.457267,-0.009354,0.007568,0.995438,-0.015137,-0.007297,0.021577,78.909149,1.757812,-146.957077,,,
729860197.405369,0.713124,0.570031,-19.451901,-0.004517,0.004852,1.004288,0.005129,-0.009331,0.016525,78.909149,1.757812,-146.957077,,,
729860197.408722,0.713124,0.570031,-19.451901,-0.004517,0.004852,1.004288,0.005129,-0.009331,0.016525,78.909149,1.757812,-146.957077,,,
729860197.412052,0.715331,0.566213,-19.447126,-0.004517,0.004852,1.004288,0.005129,-0.009331,0.016525,78.909149,1.757812,-146.957077,,,
729860197.415373,0.720791,0.563296,-19.442771,-0.003754,0.003403,1.011276,0.022032,-0.007497,0.015921,78.909149,1.757812,-146.957077,,,
729860197.418732,0.720791,0.563296,-19.442771,-0.003754,0.003403,1.011276,0.022032,-0.007497,0.015921,78.909149,1.757812,-146.957077,,,
729860197.42206,0.726907,0.560166,-19.438361,-0.003754,0.003403,1.011276,0.022032,-0.007497,0.015921,78.909149,1.757812,-146.957077,,,
729860197.425369,0.734647,0.558823,-19.433999,-0.00174,0.005783,1.007706,0.028392,-0.000789,0.015,78.909149,1.757812,-146.957077,,,
729860197.428792,0.734647,0.558823,-19.433999,-0.00174,0.005783,1.007706,0.028392,-0.000789,0.015,78.909149,1.757812,-146.957077,,,
729860197.432051,0.74174,0.559501,-19.430276,-0.00174,0.005783,1.007706,0.028392,-0.000789,0.015,78.909149,1.757812,-146.957077,,,
729860197.435377,0.749822,0.562723,-19.427366,0.00238,0.013016,1.001617,0.027753,0.01635,0.007223,78.817261,1.565628,-146.93512,,,
729860197.43872,0.749822,0.562723,-19.427366,0.00238,0.013016,1.001617,0.027753,0.01635,0.007223,78.817261,1.565628,-146.93512,,,
729860197.44212,0.756279,0.569592,-19.425411,0.00238,0.013016,1.001617,0.027753,0.01635,0.007223,78.817261,1.565628,-146.93512,,,
729860197.44537,0.761368,0.577456,-19.424171,0.002686,0.016739,0.991196,0.018398,0.031529,0.004896,78.817261,1.565628,-146.93512,,,
729860197.44871,0.761368,0.577456,-19.424171,0.002686,0.016739,0.991196,0.018398,0.031529,0.004896,78.817261,1.565628,-146.93512,,,
729860197.452051,0.762976,0.5864,-19.423052,0.002686,0.016739,0.991196,0.018398,0.031529,0.004896,78.817261,1.565628,-146.93512,,,
729860197.455389,0.76197,0.593745,-19.421942,-0.000717,0.019089,0.97525,-0.006434,0.026349,0.001376,78.817261,1.565628,-146.93512,,,
729860197.458722,0.76197,0.593745,-19.421942,-0.000717,0.019089,0.97525,-0.006434,0.026349,0.001376,78.817261,1.565628,-146.93512,,,
729860197.462054,0.755939,0.599636,-19.42096,-0.000717,0.019089,0.97525,-0.006434,0.026349,0.001376,78.817261,1.565628,-146.93512,,,
729860197.46538,0.74586,0.604389,-19.42043,-0.003586,0.020096,0.961166,-0.039889,0.018194,0.000251,78.817261,1.565628,-146.93512,,,
729860197.468708,0.74586,0.604389,-19.42043,-0.003586,0.020096,0.961166,-0.039889,0.018194,0.000251,78.817261,1.565628,-146.93512,,,
729860197.47207,0.73096,0.608418,-19.420049,-0.003586,0.020096,0.961166,-0.039889,0.018194,0.000251,78.817261,1.565628,-146.93512,,,
729860197.475378,0.713934,0.612255,-19.419572,-0.006546,0.019318,0.964417,-0.060084,0.016704,-0.000723,78.505951,1.692154,-146.752808,,,
729860197.47878,0.713934,0.612255,-19.419572,-0.006546,0.019318,0.964417,-0.060084,0.016704,-0.000723,78.505951,1.692154,-146.752808,,,
729860197.482057,0.694708,0.615225,-19.418649,-0.006546,0.019318,0.964417,-0.060084,0.016704,-0.000723,78.505951,1.692154,-146.752808,,,
729860197.485379,0.67673,0.618118,-19.416908,-0.010025,0.014908,0.979233,-0.062068,0.01226,0.005415,78.505951,1.692154,-146.752808,,,
729860197.488724,0.67673,0.618118,-19.416908,-0.010025,0.014908,0.979233,-0.062068,0.01226,0.005415,78.505951,1.692154,-146.752808,,,
729860197.492125,0.660535,0.619416,-19.414435,-0.010025,0.014908,0.979233,-0.062068,0.01226,0.005415,78.505951,1.692154,-146.752808,,,
729860197.495365,0.649963,0.621782,-19.411607,-0.013229,0.007263,1.002716,-0.03243,0.011881,0.007158,78.505951,1.692154,-146.752808,,,
729860197.498704,0.649963,0.621782,-19.411607,-0.013229,0.007263,1.002716,-0.03243,0.011881,0.007158,78.505951,1.692154,-146.752808,,,
729860197.502058,0.643488,0.623527,-19.408966,-0.013229,0.007263,1.002716,-0.03243,0.011881,0.007158,78.505951,1.692154,-146.752808,,,
729860197.505378,0.643751,0.628013,-19.406569,-0.010376,0.00618,1.028259,0.008502,0.020872,0.008544,78.505951,1.692154,-146.752808,,,
729860197.508727,0.643751,0.628013,-19.406569,-0.010376,0.00618,1.028259,0.008502,0.020872,0.008544,78.505951,1.692154,-146.752808,,,
729860197.512137,0.650059,0.632476,-19.404895,-0.010376,0.00618,1.028259,0.008502,0.020872,0.008544,78.505951,1.692154,-146.752808,,,
729860197.515443,0.661751,0.639994,-19.40416,-0.005432,0.007263,1.04039,0.046941,0.032659,0.002793,78.710464,1.737335,-146.994843,,,
729860197.518719,0.661751,0.639994,-19.40416,-0.005432,0.007263,1.04039,0.046941,0.032659,0.002793,78.710464,1.737335,-146.994843,,,
729860197.522039,0.677483,0.646612,-19.404294,-0.005432,0.007263,1.04039,0.046941,0.032659,0.002793,78.710464,1.737335,-146.994843,,,
729860197.525381,0.694589,0.656561,-19.405504,0.001923,0.011581,1.029282,0.061577,0.039003,-0.003925,78.710464,1.737335,-146.994843,,,
729860197.528754,0.694589,0.656561,-19.405504,0.001923,0.011581,1.029282,0.061577,0.039003,-0.003925,78.710464,1.737335,-146.994843,,,
729860197.532061,0.712569,0.665758,-19.40764,0.001923,0.011581,1.029282,0.061577,0.039003,-0.003925,78.710464,1.737335,-146.994843,,,
729860197.535392,0.72831,0.677034,-19.410889,0.001465,0.014664,1.007126,0.054307,0.0425,-0.014141,78.710464,1.737335,-146.994843,,,
729860197.538725,0.72831,0.677034,-19.410889,0.001465,0.014664,1.007126,0.054307,0.0425,-0.014141,78.710464,1.737335,-146.994843,,,
729860197.542157,0.741637,0.686958,-19.414792,0.001465,0.014664,1.007126,0.054307,0.0425,-0.014141,78.710464,1.737335,-146.994843,,,
729860197.545384,0.749287,0.696334,-19.418477,-0.004593,0.019745,0.98262,0.023387,0.032213,-0.013202,78.710464,1.737335,-146.994843,,,
729860197.548812,0.749287,0.696334,-19.418477,-0.004593,0.019745,0.98262,0.023387,0.032213,-0.013202,78.710464,1.737335,-146.994843,,,
729860197.552196,0.751995,0.702446,-19.421564,-0.004593,0.019745,0.98262,0.023387,0.032213,-0.013202,78.710464,1.737335,-146.994843,,,
729860197.555495,0.747849,0.706483,-19.423806,-0.011139,0.020599,0.961441,-0.01926,0.014871,-0.008902,78.710464,1.737335,-146.994843,,,
729860197.55872,0.747849,0.706483,-19.423806,-0.011139,0.020599,0.961441,-0.01926,0.014871,-0.008902,78.919617,1.819061,-147.022949,,,
729860197.562162,0.737878,0.707627,-19.424847,-0.011139,0.020599,0.961441,-0.01926,0.014871,-0.008902,78.919617,1.819061,-147.022949,,,
729860197.56548,0.722037,0.707277,-19.424668,-0.017319,0.018967,0.953171,-0.058655,-0.001239,0.002506,78.919617,1.819061,-147.022949,,,
729860197.568742,0.722037,0.707277,-19.424668,-0.017319,0.018967,0.953171,-0.058655,-0.001239,0.002506,78.919617,1.819061,-147.022949,,,
729860197.572048,0.702033,0.70649,-19.423637,-0.017319,0.018967,0.953171,-0.058655,-0.001239,0.002506,78.919617,1.819061,-147.022949,,,
729860197.575389,0.680088,0.70627,-19.421551,-0.018967,0.017273,0.967209,-0.077441,0.001861,0.009282,78.919617,1.819061,-147.022949,,,
729860197.578702,0.680088,0.70627,-19.421551,-0.018967,0.017273,0.967209,-0.077441,0.001861,0.009282,78.919617,1.819061,-147.022949,,,
729860197.582136,0.65711,0.707065,-19.41777,-0.018967,0.017273,0.967209,-0.077441,0.001861,0.009282,78.919617,1.819061,-147.022949,,,
729860197.585405,0.635761,0.708453,-19.412006,-0.018036,0.013321,0.998291,-0.07223,0.009281,0.019241,78.919617,1.819061,-147.022949,,,
729860197.588747,0.635761,0.708453,-19.412006,-0.018036,0.013321,0.998291,-0.07223,0.009281,0.019241,78.919617,1.819061,-147.022949,,,
729860197.592136,0.616698,0.709009,-19.405357,-0.018036,0.013321,0.998291,-0.07223,0.009281,0.019241,78.919617,1.819061,-147.022949,,,
729860197.595369,0.602506,0.708611,-19.399604,-0.012421,0.00946,1.010757,-0.046582,0.000914,0.018,78.919617,1.819061,-147.022949,,,
729860197.598715,0.602506,0.708611,-19.399604,-0.012421,0.00946,1.010757,-0.046582,0.000914,0.018,78.892761,1.776443,-147.068314,,,
729860197.602048,0.593786,0.704697,-19.395398,-0.012421,0.00946,1.010757,-0.046582,0.000914,0.018,78.892761,1.776443,-147.068314,,,
729860197.605375,0.591149,0.698839,-19.393517,-0.001083,0.007904,1.021103,-0.002644,-0.018727,0.001642,78.892761,1.776443,-147.068314,,,
729860197.608712,0.591149,0.698839,-19.393517,-0.001083,0.007904,1.021103,-0.002644,-0.018727,0.001642,78.892761,1.776443,-147.068314,,,
729860197.612064,0.595018,0.68897,-19.39487,-0.001083,0.007904,1.021103,-0.002644,-0.018727,0.001642,78.892761,1.776443,-147.068314,,,
729860197.615384,0.603521,0.677747,-19.399818,0.00621,0.011566,1.024185,0.03471,-0.040478,-0.019145,78.892761,1.776443,-147.068314,,,
729860197.618728,0.603521,0.677747,-19.399818,0.00621,0.011566,1.024185,0.03471,-0.040478,-0.019145,78.892761,1.776443,-147.068314,,,
729860197.622061,0.615432,0.664409,-19.407623,0.00621,0.011566,1.024185,0.03471,-0.040478,-0.019145,78.892761,1.776443,-147.068314,,,
729860197.625383,0.627841,0.652564,-19.416766,0.008209,0.012634,1.012756,0.045202,-0.037213,-0.033542,78.892761,1.776443,-147.068314,,,
729860197.628693,0.627841,0.652564,-19.416766,0.008209,0.012634,1.012756,0.045202,-0.037213,-0.033542,78.892761,1.776443,-147.068314,,,
729860197.632056,0.64061,0.643196,-19.426513,0.008209,0.012634,1.012756,0.045202,-0.037213,-0.033542,78.892761,1.776443,-147.068314,,,
729860197.635377,0.651184,0.637768,-19.436678,0.002258,0.013321,1.002609,0.034605,-0.013758,-0.034614,78.892761,1.776443,-147.068314,,,
729860197.638733,0.651184,0.637768,-19.436678,0.002258,0.013321,1.002609,0.034605,-0.013758,-0.034614,78.906754,1.807602,-147.268768,,,
729860197.642083,0.660394,0.637151,-19.446451,0.002258,0.013321,1.002609,0.034605,-0.013758,-0.034614,78.906754,1.807602,-147.268768,,,
729860197.64539,0.666265,0.640318,-19.45461,-0.003143,0.01152,0.995758,0.016694,0.017468,-0.025707,78.906754,1.807602,-147.268768,,,
729860197.648712,0.666265,0.640318,-19.45461,-0.003143,0.01152,0.995758,0.016694,0.017468,-0.025707,78.906754,1.807602,-147.268768,,,
729860197.652042,0.670102,0.648296,-19.461071,-0.003143,0.01152,0.995758,0.016694,0.017468,-0.025707,78.906754,1.807602,-147.268768,,,
729860197.655387,0.671275,0.657984,-19.466686,-0.007782,0.01123,0.991486,0.000694,0.036965,-0.018109,78.906754,1.807602,-147.268768,,,
729860197.658827,0.671275,0.657984,-19.466686,-0.007782,0.01123,0.991486,0.000694,0.036965,-0.018109,78.906754,1.807602,-147.268768,,,
729860197.662074,0.672072,0.669122,-19.471931,-0.007782,0.01123,0.991486,0.000694,0.036965,-0.018109,78.906754,1.807602,-147.268768,,,
729860197.66539,0.672841,0.677812,-19.477026,-0.009995,0.008865,0.9888,0.002692,0.027258,-0.018047,78.906754,1.807602,-147.268768,,,
729860197.668459,0.672841,0.677812,-19.477026,-0.009995,0.008865,0.9888,0.002692,0.027258,-0.018047,78.906754,1.807602,-147.268768,,,
729860197.67211,0.67533,0.6829,-19.482298,-0.009995,0.008865,0.9888,0.002692,0.027258,-0.018047,78.906754,1.807602,-147.268768,,,
729860197.675379,0.681418,0.682377,-19.489187,-0.007996,0.009476,0.995117,0.026664,-0.002895,-0.027645,78.906754,1.807602,-147.268768,,,
729860197.678717,0.681418,0.682377,-19.489187,-0.007996,0.009476,0.995117,0.026664,-0.002895,-0.027645,78.810989,1.786682,-147.022827,,,
729860197.682136,0.692207,0.675818,-19.498687,-0.007996,0.009476,0.995117,0.026664,-0.002895,-0.027645,78.810989,1.786682,-147.022827,,,
729860197.685369,0.709344,0.665864,-19.511017,-0.002411,0.007324,1.013397,0.0653,-0.037875,-0.046088,78.810989,1.786682,-147.022827,,,
729860197.688707,0.709344,0.665864,-19.511017,-0.002411,0.007324,1.013397,0.0653,-0.037875,-0.046088,78.810989,1.786682,-147.022827,,,
729860197.692069,0.731922,0.648628,-19.525531,-0.002411,0.007324,1.013397,0.0653,-0.037875,-0.046088,78.810989,1.786682,-147.022827,,,
729860197.695376,0.760436,0.629395,-19.541724,-0.001724,0.00502,1.02861,0.107771,-0.070614,-0.060247,78.810989,1.786682,-147.022827,,,
729860197.698747,0.760436,0.629395,-19.541724,-0.001724,0.00502,1.02861,0.107771,-0.070614,-0.060247,78.810989,1.786682,-147.022827,,,
729860197.702075,0.792479,0.604943,-19.559493,-0.001724,0.00502,1.02861,0.107771,-0.070614,-0.060247,78.810989,1.786682,-147.022827,,,
729860197.705375,0.825335,0.581475,-19.578191,-0.000549,0.006729,1.026215,0.116742,-0.083239,-0.065076,78.810989,1.786682,-147.022827,,,
729860197.70871,0.825335,0.581475,-19.578191,-0.000549,0.006729,1.026215,0.116742,-0.083239,-0.065076,78.810989,1.786682,-147.022827,,,
729860197.712076,0.856047,0.556941,-19.597496,-0.000549,0.006729,1.026215,0.116742,-0.083239,-0.065076,78.810989,1.786682,-147.022827,,,
729860197.715385,0.883077,0.538195,-19.617343,-0.002243,0.012726,1.006805,0.091505,-0.059377,-0.070046,78.810989,1.786682,-147.022827,,,
729860197.718809,0.883077,0.538195,-19.617343,-0.002243,0.012726,1.006805,0.091505,-0.059377,-0.070046,78.810989,1.786682,-147.022827,,,
729860197.722046,0.902854,0.523765,-19.637537,-0.002243,0.012726,1.006805,0.091505,-0.059377,-0.070046,78.988632,1.650696,-147.039581,,,
729860197.725452,0.913409,0.516384,-19.658288,-0.004974,0.019318,0.982162,0.031011,-0.01865,-0.072719,78.988632,1.650696,-147.039581,,,
729860197.728719,0.913409,0.516384,-19.658288,-0.004974,0.019318,0.982162,0.031011,-0.01865,-0.072719,78.988632,1.650696,-147.039581,,,
729860197.732045,0.914207,0.514656,-19.6791,-0.004974,0.019318,0.982162,0.031011,-0.01865,-0.072719,78.988632,1.650696,-147.039581,,,
729860197.735375,0.906477,0.518485,-19.699618,-0.005051,0.023026,0.960129,-0.034508,0.019113,-0.071311,78.988632,1.650696,-147.039581,,,
729860197.73871,0.906477,0.518485,-19.699618,-0.005051,0.023026,0.960129,-0.034508,0.019113,-0.071311,78.988632,1.650696,-147.039581,,,
729860197.742043,0.890514,0.527715,-19.71951,-0.005051,0.023026,0.960129,-0.034508,0.019113,-0.071311,78.988632,1.650696,-147.039581,,,
729860197.745374,0.87109,0.541169,-19.737483,-0.011459,0.01973,0.962997,-0.073609,0.054128,-0.060838,78.988632,1.650696,-147.039581,,,
729860197.748707,0.87109,0.541169,-19.737483,-0.011459,0.01973,0.962997,-0.073609,0.054128,-0.060838,78.988632,1.650696,-147.039581,,,
729860197.752044,0.848446,0.556458,-19.753034,-0.011459,0.01973,0.962997,-0.073609,0.054128,-0.060838,78.988632,1.650696,-147.039581,,,
729860197.755407,0.826602,0.571297,-19.765956,-0.024689,0.009552,0.98288,-0.07474,0.052618,-0.043375,78.988632,1.650696,-147.039581,,,
729860197.758777,0.826602,0.571297,-19.765956,-0.024689,0.009552,0.98288,-0.07474,0.052618,-0.043375,78.988632,1.650696,-147.039581,,,
729860197.762122,0.805969,0.583767,-19.776109,-0.024689,0.009552,0.98288,-0.07474,0.052618,-0.043375,78.982834,1.744965,-147.275665,,,
729860197.765402,0.789066,0.595388,-19.784514,-0.033478,0.002167,0.999863,-0.05461,0.043584,-0.028879,78.982834,1.744965,-147.275665,,,
729860197.768742,0.789066,0.595388,-19.784514,-0.033478,0.002167,0.999863,-0.05461,0.043584,-0.028879,78.982834,1.744965,-147.275665,,,
729860197.772154,0.774408,0.605102,-19.792272,-0.033478,0.002167,0.999863,-0.05461,0.043584,-0.028879,78.982834,1.744965,-147.275665,,,
729860197.775397,0.764502,0.615876,-19.799717,-0.032501,0.003433,1.015656,-0.028014,0.037584,-0.023387,78.982834,1.744965,-147.275665,,,
729860197.778739,0.764502,0.615876,-19.799717,-0.032501,0.003433,1.015656,-0.028014,0.037584,-0.023387,78.982834,1.744965,-147.275665,,,
729860197.782078,0.757115,0.625229,-19.806668,-0.032501,0.003433,1.015656,-0.028014,0.037584,-0.023387,78.982834,1.744965,-147.275665,,,
729860197.785387,0.75365,0.635362,-19.813462,-0.029068,0.005981,1.018036,-0.010437,0.037286,-0.02636,78.982834,1.744965,-147.275665,,,
729860197.788729,0.75365,0.635362,-19.813462,-0.029068,0.005981,1.018036,-0.010437,0.037286,-0.02636,78.982834,1.744965,-147.275665,,,
729860197.792056,0.752142,0.642729,-19.820503,-0.029068,0.005981,1.018036,-0.010437,0.037286,-0.02636,78.982834,1.744965,-147.275665,,,
729860197.795382,0.752669,0.649758,-19.827786,-0.027161,0.007019,1.013428,0.003276,0.025462,-0.026771,78.982834,1.744965,-147.275665,,,
729860197.798716,0.752669,0.649758,-19.827786,-0.027161,0.007019,1.013428,0.003276,0.025462,-0.026771,78.982834,1.744965,-147.275665,,,
729860197.802055,0.755409,0.654027,-19.835135,-0.027161,0.007019,1.013428,0.003276,0.025462,-0.026771,79.172455,1.744339,-147.128464,,,
729860197.805385,0.758489,0.658118,-19.84336,-0.025513,0.009644,1.005951,0.010619,0.014235,-0.029431,79.172455,1.744339,-147.128464,,,
729860197.808794,0.758489,0.658118,-19.84336,-0.025513,0.009644,1.005951,0.010619,0.014235,-0.029431,79.172455,1.744339,-147.128464,,,
729860197.812064,0.7624,0.660701,-19.852072,-0.025513,0.009644,1.005951,0.010619,0.014235,-0.029431,79.172455,1.744339,-147.128464,,,
729860197.815383,0.763837,0.663525,-19.860549,-0.027771,0.007736,0.997833,0.006856,0.011966,-0.028726,79.172455,1.744339,-147.128464,,,
729860197.818717,0.763837,0.663525,-19.860549,-0.027771,0.007736,0.997833,0.006856,0.011966,-0.028726,79.172455,1.744339,-147.128464,,,
729860197.822059,0.764314,0.665618,-19.868067,-0.027771,0.007736,0.997833,0.006856,0.011966,-0.028726,79.172455,1.744339,-147.128464,,,
729860197.825376,0.760967,0.668502,-19.874361,-0.02771,0.008896,0.986603,-0.015001,0.011199,-0.024886,79.172455,1.744339,-147.128464,,,
729860197.82874,0.760967,0.668502,-19.874361,-0.02771,0.008896,0.986603,-0.015001,0.011199,-0.024886,79.172455,1.744339,-147.128464,,,
729860197.832057,0.7549,0.67388,-19.879631,-0.02771,0.008896,0.986603,-0.015001,0.011199,-0.024886,79.172455,1.744339,-147.128464,,,
729860197.835384,0.745703,0.680314,-19.883357,-0.029327,0.009018,0.984604,-0.033694,0.026014,-0.015741,79.172455,1.744339,-147.128464,,,
729860197.838726,0.745703,0.680314,-19.883357,-0.029327,0.009018,0.984604,-0.033694,0.026014,-0.015741,79.172455,1.744339,-147.128464,,,
729860197.842048,0.731876,0.692194,-19.885593,-0.029327,0.009018,0.984604,-0.033694,0.026014,-0.015741,79.03418,1.700516,-147.305893,,,
729860197.845382,0.715901,0.703616,-19.88631,-0.030334,0.009766,0.983948,-0.059306,0.04666,-0.001515,79.03418,1.700516,-147.305893,,,
729860197.848714,0.715901,0.703616,-19.88631,-0.030334,0.009766,0.983948,-0.059306,0.04666,-0.001515,79.03418,1.700516,-147.305893,,,
729860197.852045,0.694488,0.720259,-19.886062,-0.030334,0.009766,0.983948,-0.059306,0.04666,-0.001515,79.03418,1.700516,-147.305893,,,
729860197.855377,0.670209,0.734748,-19.884961,-0.030426,0.012497,0.979507,-0.086383,0.053759,0.003651,79.03418,1.700516,-147.305893,,,
729860197.858809,0.670209,0.734748,-19.884961,-0.030426,0.012497,0.979507,-0.086383,0.053759,0.003651,79.03418,1.700516,-147.305893,,,
729860197.862069,0.641942,0.750942,-19.883361,-0.030426,0.012497,0.979507,-0.086383,0.053759,0.003651,79.03418,1.700516,-147.305893,,,
729860197.865472,0.612395,0.762899,-19.881577,-0.03009,0.015427,0.971909,-0.105253,0.043046,0.003253,79.03418,1.700516,-147.305893,,,
729860197.868729,0.612395,0.762899,-19.881577,-0.03009,0.015427,0.971909,-0.105253,0.043046,0.003253,79.03418,1.700516,-147.305893,,,
729860197.872146,0.582089,0.774618,-19.880012,-0.03009,0.015427,0.971909,-0.105253,0.043046,0.003253,79.03418,1.700516,-147.305893,,,
729860197.875374,0.554716,0.781122,-19.878841,-0.028717,0.013763,0.977219,-0.093779,0.023992,0.003055,79.03418,1.700516,-147.305893,,,
729860197.878714,0.554716,0.781122,-19.878841,-0.028717,0.013763,0.977219,-0.093779,0.023992,0.003055,79.03418,1.700516,-147.305893,,,
729860197.882059,0.531099,0.785582,-19.877758,-0.028717,0.013763,0.977219,-0.093779,0.023992,0.003055,79.03418,1.700516,-147.305893,,,
729860197.885388,0.512487,0.784938,-19.877089,-0.029205,0.006378,0.995865,-0.059118,-0.003688,-0.000754,79.148315,1.814072,-147.337357,,,
729860197.888716,0.512487,0.784938,-19.877089,-0.029205,0.006378,0.995865,-0.059118,-0.003688,-0.000754,79.148315,1.814072,-147.337357,,,
729860197.892056,0.499666,0.782902,-19.877301,-0.029205,0.006378,0.995865,-0.059118,-0.003688,-0.000754,79.148315,1.814072,-147.337357,,,
729860197.895386,0.49222,0.775848,-19.878406,-0.022644,0.002625,1.008972,-0.020265,-0.023042,-0.007953,79.148315,1.814072,-147.337357,,,
729860197.898716,0.49222,0.775848,-19.878406,-0.022644,0.002625,1.008972,-0.020265,-0.023042,-0.007953,79.148315,1.814072,-147.337357,,,
729860197.902057,0.489428,0.769059,-19.880579,-0.022644,0.002625,1.008972,-0.020265,-0.023042,-0.007953,79.148315,1.814072,-147.337357,,,
729860197.905384,0.490952,0.761106,-19.883482,-0.015854,9.2e-05,1.015732,0.010411,-0.022788,-0.012909,79.148315,1.814072,-147.337357,,,
729860197.908787,0.490952,0.761106,-19.883482,-0.015854,9.2e-05,1.015732,0.010411,-0.022788,-0.012909,79.148315,1.814072,-147.337357,,,
729860197.912066,0.495532,0.75884,-19.886454,-0.015854,9.2e-05,1.015732,0.010411,-0.022788,-0.012909,79.148315,1.814072,-147.337357,,,
729860197.915388,0.501257,0.75886,-19.888298,-0.018463,0.000214,1.019379,0.022364,0.00798,-0.005524,79.148315,1.814072,-147.337357,,,
729860197.918735,0.501257,0.75886,-19.888298,-0.018463,0.000214,1.019379,0.022364,0.00798,-0.005524,79.148315,1.814072,-147.337357,,,
729860197.922058,0.506431,0.765602,-19.88929,-0.018463,0.000214,1.019379,0.022364,0.00798,-0.005524,79.148315,1.814072,-147.337357,,,
729860197.92542,0.509007,0.773126,-19.889864,-0.017929,0.000183,1.006393,0.005883,0.033708,7.6e-05,79.293991,1.88269,-147.272629,,,
729860197.928742,0.509007,0.773126,-19.889864,-0.017929,0.000183,1.006393,0.005883,0.033708,7.6e-05,79.293991,1.88269,-147.272629,,,
729860197.932079,0.507795,0.785248,-19.890278,-0.017929,0.000183,1.006393,0.005883,0.033708,7.6e-05,79.293991,1.88269,-147.272629,,,
729860197.935389,0.50057,0.79618,-19.891355,-0.011063,0.006256,0.980286,-0.027852,0.041256,-0.005062,79.293991,1.88269,-147.272629,,,
729860197.938739,0.50057,0.79618,-19.891355,-0.011063,0.006256,0.980286,-0.027852,0.041256,-0.005062,79.293991,1.88269,-147.272629,,,
729860197.942056,0.489752,0.810816,-19.8938,-0.011063,0.006256,0.980286,-0.027852,0.041256,-0.005062,79.293991,1.88269,-147.272629,,,
729860197.945389,0.475355,0.8213,-19.897506,-0.006912,0.014893,0.969986,-0.051844,0.035904,-0.015942,79.293991,1.88269,-147.272629,,,
729860197.948726,0.475355,0.8213,-19.897506,-0.006912,0.014893,0.969986,-0.051844,0.035904,-0.015942,79.293991,1.88269,-147.272629,,,
729860197.952056,0.460455,0.83017,-19.902024,-0.006912,0.014893,0.969986,-0.051844,0.035904,-0.015942,79.293991,1.88269,-147.272629,,,
729860197.955382,0.445544,0.83162,-19.906771,-0.012802,0.006729,0.977478,-0.051937,-7.5e-05,-0.018383,79.293991,1.88269,-147.272629,,,
729860197.958779,0.445544,0.83162,-19.906771,-0.012802,0.006729,0.977478,-0.051937,-7.5e-05,-0.018383,79.293991,1.88269,-147.272629,,,
729860197.962049,0.43309,0.828327,-19.911923,-0.012802,0.006729,0.977478,-0.051937,-7.5e-05,-0.018383,79.293991,1.88269,-147.272629,,,
729860197.965397,0.424998,0.815653,-19.918519,-0.015732,0.001862,0.991425,-0.021369,-0.047489,-0.024735,79.122101,1.874329,-147.465347,,,
729860197.968731,0.424998,0.815653,-19.918519,-0.015732,0.001862,0.991425,-0.021369,-0.047489,-0.024735,79.122101,1.874329,-147.465347,,,
729860197.972133,0.422997,0.798289,-19.926576,-0.015732,0.001862,0.991425,-0.021369,-0.047489,-0.024735,79.122101,1.874329,-147.465347,,,
729860197.975397,0.427597,0.773953,-19.935669,-0.009125,-0.003937,1.014435,0.022157,-0.088537,-0.034909,79.122101,1.874329,-147.465347,,,
729860197.978736,0.427597,0.773953,-19.935669,-0.009125,-0.003937,1.014435,0.022157,-0.088537,-0.034909,79.122101,1.874329,-147.465347,,,
729860197.982077,0.436627,0.746613,-19.945786,-0.009125,-0.003937,1.014435,0.022157,-0.088537,-0.034909,79.122101,1.874329,-147.465347,,,
729860197.985494,0.436627,0.746613,-19.945786,-0.009125,-0.003937,1.014435,0.022157,-0.088537,-0.034909,79.122101,1.874329,-147.465347,,,
729860197.988738,0.451324,0.718134,-19.956598,-0.002869,-0.003052,1.026001,0.053592,-0.095026,-0.039119,79.122101,1.874329,-147.465347,,,
729860197.992055,0.468331,0.693073,-19.967094,-0.002869,-0.003052,1.026001,0.053592,-0.095026,-0.039119,79.122101,1.874329,-147.465347,,,
729860197.995415,0.488998,0.673092,-19.976027,-0.000122,-0.003662,1.031128,0.07424,-0.059742,-0.032509,79.122101,1.874329,-147.465347,,,
729860197.998718,0.488998,0.673092,-19.976027,-0.000122,-0.003662,1.031128,0.07424,-0.059742,-0.032509,79.122101,1.874329,-147.465347,,,
729860198.002078,0.510994,0.661337,-19.983271,-0.000122,-0.003662,1.031128,0.07424,-0.059742,-0.032509,79.122101,1.874329,-147.465347,,,
729860198.005475,0.510994,0.661337,-19.983271,-0.000122,-0.003662,1.031128,0.07424,-0.059742,-0.032509,79.122101,1.874329,-147.465347,,,
729860198.008783,0.535116,0.656644,-19.988768,-0.001007,-0.004013,1.031967,0.085072,-0.006563,-0.016609,79.110931,1.767029,-147.343445,,,
729860198.012073,0.557427,0.660231,-19.991982,-0.001007,-0.004013,1.031967,0.085072,-0.006563,-0.016609,79.110931,1.767029,-147.343445,,,
729860198.015463,0.557427,0.660231,-19.991982,-0.001007,-0.004013,1.031967,0.070501,0.043699,-0.006733,79.110931,1.767029,-147.343445,,,
729860198.018742,0.577949,0.670163,-19.993567,-0.004761,0.000168,1.020493,0.070501,0.043699,-0.006733,79.110931,1.767029,-147.343445,,,
729860198.022048,0.595984,0.684344,-19.994122,-0.004761,0.000168,1.020493,0.070501,0.043699,-0.006733,79.110931,1.767029,-147.343445,,,
729860198.025455,0.595984,0.684344,-19.994122,-0.004761,0.000168,1.020493,0.043723,0.068617,-0.000345,79.110931,1.767029,-147.343445,,,
729860198.028725,0.60985,0.702238,-19.994116,-0.006271,0.007523,1.001083,0.043723,0.068617,-0.000345,79.110931,1.767029,-147.343445,,,
729860198.03205,0.619148,0.720837,-19.994103,-0.006271,0.007523,1.001083,0.043723,0.068617,-0.000345,79.110931,1.767029,-147.343445,,,
729860198.035453,0.619148,0.720837,-19.994103,-0.006271,0.007523,1.001083,0.043723,0.068617,-0.000345,79.110931,1.767029,-147.343445,,,
729860198.038708,0.622986,0.738848,-19.99429,-0.007065,0.016983,0.976013,0.010428,0.064091,-0.000273,79.110931,1.767029,-147.343445,,,
729860198.04205,0.619368,0.754906,-19.995217,-0.007065,0.016983,0.976013,0.010428,0.064091,-0.000273,79.110931,1.767029,-147.343445,,,
729860198.045403,0.619368,0.754906,-19.995217,-0.007065,0.016983,0.976013,0.010428,0.064091,-0.000273,79.110931,1.767029,-147.343445,,,
729860198.048778,0.610987,0.766437,-19.997558,-0.009247,0.020538,0.95784,-0.033299,0.04039,-0.01029,79.221817,1.687256,-147.277679,,,
729860198.052047,0.597231,0.772998,-20.00128,-0.009247,0.020538,0.95784,-0.033299,0.04039,-0.01029,79.221817,1.687256,-147.277679,,,
729860198.055466,0.597231,0.772998,-20.00128,-0.009247,0.020538,0.95784,-0.033299,0.04039,-0.01029,79.221817,1.687256,-147.277679,,,
729860198.058718,0.58127,0.775706,-20.006243,-0.007614,0.021713,0.952896,-0.058837,0.009351,-0.021009,79.221817,1.687256,-147.277679,,,
729860198.062049,0.562273,0.774401,-20.012276,-0.007614,0.021713,0.952896,-0.058837,0.009351,-0.021009,79.221817,1.687256,-147.277679,,,
729860198.065459,0.562273,0.774401,-20.012276,-0.007614,0.021713,0.952896,-0.058837,0.009351,-0.021009,79.221817,1.687256,-147.277679,,,
729860198.068734,0.543678,0.77141,-20.018421,-0.010162,0.017075,0.969238,-0.067281,-0.010286,-0.022019,79.221817,1.687256,-147.277679,,,
729860198.07206,0.523449,0.765127,-20.023372,-0.010162,0.017075,0.969238,-0.067281,-0.010286,-0.022019,79.221817,1.687256,-147.277679,,,
729860198.075457,0.523449,0.765127,-20.023372,-0.010162,0.017075,0.969238,-0.067281,-0.010286,-0.022019,79.221817,1.687256,-147.277679,,,
729860198.07872,0.505653,0.757745,-20.02645,-0.01889,0.009689,0.981934,-0.058379,-0.025452,-0.009994,79.221817,1.687256,-147.277679,,,
729860198.082059,0.490029,0.748166,-20.028088,-0.01889,0.009689,0.981934,-0.058379,-0.025452,-0.009994,79.221817,1.687256,-147.277679,,,
729860198.085451,0.490029,0.748166,-20.028088,-0.01889,0.009689,0.981934,-0.058379,-0.025452,-0.009994,79.221817,1.687256,-147.277679,,,
729860198.088718,0.479923,0.739734,-20.028878,-0.019958,0.004761,0.996048,-0.031799,-0.029735,-0.003617,79.09877,2.035446,-147.172821,,,
729860198.092062,0.475509,0.729793,-20.029614,-0.019958,0.004761,0.996048,-0.031799,-0.029735,-0.003617,79.09877,2.035446,-147.172821,,,
729860198.095459,0.475509,0.729793,-20.029614,-0.019958,0.004761,0.996048,-0.031799,-0.029735,-0.003617,79.09877,2.035446,-147.172821,,,
729860198.098764,0.480111,0.71977,-20.03148,-0.013855,0.003799,1.016525,0.026305,-0.033811,-0.005883,79.09877,2.035446,-147.172821,,,
729860198.102051,0.491896,0.708386,-20.034088,-0.013855,0.003799,1.016525,0.026305,-0.033811,-0.005883,79.09877,2.035446,-147.172821,,,
729860198.105458,0.491896,0.708386,-20.034088,-0.013855,0.003799,1.016525,0.026305,-0.033811,-0.005883,79.09877,2.035446,-147.172821,,,
729860198.108731,0.509057,0.697709,-20.037554,-0.005249,0.003906,1.021027,0.063767,-0.0339,-0.015758,79.09877,2.035446,-147.172821,,,
729860198.112056,0.529358,0.687555,-20.042544,-0.005249,0.003906,1.021027,0.063767,-0.0339,-0.015758,79.09877,2.035446,-147.172821,,,
729860198.115447,0.529358,0.687555,-20.042544,-0.005249,0.003906,1.021027,0.063767,-0.0339,-0.015758,79.09877,2.035446,-147.172821,,,
729860198.118728,0.550909,0.679571,-20.049166,-0.0009,0.008926,1.011154,0.077345,-0.023484,-0.025586,79.09877,2.035446,-147.172821,,,
729860198.122062,0.573209,0.674749,-20.05771,-0.0009,0.008926,1.011154,0.077345,-0.023484,-0.025586,79.09877,2.035446,-147.172821,,,
729860198.125523,0.573209,0.674749,-20.05771,-0.0009,0.008926,1.011154,0.077345,-0.023484,-0.025586,79.09877,2.035446,-147.172821,,,
729860198.128703,0.591723,0.675661,-20.067694,0.003647,0.015503,1.002884,0.061214,0.011309,-0.037076,79.117126,1.616302,-146.960815,,,
729860198.132049,0.606332,0.682198,-20.077906,0.003647,0.015503,1.002884,0.061214,0.011309,-0.037076,79.117126,1.616302,-146.960815,,,
729860198.135397,0.606332,0.682198,-20.077906,0.003647,0.015503,1.002884,0.061214,0.011309,-0.037076,79.117126,1.616302,-146.960815,,,
729860198.13878,0.614188,0.694516,-20.087642,-0.001495,0.018188,0.988312,0.024076,0.047863,-0.035099,79.117126,1.616302,-146.960815,,,
729860198.142126,0.61705,0.710922,-20.096409,-0.001495,0.018188,0.988312,0.024076,0.047863,-0.035099,79.117126,1.616302,-146.960815,,,
729860198.145399,0.61705,0.710922,-20.096409,-0.001495,0.018188,0.988312,0.024076,0.047863,-0.035099,79.117126,1.616302,-146.960815,,,
729860198.148739,0.612216,0.730802,-20.103672,-0.010223,0.017105,0.96907,-0.020323,0.073539,-0.023321,79.117126,1.616302,-146.960815,,,
729860198.15205,0.600399,0.752777,-20.109277,-0.010223,0.017105,0.96907,-0.020323,0.073539,-0.023321,79.117126,1.616302,-146.960815,,,
729860198.155397,0.600399,0.752777,-20.109277,-0.010223,0.017105,0.96907,-0.020323,0.073539,-0.023321,79.117126,1.616302,-146.960815,,,
729860198.158746,0.581275,0.774518,-20.112934,-0.021149,0.01799,0.955032,-0.072534,0.077701,-0.013009,79.117126,1.616302,-146.960815,,,
729860198.162075,0.555333,0.794692,-20.115054,-0.021149,0.01799,0.955032,-0.072534,0.077701,-0.013009,79.117126,1.616302,-146.960815,,,
729860198.16547,0.555333,0.794692,-20.115054,-0.021149,0.01799,0.955032,-0.072534,0.077701,-0.013009,79.117126,1.616302,-146.960815,,,
729860198.168741,0.525632,0.80997,-20.116438,-0.026123,0.020126,0.947433,-0.105504,0.050808,-0.00806,79.117126,1.616302,-146.960815,,,
729860198.172058,0.494106,0.819942,-20.117371,-0.026123,0.020126,0.947433,-0.105504,0.050808,-0.00806,79.241135,1.66774,-147.268356,,,
729860198.175388,0.494106,0.819942,-20.117371,-0.026123,0.020126,0.947433,-0.105504,0.050808,-0.00806,79.241135,1.66774,-147.268356,,,
729860198.178822,0.464584,0.823748,-20.118054,-0.026871,0.01268,0.957779,-0.09794,0.011384,-0.003818,79.241135,1.66774,-147.268356,,,
729860198.182047,0.438892,0.821216,-20.118255,-0.026871,0.01268,0.957779,-0.09794,0.011384,-0.003818,79.241135,1.66774,-147.268356,,,
729860198.185448,0.438892,0.821216,-20.118255,-0.026871,0.01268,0.957779,-0.09794,0.011384,-0.003818,79.241135,1.66774,-147.268356,,,
729860198.188729,0.419055,0.813133,-20.117775,-0.02829,0.002792,0.992599,-0.065222,-0.031135,-0.000998,79.241135,1.66774,-147.268356,,,
729860198.192061,0.40534,0.799136,-20.117571,-0.02829,0.002792,0.992599,-0.065222,-0.031135,-0.000998,79.241135,1.66774,-147.268356,,,
729860198.195387,0.40534,0.799136,-20.117571,-0.02829,0.002792,0.992599,-0.065222,-0.031135,-0.000998,79.241135,1.66774,-147.268356,,,
729860198.198755,0.398343,0.782451,-20.118551,-0.022797,-0.002274,1.016235,-0.019768,-0.061654,-0.003788,79.241135,1.66774,-147.268356,,,
729860198.202058,0.398708,0.762339,-20.120964,-0.022797,-0.002274,1.016235,-0.019768,-0.061654,-0.003788,79.241135,1.66774,-147.268356,,,
729860198.20539,0.398708,0.762339,-20.120964,-0.022797,-0.002274,1.016235,-0.019768,-0.061654,-0.003788,79.241135,1.66774,-147.268356,,,
729860198.208746,0.405359,0.743643,-20.12512,-0.008957,-0.004532,1.03537,0.030704,-0.063092,-0.018809,79.241135,1.66774,-147.268356,,,
729860198.212063,0.417865,0.725563,-20.131795,-0.008957,-0.004532,1.03537,0.030704,-0.063092,-0.018809,79.361526,1.753189,-147.481064,,,
729860198.215388,0.417865,0.725563,-20.131795,-0.008957,-0.004532,1.03537,0.030704,-0.063092,-0.018809,79.361526,1.753189,-147.481064,,,
729860198.218756,0.431439,0.711664,-20.141482,0.004929,0.000473,1.039307,0.051173,-0.044018,-0.03356,79.361526,1.753189,-147.481064,,,
729860198.222053,0.445983,0.701779,-20.15384,0.004929,0.000473,1.039307,0.051173,-0.044018,-0.03356,79.361526,1.753189,-147.481064,,,
729860198.225391,0.445983,0.701779,-20.15384,0.004929,0.000473,1.039307,0.051173,-0.044018,-0.03356,79.361526,1.753189,-147.481064,,,
729860198.228838,0.458602,0.697455,-20.168003,0.00975,0.009552,1.023407,0.040317,-0.007319,-0.051072,79.361526,1.753189,-147.481064,,,
729860198.232059,0.467645,0.699407,-20.183115,0.00975,0.009552,1.023407,0.040317,-0.007319,-0.051072,79.361526,1.753189,-147.481064,,,
729860198.235391,0.467645,0.699407,-20.183115,0.00975,0.009552,1.023407,0.040317,-0.007319,-0.051072,79.361526,1.753189,-147.481064,,,
729860198.238728,0.470474,0.706751,-20.198433,0.003891,0.014801,1.004318,0.008847,0.030488,-0.055085,79.361526,1.753189,-147.481064,,,
729860198.242056,0.467978,0.719883,-20.21314,0.003891,0.014801,1.004318,0.008847,0.030488,-0.055085,79.361526,1.753189,-147.481064,,,
729860198.245478,0.467978,0.719883,-20.21314,0.003891,0.014801,1.004318,0.008847,0.030488,-0.055085,79.361526,1.753189,-147.481064,,,
729860198.248783,0.458181,0.735565,-20.22646,-0.009232,0.014633,0.980453,-0.039983,0.060801,-0.045578,79.361526,1.753189,-147.481064,,,
729860198.252132,0.44341,0.754812,-20.237683,-0.009232,0.014633,0.980453,-0.039983,0.060801,-0.045578,79.12468,1.763031,-147.698563,,,
729860198.255457,0.44341,0.754812,-20.237683,-0.009232,0.014633,0.980453,-0.039983,0.060801,-0.045578,79.12468,1.763031,-147.698563,,,
729860198.258817,0.423318,0.773869,-20.246188,-0.020294,0.010696,0.96936,-0.071559,0.067413,-0.030715,79.12468,1.763031,-147.698563,,,
729860198.262133,0.399312,0.793838,-20.251712,-0.020294,0.010696,0.96936,-0.071559,0.067413,-0.030715,79.12468,1.763031,-147.698563,,,
729860198.265546,0.399312,0.793838,-20.251712,-0.020294,0.010696,0.96936,-0.071559,0.067413,-0.030715,79.12468,1.763031,-147.698563,,,
729860198.268747,0.372096,0.811669,-20.254655,-0.033035,0.00528,0.970795,-0.096215,0.063039,-0.009692,79.12468,1.763031,-147.698563,,,
729860198.272196,0.34268,0.827962,-20.255272,-0.033035,0.00528,0.970795,-0.096215,0.063039,-0.009692,79.12468,1.763031,-147.698563,,,
729860198.275413,0.34268,0.827962,-20.255272,-0.033035,0.00528,0.970795,-0.096215,0.063039,-0.009692,79.12468,1.763031,-147.698563,,,
729860198.278755,0.313411,0.839973,-20.25459,-0.037033,0.002518,0.976395,-0.101262,0.040299,2.2e-05,79.12468,1.763031,-147.698563,,,
729860198.282136,0.284806,0.848223,-20.253062,-0.037033,0.002518,0.976395,-0.101262,0.040299,2.2e-05,79.12468,1.763031,-147.698563,,,
729860198.285444,0.284806,0.848223,-20.253062,-0.037033,0.002518,0.976395,-0.101262,0.040299,2.2e-05,79.12468,1.763031,-147.698563,,,
729860198.288753,0.261476,0.852767,-20.251698,-0.0298,0.001617,0.992035,-0.075827,0.0149,0.003056,79.12468,1.763031,-147.698563,,,
729860198.292099,0.244828,0.852234,-20.251682,-0.0298,0.001617,0.992035,-0.075827,0.0149,0.003056,79.12468,1.763031,-147.698563,,,
729860198.295439,0.244828,0.852234,-20.251682,-0.0298,0.001617,0.992035,-0.075827,0.0149,0.003056,79.600922,1.993393,-147.789581,,,
729860198.298736,0.236567,0.848831,-20.253289,-0.023087,-0.000595,1.01857,-0.019917,-0.012061,-0.006298,79.600922,1.993393,-147.789581,,,
729860198.302063,0.235555,0.840177,-20.256704,-0.023087,-0.000595,1.01857,-0.019917,-0.012061,-0.006298,79.600922,1.993393,-147.789581,,,
729860198.305393,0.235555,0.840177,-20.256704,-0.023087,-0.000595,1.01857,-0.019917,-0.012061,-0.006298,79.600922,1.993393,-147.789581,,,
729860198.308737,0.241037,0.830038,-20.261856,-0.015518,-0.003128,1.035828,0.027348,-0.035111,-0.021142,79.600922,1.993393,-147.789581,,,
729860198.312108,0.252951,0.816998,-20.268779,-0.015518,-0.003128,1.035828,0.027348,-0.035111,-0.021142,79.600922,1.993393,-147.789581,,,
729860198.3154,0.252951,0.816998,-20.268779,-0.015518,-0.003128,1.035828,0.027348,-0.035111,-0.021142,79.600922,1.993393,-147.789581,,,
729860198.318732,0.268111,0.806219,-20.277249,-0.010544,-0.000854,1.031342,0.056904,-0.036445,-0.029847,79.600922,1.993393,-147.789581,,,
729860198.322077,0.284475,0.79741,-20.286668,-0.010544,-0.000854,1.031342,0.056904,-0.036445,-0.029847,79.600922,1.993393,-147.789581,,,
729860198.325392,0.284475,0.79741,-20.286668,-0.010544,-0.000854,1.031342,0.056904,-0.036445,-0.029847,79.600922,1.993393,-147.789581,,,
729860198.328752,0.297579,0.793106,-20.296854,-0.009705,0.002975,1.013809,0.045001,-0.009665,-0.036681,79.600922,1.993393,-147.789581,,,
729860198.332069,0.306591,0.793719,-20.307307,-0.009705,0.002975,1.013809,0.045001,-0.009665,-0.036681,79.600922,1.993393,-147.789581,,,
729860198.335399,0.306591,0.793719,-20.307307,-0.009705,0.002975,1.013809,0.045001,-0.009665,-0.036681,79.446243,2.000717,-147.430161,,,
729860198.338727,0.307554,0.799007,-20.317048,-0.010406,0.010223,0.984879,-0.003345,0.02488,-0.034855,79.446243,2.000717,-147.430161,,,
729860198.342076,0.301151,0.810694,-20.325533,-0.010406,0.010223,0.984879,-0.003345,0.02488,-0.034855,79.446243,2.000717,-147.430161,,,
729860198.345504,0.301151,0.810694,-20.325533,-0.010406,0.010223,0.984879,-0.003345,0.02488,-0.034855,79.446243,2.000717,-147.430161,,,
729860198.348739,0.287912,0.82531,-20.332524,-0.015686,0.013092,0.967468,-0.050963,0.056473,-0.026068,79.446243,2.000717,-147.430161,,,
729860198.352082,0.2677,0.846211,-20.337297,-0.015686,0.013092,0.967468,-0.050963,0.056473,-0.026068,79.446243,2.000717,-147.430161,,,
729860198.355402,0.2677,0.846211,-20.337297,-0.015686,0.013092,0.967468,-0.050963,0.056473,-0.026068,79.446243,2.000717,-147.430161,,,
729860198.358731,0.241776,0.867788,-20.338578,-0.026886,0.008972,0.969925,-0.092536,0.077679,-0.003792,79.446243,2.000717,-147.430161,,,
729860198.362077,0.212349,0.891521,-20.336672,-0.026886,0.008972,0.969925,-0.092536,0.077679,-0.003792,79.446243,2.000717,-147.430161,,,
729860198.365393,0.212349,0.891521,-20.336672,-0.026886,0.008972,0.969925,-0.092536,0.077679,-0.003792,79.446243,2.000717,-147.430161,,,
729860198.368726,0.18231,0.912473,-20.332338,-0.035828,0.003052,0.979797,-0.106835,0.076475,0.012407,79.446243,2.000717,-147.430161,,,
729860198.372067,0.15324,0.932197,-20.326804,-0.035828,0.003052,0.979797,-0.106835,0.076475,0.012407,79.446243,2.000717,-147.430161,,,
729860198.375401,0.15324,0.932197,-20.326804,-0.035828,0.003052,0.979797,-0.106835,0.076475,0.012407,79.632309,2.123825,-147.502319,,,
729860198.378733,0.127815,0.947641,-20.321437,-0.031296,-0.001373,1.001831,-0.08317,0.051908,0.017098,79.632309,2.123825,-147.502319,,,
729860198.382062,0.106693,0.958778,-20.317156,-0.031296,-0.001373,1.001831,-0.08317,0.051908,0.017098,79.632309,2.123825,-147.502319,,,
729860198.385391,0.106693,0.958778,-20.317156,-0.031296,-0.001373,1.001831,-0.08317,0.051908,0.017098,79.632309,2.123825,-147.502319,,,
729860198.388806,0.092004,0.965148,-20.314213,-0.025787,-0.001846,1.022385,-0.045683,0.019643,0.005896,79.632309,2.123825,-147.502319,,,
729860198.39208,0.083478,0.965542,-20.312966,-0.025787,-0.001846,1.022385,-0.045683,0.019643,0.005896,79.632309,2.123825,-147.502319,,,
729860198.3954,0.083478,0.965542,-20.312966,-0.025787,-0.001846,1.022385,-0.045683,0.019643,0.005896,79.632309,2.123825,-147.502319,,,
729860198.398733,0.082586,0.960296,-20.313641,-0.02356,-0.003647,1.030899,0.004272,-0.022307,-0.005382,79.632309,2.123825,-147.502319,,,
729860198.402113,0.089085,0.948359,-20.316102,-0.02356,-0.003647,1.030899,0.004272,-0.022307,-0.005382,79.632309,2.123825,-147.502319,,,
729860198.405473,0.089085,0.948359,-20.316102,-0.02356,-0.003647,1.030899,0.004272,-0.022307,-0.005382,79.632309,2.123825,-147.502319,,,
729860198.408843,0.102769,0.931505,-20.320009,-0.016815,-0.004471,1.034302,0.05496,-0.060286,-0.014067,79.632309,2.123825,-147.502319,,,
729860198.412061,0.123659,0.910008,-20.325322,-0.016815,-0.004471,1.034302,0.05496,-0.060286,-0.014067,79.632309,2.123825,-147.502319,,,
729860198.415406,0.123659,0.910008,-20.325322,-0.016815,-0.004471,1.034302,0.05496,-0.060286,-0.014067,79.612869,1.888809,-147.662827,,,
729860198.418822,0.150103,0.887445,-20.331683,-0.015884,-0.005814,1.034195,0.097473,-0.078922,-0.021313,79.612869,1.888809,-147.662827,,,
729860198.422063,0.182244,0.865809,-20.338521,-0.015884,-0.005814,1.034195,0.097473,-0.078922,-0.021313,79.612869,1.888809,-147.662827,,,
729860198.425404,0.182244,0.865809,-20.338521,-0.015884,-0.005814,1.034195,0.097473,-0.078922,-0.021313,79.612869,1.888809,-147.662827,,,
729860198.428747,0.216022,0.848061,-20.345347,-0.014114,-0.004425,1.036194,0.119841,-0.052934,-0.023485,79.612869,1.888809,-147.662827,,,
729860198.432142,0.250976,0.836831,-20.351405,-0.014114,-0.004425,1.036194,0.119841,-0.052934,-0.023485,79.612869,1.888809,-147.662827,,,
729860198.435389,0.250976,0.836831,-20.351405,-0.014114,-0.004425,1.036194,0.119841,-0.052934,-0.023485,79.612869,1.888809,-147.662827,,,
729860198.438737,0.284675,0.831507,-20.355726,-0.015472,-0.004166,1.029251,0.116414,-0.00961,-0.012749,79.612869,1.888809,-147.662827,,,
729860198.442065,0.317215,0.83564,-20.357272,-0.015472,-0.004166,1.029251,0.116414,-0.00961,-0.012749,79.612869,1.888809,-147.662827,,,
729860198.445399,0.317215,0.83564,-20.357272,-0.015472,-0.004166,1.029251,0.116414,-0.00961,-0.012749,79.612869,1.888809,-147.662827,,,
729860198.448734,0.348843,0.844217,-20.356011,-0.019745,-0.002274,1.021759,0.110648,0.037506,0.007756,79.612869,1.888809,-147.662827,,,
729860198.452176,0.379405,0.858699,-20.352503,-0.019745,-0.002274,1.021759,0.110648,0.037506,0.007756,79.612869,1.888809,-147.662827,,,
729860198.455395,0.379405,0.858699,-20.352503,-0.019745,-0.002274,1.021759,0.110648,0.037506,0.007756,79.612869,1.888809,-147.662827,,,
729860198.45874,0.410767,0.871744,-20.347577,-0.02121,-0.00174,1.014938,0.112123,0.049408,0.020474,79.484787,1.892883,-147.504913,,,
729860198.46221,0.442716,0.883836,-20.342614,-0.02121,-0.00174,1.014938,0.112123,0.049408,0.020474,79.484787,1.892883,-147.504913,,,
729860198.465389,0.442716,0.883836,-20.342614,-0.02121,-0.00174,1.014938,0.112123,0.049408,0.020474,79.484787,1.892883,-147.504913,,,
729860198.46876,0.477584,0.889827,-20.338704,-0.018738,0.002869,1.008865,0.122562,0.022337,0.011624,79.484787,1.892883,-147.504913,,,
729860198.472176,0.513144,0.890103,-20.336208,-0.018738,0.002869,1.008865,0.122562,0.022337,0.011624,79.484787,1.892883,-147.504913,,,
729860198.475493,0.513144,0.890103,-20.336208,-0.018738,0.002869,1.008865,0.122562,0.022337,0.011624,79.484787,1.892883,-147.504913,,,
729860198.478728,0.552121,0.881876,-20.335717,-0.01358,0.010773,0.995193,0.139453,-0.033017,-0.000756,79.484787,1.892883,-147.504913,,,
729860198.482074,0.592658,0.865215,-20.337584,-0.01358,0.010773,0.995193,0.139453,-0.033017,-0.000756,79.484787,1.892883,-147.504913,,,
729860198.485421,0.592658,0.865215,-20.337584,-0.01358,0.010773,0.995193,0.139453,-0.033017,-0.000756,79.484787,1.892883,-147.504913,,,
729860198.488729,0.639331,0.839972,-20.340939,-0.012054,0.010437,0.990143,0.169597,-0.092226,-0.011931,79.484787,1.892883,-147.504913,,,
729860198.492065,0.690413,0.808843,-20.344722,-0.012054,0.010437,0.990143,0.169597,-0.092226,-0.011931,79.484787,1.892883,-147.504913,,,
729860198.495395,0.690413,0.808843,-20.344722,-0.012054,0.010437,0.990143,0.169597,-0.092226,-0.011931,79.484787,1.892883,-147.504913,,,
729860198.4988,0.748154,0.77299,-20.348026,-0.014709,0.002426,1.011185,0.208967,-0.124548,-0.009978,79.410919,1.394714,-147.427277,,,
729860198.502152,0.80652,0.735363,-20.350611,-0.014709,0.002426,1.011185,0.208967,-0.124548,-0.009978,79.410919,1.394714,-147.427277,,,
729860198.505399,0.80652,0.735363,-20.350611,-0.014709,0.002426,1.011185,0.208967,-0.124548,-0.009978,79.410919,1.394714,-147.427277,,,
729860198.508791,0.867619,0.698884,-20.352229,-0.016312,0.001709,1.016342,0.214297,-0.124593,-0.001621,79.410919,1.394714,-147.427277,,,
729860198.512079,0.925509,0.665285,-20.352846,-0.016312,0.001709,1.016342,0.214297,-0.124593,-0.001621,79.410919,1.394714,-147.427277,,,
729860198.515405,0.925509,0.665285,-20.352846,-0.016312,0.001709,1.016342,0.214297,-0.124593,-0.001621,79.410919,1.394714,-147.427277,,,
729860198.518848,0.981512,0.636449,-20.352967,-0.012558,0.010056,1.000717,0.193078,-0.093054,0.001667,79.410919,1.394714,-147.427277,,,
729860198.52206,1.031019,0.615456,-20.353414,-0.012558,0.010056,1.000717,0.193078,-0.093054,0.001667,79.410919,1.394714,-147.427277,,,
729860198.525423,1.031019,0.615456,-20.353414,-0.012558,0.010056,1.000717,0.193078,-0.093054,0.001667,79.410919,1.394714,-147.427277,,,
729860198.528665,1.077819,0.601721,-20.354348,-0.002121,0.018616,0.989441,0.157903,-0.037507,-0.000148,79.410919,1.394714,-147.427277,,,
729860198.532137,1.117532,0.595559,-20.355168,-0.002121,0.018616,0.989441,0.157903,-0.037507,-0.000148,79.410919,1.394714,-147.427277,,,
729860198.535362,1.117532,0.595559,-20.355168,-0.002121,0.018616,0.989441,0.157903,-0.037507,-0.000148,79.410919,1.394714,-147.427277,,,
729860198.53863,1.155435,0.592294,-20.356596,-0.001038,0.019272,0.985916,0.128566,-0.007354,-0.005238,79.161972,1.316803,-147.246658,,,
729860198.542101,1.191227,0.591297,-20.35911,-0.001038,0.019272,0.985916,0.128566,-0.007354,-0.005238,79.161972,1.316803,-147.246658,,,
729860198.545428,1.191227,0.591297,-20.35911,-0.001038,0.019272,0.985916,0.128566,-0.007354,-0.005238,79.161972,1.316803,-147.246658,,,
729860198.548784,1.232546,0.587615,-20.362147,-0.003876,0.015396,0.994003,0.149772,-0.012684,-0.00895,79.161972,1.316803,-147.246658,,,
729860198.552138,1.278694,0.581517,-20.365009,-0.003876,0.015396,0.994003,0.149772,-0.012684,-0.00895,79.161972,1.316803,-147.246658,,,
729860198.555421,1.278694,0.581517,-20.365009,-0.003876,0.015396,0.994003,0.149772,-0.012684,-0.00895,79.161972,1.316803,-147.246658,,,
729860198.558869,1.333384,0.572659,-20.366834,-0.014587,0.008408,1.022522,0.196878,-0.030934,-0.00394,79.161972,1.316803,-147.246658,,,
729860198.562068,1.394798,0.56239,-20.366827,-0.014587,0.008408,1.022522,0.196878,-0.030934,-0.00394,79.161972,1.316803,-147.246658,,,
729860198.565401,1.394798,0.56239,-20.366827,-0.014587,0.008408,1.022522,0.196878,-0.030934,-0.00394,79.161972,1.316803,-147.246658,,,
729860198.568732,1.466735,0.5507,-20.364397,-0.023834,0.004242,1.043045,0.259192,-0.039524,0.012261,79.161972,1.316803,-147.246658,,,
729860198.572065,1.546603,0.538249,-20.359933,-0.023834,0.004242,1.043045,0.259192,-0.039524,0.012261,79.161972,1.316803,-147.246658,,,
729860198.575406,1.546603,0.538249,-20.359933,-0.023834,0.004242,1.043045,0.259192,-0.039524,0.012261,79.161972,1.316803,-147.246658,,,
729860198.578793,1.638977,0.523825,-20.353881,-0.026627,0.00148,1.053757,0.333069,-0.04963,0.02514,79.228912,0.57135,-147.001831,,,
729860198.5821,1.740353,0.507991,-20.34654,-0.026627,0.00148,1.053757,0.333069,-0.04963,0.02514,79.228912,0.57135,-147.001831,,,
729860198.585406,1.740353,0.507991,-20.34654,-0.026627,0.00148,1.053757,0.333069,-0.04963,0.02514,79.228912,0.57135,-147.001831,,,
729860198.588727,1.855524,0.488585,-20.338712,-0.025284,0.0065,1.056381,0.414215,-0.069027,0.030903,79.228912,0.57135,-147.001831,,,
729860198.592111,1.979717,0.466116,-20.330874,-0.025284,0.0065,1.056381,0.414215,-0.069027,0.030903,79.228912,0.57135,-147.001831,,,
729860198.59545,1.979717,0.466116,-20.330874,-0.025284,0.0065,1.056381,0.414215,-0.069027,0.030903,79.228912,0.57135,-147.001831,,,
729860198.598739,2.116272,0.438105,-20.322633,-0.020325,0.01062,1.053299,0.486944,-0.099525,0.034468,79.228912,0.57135,-147.001831,,,
729860198.602067,2.259417,0.40477,-20.31419,-0.020325,0.01062,1.053299,0.486944,-0.099525,0.034468,79.228912,0.57135,-147.001831,,,
729860198.605461,2.259417,0.40477,-20.31419,-0.020325,0.01062,1.053299,0.486944,-0.099525,0.034468,79.228912,0.57135,-147.001831,,,
729860198.608794,2.409056,0.367486,-20.306256,-0.017349,0.018585,1.039597,0.525827,-0.131883,0.030698,79.228912,0.57135,-147.001831,,,
729860198.612088,2.560867,0.326734,-20.298995,-0.017349,0.018585,1.039597,0.525827,-0.131883,0.030698,79.228912,0.57135,-147.001831,,,
729860198.615438,2.560867,0.326734,-20.298995,-0.017349,0.018585,1.039597,0.525827,-0.131883,0.030698,79.228912,0.57135,-147.001831,,,
729860198.618726,2.717145,0.284973,-20.29298,-0.00827,0.033096,1.020401,0.545137,-0.14403,0.020024,79.228912,0.57135,-147.001831,,,
729860198.622171,2.87464,0.243179,-20.288737,-0.00827,0.033096,1.020401,0.545137,-0.14403,0.020024,79.059006,-0.370972,-146.472137,,,
729860198.625411,2.87464,0.243179,-20.288737,-0.00827,0.033096,1.020401,0.545137,-0.14403,0.020024,79.059006,-0.370972,-146.472137,,,
729860198.628744,3.031073,0.201689,-20.286826,-0.001114,0.044159,1.010147,0.544719,-0.14204,0.005732,79.059006,-0.370972,-146.472137,,,
729860198.632152,3.18453,0.159866,-20.286833,-0.001114,0.044159,1.010147,0.544719,-0.14204,0.005732,79.059006,-0.370972,-146.472137,,,
729860198.63546,3.18453,0.159866,-20.286833,-0.001114,0.044159,1.010147,0.544719,-0.14204,0.005732,79.059006,-0.370972,-146.472137,,,
729860198.638731,3.334142,0.117722,-20.287474,0.001617,0.053391,0.992218,0.517485,-0.144963,-0.002913,79.059006,-0.370972,-146.472137,,,
729860198.642096,3.480775,0.076323,-20.287669,0.001617,0.053391,0.992218,0.517485,-0.144963,-0.002913,79.059006,-0.370972,-146.472137,,,
729860198.645413,3.480775,0.076323,-20.287669,0.001617,0.053391,0.992218,0.517485,-0.144963,-0.002913,79.059006,-0.370972,-146.472137,,,
729860198.648776,3.62706,0.036795,-20.28643,-0.003464,0.057266,0.985565,0.509935,-0.133641,0.004199,79.059006,-0.370972,-146.472137,,,
729860198.652099,3.775828,-0.000693,-20.282731,-0.003464,0.057266,0.985565,0.509935,-0.133641,0.004199,79.059006,-0.370972,-146.472137,,,
729860198.655421,3.775828,-0.000693,-20.282731,-0.003464,0.057266,0.985565,0.509935,-0.133641,0.004199,79.059006,-0.370972,-146.472137,,,
729860198.658746,3.930054,-0.035679,-20.275363,-0.015579,0.050781,1.014984,0.543465,-0.114915,0.028915,79.059006,-0.370972,-146.472137,,,
729860198.662178,4.09247,-0.06901,-20.264219,-0.015579,0.050781,1.014984,0.543465,-0.114915,0.028915,78.779724,-1.146576,-145.987534,,,
729860198.665396,4.09247,-0.06901,-20.264219,-0.015579,0.050781,1.014984,0.543465,-0.114915,0.028915,78.779724,-1.146576,-145.987534,,,
729860198.668744,4.265155,-0.102448,-20.249715,-0.022614,0.042786,1.053925,0.613356,-0.108897,0.050633,78.779724,-1.146576,-145.987534,,,
