Time (sec),Pitch (deg),Roll (deg),Yaw(deg),X-Acceleration (g),Y-Acceleration (g),Z-Acceleration (g),Pitch Rate (deg/sec),Roll Rate (deg/sec),Yaw Rate (deg/sec),Magnetic Field in X direction (uT),Magnetic Field in Y direction (uT),Magnetic Field in Z Direction (uT),Latitude (deg),Longitude (deg),Altitude (m)
729861712.973869,1.637429,-1.674128,120.739466,0.021347,0.034531,0.960098,-0.05692,0.152007,0.000723,63.041245,31.049713,-145.42984,,,
729861712.97722,1.616954,-1.634487,120.739554,0.016998,0.033203,0.955444,-0.05692,0.152007,0.000723,63.041245,31.049713,-145.42984,,,
729861712.980521,1.599371,-1.600551,120.739581,0.016998,0.033203,0.955444,-0.060142,0.128611,0.001176,63.041245,31.049713,-145.42984,,,
729861712.983849,1.599371,-1.600551,120.739581,0.016998,0.033203,0.955444,-0.060142,0.128611,0.001176,63.041245,31.049713,-145.42984,,,
729861712.987168,1.581471,-1.576589,120.739596,0.017639,0.031982,0.96521,-0.060142,0.128611,0.001176,63.742828,31.173798,-145.772156,,,
729861712.990541,1.567254,-1.555268,120.740286,0.017639,0.031982,0.96521,-0.055342,0.084007,9.3e-05,63.742828,31.173798,-145.772156,,,
729861712.993906,1.567254,-1.555268,120.740286,0.017639,0.031982,0.96521,-0.055342,0.084007,9.3e-05,63.742828,31.173798,-145.772156,,,
729861712.997159,1.555576,-1.545001,120.742301,0.014404,0.031036,0.976318,-0.055342,0.084007,9.3e-05,63.742828,31.173798,-145.772156,,,
729861713.000492,1.547601,-1.532058,120.745596,0.014404,0.031036,0.976318,-0.031042,0.051019,0.008147,63.742828,31.173798,-145.772156,,,
729861713.003827,1.547601,-1.532058,120.745596,0.014404,0.031036,0.976318,-0.031042,0.051019,0.008147,63.742828,31.173798,-145.772156,,,
729861713.007217,1.544008,-1.528438,120.751324,0.009323,0.029877,0.991379,-0.031042,0.051019,0.008147,63.742828,31.173798,-145.772156,,,
729861713.010477,1.543633,-1.519673,120.759741,0.009323,0.029877,0.991379,-0.003135,0.034743,0.02562,63.742828,31.173798,-145.772156,,,
729861713.013825,1.543633,-1.519673,120.759741,0.009323,0.029877,0.991379,-0.003135,0.034743,0.02562,63.742828,31.173798,-145.772156,,,
729861713.01716,1.547987,-1.518767,120.770941,0.006577,0.025604,1.011627,-0.003135,0.034743,0.02562,63.742828,31.173798,-145.772156,,,
729861713.020498,1.552966,-1.514923,120.784025,0.006577,0.025604,1.011627,0.01835,0.02069,0.045482,63.742828,31.173798,-145.772156,,,
729861713.023899,1.552966,-1.514923,120.784025,0.006577,0.025604,1.011627,0.01835,0.02069,0.045482,63.742828,31.173798,-145.772156,,,
729861713.027173,1.560764,-1.516407,120.797916,0.007828,0.023117,1.013824,0.01835,0.02069,0.045482,63.712952,31.113571,-145.596939,,,
729861713.030513,1.565373,-1.51824,120.810631,0.007828,0.023117,1.013824,0.02032,-0.001307,0.044502,63.712952,31.113571,-145.596939,,,
729861713.033821,1.565373,-1.51824,120.810631,0.007828,0.023117,1.013824,0.02032,-0.001307,0.044502,63.712952,31.113571,-145.596939,,,
729861713.037172,1.569378,-1.522431,120.821457,0.019318,0.029617,1.003433,0.02032,-0.001307,0.044502,63.712952,31.113571,-145.596939,,,
729861713.04054,1.568575,-1.528057,120.830319,0.019318,0.029617,1.003433,0.004172,-0.015868,0.032366,63.712952,31.113571,-145.596939,,,
729861713.043786,1.568575,-1.528057,120.830319,0.019318,0.029617,1.003433,0.004172,-0.015868,0.032366,63.712952,31.113571,-145.596939,,,
729861713.047172,1.56597,-1.532132,120.837226,0.030502,0.038483,0.991943,0.004172,-0.015868,0.032366,63.712952,31.113571,-145.596939,,,
729861713.050485,1.557751,-1.53824,120.84259,0.030502,0.038483,0.991943,-0.023712,-0.017513,0.020455,63.712952,31.113571,-145.596939,,,
729861713.053823,1.557751,-1.53824,120.84259,0.030502,0.038483,0.991943,-0.023712,-0.017513,0.020455,63.712952,31.113571,-145.596939,,,
729861713.057255,1.546499,-1.539741,120.846487,0.032867,0.040253,0.98941,-0.023712,-0.017513,0.020455,63.712952,31.113571,-145.596939,,,
729861713.060474,1.528878,-1.540125,120.848926,0.032867,0.040253,0.98941,-0.056851,-0.004473,0.009408,63.712952,31.113571,-145.596939,,,
729861713.063815,1.528878,-1.540125,120.848926,0.032867,0.040253,0.98941,-0.056851,-0.004473,0.009408,63.712952,31.113571,-145.596939,,,
729861713.067155,1.508308,-1.531901,120.849995,0.034897,0.039169,0.992188,-0.056851,-0.004473,0.009408,63.585144,31.172058,-145.667999,,,
729861713.070484,1.482092,-1.521812,120.850579,0.034897,0.039169,0.992188,-0.088458,0.035423,0.002883,63.585144,31.172058,-145.667999,,,
729861713.073867,1.482092,-1.521812,120.850579,0.034897,0.039169,0.992188,-0.088458,0.035423,0.002883,63.585144,31.172058,-145.667999,,,
729861713.077163,1.45415,-1.502816,120.850952,0.03598,0.03894,1.000778,-0.088458,0.035423,0.002883,63.585144,31.172058,-145.667999,,,
729861713.080485,1.424305,-1.487144,120.851332,0.03598,0.03894,1.000778,-0.107919,0.059027,0.004814,63.585144,31.172058,-145.667999,,,
729861713.083812,1.424305,-1.487144,120.851332,0.03598,0.03894,1.000778,-0.107919,0.059027,0.004814,63.585144,31.172058,-145.667999,,,
729861713.08717,1.396754,-1.465528,120.85157,0.031708,0.034882,1.006073,-0.107919,0.059027,0.004814,63.585144,31.172058,-145.667999,,,
729861713.090522,1.370428,-1.453294,120.851801,0.031708,0.034882,1.006073,-0.096341,0.05037,0.0019,63.585144,31.172058,-145.667999,,,
729861713.09387,1.370428,-1.453294,120.851801,0.031708,0.034882,1.006073,-0.096341,0.05037,0.0019,63.585144,31.172058,-145.667999,,,
729861713.097152,1.348556,-1.438411,120.851473,0.024994,0.027298,1.01503,-0.096341,0.05037,0.0019,63.585144,31.172058,-145.667999,,,
729861713.100486,1.332719,-1.435698,120.851376,0.024994,0.027298,1.01503,-0.061828,0.018334,-0.000519,63.585144,31.172058,-145.667999,,,
729861713.103821,1.332719,-1.435698,120.851376,0.024994,0.027298,1.01503,-0.061828,0.018334,-0.000519,63.585144,31.172058,-145.667999,,,
729861713.10719,1.323464,-1.435419,120.851617,0.019379,0.018661,1.023849,-0.061828,0.018334,-0.000519,63.542633,31.414673,-145.376282,,,
729861713.110482,1.320707,-1.448343,120.852222,0.019379,0.018661,1.023849,-0.012651,-0.034956,0.000828,63.542633,31.414673,-145.376282,,,
729861713.113823,1.320707,-1.448343,120.852222,0.019379,0.018661,1.023849,-0.012651,-0.034956,0.000828,63.542633,31.414673,-145.376282,,,
729861713.117162,1.326419,-1.469911,120.852945,0.015701,0.012573,1.03183,-0.012651,-0.034956,0.000828,63.542633,31.414673,-145.376282,,,
729861713.120484,1.335559,-1.500229,120.854773,0.015701,0.012573,1.03183,0.027595,-0.095567,0.003576,63.542633,31.414673,-145.376282,,,
729861713.123863,1.335559,-1.500229,120.854773,0.015701,0.012573,1.03183,0.027595,-0.095567,0.003576,63.542633,31.414673,-145.376282,,,
729861713.127147,1.353534,-1.539925,120.857867,0.013168,0.007034,1.033905,0.027595,-0.095567,0.003576,63.542633,31.414673,-145.376282,,,
729861713.130485,1.370733,-1.581548,120.860902,0.013168,0.007034,1.033905,0.057758,-0.140956,0.008415,63.542633,31.414673,-145.376282,,,
729861713.133912,1.370733,-1.581548,120.860902,0.013168,0.007034,1.033905,0.057758,-0.140956,0.008415,63.542633,31.414673,-145.376282,,,
729861713.137149,1.394589,-1.625824,120.863087,0.019241,0.010025,1.030777,0.057758,-0.140956,0.008415,63.542633,31.414673,-145.376282,,,
729861713.14053,1.415754,-1.664508,120.863484,0.019241,0.010025,1.030777,0.072497,-0.138393,-0.000993,63.542633,31.414673,-145.376282,,,
729861713.143816,1.415754,-1.664508,120.863484,0.019241,0.010025,1.030777,0.072497,-0.138393,-0.000993,63.542633,31.414673,-145.376282,,,
729861713.147189,1.440202,-1.698071,120.862273,0.031296,0.014999,1.029404,0.072497,-0.138393,-0.000993,63.542633,31.414673,-145.376282,,,
729861713.150478,1.460599,-1.719056,120.859937,0.031296,0.014999,1.029404,0.075165,-0.080619,-0.008526,63.749695,31.119522,-145.470398,,,
729861713.153838,1.460599,-1.719056,120.859937,0.031296,0.014999,1.029404,0.075165,-0.080619,-0.008526,63.749695,31.119522,-145.470398,,,
729861713.1572,1.482296,-1.728851,120.856977,0.0466,0.021454,1.035965,0.075165,-0.080619,-0.008526,63.749695,31.119522,-145.470398,,,
729861713.160473,1.501725,-1.723565,120.854306,0.0466,0.021454,1.035965,0.068228,0.007924,-0.012821,63.749695,31.119522,-145.470398,,,
729861713.163827,1.501725,-1.723565,120.854306,0.0466,0.021454,1.035965,0.068228,0.007924,-0.012821,63.749695,31.119522,-145.470398,,,
729861713.167159,1.522027,-1.704369,120.852418,0.050507,0.024521,1.03801,0.068228,0.007924,-0.012821,63.749695,31.119522,-145.470398,,,
729861713.170481,1.541651,-1.6737,120.851316,0.050507,0.024521,1.03801,0.067671,0.102766,-0.007937,63.749695,31.119522,-145.470398,,,
729861713.173892,1.541651,-1.6737,120.851316,0.050507,0.024521,1.03801,0.067671,0.102766,-0.007937,63.749695,31.119522,-145.470398,,,
729861713.176957,1.560201,-1.632765,120.85084,0.046997,0.022278,1.034851,0.067671,0.102766,-0.007937,63.749695,31.119522,-145.470398,,,
729861713.180501,1.578457,-1.589606,120.850466,0.046997,0.022278,1.034851,0.06661,0.153781,-0.001564,63.749695,31.119522,-145.470398,,,
729861713.183818,1.578457,-1.589606,120.850466,0.046997,0.022278,1.034851,0.06661,0.153781,-0.001564,63.749695,31.119522,-145.470398,,,
729861713.187234,1.594474,-1.546931,120.85024,0.038071,0.026306,1.019684,0.06661,0.153781,-0.001564,63.749695,31.119522,-145.470398,,,
729861713.190519,1.610991,-1.513272,120.850057,0.038071,0.026306,1.019684,0.059216,0.131269,-0.004136,63.638504,31.278763,-145.541718,,,
729861713.193821,1.610991,-1.513272,120.850057,0.038071,0.026306,1.019684,0.059216,0.131269,-0.004136,63.638504,31.278763,-145.541718,,,
729861713.197166,1.623965,-1.488986,120.848882,0.023453,0.031754,0.991806,0.059216,0.131269,-0.004136,63.638504,31.278763,-145.541718,,,
729861713.200486,1.638055,-1.483423,120.846709,0.023453,0.031754,0.991806,0.053528,0.036568,-0.008066,63.638504,31.278763,-145.541718,,,
729861713.203826,1.638055,-1.483423,120.846709,0.023453,0.031754,0.991806,0.053528,0.036568,-0.008066,63.638504,31.278763,-145.541718,,,
729861713.207207,1.646866,-1.492643,120.842786,0.012985,0.036133,0.964676,0.053528,0.036568,-0.008066,63.638504,31.278763,-145.541718,,,
729861713.21048,1.657028,-1.521229,120.837181,0.012985,0.036133,0.964676,0.036735,-0.082627,-0.021461,63.638504,31.278763,-145.541718,,,
729861713.213873,1.657028,-1.521229,120.837181,0.012985,0.036133,0.964676,0.036735,-0.082627,-0.021461,63.638504,31.278763,-145.541718,,,
729861713.217161,1.663278,-1.562498,120.830763,0.009155,0.037933,0.948349,0.036735,-0.082627,-0.021461,63.638504,31.278763,-145.541718,,,
729861713.22048,1.670053,-1.613651,120.824524,0.009155,0.037933,0.948349,0.025704,-0.172212,-0.024726,63.638504,31.278763,-145.541718,,,
729861713.223916,1.670053,-1.613651,120.824524,0.009155,0.037933,0.948349,0.025704,-0.172212,-0.024726,63.638504,31.278763,-145.541718,,,
729861713.227211,1.673334,-1.669946,120.819336,0.008575,0.035965,0.955978,0.025704,-0.172212,-0.024726,63.638504,31.278763,-145.541718,,,
729861713.230479,1.676923,-1.723776,120.816305,0.008575,0.035965,0.955978,0.012333,-0.188983,-0.014528,63.353409,31.241714,-145.71312,,,
729861713.233819,1.676923,-1.723776,120.816305,0.008575,0.035965,0.955978,0.012333,-0.188983,-0.014528,63.353409,31.241714,-145.71312,,,
729861713.237159,1.679831,-1.774958,120.815654,0.010971,0.026917,0.977036,0.012333,-0.188983,-0.014528,63.353409,31.241714,-145.71312,,,
729861713.240535,1.683733,-1.813508,120.816414,0.010971,0.026917,0.977036,0.013554,-0.141837,-0.000809,63.353409,31.241714,-145.71312,,,
729861713.243819,1.683733,-1.813508,120.816414,0.010971,0.026917,0.977036,0.013554,-0.141837,-0.000809,63.353409,31.241714,-145.71312,,,
729861713.247169,1.687612,-1.841386,120.818054,0.021576,0.019394,0.99968,0.013554,-0.141837,-0.000809,63.353409,31.241714,-145.71312,,,
729861713.250486,1.694481,-1.851277,120.819531,0.021576,0.019394,0.99968,0.021961,-0.045085,0.002669,63.353409,31.241714,-145.71312,,,
729861713.253884,1.694481,-1.851277,120.819531,0.021576,0.019394,0.99968,0.021961,-0.045085,0.002669,63.353409,31.241714,-145.71312,,,
729861713.25719,1.703172,-1.846949,120.820593,0.038391,0.022079,1.022293,0.021961,-0.045085,0.002669,63.353409,31.241714,-145.71312,,,
729861713.260477,1.714401,-1.825859,120.821263,0.038391,0.022079,1.022293,0.038997,0.065638,0.000797,63.353409,31.241714,-145.71312,,,
729861713.263837,1.714401,-1.825859,120.821263,0.038391,0.022079,1.022293,0.038997,0.065638,0.000797,63.353409,31.241714,-145.71312,,,
729861713.267153,1.726308,-1.79146,120.821999,0.046692,0.023087,1.02887,0.038997,0.065638,0.000797,63.353409,31.241714,-145.71312,,,
729861713.270506,1.737716,-1.745861,120.823163,0.046692,0.023087,1.02887,0.042847,0.154785,0.001881,63.393295,31.293045,-145.460022,,,
729861713.273983,1.737716,-1.745861,120.823163,0.046692,0.023087,1.02887,0.042847,0.154785,0.001881,63.393295,31.293045,-145.460022,,,
729861713.277192,1.747504,-1.691003,120.825047,0.038895,0.026459,1.01297,0.042847,0.154785,0.001881,63.393295,31.293045,-145.460022,,,
729861713.280481,1.753933,-1.635574,120.82821,0.038895,0.026459,1.01297,0.02655,0.200639,0.008035,63.393295,31.293045,-145.460022,,,
729861713.283833,1.753933,-1.635574,120.82821,0.038895,0.026459,1.01297,0.02655,0.200639,0.008035,63.393295,31.293045,-145.460022,,,
729861713.287164,1.75834,-1.580501,120.832482,0.027985,0.031204,0.988174,0.02655,0.200639,0.008035,63.393295,31.293045,-145.460022,,,
729861713.29052,1.758428,-1.53723,120.837333,0.027985,0.031204,0.988174,0.00353,0.165319,0.016211,63.393295,31.293045,-145.460022,,,
729861713.293829,1.758428,-1.53723,120.837333,0.027985,0.031204,0.988174,0.00353,0.165319,0.016211,63.393295,31.293045,-145.460022,,,
729861713.297162,1.756596,-1.505063,120.842265,0.012527,0.033432,0.953384,0.00353,0.165319,0.016211,63.393295,31.293045,-145.460022,,,
729861713.300479,1.751074,-1.491805,120.847028,0.012527,0.033432,0.953384,-0.015587,0.066097,0.016661,63.393295,31.293045,-145.460022,,,
729861713.303874,1.751074,-1.491805,120.847028,0.012527,0.033432,0.953384,-0.015587,0.066097,0.016661,63.393295,31.293045,-145.460022,,,
729861713.307183,1.742523,-1.493264,120.850937,0.002731,0.037018,0.929031,-0.015587,0.066097,0.016661,63.393295,31.293045,-145.460022,,,
729861713.310475,1.730545,-1.512258,120.853571,0.002731,0.037018,0.929031,-0.037472,-0.046215,0.011441,63.393295,31.293045,-145.460022,,,
729861713.313829,1.730545,-1.512258,120.853571,0.002731,0.037018,0.929031,-0.037472,-0.046215,0.011441,63.537201,31.326981,-145.601547,,,
729861713.317204,1.715381,-1.543029,120.854688,0.005539,0.040085,0.922134,-0.037472,-0.046215,0.011441,63.537201,31.326981,-145.601547,,,
729861713.320472,1.699101,-1.584777,120.854927,0.005539,0.040085,0.922134,-0.057092,-0.139067,0.000596,63.537201,31.326981,-145.601547,,,
729861713.32386,1.699101,-1.584777,120.854927,0.005539,0.040085,0.922134,-0.057092,-0.139067,0.000596,63.537201,31.326981,-145.601547,,,
729861713.327163,1.681272,-1.632005,120.854761,0.012939,0.038055,0.931915,-0.057092,-0.139067,0.000596,63.537201,31.326981,-145.601547,,,
729861713.330472,1.664003,-1.68006,120.854079,0.012939,0.038055,0.931915,-0.061474,-0.167799,-0.002061,63.537201,31.326981,-145.601547,,,
729861713.333814,1.664003,-1.68006,120.854079,0.012939,0.038055,0.931915,-0.061474,-0.167799,-0.002061,63.537201,31.326981,-145.601547,,,
729861713.337169,1.64638,-1.72541,120.853062,0.024796,0.031952,0.958725,-0.061474,-0.167799,-0.002061,63.537201,31.326981,-145.601547,,,
729861713.340516,1.630015,-1.760851,120.851684,0.024796,0.031952,0.958725,-0.056265,-0.129192,-0.005308,63.537201,31.326981,-145.601547,,,
729861713.343923,1.630015,-1.760851,120.851684,0.024796,0.031952,0.958725,-0.056265,-0.129192,-0.005308,63.537201,31.326981,-145.601547,,,
729861713.347151,1.613338,-1.786429,120.849901,0.034363,0.027771,0.990784,-0.056265,-0.129192,-0.005308,63.537201,31.326981,-145.601547,,,
729861713.35051,1.597399,-1.796855,120.848559,0.034363,0.027771,0.990784,-0.055944,-0.047851,-0.005162,63.537201,31.326981,-145.601547,,,
729861713.35382,1.597399,-1.796855,120.848559,0.034363,0.027771,0.990784,-0.055944,-0.047851,-0.005162,63.375778,31.238312,-145.697998,,,
729861713.357196,1.581544,-1.792737,120.847547,0.043198,0.026443,1.012589,-0.055944,-0.047851,-0.005162,63.375778,31.238312,-145.697998,,,
729861713.36055,1.56641,-1.773073,120.847118,0.043198,0.026443,1.012589,-0.053125,0.058656,0.000856,63.375778,31.238312,-145.697998,,,
729861713.36382,1.56641,-1.773073,120.847118,0.043198,0.026443,1.012589,-0.053125,0.058656,0.000856,63.375778,31.238312,-145.697998,,,
729861713.367211,1.553079,-1.739398,120.848318,0.045883,0.025497,1.01886,-0.053125,0.058656,0.000856,63.375778,31.238312,-145.697998,,,
729861713.370473,1.540359,-1.696613,120.851135,0.045883,0.025497,1.01886,-0.045541,0.148054,0.007395,63.375778,31.238312,-145.697998,,,
729861713.373865,1.540359,-1.696613,120.851135,0.045883,0.025497,1.01886,-0.045541,0.148054,0.007395,63.375778,31.238312,-145.697998,,,
729861713.377164,1.529987,-1.644829,120.855012,0.038757,0.021103,1.020874,-0.045541,0.148054,0.007395,63.375778,31.238312,-145.697998,,,
729861713.380566,1.520477,-1.594006,120.859886,0.038757,0.021103,1.020874,-0.034358,0.179783,0.016855,63.375778,31.238312,-145.697998,,,
729861713.383832,1.520477,-1.594006,120.859886,0.038757,0.021103,1.020874,-0.034358,0.179783,0.016855,63.375778,31.238312,-145.697998,,,
729861713.387156,1.513802,-1.542752,120.864766,0.032501,0.0224,1.012268,-0.034358,0.179783,0.016855,63.375778,31.238312,-145.697998,,,
729861713.390596,1.506852,-1.499742,120.868681,0.032501,0.0224,1.012268,-0.022881,0.160842,0.011466,63.375778,31.238312,-145.697998,,,
729861713.393809,1.506852,-1.499742,120.868681,0.032501,0.0224,1.012268,-0.022881,0.160842,0.011466,63.672729,31.335434,-145.496979,,,
729861713.397152,1.50167,-1.46185,120.871464,0.027435,0.024841,0.998474,-0.022881,0.160842,0.011466,63.672729,31.335434,-145.496979,,,
729861713.400487,1.494597,-1.435716,120.873187,0.027435,0.024841,0.998474,-0.021813,0.103943,0.005483,63.672729,31.335434,-145.496979,,,
729861713.403824,1.494597,-1.435716,120.873187,0.027435,0.024841,0.998474,-0.021813,0.103943,0.005483,63.672729,31.335434,-145.496979,,,
729861713.407255,1.487033,-1.419839,120.874029,0.021698,0.029556,0.985718,-0.021813,0.103943,0.005483,63.672729,31.335434,-145.496979,,,
729861713.410467,1.47678,-1.41541,120.874482,0.021698,0.029556,0.985718,-0.033463,0.027829,0.002183,63.672729,31.335434,-145.496979,,,
729861713.413842,1.47678,-1.41541,120.874482,0.021698,0.029556,0.985718,-0.033463,0.027829,0.002183,63.672729,31.335434,-145.496979,,,
729861713.417158,1.465969,-1.42125,120.8744,0.017776,0.031113,0.978394,-0.033463,0.027829,0.002183,63.672729,31.335434,-145.496979,,,
729861713.420483,1.454681,-1.435204,120.873236,0.017776,0.031113,0.978394,-0.040108,-0.037955,-0.006205,63.672729,31.335434,-145.496979,,,
729861713.423874,1.454681,-1.435204,120.873236,0.017776,0.031113,0.978394,-0.040108,-0.037955,-0.006205,63.672729,31.335434,-145.496979,,,
729861713.42716,1.443695,-1.457914,120.871024,0.019333,0.03157,0.987045,-0.040108,-0.037955,-0.006205,63.672729,31.335434,-145.496979,,,
729861713.430472,1.433278,-1.483239,120.867687,0.019333,0.03157,0.987045,-0.036086,-0.083669,-0.012061,63.672729,31.335434,-145.496979,,,
729861713.43391,1.433278,-1.483239,120.867687,0.019333,0.03157,0.987045,-0.036086,-0.083669,-0.012061,63.672729,31.335434,-145.496979,,,
729861713.437158,1.425072,-1.513893,120.863224,0.022507,0.029816,0.999115,-0.036086,-0.083669,-0.012061,63.532257,32.041473,-145.747086,,,
729861713.440564,1.41996,-1.540082,120.858289,0.022507,0.029816,0.999115,-0.020041,-0.093459,-0.017606,63.532257,32.041473,-145.747086,,,
729861713.443833,1.41996,-1.540082,120.858289,0.022507,0.029816,0.999115,-0.020041,-0.093459,-0.017606,63.532257,32.041473,-145.747086,,,
729861713.447171,1.418052,-1.563673,120.853564,0.02861,0.025452,1.014725,-0.020041,-0.093459,-0.017606,63.532257,32.041473,-145.747086,,,
729861713.450611,1.418052,-1.577658,120.849413,0.02861,0.025452,1.014725,0.0051,-0.052558,-0.01581,63.532257,32.041473,-145.747086,,,
729861713.45372,1.41926,-1.577658,120.849413,0.02861,0.025452,1.014725,0.0051,-0.052558,-0.01581,63.532257,32.041473,-145.747086,,,
729861713.457176,1.422734,-1.583685,120.847193,0.028305,0.022491,1.029251,0.0051,-0.052558,-0.01581,63.532257,32.041473,-145.747086,,,
729861713.460522,1.428483,-1.578004,120.847428,0.028305,0.022491,1.029251,0.016191,0.012213,-0.003009,63.532257,32.041473,-145.747086,,,
729861713.463817,1.428483,-1.578004,120.847428,0.028305,0.022491,1.029251,0.016191,0.012213,-0.003009,63.532257,32.041473,-145.747086,,,
729861713.467193,1.435701,-1.562316,120.850603,0.021271,0.01741,1.034348,0.016191,0.012213,-0.003009,63.532257,32.041473,-145.747086,,,
729861713.47048,1.435701,-1.562316,120.850603,0.021271,0.01741,1.034348,0.016191,0.012213,-0.003009,63.532257,32.041473,-145.747086,,,
729861713.473867,1.444931,-1.536931,120.856925,0.021271,0.01741,1.034348,0.03277,0.083682,0.017073,63.532257,32.041473,-145.747086,,,
729861713.477157,1.455765,-1.503492,120.865455,0.019043,0.01416,1.039398,0.03277,0.083682,0.017073,63.590652,31.636154,-145.518066,,,
729861713.480546,1.467092,-1.465454,120.874393,0.019043,0.01416,1.039398,0.041589,0.134088,0.028118,63.590652,31.636154,-145.518066,,,
729861713.483886,1.467092,-1.465454,120.874393,0.019043,0.01416,1.039398,0.041589,0.134088,0.028118,63.590652,31.636154,-145.518066,,,
729861713.487181,1.479668,-1.42421,120.882477,0.021591,0.019394,1.033707,0.041589,0.134088,0.028118,63.590652,31.636154,-145.518066,,,
729861713.490521,1.479668,-1.42421,120.882477,0.021591,0.019394,1.033707,0.041589,0.134088,0.028118,63.590652,31.636154,-145.518066,,,
729861713.493817,1.489991,-1.38679,120.88932,0.021591,0.019394,1.033707,0.039973,0.136686,0.024667,63.590652,31.636154,-145.518066,,,
729861713.497231,1.500596,-1.351284,120.894177,0.027405,0.029327,1.015823,0.039973,0.136686,0.024667,63.590652,31.636154,-145.518066,,,
729861713.500528,1.500596,-1.351284,120.894177,0.027405,0.029327,1.015823,0.039973,0.136686,0.024667,63.590652,31.636154,-145.518066,,,
729861713.503825,1.508269,-1.323926,120.896058,0.027405,0.029327,1.015823,0.029759,0.105374,0.007381,63.590652,31.636154,-145.518066,,,
729861713.507216,1.515591,-1.303344,120.895069,0.029617,0.038254,0.997513,0.029759,0.105374,0.007381,63.590652,31.636154,-145.518066,,,
729861713.510576,1.515591,-1.303344,120.895069,0.029617,0.038254,0.997513,0.029759,0.105374,0.007381,63.590652,31.636154,-145.518066,,,
729861713.513828,1.519895,-1.291593,120.892121,0.029617,0.038254,0.997513,0.016418,0.04761,-0.011579,63.590652,31.636154,-145.518066,,,
729861713.51715,1.522782,-1.29007,120.887693,0.024139,0.04306,0.98468,0.016418,0.04761,-0.011579,63.683563,31.578201,-145.563736,,,
729861713.520553,1.522782,-1.29007,120.887693,0.024139,0.04306,0.98468,0.016418,0.04761,-0.011579,63.683563,31.578201,-145.563736,,,
729861713.523864,1.523005,-1.296772,120.882573,0.024139,0.04306,0.98468,0.005505,-0.011517,-0.021371,63.683563,31.578201,-145.563736,,,
729861713.527144,1.521129,-1.313835,120.877357,0.017059,0.040176,0.973038,0.005505,-0.011517,-0.021371,63.683563,31.578201,-145.563736,,,
729861713.530538,1.521129,-1.313835,120.877357,0.017059,0.040176,0.973038,0.005505,-0.011517,-0.021371,63.683563,31.578201,-145.563736,,,
729861713.533896,1.518521,-1.335086,120.872868,0.017059,0.040176,0.973038,-0.008803,-0.067329,-0.019514,63.683563,31.578201,-145.563736,,,
729861713.537151,1.514047,-1.360337,120.869926,0.005981,0.035583,0.970627,-0.008803,-0.067329,-0.019514,63.683563,31.578201,-145.563736,,,
729861713.540576,1.514047,-1.360337,120.869926,0.005981,0.035583,0.970627,-0.011641,-0.088288,-0.009178,63.683563,31.578201,-145.563736,,,
729861713.543818,1.511071,-1.386347,120.868583,0.005981,0.035583,0.970627,-0.011641,-0.088288,-0.009178,63.683563,31.578201,-145.563736,,,
729861713.547153,1.505254,-1.410585,120.869264,0.004852,0.028595,0.980072,-0.011641,-0.088288,-0.009178,63.683563,31.578201,-145.563736,,,
729861713.55049,1.505254,-1.410585,120.869264,0.004852,0.028595,0.980072,-0.011641,-0.088288,-0.009178,63.683563,31.578201,-145.563736,,,
729861713.553821,1.502301,-1.435398,120.872182,0.004852,0.028595,0.980072,-0.011334,-0.085279,0.009025,63.683563,31.578201,-145.563736,,,
729861713.557198,1.497454,-1.455742,120.876452,0.00621,0.024597,0.988388,-0.011334,-0.085279,0.009025,63.433762,31.657684,-145.646271,,,
729861713.56052,1.497454,-1.455742,120.876452,0.00621,0.024597,0.988388,-0.011334,-0.085279,0.009025,63.433762,31.657684,-145.646271,,,
729861713.563827,1.495481,-1.472355,120.881558,0.00621,0.024597,0.988388,-0.00433,-0.0623,0.018576,63.433762,31.657684,-145.646271,,,
729861713.567156,1.494668,-1.481096,120.887009,0.013794,0.021561,0.999741,-0.00433,-0.0623,0.018576,63.433762,31.657684,-145.646271,,,
729861713.570567,1.494668,-1.481096,120.887009,0.013794,0.021561,0.999741,-0.00433,-0.0623,0.018576,63.433762,31.657684,-145.646271,,,
729861713.573854,1.496711,-1.482557,120.891847,0.013794,0.021561,0.999741,0.005195,-0.010105,0.015983,63.433762,31.657684,-145.646271,,,
729861713.577154,1.500691,-1.476637,120.895571,0.025024,0.021454,1.013885,0.005195,-0.010105,0.015983,63.433762,31.657684,-145.646271,,,
729861713.580528,1.500691,-1.476637,120.895571,0.025024,0.021454,1.013885,0.005195,-0.010105,0.015983,63.433762,31.657684,-145.646271,,,
729861713.58384,1.503506,-1.462264,120.89883,0.025024,0.021454,1.013885,0.010608,0.048034,0.009763,63.433762,31.657684,-145.646271,,,
729861713.587154,1.509708,-1.440935,120.902382,0.03006,0.024338,1.014633,0.010608,0.048034,0.009763,63.433762,31.657684,-145.646271,,,
729861713.590628,1.509708,-1.440935,120.902382,0.03006,0.024338,1.014633,0.010608,0.048034,0.009763,63.433762,31.657684,-145.646271,,,
729861713.593827,1.512323,-1.411503,120.907283,0.03006,0.024338,1.014633,0.008333,0.101409,0.014213,63.433762,31.657684,-145.646271,,,
729861713.597151,1.518709,-1.376217,120.91455,0.026352,0.025497,1.013992,0.008333,0.101409,0.014213,63.433762,31.657684,-145.646271,,,
729861713.600519,1.518709,-1.376217,120.91455,0.026352,0.025497,1.013992,0.008333,0.101409,0.014213,63.675201,31.546326,-145.56459,,,
729861713.603809,1.520948,-1.339147,120.92383,0.026352,0.025497,1.013992,0.010164,0.133848,0.030111,63.675201,31.546326,-145.56459,,,
729861713.6072,1.526559,-1.298726,120.934509,0.012802,0.019608,1.009033,0.010164,0.133848,0.030111,63.675201,31.546326,-145.56459,,,
729861713.610598,1.526559,-1.298726,120.934509,0.012802,0.019608,1.009033,0.010164,0.133848,0.030111,63.675201,31.546326,-145.56459,,,
729861713.613823,1.528528,-1.266097,120.946537,0.012802,0.019608,1.009033,0.009548,0.125693,0.039984,63.675201,31.546326,-145.56459,,,
729861713.617151,1.53087,-1.234282,120.959323,0.006485,0.021088,0.991959,0.009548,0.125693,0.039984,63.675201,31.546326,-145.56459,,,
729861713.620482,1.53087,-1.234282,120.959323,0.006485,0.021088,0.991959,0.009548,0.125693,0.039984,63.675201,31.546326,-145.56459,,,
729861713.623934,1.530309,-1.219034,120.973182,0.006485,0.021088,0.991959,0.001422,0.064722,0.047876,63.675201,31.546326,-145.56459,,,
729861713.627135,1.529244,-1.21001,120.986955,0.004959,0.024643,0.972839,0.001422,0.064722,0.047876,63.675201,31.546326,-145.56459,,,
729861713.630497,1.529244,-1.21001,120.986955,0.004959,0.024643,0.972839,0.001422,0.064722,0.047876,63.675201,31.546326,-145.56459,,,
729861713.633838,1.527742,-1.22054,121.000457,0.004959,0.024643,0.972839,-0.002018,-0.021597,0.047181,63.675201,31.546326,-145.56459,,,
729861713.637147,1.524725,-1.237626,121.013599,0.005386,0.026306,0.959656,-0.002018,-0.021597,0.047181,63.675201,31.546326,-145.56459,,,
729861713.640561,1.524725,-1.237626,121.013599,0.005386,0.026306,0.959656,-0.002018,-0.021597,0.047181,63.557922,31.631104,-145.511337,,,
729861713.643824,1.521565,-1.269568,121.026419,0.005386,0.026306,0.959656,-0.007246,-0.1037,0.044334,63.557922,31.631104,-145.511337,,,
729861713.64715,1.515317,-1.306504,121.038159,0.010345,0.026169,0.954407,-0.007246,-0.1037,0.044334,63.557922,31.631104,-145.511337,,,
729861713.65055,1.515317,-1.306504,121.038159,0.010345,0.026169,0.954407,-0.007246,-0.1037,0.044334,63.557922,31.631104,-145.511337,,,
729861713.653863,1.508253,-1.347728,121.048968,0.010345,0.026169,0.954407,-0.019314,-0.13983,0.037492,63.557922,31.631104,-145.511337,,,
729861713.657205,1.498626,-1.389509,121.059418,0.02359,0.028091,0.964447,-0.019314,-0.13983,0.037492,63.557922,31.631104,-145.511337,,,
729861713.660576,1.498626,-1.389509,121.059418,0.02359,0.028091,0.964447,-0.019314,-0.13983,0.037492,63.557922,31.631104,-145.511337,,,
729861713.663828,1.488335,-1.425663,121.06971,0.02359,0.028091,0.964447,-0.032126,-0.12822,0.034396,63.557922,31.631104,-145.511337,,,
729861713.667157,1.476389,-1.456046,121.079777,0.034454,0.025879,0.983643,-0.032126,-0.12822,0.034396,63.557922,31.631104,-145.511337,,,
729861713.670499,1.476389,-1.456046,121.079777,0.034454,0.025879,0.983643,-0.032126,-0.12822,0.034396,63.557922,31.631104,-145.511337,,,
729861713.673911,1.464126,-1.475339,121.089293,0.034454,0.025879,0.983643,-0.038619,-0.074145,0.035279,63.557922,31.631104,-145.511337,,,
729861713.677147,1.450957,-1.481669,121.098727,0.043839,0.023392,1.002304,-0.038619,-0.074145,0.035279,63.557922,31.631104,-145.511337,,,
729861713.680486,1.450957,-1.481669,121.098727,0.043839,0.023392,1.002304,-0.038619,-0.074145,0.035279,63.685089,31.561829,-145.700134,,,
729861713.68384,1.438495,-1.477054,121.107539,0.043839,0.023392,1.002304,-0.042126,0.009756,0.032863,63.685089,31.561829,-145.700134,,,
729861713.68715,1.425453,-1.453867,121.114708,0.054733,0.023468,1.016495,-0.042126,0.009756,0.032863,63.685089,31.561829,-145.700134,,,
729861713.690506,1.425453,-1.453867,121.114708,0.054733,0.023468,1.016495,-0.042126,0.009756,0.032863,63.685089,31.561829,-145.700134,,,
729861713.693837,1.414666,-1.425673,121.121284,0.054733,0.023468,1.016495,-0.037057,0.093127,0.02218,63.685089,31.561829,-145.700134,,,
729861713.697151,1.403842,-1.38198,121.126797,0.058136,0.023529,1.020767,-0.037057,0.093127,0.02218,63.685089,31.561829,-145.700134,,,
729861713.700481,1.403842,-1.38198,121.126797,0.058136,0.023529,1.020767,-0.037057,0.093127,0.02218,63.685089,31.561829,-145.700134,,,
729861713.703822,1.394097,-1.340197,121.130886,0.058136,0.023529,1.020767,-0.033589,0.147771,0.016253,63.685089,31.561829,-145.700134,,,
729861713.707268,1.386096,-1.291201,121.133009,0.054306,0.023743,1.01236,-0.033589,0.147771,0.016253,63.685089,31.561829,-145.700134,,,
729861713.710489,1.386096,-1.291201,121.133009,0.054306,0.023743,1.01236,-0.033589,0.147771,0.016253,63.685089,31.561829,-145.700134,,,
729861713.713866,1.378604,-1.251577,121.13369,0.054306,0.023743,1.01236,-0.025968,0.147325,0.005589,63.685089,31.561829,-145.700134,,,
729861713.717148,1.373429,-1.213253,121.133152,0.047607,0.026154,0.995987,-0.025968,0.147325,0.005589,63.685089,31.561829,-145.700134,,,
729861713.720538,1.373429,-1.213253,121.133152,0.047607,0.026154,0.995987,-0.025968,0.147325,0.005589,63.925842,31.744125,-145.647247,,,
729861713.723891,1.368694,-1.1908,121.131385,0.047607,0.026154,0.995987,-0.015907,0.090798,-0.004301,63.925842,31.744125,-145.647247,,,
729861713.727146,1.365763,-1.177455,121.128388,0.03334,0.032669,0.979446,-0.015907,0.090798,-0.004301,63.925842,31.744125,-145.647247,,,
729861713.730486,1.365763,-1.177455,121.128388,0.03334,0.032669,0.979446,-0.015907,0.090798,-0.004301,63.925842,31.744125,-145.647247,,,
729861713.733841,1.362414,-1.177337,121.124458,0.03334,0.032669,0.979446,-0.00977,0.011694,-0.015458,63.925842,31.744125,-145.647247,,,
729861713.73715,1.360009,-1.190555,121.120682,0.024231,0.035568,0.969238,-0.00977,0.011694,-0.015458,63.925842,31.744125,-145.647247,,,
729861713.740551,1.360009,-1.190555,121.120682,0.024231,0.035568,0.969238,-0.00977,0.011694,-0.015458,63.925842,31.744125,-145.647247,,,
729861713.743854,1.355717,-1.209205,121.118566,0.024231,0.035568,0.969238,-0.014957,-0.05574,-0.010574,63.925842,31.744125,-145.647247,,,
729861713.747147,1.351076,-1.238718,121.118404,0.013824,0.034225,0.965195,-0.014957,-0.05574,-0.010574,63.925842,31.744125,-145.647247,,,
729861713.750561,1.351076,-1.238718,121.118404,0.013824,0.034225,0.965195,-0.014957,-0.05574,-0.010574,63.925842,31.744125,-145.647247,,,
729861713.753834,1.346067,-1.264684,121.119999,0.013824,0.034225,0.965195,-0.017719,-0.08709,0.001953,63.925842,31.744125,-145.647247,,,
729861713.757194,1.340907,-1.296833,121.123882,0.013519,0.030365,0.974121,-0.017719,-0.08709,0.001953,63.925842,31.744125,-145.647247,,,
729861713.760488,1.340907,-1.296833,121.123882,0.013519,0.030365,0.974121,-0.017719,-0.08709,0.001953,63.925842,31.744125,-145.647247,,,
729861713.763889,1.334488,-1.318122,121.129503,0.013519,0.030365,0.974121,-0.020921,-0.076287,0.020055,63.605286,31.669449,-145.70871,,,
729861713.767136,1.326935,-1.341703,121.137134,0.020218,0.028976,0.986969,-0.020921,-0.076287,0.020055,63.605286,31.669449,-145.70871,,,
729861713.770496,1.326935,-1.341703,121.137134,0.020218,0.028976,0.986969,-0.020921,-0.076287,0.020055,63.605286,31.669449,-145.70871,,,
729861713.773903,1.319147,-1.349575,121.146546,0.020218,0.028976,0.986969,-0.024133,-0.031529,0.029453,63.605286,31.669449,-145.70871,,,
729861713.777208,1.311036,-1.357514,121.158621,0.027176,0.030991,0.993912,-0.024133,-0.031529,0.029453,63.605286,31.669449,-145.70871,,,
729861713.7805,1.311036,-1.357514,121.158621,0.027176,0.030991,0.993912,-0.024133,-0.031529,0.029453,63.605286,31.669449,-145.70871,,,
729861713.783822,1.303086,-1.346751,121.173236,0.027176,0.030991,0.993912,-0.030046,0.032178,0.047081,63.605286,31.669449,-145.70871,,,
729861713.787149,1.295923,-1.335214,121.191785,0.025833,0.027618,1.002899,-0.030046,0.032178,0.047081,63.605286,31.669449,-145.70871,,,
729861713.790563,1.295923,-1.335214,121.191785,0.025833,0.027618,1.002899,-0.030046,0.032178,0.047081,63.605286,31.669449,-145.70871,,,
729861713.793809,1.288476,-1.304106,121.215064,0.025833,0.027618,1.002899,-0.021664,0.104182,0.075432,63.605286,31.669449,-145.70871,,,
729861713.797149,1.283099,-1.273396,121.242883,0.015259,0.019852,1.011749,-0.021664,0.104182,0.075432,63.605286,31.669449,-145.70871,,,
729861713.800615,1.283099,-1.273396,121.242883,0.015259,0.019852,1.011749,-0.021664,0.104182,0.075432,63.605286,31.669449,-145.70871,,,
729861713.803868,1.276935,-1.230579,121.274265,0.015259,0.019852,1.011749,-0.017123,0.153107,0.107166,63.903534,31.630386,-145.533127,,,
729861713.807128,1.275713,-1.189435,121.309033,0.004013,0.014236,1.004852,-0.017123,0.153107,0.107166,63.903534,31.630386,-145.533127,,,
729861713.8105,1.275713,-1.189435,121.309033,0.004013,0.014236,1.004852,-0.017123,0.153107,0.107166,63.903534,31.630386,-145.533127,,,
729861713.813825,1.272793,-1.144994,121.34622,0.004013,0.014236,1.004852,-0.008031,0.16292,0.125947,63.903534,31.630386,-145.533127,,,
729861713.817153,1.274521,-1.103281,121.38554,-0.00174,0.012711,0.999344,-0.008031,0.16292,0.125947,63.903534,31.630386,-145.533127,,,
729861713.820567,1.274521,-1.103281,121.38554,-0.00174,0.012711,0.999344,-0.008031,0.16292,0.125947,63.903534,31.630386,-145.533127,,,
729861713.823868,1.272208,-1.066389,121.426907,-0.00174,0.012711,0.999344,-0.003628,0.13983,0.143229,63.903534,31.630386,-145.533127,,,
729861713.827143,1.271193,-1.033514,121.470584,-0.011719,0.010681,0.997055,-0.003628,0.13983,0.143229,63.903534,31.630386,-145.533127,,,
729861713.830551,1.271193,-1.033514,121.470584,-0.011719,0.010681,0.997055,-0.003628,0.13983,0.143229,63.903534,31.630386,-145.533127,,,
729861713.833807,1.265032,-1.010372,121.516392,-0.011719,0.010681,0.997055,-0.015405,0.096536,0.1544,63.903534,31.630386,-145.533127,,,
729861713.837145,1.259877,-0.996724,121.563126,-0.018234,0.009232,0.992554,-0.015405,0.096536,0.1544,63.903534,31.630386,-145.533127,,,
729861713.840528,1.259877,-0.996724,121.563126,-0.018234,0.009232,0.992554,-0.015405,0.096536,0.1544,63.903534,31.630386,-145.533127,,,
729861713.843808,1.254358,-0.994708,121.609397,-0.018234,0.009232,0.992554,-0.017304,0.023505,0.162273,64.278976,31.806625,-145.55687,,,
729861713.847146,1.252869,-1.00655,121.6539,-0.016052,0.010544,0.997498,-0.017304,0.023505,0.162273,64.278976,31.806625,-145.55687,,,
729861713.850491,1.252869,-1.00655,121.6539,-0.016052,0.010544,0.997498,-0.017304,0.023505,0.162273,64.278976,31.806625,-145.55687,,,
729861713.853834,1.252686,-1.02784,121.695693,-0.016052,0.010544,0.997498,0.000261,-0.058002,0.147083,64.278976,31.806625,-145.55687,,,
729861713.857181,1.257456,-1.062573,121.734496,-0.007004,0.016037,1.003723,0.000261,-0.058002,0.147083,64.278976,31.806625,-145.55687,,,
729861713.860475,1.257456,-1.062573,121.734496,-0.007004,0.016037,1.003723,0.000261,-0.058002,0.147083,64.278976,31.806625,-145.55687,,,
729861713.863826,1.262062,-1.100116,121.770497,-0.007004,0.016037,1.003723,0.015761,-0.121943,0.125723,64.278976,31.806625,-145.55687,,,
729861713.867153,1.267107,-1.142888,121.804763,0.00148,0.016693,1.005264,0.015761,-0.121943,0.125723,64.278976,31.806625,-145.55687,,,
729861713.870479,1.267107,-1.142888,121.804763,0.00148,0.016693,1.005264,0.015761,-0.121943,0.125723,64.278976,31.806625,-145.55687,,,
729861713.873855,1.269099,-1.183992,121.838722,0.00148,0.016693,1.005264,0.014706,-0.140195,0.115609,64.278976,31.806625,-145.55687,,,
729861713.877141,1.267065,-1.216908,121.873631,0.004349,0.01712,1.003067,0.014706,-0.140195,0.115609,64.278976,31.806625,-145.55687,,,
729861713.880497,1.267065,-1.216908,121.873631,0.004349,0.01712,1.003067,0.014706,-0.140195,0.115609,64.278976,31.806625,-145.55687,,,
729861713.883848,1.263968,-1.248102,121.910355,0.004349,0.01712,1.003067,-0.006812,-0.110689,0.125042,64.278976,31.806625,-145.55687,,,
729861713.887189,1.255937,-1.263365,121.948873,0.00293,0.013474,1.003494,-0.006812,-0.110689,0.125042,63.777618,32.068878,-145.855652,,,
729861713.890577,1.255937,-1.263365,121.948873,0.00293,0.013474,1.003494,-0.006812,-0.110689,0.125042,63.777618,32.068878,-145.855652,,,
729861713.893918,1.248729,-1.276864,121.989523,0.00293,0.013474,1.003494,-0.021085,-0.047796,0.139667,63.777618,32.068878,-145.855652,,,
729861713.897151,1.239279,-1.269703,122.031812,0.004196,0.008575,1.015442,-0.021085,-0.047796,0.139667,63.777618,32.068878,-145.855652,,,
729861713.900514,1.239279,-1.269703,122.031812,0.004196,0.008575,1.015442,-0.021085,-0.047796,0.139667,63.777618,32.068878,-145.855652,,,
729861713.903892,1.230684,-1.263597,122.075492,0.004196,0.008575,1.015442,-0.02114,0.018488,0.148343,63.777618,32.068878,-145.855652,,,
729861713.907199,1.21703,-1.234977,122.118974,0.014694,0.009598,1.031097,-0.02114,0.018488,0.148343,63.777618,32.068878,-145.855652,,,
729861713.910499,1.21703,-1.234977,122.118974,0.014694,0.009598,1.031097,-0.02114,0.018488,0.148343,63.777618,32.068878,-145.855652,,,
729861713.913838,1.207347,-1.214096,122.162054,0.014694,0.009598,1.031097,-0.036127,0.072492,0.150921,63.777618,32.068878,-145.855652,,,
729861713.917153,1.200153,-1.171447,122.204593,0.021347,0.012283,1.026352,-0.036127,0.072492,0.150921,63.777618,32.068878,-145.855652,,,
729861713.92056,1.200153,-1.171447,122.204593,0.021347,0.012283,1.026352,-0.036127,0.072492,0.150921,63.777618,32.068878,-145.855652,,,
729861713.923958,1.202641,-1.139153,122.24839,0.021347,0.012283,1.026352,0.006722,0.117268,0.148387,63.777618,32.068878,-145.855652,,,
729861713.927142,1.209517,-1.090065,122.292846,0.021942,0.011322,1.041702,0.006722,0.117268,0.148387,64.020737,32.085907,-145.565491,,,
729861713.930521,1.209517,-1.090065,122.292846,0.021942,0.011322,1.041702,0.006722,0.117268,0.148387,64.020737,32.085907,-145.565491,,,
729861713.93394,1.224296,-1.051077,122.339348,0.021942,0.011322,1.041702,0.050318,0.138858,0.160402,64.020737,32.085907,-145.565491,,,
729861713.937192,1.242725,-1.002601,122.388776,0.014832,0.001007,1.039215,0.050318,0.138858,0.160402,64.020737,32.085907,-145.565491,,,
729861713.940595,1.242725,-1.002601,122.388776,0.014832,0.001007,1.039215,0.050318,0.138858,0.160402,64.020737,32.085907,-145.565491,,,
729861713.943835,1.266573,-0.95895,122.441386,0.014832,0.001007,1.039215,0.082993,0.156229,0.176659,64.020737,32.085907,-145.565491,,,
729861713.947152,1.294597,-0.911994,122.495919,0.005264,-0.001175,1.033722,0.082993,0.156229,0.176659,64.020737,32.085907,-145.565491,,,
729861713.950503,1.294597,-0.911994,122.495919,0.005264,-0.001175,1.033722,0.082993,0.156229,0.176659,64.020737,32.085907,-145.565491,,,
729861713.953831,1.328907,-0.871695,122.552646,0.005264,-0.001175,1.033722,0.119603,0.151916,0.194207,64.020737,32.085907,-145.565491,,,
729861713.957195,1.368001,-0.833801,122.609684,0.001663,0.003159,1.02832,0.119603,0.151916,0.194207,64.020737,32.085907,-145.565491,,,
729861713.960579,1.368001,-0.833801,122.609684,0.001663,0.003159,1.02832,0.119603,0.151916,0.194207,64.020737,32.085907,-145.565491,,,
729861713.963836,1.413697,-0.805721,122.664947,0.001663,0.003159,1.02832,0.157499,0.111451,0.192175,64.020737,32.085907,-145.565491,,,
729861713.967158,1.461353,-0.782153,122.717952,0.008865,0.009491,1.019272,0.157499,0.111451,0.192175,64.625275,31.987274,-145.838577,,,
729861713.970501,1.461353,-0.782153,122.717952,0.008865,0.009491,1.019272,0.157499,0.111451,0.192175,64.625275,31.987274,-145.838577,,,
729861713.973931,1.514572,-0.768956,122.768601,0.008865,0.009491,1.019272,0.184155,0.061165,0.173463,64.625275,31.987274,-145.838577,,,
729861713.977136,1.567087,-0.760737,122.816657,0.017868,0.018524,1.008682,0.184155,0.061165,0.173463,64.625275,31.987274,-145.838577,,,
729861713.980489,1.567087,-0.760737,122.816657,0.017868,0.018524,1.008682,0.184155,0.061165,0.173463,64.625275,31.987274,-145.838577,,,
729861713.983821,1.624944,-0.75839,122.862923,0.017868,0.018524,1.008682,0.202743,0.016447,0.156258,64.625275,31.987274,-145.838577,,,
729861713.987151,1.684643,-0.758232,122.908454,0.021011,0.022964,1.004654,0.202743,0.016447,0.156258,64.625275,31.987274,-145.838577,,,
729861713.99053,1.684643,-0.758232,122.908454,0.021011,0.022964,1.004654,0.202743,0.016447,0.156258,64.625275,31.987274,-145.838577,,,
729861713.993816,1.752938,-0.754994,122.953994,0.021011,0.022964,1.004654,0.232397,0.015537,0.154487,64.625275,31.987274,-145.838577,,,
729861713.997185,1.824655,-0.748471,123.000215,0.021408,0.01593,1.02774,0.232397,0.015537,0.154487,64.625275,31.987274,-145.838577,,,
729861714.000524,1.824655,-0.748471,123.000215,0.021408,0.01593,1.02774,0.232397,0.015537,0.154487,64.625275,31.987274,-145.838577,,,
729861714.003839,1.903282,-0.732936,123.046837,0.021408,0.01593,1.02774,0.273079,0.055422,0.158234,64.625275,31.987274,-145.838577,,,
729861714.007217,1.983134,-0.709758,123.094434,0.025253,0.01506,1.048584,0.273079,0.055422,0.158234,64.747726,31.722229,-145.699753,,,
729861714.010555,1.983134,-0.709758,123.094434,0.025253,0.01506,1.048584,0.273079,0.055422,0.158234,64.747726,31.722229,-145.699753,,,
729861714.013834,2.069821,-0.67726,123.143524,0.025253,0.01506,1.048584,0.299586,0.115652,0.164712,64.747726,31.722229,-145.699753,,,
729861714.017153,2.158612,-0.637427,123.194434,0.024323,0.018265,1.052795,0.299586,0.115652,0.164712,64.747726,31.722229,-145.699753,,,
729861714.020494,2.158612,-0.637427,123.194434,0.024323,0.018265,1.052795,0.299586,0.115652,0.164712,64.747726,31.722229,-145.699753,,,
729861714.023619,2.256563,-0.591347,123.24716,0.024323,0.018265,1.052795,0.339316,0.165312,0.176056,64.747726,31.722229,-145.699753,,,
729861714.027205,2.357794,-0.539877,123.3009,0.018402,0.018692,1.054443,0.339316,0.165312,0.176056,64.747726,31.722229,-145.699753,,,
729861714.030492,2.357794,-0.539877,123.3009,0.018402,0.018692,1.054443,0.339316,0.165312,0.176056,64.747726,31.722229,-145.699753,,,
729861714.033905,2.468382,-0.484361,123.354731,0.018402,0.018692,1.054443,0.382746,0.200478,0.181919,64.747726,31.722229,-145.699753,,,
729861714.037145,2.586019,-0.42268,123.408842,0.019714,0.023911,1.053101,0.382746,0.200478,0.181919,64.747726,31.722229,-145.699753,,,
729861714.040541,2.586019,-0.42268,123.408842,0.019714,0.023911,1.053101,0.382746,0.200478,0.181919,64.747726,31.722229,-145.699753,,,
729861714.043831,2.710448,-0.354635,123.464653,0.019714,0.023911,1.053101,0.427048,0.242135,0.187822,64.747726,31.722229,-145.699753,,,
729861714.047154,2.843067,-0.280783,123.523199,0.014847,0.026138,1.062119,0.427048,0.242135,0.187822,64.747726,31.722229,-145.699753,,,
729861714.050509,2.843067,-0.280783,123.523199,0.014847,0.026138,1.062119,0.427048,0.242135,0.187822,64.92067,30.986557,-146.053543,,,
729861714.053838,2.986585,-0.203418,123.584568,0.014847,0.026138,1.062119,0.488503,0.281541,0.20671,64.92067,30.986557,-146.053543,,,
729861714.057193,3.144259,-0.125603,123.64811,0.00177,0.016159,1.08522,0.488503,0.281541,0.20671,64.92067,30.986557,-146.053543,,,
729861714.060553,3.144259,-0.125603,123.64811,0.00177,0.016159,1.08522,0.488503,0.281541,0.20671,64.92067,30.986557,-146.053543,,,
729861714.063823,3.31906,-0.049138,123.71232,0.00177,0.016159,1.08522,0.59273,0.285095,0.220236,64.92067,30.986557,-146.053543,,,
729861714.067153,3.512534,0.025157,123.774329,0.004395,0.010635,1.108444,0.59273,0.285095,0.220236,64.92067,30.986557,-146.053543,,,
729861714.070508,3.512534,0.025157,123.774329,0.004395,0.010635,1.108444,0.59273,0.285095,0.220236,64.92067,30.986557,-146.053543,,,
729861714.073895,3.723352,0.096458,123.832008,0.004395,0.010635,1.108444,0.720906,0.268271,0.205353,64.92067,30.986557,-146.053543,,,
729861714.077152,3.948493,0.164298,123.884632,0.015274,0.022919,1.126282,0.720906,0.268271,0.205353,64.92067,30.986557,-146.053543,,,
729861714.080498,3.948493,0.164298,123.884632,0.015274,0.022919,1.126282,0.720906,0.268271,0.205353,64.92067,30.986557,-146.053543,,,
729861714.083825,4.184827,0.230467,123.933346,0.015274,0.022919,1.126282,0.815785,0.245012,0.172037,64.92067,30.986557,-146.053543,,,
729861714.087152,4.428545,0.297829,123.981098,0.017166,0.041122,1.10701,0.815785,0.245012,0.172037,64.92067,30.986557,-146.053543,,,
729861714.090536,4.428545,0.297829,123.981098,0.017166,0.041122,1.10701,0.815785,0.245012,0.172037,65.657257,29.474945,-146.618042,,,
729861714.093825,4.677436,0.371053,124.031198,0.017166,0.041122,1.10701,0.861311,0.262737,0.173267,65.657257,29.474945,-146.618042,,,
729861714.097158,4.934156,0.455421,124.086661,-0.002823,0.049271,1.082626,0.861311,0.262737,0.173267,65.657257,29.474945,-146.618042,,,
729861714.100563,4.934156,0.455421,124.086661,-0.002823,0.049271,1.082626,0.861311,0.262737,0.173267,65.657257,29.474945,-146.618042,,,
729861714.103819,5.203308,0.553694,124.149285,-0.002823,0.049271,1.082626,0.923721,0.351087,0.216658,65.657257,29.474945,-146.618042,,,
729861714.107199,5.488323,0.66498,124.219413,-0.026459,0.03894,1.11026,0.923721,0.351087,0.216658,65.657257,29.474945,-146.618042,,,
729861714.110488,5.488323,0.66498,124.219413,-0.026459,0.03894,1.11026,0.923721,0.351087,0.216658,65.657257,29.474945,-146.618042,,,
729861714.113817,5.790524,0.786616,124.295808,-0.026459,0.03894,1.11026,1.035508,0.446952,0.271289,65.657257,29.474945,-146.618042,,,
729861714.117146,6.109526,0.913212,124.376444,-0.034409,0.033646,1.152267,1.035508,0.446952,0.271289,65.657257,29.474945,-146.618042,,,
729861714.120485,6.109526,0.913212,124.376444,-0.034409,0.033646,1.152267,1.035508,0.446952,0.271289,65.657257,29.474945,-146.618042,,,
729861714.123865,6.44475,1.0381,124.457654,-0.034409,0.033646,1.152267,1.149701,0.474209,0.299491,65.657257,29.474945,-146.618042,,,
729861714.12724,6.793425,1.154014,124.535296,-0.027756,0.04335,1.141235,1.149701,0.474209,0.299491,65.657257,29.474945,-146.618042,,,
729861714.130485,6.793425,1.154014,124.535296,-0.027756,0.04335,1.141235,1.149701,0.474209,0.299491,66.593231,27.603226,-147.282761,,,
729861714.133815,7.150113,1.253825,124.607171,-0.027756,0.04335,1.141235,1.234839,0.400339,0.277501,66.593231,27.603226,-147.282761,,,
729861714.137146,7.509804,1.333087,124.672232,-0.019989,0.075165,1.089752,1.234839,0.400339,0.277501,66.593231,27.603226,-147.282761,,,
729861714.140597,7.509804,1.333087,124.672232,-0.019989,0.075165,1.089752,1.234839,0.400339,0.277501,66.593231,27.603226,-147.282761,,,
729861714.14382,7.868529,1.390281,124.729942,-0.019989,0.075165,1.089752,1.245298,0.248616,0.232147,66.593231,27.603226,-147.282761,,,
729861714.147148,8.225875,1.426872,124.781012,-0.021347,0.109619,1.018188,1.245298,0.248616,0.232147,66.593231,27.603226,-147.282761,,,
729861714.150498,8.225875,1.426872,124.781012,-0.021347,0.109619,1.018188,1.245298,0.248616,0.232147,66.593231,27.603226,-147.282761,,,
729861714.153813,8.584442,1.446029,124.82662,-0.021347,0.109619,1.018188,1.241974,0.10414,0.189919,66.593231,27.603226,-147.282761,,,
729861714.157187,8.948499,1.450728,124.868522,-0.02948,0.13028,0.993744,1.241974,0.10414,0.189919,66.593231,27.603226,-147.282761,,,
729861714.160498,8.948499,1.450728,124.868522,-0.02948,0.13028,0.993744,1.241974,0.10414,0.189919,66.593231,27.603226,-147.282761,,,
729861714.163818,9.321846,1.446102,124.90914,-0.02948,0.13028,0.993744,1.285906,0.014696,0.169412,66.593231,27.603226,-147.282761,,,
729861714.167148,9.321846,1.446102,124.90914,-0.037491,0.125351,1.036102,1.285906,0.014696,0.169412,66.593231,27.603226,-147.282761,,,
729861714.170474,9.708155,1.438117,124.950646,-0.037491,0.125351,1.036102,1.285906,0.014696,0.169412,66.792603,25.137573,-147.765839,,,
729861714.173864,10.110969,1.431281,124.994688,-0.037491,0.125351,1.036102,1.382387,-0.002213,0.182124,66.792603,25.137573,-147.765839,,,
729861714.177143,10.110969,1.431281,124.994688,-0.045013,0.112137,1.099106,1.382387,-0.002213,0.182124,66.792603,25.137573,-147.765839,,,
729861714.18058,10.533595,1.428091,125.041642,-0.045013,0.112137,1.099106,1.382387,-0.002213,0.182124,66.792603,25.137573,-147.765839,,,
729861714.183831,10.977747,1.430169,125.09082,-0.045013,0.112137,1.099106,1.525056,0.036026,0.204967,66.792603,25.137573,-147.765839,,,
729861714.187154,10.977747,1.430169,125.09082,-0.041077,0.110107,1.138992,1.525056,0.036026,0.204967,66.792603,25.137573,-147.765839,,,
729861714.190532,11.440741,1.436213,125.14156,-0.041077,0.110107,1.138992,1.525056,0.036026,0.204967,66.792603,25.137573,-147.765839,,,
729861714.193885,11.917458,1.443992,125.192694,-0.041077,0.110107,1.138992,1.646196,0.067568,0.213685,66.792603,25.137573,-147.765839,,,
729861714.19714,11.917458,1.443992,125.192694,-0.034561,0.122391,1.129013,1.646196,0.067568,0.213685,66.792603,25.137573,-147.765839,,,
729861714.200501,12.404045,1.45163,125.243218,-0.034561,0.122391,1.129013,1.646196,0.067568,0.213685,66.792603,25.137573,-147.765839,,,
729861714.203834,12.895895,1.456856,125.292496,-0.034561,0.122391,1.129013,1.706207,0.06039,0.211922,66.792603,25.137573,-147.765839,,,
729861714.207184,12.895895,1.456856,125.292496,-0.03212,0.150467,1.081085,1.706207,0.06039,0.211922,66.792603,25.137573,-147.765839,,,
729861714.2105,13.389704,1.456921,125.339918,-0.03212,0.150467,1.081085,1.706207,0.06039,0.211922,66.792603,25.137573,-147.765839,,,
729861714.213832,13.882484,1.450099,125.384253,-0.03212,0.150467,1.081085,1.713658,0.0246,0.195209,67.013626,21.643799,-148.026245,,,
729861714.217154,13.882484,1.450099,125.384253,-0.02597,0.181732,1.030502,1.713658,0.0246,0.195209,67.013626,21.643799,-148.026245,,,
729861714.220553,14.37068,1.43585,125.424727,-0.02597,0.181732,1.030502,1.713658,0.0246,0.195209,67.013626,21.643799,-148.026245,,,
729861714.22388,14.85332,1.415229,125.462175,-0.02597,0.181732,1.030502,1.681828,-0.033241,0.169656,67.013626,21.643799,-148.026245,,,
729861714.22722,14.85332,1.415229,125.462175,-0.018341,0.194763,0.982941,1.681828,-0.033241,0.169656,67.013626,21.643799,-148.026245,,,
729861714.230502,15.333879,1.389822,125.497589,-0.018341,0.194763,0.982941,1.681828,-0.033241,0.169656,67.013626,21.643799,-148.026245,,,
729861714.233821,15.816438,1.363493,125.530741,-0.018341,0.194763,0.982941,1.675897,-0.056912,0.153631,67.013626,21.643799,-148.026245,,,
729861714.237161,15.816438,1.363493,125.530741,-0.018341,0.194763,0.982941,1.675897,-0.056912,0.153631,67.013626,21.643799,-148.026245,,,
729861714.240566,16.301156,1.337681,125.562021,-0.015137,0.221527,0.9832,1.675897,-0.056912,0.153631,67.013626,21.643799,-148.026245,,,
729861714.243818,16.786571,1.312373,125.592316,-0.015137,0.221527,0.9832,1.68823,-0.053188,0.138916,67.013626,21.643799,-148.026245,,,
729861714.247163,16.786571,1.312373,125.592316,-0.015137,0.221527,0.9832,1.68823,-0.053188,0.138916,67.013626,21.643799,-148.026245,,,
729861714.250487,17.271548,1.287429,125.621713,-0.004654,0.2798,1.009949,1.68823,-0.053188,0.138916,67.013626,21.643799,-148.026245,,,
729861714.253817,17.758122,1.263561,125.650481,-0.004654,0.2798,1.009949,1.688314,-0.052311,0.132373,66.912445,18.217072,-148.140656,,,
729861714.257233,17.758122,1.263561,125.650481,0.000351,0.266235,0.997452,1.688314,-0.052311,0.132373,66.912445,18.217072,-148.140656,,,
729861714.260496,18.25003,1.243497,125.678674,0.000351,0.266235,0.997452,1.688314,-0.052311,0.132373,66.912445,18.217072,-148.140656,,,
729861714.263824,18.749187,1.22964,125.706399,0.000351,0.266235,0.997452,1.731322,-0.02227,0.129424,66.912445,18.217072,-148.140656,,,
729861714.267154,18.749187,1.22964,125.706399,0.003174,0.266464,1.017944,1.731322,-0.02227,0.129424,66.912445,18.217072,-148.140656,,,
729861714.270545,19.255615,1.22246,125.734133,0.003174,0.266464,1.017944,1.731322,-0.02227,0.129424,66.912445,18.217072,-148.140656,,,
729861714.273855,19.769327,1.222194,125.761818,0.003174,0.266464,1.017944,1.779064,0.029561,0.129131,66.912445,18.217072,-148.140656,,,
729861714.277158,19.769327,1.222194,125.761818,0.003174,0.266464,1.017944,1.779064,0.029561,0.129131,66.912445,18.217072,-148.140656,,,
729861714.280509,20.291461,1.226823,125.789768,0.002136,0.271393,1.037033,1.779064,0.029561,0.129131,66.912445,18.217072,-148.140656,,,
729861714.283936,20.823622,1.234397,125.818054,0.002136,0.271393,1.037033,1.841867,0.063092,0.131118,66.912445,18.217072,-148.140656,,,
729861714.28718,20.823622,1.234397,125.818054,0.002136,0.271393,1.037033,1.841867,0.063092,0.131118,66.912445,18.217072,-148.140656,,,
729861714.290564,21.366342,1.242503,125.84685,0.001144,0.275513,1.033279,1.841867,0.063092,0.131118,66.912445,18.217072,-148.140656,,,
729861714.293819,21.920487,1.250026,125.874619,0.001144,0.275513,1.033279,1.920389,0.067149,0.133299,66.873611,14.558319,-147.734802,,,
729861714.297224,21.920487,1.250026,125.874619,0.001144,0.275513,1.033279,1.920389,0.067149,0.133299,66.873611,14.558319,-147.734802,,,
729861714.300507,22.485342,1.254545,125.900387,-0.001694,0.283173,1.025726,1.920389,0.067149,0.133299,66.873611,14.558319,-147.734802,,,
729861714.303827,23.062964,1.256366,125.923538,-0.001694,0.283173,1.025726,1.99618,0.044079,0.118221,66.873611,14.558319,-147.734802,,,
729861714.307235,23.062964,1.256366,125.923538,-0.001694,0.283173,1.025726,1.99618,0.044079,0.118221,66.873611,14.558319,-147.734802,,,
729861714.310498,23.653787,1.2527,125.944522,0.000214,0.296036,1.013397,1.99618,0.044079,0.118221,66.873611,14.558319,-147.734802,,,
729861714.313816,24.25281,1.241303,125.962802,0.000214,0.296036,1.013397,2.085706,-0.002111,0.104949,66.873611,14.558319,-147.734802,,,
729861714.317171,24.25281,1.241303,125.962802,0.000214,0.296036,1.013397,2.085706,-0.002111,0.104949,66.873611,14.558319,-147.734802,,,
729861714.320553,24.851782,1.218417,125.979063,-0.00592,0.313507,0.994308,2.085706,-0.002111,0.104949,66.873611,14.558319,-147.734802,,,
729861714.323863,25.446184,1.182515,125.993038,-0.00592,0.313507,0.994308,2.075177,-0.090666,0.087463,66.873611,14.558319,-147.734802,,,
729861714.327179,25.446184,1.182515,125.993038,-0.00592,0.313507,0.994308,2.075177,-0.090666,0.087463,66.873611,14.558319,-147.734802,,,
729861714.330493,26.033839,1.133392,126.00449,-0.006485,0.343185,0.916794,2.075177,-0.090666,0.087463,66.873611,14.558319,-147.734802,,,
729861714.333855,26.617919,1.075849,126.013603,-0.006485,0.343185,0.916794,2.033106,-0.180588,0.06925,66.873611,14.558319,-147.734802,,,
729861714.337177,26.617919,1.075849,126.013603,-0.006485,0.343185,0.916794,2.033106,-0.180588,0.06925,66.795074,10.139786,-147.329544,,,
729861714.340536,27.202828,1.015068,126.021782,-0.005127,0.385788,0.867172,2.033106,-0.180588,0.06925,66.795074,10.139786,-147.329544,,,
729861714.343817,27.793157,0.96004,126.029265,-0.005127,0.385788,0.867172,2.05267,-0.184464,0.056897,66.795074,10.139786,-147.329544,,,
729861714.347247,27.793157,0.96004,126.029265,-0.005127,0.385788,0.867172,2.05267,-0.184464,0.056897,66.795074,10.139786,-147.329544,,,
729861714.350479,28.38929,0.914593,126.038679,-0.002121,0.407806,0.914261,2.05267,-0.184464,0.056897,66.795074,10.139786,-147.329544,,,
729861714.353826,28.99188,0.880489,126.05208,-0.002121,0.407806,0.914261,2.096683,-0.103054,0.068097,66.795074,10.139786,-147.329544,,,
729861714.357202,28.99188,0.880489,126.05208,-0.002121,0.407806,0.914261,2.096683,-0.103054,0.068097,66.795074,10.139786,-147.329544,,,
729861714.360577,29.598368,0.855626,126.071213,-0.005997,0.394302,0.955399,2.096683,-0.103054,0.068097,66.795074,10.139786,-147.329544,,,
729861714.363809,30.2093,0.838281,126.095631,-0.005997,0.394302,0.955399,2.121923,-0.021921,0.099016,66.795074,10.139786,-147.329544,,,
729861714.367179,30.2093,0.838281,126.095631,-0.005997,0.394302,0.955399,2.121923,-0.021921,0.099016,66.795074,10.139786,-147.329544,,,
729861714.370492,30.827337,0.82763,126.124037,-0.006927,0.403595,0.934036,2.121923,-0.021921,0.099016,66.795074,10.139786,-147.329544,,,
729861714.373851,31.457052,0.824015,126.15397,-0.006927,0.403595,0.934036,2.179003,0.041956,0.120955,66.795074,10.139786,-147.329544,,,
729861714.377143,31.457052,0.824015,126.15397,-0.006927,0.403595,0.934036,2.179003,0.041956,0.120955,66.757782,5.853027,-146.130173,,,
729861714.3805,32.097945,0.822443,126.183613,-0.003662,0.419067,0.932953,2.179003,0.041956,0.120955,66.757782,5.853027,-146.130173,,,
729861714.383815,32.750445,0.818875,126.20996,-0.003662,0.419067,0.932953,2.260526,0.04536,0.1121,66.757782,5.853027,-146.130173,,,
729861714.387256,32.750445,0.818875,126.20996,-0.003662,0.419067,0.932953,2.260526,0.04536,0.1121,66.757782,5.853027,-146.130173,,,
729861714.390526,33.413634,0.806921,126.231251,0.00264,0.430328,0.929718,2.260526,0.04536,0.1121,66.757782,5.853027,-146.130173,,,
729861714.393823,34.086472,0.783148,126.245211,0.00264,0.430328,0.929718,2.337437,-0.037804,0.078325,66.757782,5.853027,-146.130173,,,
729861714.39718,34.086472,0.783148,126.245211,0.00264,0.430328,0.929718,2.337437,-0.037804,0.078325,66.757782,5.853027,-146.130173,,,
729861714.400554,34.766821,0.746155,126.250928,0.009277,0.447952,0.894012,2.337437,-0.037804,0.078325,66.757782,5.853027,-146.130173,,,
729861714.403808,35.456838,0.70155,126.247473,0.009277,0.447952,0.894012,2.395525,-0.154618,0.024537,66.757782,5.853027,-146.130173,,,
729861714.407207,35.456838,0.70155,126.247473,0.009277,0.447952,0.894012,2.395525,-0.154618,0.024537,66.757782,5.853027,-146.130173,,,
729861714.410487,36.157009,0.655999,126.23736,0.009918,0.470459,0.86412,2.395525,-0.154618,0.024537,66.757782,5.853027,-146.130173,,,
729861714.413818,36.870973,0.618255,126.222962,0.009918,0.470459,0.86412,2.476706,-0.170481,-0.01338,66.757782,5.853027,-146.130173,,,
729861714.417171,36.870973,0.618255,126.222962,0.009918,0.470459,0.86412,2.476706,-0.170481,-0.01338,66.503738,1.286133,-144.531586,,,
729861714.420531,37.596133,0.590308,126.209569,0.005981,0.484512,0.886871,2.476706,-0.170481,-0.01338,66.503738,1.286133,-144.531586,,,
729861714.42388,38.328344,0.572728,126.200834,0.005981,0.484512,0.886871,2.551025,-0.090118,-0.003996,66.503738,1.286133,-144.531586,,,
729861714.42721,38.328344,0.572728,126.200834,0.005981,0.484512,0.886871,2.551025,-0.090118,-0.003996,66.503738,1.286133,-144.531586,,,
729861714.430477,39.062295,0.565732,126.199764,-0.008575,0.490875,0.888809,2.551025,-0.090118,-0.003996,66.503738,1.286133,-144.531586,,,
729861714.433814,39.797974,0.570164,126.20776,-0.008575,0.490875,0.888809,2.562955,0.021929,0.03958,66.503738,1.286133,-144.531586,,,
