Time (sec),Pitch (deg),Roll (deg),Yaw(deg),X-Acceleration (g),Y-Acceleration (g),Z-Acceleration (g),Pitch Rate (deg/sec),Roll Rate (deg/sec),Yaw Rate (deg/sec),Magnetic Field in X direction (uT),Magnetic Field in Y direction (uT),Magnetic Field in Z Direction (uT),Latitude (deg),Longitude (deg),Altitude (m)
729861625.000524,1.786452,1.747657,129.855105,-0.040024,0.025497,0.997147,0.034326,-0.014244,0.011407,67.443207,33.322327,-146.370911,,,
729861625.00385,1.793947,1.739998,129.856644,-0.031143,0.029648,0.993454,0.034326,-0.014244,0.011407,67.443207,33.322327,-146.370911,,,
729861625.007182,1.799698,1.728062,129.855512,-0.031143,0.029648,0.993454,0.021633,-0.038685,-0.001437,67.443207,33.322327,-146.370911,,,
729861625.010515,1.799698,1.728062,129.855512,-0.031143,0.029648,0.993454,0.021633,-0.038685,-0.001437,67.443207,33.322327,-146.370911,,,
729861625.013879,1.805201,1.716046,129.851696,-0.018494,0.035828,0.991821,0.021633,-0.038685,-0.001437,67.443207,33.322327,-146.370911,,,
729861625.017224,1.808397,1.704327,129.846105,-0.018494,0.035828,0.991821,0.012689,-0.03977,-0.018911,67.443207,33.322327,-146.370911,,,
729861625.020565,1.808397,1.704327,129.846105,-0.018494,0.035828,0.991821,0.012689,-0.03977,-0.018911,67.443207,33.322327,-146.370911,,,
729861625.023858,1.810799,1.692737,129.839382,-0.012863,0.038147,0.992722,0.012689,-0.03977,-0.018911,67.443207,33.322327,-146.370911,,,
729861625.027157,1.809139,1.685106,129.832701,-0.012863,0.038147,0.992722,-0.001497,-0.027904,-0.025008,67.443207,33.322327,-146.370911,,,
729861625.030459,1.809139,1.685106,129.832701,-0.012863,0.038147,0.992722,-0.001497,-0.027904,-0.025008,67.443207,33.322327,-146.370911,,,
729861625.033628,1.805375,1.681214,129.826984,-0.013626,0.039505,0.988174,-0.001497,-0.027904,-0.025008,67.443207,33.322327,-146.370911,,,
729861625.03714,1.797837,1.68312,129.822388,-0.013626,0.039505,0.988174,-0.022975,0.001945,-0.017581,67.511627,33.258957,-146.164215,,,
729861625.04051,1.797837,1.68312,129.822388,-0.013626,0.039505,0.988174,-0.022975,0.001945,-0.017581,67.511627,33.258957,-146.164215,,,
729861625.043834,1.787245,1.694344,129.818786,-0.017029,0.037216,0.98439,-0.022975,0.001945,-0.017581,67.511627,33.258957,-146.164215,,,
729861625.047132,1.777026,1.70619,129.816686,-0.017029,0.037216,0.98439,-0.032361,0.038914,-0.009771,67.511627,33.258957,-146.164215,,,
729861625.050464,1.777026,1.70619,129.816686,-0.017029,0.037216,0.98439,-0.032361,0.038914,-0.009771,67.511627,33.258957,-146.164215,,,
729861625.053828,1.76604,1.726122,129.815618,-0.023956,0.034012,0.989471,-0.032361,0.038914,-0.009771,67.511627,33.258957,-146.164215,,,
729861625.057134,1.758161,1.74102,129.815251,-0.023956,0.034012,0.989471,-0.03243,0.056365,-0.003663,67.511627,33.258957,-146.164215,,,
729861625.060514,1.758161,1.74102,129.815251,-0.023956,0.034012,0.989471,-0.03243,0.056365,-0.003663,67.511627,33.258957,-146.164215,,,
729861625.063855,1.750962,1.760533,129.815025,-0.027359,0.030457,0.992783,-0.03243,0.056365,-0.003663,67.511627,33.258957,-146.164215,,,
729861625.067161,1.749168,1.772858,129.814882,-0.027359,0.030457,0.992783,-0.007363,0.048628,0.001136,67.511627,33.258957,-146.164215,,,
729861625.070507,1.749168,1.772858,129.814882,-0.027359,0.030457,0.992783,-0.007363,0.048628,0.001136,67.511627,33.258957,-146.164215,,,
729861625.073851,1.750826,1.78345,129.814754,-0.034241,0.028244,0.997116,-0.007363,0.048628,0.001136,67.511627,33.258957,-146.164215,,,
729861625.077178,1.757882,1.787413,129.814982,-0.034241,0.028244,0.997116,0.021129,0.021117,0.000711,67.511627,33.258957,-146.164215,,,
729861625.080184,1.757882,1.787413,129.814982,-0.034241,0.028244,0.997116,0.021129,0.021117,0.000711,67.495071,33.022186,-146.479431,,,
729861625.083944,1.767918,1.785408,129.815052,-0.041763,0.025406,1.00267,0.021129,0.021117,0.000711,67.495071,33.022186,-146.479431,,,
729861625.087177,1.77826,1.780635,129.81494,-0.041763,0.025406,1.00267,0.037827,-0.009343,0.000797,67.495071,33.022186,-146.479431,,,
729861625.090536,1.77826,1.780635,129.81494,-0.041763,0.025406,1.00267,0.037827,-0.009343,0.000797,67.495071,33.022186,-146.479431,,,
729861625.09385,1.7894,1.765843,129.814784,-0.042725,0.03186,0.995911,0.037827,-0.009343,0.000797,67.495071,33.022186,-146.479431,,,
729861625.097181,1.796218,1.754309,129.813241,-0.042725,0.03186,0.995911,0.024233,-0.03348,-0.00575,67.495071,33.022186,-146.479431,,,
729861625.100535,1.796218,1.754309,129.813241,-0.042725,0.03186,0.995911,0.024233,-0.03348,-0.00575,67.495071,33.022186,-146.479431,,,
729861625.103889,1.801093,1.73469,129.810733,-0.041382,0.043716,0.981949,0.024233,-0.03348,-0.00575,67.495071,33.022186,-146.479431,,,
729861625.107189,1.79859,1.721873,129.807007,-0.041382,0.043716,0.981949,-0.003299,-0.042964,-0.013893,67.495071,33.022186,-146.479431,,,
729861625.110612,1.79859,1.721873,129.807007,-0.041382,0.043716,0.981949,-0.003299,-0.042964,-0.013893,67.495071,33.022186,-146.479431,,,
729861625.113857,1.794243,1.705233,129.8025,-0.035004,0.05127,0.973755,-0.003299,-0.042964,-0.013893,67.495071,33.022186,-146.479431,,,
729861625.11719,1.782638,1.698002,129.796777,-0.035004,0.05127,0.973755,-0.03332,-0.025946,-0.020885,67.495071,33.022186,-146.479431,,,
729861625.120512,1.782638,1.698002,129.796777,-0.035004,0.05127,0.973755,-0.03332,-0.025946,-0.020885,67.462997,32.965103,-146.608459,,,
729861625.123936,1.768221,1.691407,129.790786,-0.03273,0.054733,0.976868,-0.03332,-0.025946,-0.020885,67.462997,32.965103,-146.608459,,,
729861625.127179,1.749757,1.692046,129.785126,-0.03273,0.054733,0.976868,-0.062503,0.00113,-0.023975,67.462997,32.965103,-146.608459,,,
729861625.130537,1.749757,1.692046,129.785126,-0.03273,0.054733,0.976868,-0.062503,0.00113,-0.023975,67.462997,32.965103,-146.608459,,,
729861625.13386,1.730168,1.693269,129.779728,-0.034241,0.05246,0.983658,-0.062503,0.00113,-0.023975,67.462997,32.965103,-146.608459,,,
729861625.137188,1.709872,1.698231,129.774462,-0.034241,0.05246,0.983658,-0.071383,0.016639,-0.021413,67.462997,32.965103,-146.608459,,,
729861625.140532,1.709872,1.698231,129.774462,-0.034241,0.05246,0.983658,-0.071383,0.016639,-0.021413,67.462997,32.965103,-146.608459,,,
729861625.143865,1.69057,1.705061,129.76968,-0.036301,0.0457,0.988678,-0.071383,0.016639,-0.021413,67.462997,32.965103,-146.608459,,,
729861625.14719,1.673408,1.711993,129.765707,-0.036301,0.0457,0.988678,-0.063606,0.02827,-0.020076,67.462997,32.965103,-146.608459,,,
729861625.15052,1.673408,1.711993,129.765707,-0.036301,0.0457,0.988678,-0.063606,0.02827,-0.020076,67.462997,32.965103,-146.608459,,,
729861625.153867,1.658228,1.720993,129.762819,-0.043259,0.037216,0.996094,-0.063606,0.02827,-0.020076,67.462997,32.965103,-146.608459,,,
729861625.157188,1.646581,1.726603,129.762065,-0.043259,0.037216,0.996094,-0.041434,0.02306,-0.007939,67.462997,32.965103,-146.608459,,,
729861625.16052,1.646581,1.726603,129.762065,-0.043259,0.037216,0.996094,-0.041434,0.02306,-0.007939,67.370041,33.013809,-146.238525,,,
729861625.163879,1.637484,1.735449,129.763801,-0.051926,0.028229,1.002518,-0.041434,0.02306,-0.007939,67.370041,33.013809,-146.238525,,,
729861625.167194,1.632229,1.739098,129.767925,-0.051926,0.028229,1.002518,-0.022924,0.015527,0.012333,67.370041,33.013809,-146.238525,,,
729861625.170532,1.632229,1.739098,129.767925,-0.051926,0.028229,1.002518,-0.022924,0.015527,0.012333,67.370041,33.013809,-146.238525,,,
729861625.173928,1.633193,1.747949,129.774495,-0.05925,0.022308,1.001846,-0.022924,0.015527,0.012333,67.370041,33.013809,-146.238525,,,
729861625.177173,1.635678,1.752284,129.784233,-0.05925,0.022308,1.001846,0.004459,0.019026,0.031001,67.370041,33.013809,-146.238525,,,
729861625.180527,1.635678,1.752284,129.784233,-0.05925,0.022308,1.001846,0.004459,0.019026,0.031001,67.370041,33.013809,-146.238525,,,
729861625.183848,1.647823,1.761072,129.796544,-0.061646,0.021149,1.010086,0.004459,0.019026,0.031001,67.370041,33.013809,-146.238525,,,
729861625.187179,1.657902,1.767091,129.811192,-0.061646,0.021149,1.010086,0.032654,0.02397,0.050064,67.370041,33.013809,-146.238525,,,
729861625.190529,1.657902,1.767091,129.811192,-0.061646,0.021149,1.010086,0.032654,0.02397,0.050064,67.370041,33.013809,-146.238525,,,
729861625.19386,1.678649,1.773763,129.827442,-0.061142,0.023087,1.018173,0.032654,0.02397,0.050064,67.370041,33.013809,-146.238525,,,
729861625.197179,1.692108,1.777655,129.844636,-0.061142,0.023087,1.018173,0.046945,0.019022,0.059707,67.370041,33.013809,-146.238525,,,
729861625.200556,1.692108,1.777655,129.844636,-0.061142,0.023087,1.018173,0.046945,0.019022,0.059707,67.520767,33.138382,-146.19043,,,
729861625.20387,1.711769,1.780575,129.861644,-0.053741,0.031525,1.010239,0.046945,0.019022,0.059707,67.520767,33.138382,-146.19043,,,
729861625.20724,1.721109,1.779408,129.877625,-0.053741,0.031525,1.010239,0.034016,0.002427,0.05802,67.520767,33.138382,-146.19043,,,
729861625.210585,1.721109,1.779408,129.877625,-0.053741,0.031525,1.010239,0.034016,0.002427,0.05802,67.520767,33.138382,-146.19043,,,
729861625.213849,1.733972,1.777019,129.89166,-0.044708,0.041428,0.994232,0.034016,0.002427,0.05802,67.520767,33.138382,-146.19043,,,
729861625.217258,1.737427,1.770973,129.903355,-0.044708,0.041428,0.994232,0.015178,-0.016376,0.043183,67.520767,33.138382,-146.19043,,,
729861625.220525,1.737427,1.770973,129.903355,-0.044708,0.041428,0.994232,0.015178,-0.016376,0.043183,67.520767,33.138382,-146.19043,,,
729861625.223849,1.74341,1.76667,129.912978,-0.035461,0.050186,0.99028,0.015178,-0.016376,0.043183,67.520767,33.138382,-146.19043,,,
729861625.227186,1.745944,1.759923,129.921233,-0.035461,0.050186,0.99028,0.005938,-0.020261,0.025523,67.520767,33.138382,-146.19043,,,
729861625.230528,1.745944,1.759923,129.921233,-0.035461,0.050186,0.99028,0.005938,-0.020261,0.025523,67.520767,33.138382,-146.19043,,,
729861625.23385,1.750452,1.760234,129.92858,-0.031097,0.046371,0.997894,0.005938,-0.020261,0.025523,67.520767,33.138382,-146.19043,,,
729861625.237284,1.755075,1.756611,129.936543,-0.031097,0.046371,0.997894,0.014275,-0.00869,0.026437,67.520767,33.138382,-146.19043,,,
729861625.240517,1.755075,1.756611,129.936543,-0.031097,0.046371,0.997894,0.014275,-0.00869,0.026437,67.520767,33.138382,-146.19043,,,
729861625.243866,1.759302,1.764513,129.945148,-0.030838,0.040894,1.009232,0.014275,-0.00869,0.026437,67.382812,33.115005,-146.20665,,,
729861625.247183,1.766027,1.767007,129.954695,-0.030838,0.040894,1.009232,0.023879,0.009439,0.032231,67.382812,33.115005,-146.20665,,,
729861625.250517,1.766027,1.767007,129.954695,-0.030838,0.040894,1.009232,0.023879,0.009439,0.032231,67.382812,33.115005,-146.20665,,,
729861625.253849,1.769974,1.782939,129.965342,-0.034714,0.036682,1.006927,0.023879,0.009439,0.032231,67.382812,33.115005,-146.20665,,,
729861625.257209,1.777403,1.790177,129.97833,-0.034714,0.036682,1.006927,0.022736,0.029793,0.04269,67.382812,33.115005,-146.20665,,,
729861625.260575,1.777403,1.790177,129.97833,-0.034714,0.036682,1.006927,0.022736,0.029793,0.04269,67.382812,33.115005,-146.20665,,,
729861625.263848,1.781619,1.809537,129.992493,-0.037933,0.032654,1.001831,0.022736,0.029793,0.04269,67.382812,33.115005,-146.20665,,,
729861625.267288,1.788896,1.818459,130.007714,-0.037933,0.032654,1.001831,0.025275,0.035049,0.053368,67.382812,33.115005,-146.20665,,,
729861625.27054,1.788896,1.818459,130.007714,-0.037933,0.032654,1.001831,0.025275,0.035049,0.053368,67.382812,33.115005,-146.20665,,,
729861625.27392,1.796546,1.836857,130.023255,-0.039062,0.033249,0.99646,0.025275,0.035049,0.053368,67.382812,33.115005,-146.20665,,,
729861625.277205,1.807947,1.844319,130.039536,-0.039062,0.033249,0.99646,0.035605,0.02947,0.056167,67.382812,33.115005,-146.20665,,,
729861625.280542,1.807947,1.844319,130.039536,-0.039062,0.033249,0.99646,0.035605,0.02947,0.056167,67.382812,33.115005,-146.20665,,,
729861625.283854,1.8222,1.856108,130.055082,-0.033142,0.031601,1.001724,0.035605,0.02947,0.056167,67.481796,33.093277,-146.2314,,,
729861625.287188,1.837942,1.858763,130.06987,-0.033142,0.031601,1.001724,0.053238,0.015519,0.052988,67.481796,33.093277,-146.2314,,,
729861625.290533,1.837942,1.858763,130.06987,-0.033142,0.031601,1.001724,0.053238,0.015519,0.052988,67.481796,33.093277,-146.2314,,,
729861625.293856,1.859478,1.862469,130.083054,-0.027786,0.028534,1.003601,0.053238,0.015519,0.052988,67.481796,33.093277,-146.2314,,,
729861625.297209,1.876997,1.861122,130.094939,-0.027786,0.028534,1.003601,0.061951,-0.000945,0.04255,67.481796,33.093277,-146.2314,,,
729861625.300515,1.876997,1.861122,130.094939,-0.027786,0.028534,1.003601,0.061951,-0.000945,0.04255,67.481796,33.093277,-146.2314,,,
729861625.303849,1.898633,1.85911,130.105528,-0.021942,0.031677,0.997803,0.061951,-0.000945,0.04255,67.481796,33.093277,-146.2314,,,
729861625.307224,1.912679,1.856735,130.115383,-0.021942,0.031677,0.997803,0.051999,-0.005177,0.03489,67.481796,33.093277,-146.2314,,,
729861625.310588,1.912679,1.856735,130.115383,-0.021942,0.031677,0.997803,0.051999,-0.005177,0.03489,67.481796,33.093277,-146.2314,,,
729861625.313864,1.926639,1.854694,130.124861,-0.02005,0.034348,0.991333,0.051999,-0.005177,0.03489,67.481796,33.093277,-146.2314,,,
729861625.317187,1.926639,1.854512,130.134206,-0.02005,0.034348,0.991333,0.028672,0.00365,0.032208,67.481796,33.093277,-146.2314,,,
729861625.320534,1.934304,1.854512,130.134206,-0.02005,0.034348,0.991333,0.028672,0.00365,0.032208,67.481796,33.093277,-146.2314,,,
729861625.323846,1.940122,1.85612,130.142652,-0.01857,0.033966,0.985275,0.028672,0.00365,0.032208,67.334641,33.070847,-146.333633,,,
729861625.327212,1.940784,1.86091,130.14987,-0.01857,0.033966,0.985275,0.005384,0.014924,0.028056,67.334641,33.070847,-146.333633,,,
729861625.33052,1.940784,1.86091,130.14987,-0.01857,0.033966,0.985275,0.005384,0.014924,0.028056,67.334641,33.070847,-146.333633,,,
729861625.333852,1.938756,1.870742,130.156598,-0.015518,0.03656,0.983917,0.005384,0.014924,0.028056,67.334641,33.070847,-146.333633,,,
729861625.337243,1.938756,1.883824,130.162078,-0.015518,0.03656,0.983917,-0.015426,0.046232,0.018133,67.334641,33.070847,-146.333633,,,
729861625.340538,1.934357,1.883824,130.162078,-0.015518,0.03656,0.983917,-0.015426,0.046232,0.018133,67.334641,33.070847,-146.333633,,,
729861625.343871,1.92868,1.902781,130.167049,-0.01059,0.036407,0.991104,-0.015426,0.046232,0.018133,67.334641,33.070847,-146.333633,,,
729861625.347183,1.92868,1.902781,130.167049,-0.01059,0.036407,0.991104,-0.018574,0.069333,0.015391,67.334641,33.070847,-146.333633,,,
729861625.350524,1.924226,1.922124,130.172303,-0.01059,0.036407,0.991104,-0.018574,0.069333,0.015391,67.334641,33.070847,-146.333633,,,
729861625.353685,1.922154,1.944813,130.177582,-0.015259,0.035126,1.001831,-0.018574,0.069333,0.015391,67.334641,33.070847,-146.333633,,,
729861625.357256,1.924021,1.967258,130.18317,-0.015259,0.035126,1.001831,0.002545,0.081622,0.019209,67.334641,33.070847,-146.333633,,,
729861625.36056,1.924021,1.967258,130.18317,-0.015259,0.035126,1.001831,0.002545,0.081622,0.019209,67.334641,33.070847,-146.333633,,,
729861625.363898,1.929078,1.989522,130.188496,-0.02327,0.029984,1.010864,0.002545,0.081622,0.019209,67.334641,33.070847,-146.333633,,,
729861625.367271,1.93892,2.013253,130.194078,-0.02327,0.029984,1.010864,0.03431,0.087596,0.01786,67.477844,33.07373,-146.197983,,,
729861625.370508,1.93892,2.013253,130.194078,-0.02327,0.029984,1.010864,0.03431,0.087596,0.01786,67.477844,33.07373,-146.197983,,,
729861625.373848,1.95059,2.031447,130.200139,-0.030136,0.025482,1.017456,0.03431,0.087596,0.01786,67.477844,33.07373,-146.197983,,,
729861625.37723,1.95059,2.031447,130.200139,-0.030136,0.025482,1.017456,0.051788,0.070042,0.01954,67.477844,33.07373,-146.197983,,,
729861625.380509,1.965784,2.048828,130.205682,-0.030136,0.025482,1.017456,0.051788,0.070042,0.01954,67.477844,33.07373,-146.197983,,,
729861625.383854,1.980757,2.055379,130.211702,-0.040222,0.020447,1.007568,0.051788,0.070042,0.01954,67.477844,33.07373,-146.197983,,,
729861625.387192,1.980757,2.055379,130.211702,-0.040222,0.020447,1.007568,0.051788,0.070042,0.01954,67.477844,33.07373,-146.197983,,,
729861625.390567,1.995428,2.061867,130.217763,-0.040222,0.020447,1.007568,0.051765,0.029161,0.021665,67.477844,33.07373,-146.197983,,,
729861625.393844,2.008975,2.056853,130.223642,-0.045334,0.022964,0.989273,0.051765,0.029161,0.021665,67.477844,33.07373,-146.197983,,,
729861625.397183,2.008975,2.056853,130.223642,-0.045334,0.022964,0.989273,0.041024,-0.007861,0.019177,67.477844,33.07373,-146.197983,,,
729861625.40052,2.019986,2.053266,130.229332,-0.045334,0.022964,0.989273,0.041024,-0.007861,0.019177,67.477844,33.07373,-146.197983,,,
729861625.403848,2.027405,2.039562,130.235496,-0.044479,0.027557,0.97699,0.041024,-0.007861,0.019177,67.477844,33.07373,-146.197983,,,
729861625.407228,2.027405,2.039562,130.235496,-0.044479,0.027557,0.97699,0.041024,-0.007861,0.019177,67.600266,33.096115,-146.287094,,,
729861625.410514,2.030766,2.029931,130.241616,-0.044479,0.027557,0.97699,0.018639,-0.029848,0.021036,67.600266,33.096115,-146.287094,,,
729861625.413847,2.030727,2.010759,130.248682,-0.042099,0.032272,0.972595,0.018639,-0.029848,0.021036,67.600266,33.096115,-146.287094,,,
729861625.417211,2.030727,2.010759,130.248682,-0.042099,0.032272,0.972595,0.018639,-0.029848,0.021036,67.600266,33.096115,-146.287094,,,
729861625.420583,2.026396,1.999819,130.255953,-0.042099,0.032272,0.972595,-0.011752,-0.037915,0.022408,67.600266,33.096115,-146.287094,,,
729861625.423883,2.019891,1.98297,130.263196,-0.039246,0.031235,0.978806,-0.011752,-0.037915,0.022408,67.600266,33.096115,-146.287094,,,
729861625.427294,2.019891,1.98297,130.263196,-0.039246,0.031235,0.978806,-0.011752,-0.037915,0.022408,67.600266,33.096115,-146.287094,,,
729861625.430533,2.012508,1.977602,130.27025,-0.039246,0.031235,0.978806,-0.029003,-0.017358,0.020682,67.600266,33.096115,-146.287094,,,
729861625.43396,2.004499,1.969971,130.27791,-0.030792,0.026352,0.998627,-0.029003,-0.017358,0.020682,67.600266,33.096115,-146.287094,,,
729861625.437278,2.004499,1.969971,130.27791,-0.030792,0.026352,0.998627,-0.029003,-0.017358,0.020682,67.600266,33.096115,-146.287094,,,
729861625.440616,1.998017,1.971789,130.284907,-0.030792,0.026352,0.998627,-0.025061,0.006052,0.020744,67.600266,33.096115,-146.287094,,,
729861625.443864,1.99095,1.972904,130.291548,-0.027145,0.021408,1.014954,-0.025061,0.006052,0.020744,67.600266,33.096115,-146.287094,,,
729861625.447211,1.99095,1.972904,130.291548,-0.027145,0.021408,1.014954,-0.025061,0.006052,0.020744,67.653061,32.868469,-146.463852,,,
729861625.450517,1.98818,1.979289,130.298489,-0.027145,0.021408,1.014954,-0.010865,0.023969,0.022448,67.653061,32.868469,-146.463852,,,
729861625.453862,1.984684,1.987113,130.306022,-0.025589,0.020035,1.017471,-0.010865,0.023969,0.022448,67.653061,32.868469,-146.463852,,,
729861625.457216,1.984684,1.987113,130.306022,-0.025589,0.020035,1.017471,-0.010865,0.023969,0.022448,67.653061,32.868469,-146.463852,,,
729861625.460533,1.986658,1.997677,130.313345,-0.025589,0.020035,1.017471,0.00576,0.040449,0.023017,67.653061,32.868469,-146.463852,,,
729861625.46385,1.985148,2.012637,130.319751,-0.024689,0.023361,1.014038,0.00576,0.040449,0.023017,67.653061,32.868469,-146.463852,,,
729861625.467219,1.985148,2.012637,130.319751,-0.024689,0.023361,1.014038,0.00576,0.040449,0.023017,67.653061,32.868469,-146.463852,,,
729861625.470549,1.987662,2.024767,130.325755,-0.024689,0.023361,1.014038,0.010151,0.047199,0.019561,67.653061,32.868469,-146.463852,,,
729861625.473575,1.985839,2.039312,130.331557,-0.026596,0.028305,1.000839,0.010151,0.047199,0.019561,67.653061,32.868469,-146.463852,,,
729861625.477355,1.985839,2.039312,130.331557,-0.026596,0.028305,1.000839,0.010151,0.047199,0.019561,67.653061,32.868469,-146.463852,,,
729861625.480508,1.983632,2.046614,130.337156,-0.026596,0.028305,1.000839,-0.00327,0.031991,0.017332,67.653061,32.868469,-146.463852,,,
729861625.483867,1.977123,2.054003,130.34234,-0.027802,0.031754,0.975372,-0.00327,0.031991,0.017332,67.653061,32.868469,-146.463852,,,
729861625.487189,1.977123,2.054003,130.34234,-0.027802,0.031754,0.975372,-0.00327,0.031991,0.017332,67.881165,32.967834,-146.136734,,,
729861625.490601,1.96846,2.056233,130.347274,-0.027802,0.031754,0.975372,-0.029239,0.013081,0.012845,67.881165,32.967834,-146.136734,,,
729861625.493847,1.955891,2.058956,130.352229,-0.032837,0.034775,0.958069,-0.029239,0.013081,0.012845,67.881165,32.967834,-146.136734,,,
729861625.497204,1.955891,2.058956,130.352229,-0.032837,0.034775,0.958069,-0.029239,0.013081,0.012845,67.881165,32.967834,-146.136734,,,
729861625.500515,1.9412,2.057039,130.358016,-0.032837,0.034775,0.958069,-0.050679,-0.000787,0.017097,67.881165,32.967834,-146.136734,,,
729861625.503859,1.922387,2.05336,130.364389,-0.036972,0.034821,0.960907,-0.050679,-0.000787,0.017097,67.881165,32.967834,-146.136734,,,
729861625.507209,1.922387,2.05336,130.364389,-0.036972,0.034821,0.960907,-0.050679,-0.000787,0.017097,67.881165,32.967834,-146.136734,,,
729861625.510547,1.902151,2.048248,130.370744,-0.036972,0.034821,0.960907,-0.065792,-0.013209,0.018923,67.881165,32.967834,-146.136734,,,
729861625.513851,1.877249,2.039426,130.376459,-0.036011,0.031982,0.961945,-0.065792,-0.013209,0.018923,67.881165,32.967834,-146.136734,,,
729861625.517223,1.877249,2.039426,130.376459,-0.036011,0.031982,0.961945,-0.065792,-0.013209,0.018923,67.881165,32.967834,-146.136734,,,
729861625.52055,1.851965,2.030931,130.381092,-0.036011,0.031982,0.961945,-0.085264,-0.025437,0.011488,67.881165,32.967834,-146.136734,,,
729861625.523969,1.820741,2.01761,130.384209,-0.030487,0.033157,0.961838,-0.085264,-0.025437,0.011488,67.881165,32.967834,-146.136734,,,
729861625.52725,1.820741,2.01761,130.384209,-0.030487,0.033157,0.961838,-0.085264,-0.025437,0.011488,67.881165,32.967834,-146.136734,,,
729861625.530528,1.789861,2.004276,130.385767,-0.030487,0.033157,0.961838,-0.103738,-0.040071,0.003899,67.4888,33.27562,-146.33136,,,
729861625.533876,1.754571,1.986621,130.386625,-0.026031,0.033096,0.96402,-0.103738,-0.040071,0.003899,67.4888,33.27562,-146.33136,,,
729861625.537198,1.754571,1.986621,130.386625,-0.026031,0.033096,0.96402,-0.103738,-0.040071,0.003899,67.4888,33.27562,-146.33136,,,
729861625.540594,1.719549,1.97116,130.386343,-0.026031,0.033096,0.96402,-0.12121,-0.054939,-0.007482,67.4888,33.27562,-146.33136,,,
729861625.543847,1.682939,1.956044,130.384148,-0.020416,0.030624,0.97171,-0.12121,-0.054939,-0.007482,67.4888,33.27562,-146.33136,,,
729861625.547201,1.682939,1.956044,130.384148,-0.020416,0.030624,0.97171,-0.12121,-0.054939,-0.007482,67.4888,33.27562,-146.33136,,,
729861625.550519,1.646983,1.94781,130.380108,-0.020416,0.030624,0.97171,-0.124994,-0.030587,-0.018731,67.4888,33.27562,-146.33136,,,
729861625.553857,1.612557,1.944791,130.37593,-0.013062,0.026672,0.991623,-0.124994,-0.030587,-0.018731,67.4888,33.27562,-146.33136,,,
729861625.557201,1.612557,1.944791,130.37593,-0.013062,0.026672,0.991623,-0.124994,-0.030587,-0.018731,67.4888,33.27562,-146.33136,,,
729861625.560524,1.580785,1.949247,130.373,-0.013062,0.026672,0.991623,-0.114344,0.012773,-0.017995,67.4888,33.27562,-146.33136,,,
729861625.563852,1.555762,1.957919,130.372093,-0.018066,0.019623,1.015106,-0.114344,0.012773,-0.017995,67.4888,33.27562,-146.33136,,,
729861625.567184,1.555762,1.957919,130.372093,-0.018066,0.019623,1.015106,-0.114344,0.012773,-0.017995,67.4888,33.27562,-146.33136,,,
729861625.570245,1.535789,1.973372,130.373713,-0.018066,0.019623,1.015106,-0.076788,0.047987,-0.000764,67.70578,33.519974,-145.811676,,,
729861625.573892,1.525667,1.99564,130.377486,-0.023605,0.00975,1.030914,-0.076788,0.047987,-0.000764,67.70578,33.519974,-145.811676,,,
729861625.577204,1.525667,1.99564,130.377486,-0.023605,0.00975,1.030914,-0.076788,0.047987,-0.000764,67.70578,33.519974,-145.811676,,,
729861625.58054,1.522311,2.022824,130.382537,-0.023605,0.00975,1.030914,-0.020385,0.094704,0.013642,67.70578,33.519974,-145.811676,,,
729861625.583858,1.528406,2.053808,130.38773,-0.025452,0.003372,1.050659,-0.020385,0.094704,0.013642,67.70578,33.519974,-145.811676,,,
729861625.587197,1.528406,2.053808,130.38773,-0.025452,0.003372,1.050659,-0.020385,0.094704,0.013642,67.70578,33.519974,-145.811676,,,
729861625.590592,1.539946,2.083035,130.392088,-0.025452,0.003372,1.050659,0.036116,0.108986,0.017041,67.70578,33.519974,-145.811676,,,
729861625.593852,1.556665,2.107015,130.395382,-0.026825,0.007004,1.045929,0.036116,0.108986,0.017041,67.70578,33.519974,-145.811676,,,
729861625.597198,1.556665,2.107015,130.395382,-0.026825,0.007004,1.045929,0.036116,0.108986,0.017041,67.70578,33.519974,-145.811676,,,
729861625.600518,1.574884,2.123711,130.396964,-0.026825,0.007004,1.045929,0.063312,0.067536,0.011224,67.70578,33.519974,-145.811676,,,
729861625.603848,1.593079,2.130416,130.396128,-0.02919,0.019119,1.011887,0.063312,0.067536,0.011224,67.70578,33.519974,-145.811676,,,
729861625.607203,1.593079,2.130416,130.396128,-0.02919,0.019119,1.011887,0.063312,0.067536,0.011224,67.70578,33.519974,-145.811676,,,
729861625.610516,1.606449,2.129979,130.392542,-0.02919,0.019119,1.011887,0.053722,0.007951,-0.009933,67.623199,33.511932,-145.902298,,,
729861625.613868,1.614597,2.121412,130.38653,-0.031357,0.031494,0.977615,0.053722,0.007951,-0.009933,67.623199,33.511932,-145.902298,,,
729861625.617183,1.614597,2.121412,130.38653,-0.031357,0.031494,0.977615,0.053722,0.007951,-0.009933,67.623199,33.511932,-145.902298,,,
729861625.620306,1.615655,2.110975,130.378369,-0.031357,0.031494,0.977615,0.010634,-0.031909,-0.027224,67.623199,33.511932,-145.902298,,,
729861625.623882,1.610085,2.096173,130.368718,-0.027603,0.042206,0.966187,0.010634,-0.031909,-0.027224,67.623199,33.511932,-145.902298,,,
729861625.627238,1.610085,2.096173,130.368718,-0.027603,0.042206,0.966187,0.010634,-0.031909,-0.027224,67.623199,33.511932,-145.902298,,,
729861625.630533,1.597948,2.084712,130.358433,-0.027603,0.042206,0.966187,-0.034328,-0.039982,-0.036748,67.623199,33.511932,-145.902298,,,
729861625.633851,1.580954,2.071969,130.348104,-0.02507,0.042328,0.969864,-0.034328,-0.039982,-0.036748,67.623199,33.511932,-145.902298,,,
729861625.637199,1.580954,2.071969,130.348104,-0.02507,0.042328,0.969864,-0.034328,-0.039982,-0.036748,67.623199,33.511932,-145.902298,,,
729861625.640599,1.56174,2.06688,130.337865,-0.02507,0.042328,0.969864,-0.065072,-0.02013,-0.040735,67.623199,33.511932,-145.902298,,,
729861625.64385,1.539942,2.064256,130.327427,-0.022522,0.035538,0.987091,-0.065072,-0.02013,-0.040735,67.623199,33.511932,-145.902298,,,
729861625.647204,1.539942,2.064256,130.327427,-0.022522,0.035538,0.987091,-0.065072,-0.02013,-0.040735,67.623199,33.511932,-145.902298,,,
729861625.650548,1.518995,2.069627,130.315699,-0.022522,0.035538,0.987091,-0.068416,0.01623,-0.043116,67.623199,33.511932,-145.902298,,,
729861625.653859,1.495299,2.077815,130.303006,-0.01828,0.033218,1.004257,-0.068416,0.01623,-0.043116,67.72142,33.506302,-145.860565,,,
729861625.657214,1.495299,2.077815,130.303006,-0.01828,0.033218,1.004257,-0.068416,0.01623,-0.043116,67.72142,33.506302,-145.860565,,,
729861625.660528,1.475996,2.093225,130.289259,-0.01828,0.033218,1.004257,-0.066475,0.052895,-0.051075,67.72142,33.506302,-145.860565,,,
729861625.663854,1.455503,2.111276,130.274862,-0.017639,0.031754,1.013077,-0.066475,0.052895,-0.051075,67.72142,33.506302,-145.860565,,,
729861625.667187,1.455503,2.111276,130.274862,-0.017639,0.031754,1.013077,-0.066475,0.052895,-0.051075,67.72142,33.506302,-145.860565,,,
729861625.670519,1.442627,2.135505,130.261501,-0.017639,0.031754,1.013077,-0.048755,0.082053,-0.050713,67.72142,33.506302,-145.860565,,,
729861625.673854,1.435022,2.161191,130.250489,-0.026978,0.025894,1.022644,-0.048755,0.082053,-0.050713,67.72142,33.506302,-145.860565,,,
729861625.677275,1.435022,2.161191,130.250489,-0.026978,0.025894,1.022644,-0.048755,0.082053,-0.050713,67.72142,33.506302,-145.860565,,,
729861625.680524,1.439877,2.190079,130.241495,-0.026978,0.025894,1.022644,0.009378,0.104018,-0.035344,67.72142,33.506302,-145.860565,,,
729861625.683856,1.455445,2.217646,130.234429,-0.041672,0.009827,1.044861,0.009378,0.104018,-0.035344,67.72142,33.506302,-145.860565,,,
729861625.687196,1.455445,2.217646,130.234429,-0.041672,0.009827,1.044861,0.009378,0.104018,-0.035344,67.72142,33.506302,-145.860565,,,
729861625.690597,1.481163,2.24537,130.228849,-0.041672,0.009827,1.044861,0.082303,0.102139,-0.019217,67.72142,33.506302,-145.860565,,,
729861625.693851,1.515888,2.267492,130.224296,-0.053467,0.009003,1.056534,0.082303,0.102139,-0.019217,67.704575,33.548935,-145.76178,,,
729861625.697192,1.515888,2.267492,130.224296,-0.053467,0.009003,1.056534,0.082303,0.102139,-0.019217,67.704575,33.548935,-145.76178,,,
729861625.700528,1.553246,2.284863,130.219728,-0.053467,0.009003,1.056534,0.132081,0.069219,-0.010636,67.704575,33.548935,-145.76178,,,
729861625.703855,1.59306,2.292306,130.214142,-0.053665,0.016754,1.034073,0.132081,0.069219,-0.010636,67.704575,33.548935,-145.76178,,,
729861625.707231,1.59306,2.292306,130.214142,-0.053665,0.016754,1.034073,0.132081,0.069219,-0.010636,67.704575,33.548935,-145.76178,,,
729861625.710517,1.625198,2.294497,130.206833,-0.053665,0.016754,1.034073,0.120163,0.017217,-0.020642,67.704575,33.548935,-145.76178,,,
729861625.713856,1.652094,2.287585,130.197496,-0.053543,0.033661,0.990921,0.120163,0.017217,-0.020642,67.704575,33.548935,-145.76178,,,
729861625.717219,1.652094,2.287585,130.197496,-0.053543,0.033661,0.990921,0.120163,0.017217,-0.020642,67.704575,33.548935,-145.76178,,,
729861625.720517,1.668194,2.278321,130.186318,-0.053543,0.033661,0.990921,0.067675,-0.029077,-0.037147,67.704575,33.548935,-145.76178,,,
729861625.723891,1.676003,2.262541,130.174188,-0.051056,0.047272,0.962097,0.067675,-0.029077,-0.037147,67.704575,33.548935,-145.76178,,,
729861625.727252,1.676003,2.262541,130.174188,-0.051056,0.047272,0.962097,0.067675,-0.029077,-0.037147,67.704575,33.548935,-145.76178,,,
729861625.730549,1.674376,2.246968,130.161104,-0.051056,0.047272,0.962097,0.005328,-0.053248,-0.047905,67.704575,33.548935,-145.76178,,,
729861625.733886,1.664655,2.227833,130.147941,-0.053055,0.050201,0.950623,0.005328,-0.053248,-0.047905,67.745132,33.354584,-146.30658,,,
729861625.737203,1.664655,2.227833,130.147941,-0.053055,0.050201,0.950623,0.005328,-0.053248,-0.047905,67.745132,33.354584,-146.30658,,,
729861625.740536,1.646705,2.212295,130.135969,-0.053055,0.050201,0.950623,-0.053313,-0.054383,-0.047867,67.745132,33.354584,-146.30658,,,
729861625.74389,1.622379,2.196424,130.125711,-0.055893,0.045273,0.951706,-0.053313,-0.054383,-0.047867,67.745132,33.354584,-146.30658,,,
729861625.74721,1.622379,2.196424,130.125711,-0.055893,0.045273,0.951706,-0.053313,-0.054383,-0.047867,67.745132,33.354584,-146.30658,,,
729861625.750537,1.594603,2.186075,130.117063,-0.055893,0.045273,0.951706,-0.092101,-0.037033,-0.036629,67.745132,33.354584,-146.30658,,,
729861625.753677,1.565654,2.178153,130.109881,-0.057602,0.037704,0.971359,-0.092101,-0.037033,-0.036629,67.745132,33.354584,-146.30658,,,
729861625.757226,1.565654,2.178153,130.109881,-0.057602,0.037704,0.971359,-0.092101,-0.037033,-0.036629,67.745132,33.354584,-146.30658,,,
729861625.760535,1.541141,2.174516,130.10395,-0.057602,0.037704,0.971359,-0.090177,-0.01436,-0.026013,67.745132,33.354584,-146.30658,,,
729861625.763857,1.519993,2.175129,130.09884,-0.055145,0.027695,1.000031,-0.090177,-0.01436,-0.026013,67.745132,33.354584,-146.30658,,,
729861625.767297,1.519993,2.175129,130.09884,-0.055145,0.027695,1.000031,-0.090177,-0.01436,-0.026013,67.745132,33.354584,-146.30658,,,
729861625.770541,1.507994,2.178626,130.093696,-0.055145,0.027695,1.000031,-0.048168,0.011267,-0.021484,67.745132,33.354584,-146.30658,,,
729861625.773859,1.50122,2.187666,130.088601,-0.049347,0.024033,1.023132,-0.048168,0.011267,-0.021484,67.740219,33.378036,-146.309433,,,
729861625.77728,1.50122,2.187666,130.088601,-0.049347,0.024033,1.023132,-0.048168,0.011267,-0.021484,67.740219,33.378036,-146.309433,,,
729861625.780513,1.503953,2.197738,130.084587,-0.049347,0.024033,1.023132,0.003119,0.037043,-0.017674,67.740219,33.378036,-146.309433,,,
729861625.783869,1.513902,2.212808,130.082471,-0.051697,0.020248,1.032349,0.003119,0.037043,-0.017674,67.740219,33.378036,-146.309433,,,
729861625.787201,1.513902,2.212808,130.082471,-0.051697,0.020248,1.032349,0.003119,0.037043,-0.017674,67.740219,33.378036,-146.309433,,,
729861625.7906,1.530593,2.227874,130.083246,-0.051697,0.020248,1.032349,0.053385,0.056347,0.001092,67.740219,33.378036,-146.309433,,,
729861625.793851,1.553348,2.245732,130.087614,-0.062668,0.015045,1.030716,0.053385,0.056347,0.001092,67.740219,33.378036,-146.309433,,,
729861625.797205,1.553348,2.245732,130.087614,-0.062668,0.015045,1.030716,0.053385,0.056347,0.001092,67.740219,33.378036,-146.309433,,,
729861625.800607,1.576406,2.260015,130.095662,-0.062668,0.015045,1.030716,0.080884,0.056783,0.026629,67.740219,33.378036,-146.309433,,,
729861625.803849,1.602369,2.272896,130.106514,-0.072144,0.013504,1.015976,0.080884,0.056783,0.026629,67.740219,33.378036,-146.309433,,,
729861625.80721,1.602369,2.272896,130.106514,-0.072144,0.013504,1.015976,0.080884,0.056783,0.026629,67.740219,33.378036,-146.309433,,,
729861625.810532,1.622505,2.278223,130.118716,-0.072144,0.013504,1.015976,0.073145,0.026955,0.043619,67.740219,33.378036,-146.309433,,,
729861625.813648,1.640555,2.279003,130.130819,-0.072586,0.023819,0.985977,0.073145,0.026955,0.043619,67.740219,33.378036,-146.309433,,,
729861625.817213,1.640555,2.279003,130.130819,-0.072586,0.023819,0.985977,0.073145,0.026955,0.043619,67.976074,33.254272,-146.254623,,,
729861625.820536,1.650172,2.269681,130.14185,-0.072586,0.023819,0.985977,0.038208,-0.020732,0.039508,67.976074,33.254272,-146.254623,,,
729861625.823856,1.654689,2.255568,130.150868,-0.06395,0.038345,0.959656,0.038208,-0.020732,0.039508,67.976074,33.254272,-146.254623,,,
729861625.827254,1.654689,2.255568,130.150868,-0.06395,0.038345,0.959656,0.038208,-0.020732,0.039508,67.976074,33.254272,-146.254623,,,
729861625.83053,1.651109,2.233323,130.157859,-0.06395,0.038345,0.959656,-0.007535,-0.070907,0.024193,67.976074,33.254272,-146.254623,,,
729861625.833871,1.641392,2.209541,130.162445,-0.050201,0.046875,0.94693,-0.007535,-0.070907,0.024193,67.976074,33.254272,-146.254623,,,
729861625.83723,1.641392,2.209541,130.162445,-0.050201,0.046875,0.94693,-0.007535,-0.070907,0.024193,67.976074,33.254272,-146.254623,,,
729861625.840582,1.624579,2.181913,130.164998,-0.050201,0.046875,0.94693,-0.053232,-0.094423,0.00876,67.976074,33.254272,-146.254623,,,
729861625.843853,1.602312,2.156415,130.166251,-0.040466,0.047501,0.951843,-0.053232,-0.094423,0.00876,67.976074,33.254272,-146.254623,,,
729861625.8472,1.602312,2.156415,130.166251,-0.040466,0.047501,0.951843,-0.053232,-0.094423,0.00876,67.976074,33.254272,-146.254623,,,
729861625.850516,1.578277,2.13194,130.167427,-0.040466,0.047501,0.951843,-0.082338,-0.086127,-0.002545,67.976074,33.254272,-146.254623,,,
729861625.85387,1.554336,2.115324,130.169676,-0.035507,0.04184,0.971207,-0.082338,-0.086127,-0.002545,67.976074,33.254272,-146.254623,,,
729861625.857198,1.554336,2.115324,130.169676,-0.035507,0.04184,0.971207,-0.082338,-0.086127,-0.002545,67.705032,33.374405,-146.202057,,,
729861625.860534,1.533903,2.104354,130.173491,-0.035507,0.04184,0.971207,-0.076045,-0.039527,0.008227,67.705032,33.374405,-146.202057,,,
729861625.863852,1.516939,2.104054,130.179091,-0.034714,0.029434,1.00592,-0.076045,-0.039527,0.008227,67.705032,33.374405,-146.202057,,,
729861625.86722,1.516939,2.104054,130.179091,-0.034714,0.029434,1.00592,-0.076045,-0.039527,0.008227,67.705032,33.374405,-146.202057,,,
729861625.870536,1.506775,2.107237,130.187001,-0.034714,0.029434,1.00592,-0.040868,0.0086,0.025797,67.705032,33.374405,-146.202057,,,
729861625.873853,1.500494,2.119404,130.195918,-0.033524,0.017822,1.031433,-0.040868,0.0086,0.025797,67.705032,33.374405,-146.202057,,,
729861625.877282,1.500494,2.119404,130.195918,-0.033524,0.017822,1.031433,-0.040868,0.0086,0.025797,67.705032,33.374405,-146.202057,,,
729861625.880533,1.501855,2.130907,130.205686,-0.033524,0.017822,1.031433,-0.001194,0.043855,0.031186,67.705032,33.374405,-146.202057,,,
729861625.883905,1.506983,2.149767,130.215568,-0.02977,0.018417,1.035065,-0.001194,0.043855,0.031186,67.705032,33.374405,-146.202057,,,
729861625.887201,1.506983,2.149767,130.215568,-0.02977,0.018417,1.035065,-0.001194,0.043855,0.031186,67.705032,33.374405,-146.202057,,,
729861625.890598,1.516062,2.163171,130.224688,-0.02977,0.018417,1.035065,0.027859,0.053397,0.033374,67.705032,33.374405,-146.202057,,,
729861625.893848,1.526699,2.17904,130.232305,-0.026581,0.021622,1.025421,0.027859,0.053397,0.033374,67.705032,33.374405,-146.202057,,,
729861625.897192,1.526699,2.17904,130.232305,-0.026581,0.021622,1.025421,0.027859,0.053397,0.033374,67.921524,33.396805,-146.273651,,,
729861625.900543,1.535491,2.185419,130.238408,-0.026581,0.021622,1.025421,0.034199,0.029121,0.023487,67.921524,33.396805,-146.273651,,,
729861625.903856,1.544425,2.191287,130.242658,-0.024536,0.028931,1.003754,0.034199,0.029121,0.023487,67.921524,33.396805,-146.273651,,,
729861625.90721,1.544425,2.191287,130.242658,-0.024536,0.028931,1.003754,0.034199,0.029121,0.023487,67.921524,33.396805,-146.273651,,,
729861625.910536,1.547229,2.187486,130.245453,-0.024536,0.028931,1.003754,0.016102,-0.006384,0.010355,67.921524,33.396805,-146.273651,,,
729861625.913878,1.549443,2.180139,130.247303,-0.025391,0.033615,0.983536,0.016102,-0.006384,0.010355,67.921524,33.396805,-146.273651,,,
729861625.917225,1.549443,2.180139,130.247303,-0.025391,0.033615,0.983536,0.016102,-0.006384,0.010355,67.921524,33.396805,-146.273651,,,
729861625.920518,1.544293,2.166349,130.249115,-0.025391,0.033615,0.983536,-0.012235,-0.043719,0.00522,67.921524,33.396805,-146.273651,,,
729861625.92385,1.538624,2.148779,130.251082,-0.02858,0.037277,0.975754,-0.012235,-0.043719,0.00522,67.921524,33.396805,-146.273651,,,
729861625.92725,1.538624,2.148779,130.251082,-0.02858,0.037277,0.975754,-0.012235,-0.043719,0.00522,67.921524,33.396805,-146.273651,,,
729861625.930538,1.527252,2.128114,130.252388,-0.02858,0.037277,0.975754,-0.037203,-0.068086,0.002579,67.921524,33.396805,-146.273651,,,
729861625.933869,1.515378,2.105993,130.252973,-0.026886,0.037949,0.976837,-0.037203,-0.068086,0.002579,67.921524,33.396805,-146.273651,,,
729861625.93719,1.515378,2.105993,130.252973,-0.026886,0.037949,0.976837,-0.037203,-0.068086,0.002579,67.590271,33.615051,-146.106705,,,
729861625.940526,1.500079,2.083749,130.252768,-0.026886,0.037949,0.976837,-0.050111,-0.072762,-0.004687,67.590271,33.615051,-146.106705,,,
729861625.943853,1.48265,2.061151,130.250639,-0.021011,0.037796,0.986694,-0.050111,-0.072762,-0.004687,67.590271,33.615051,-146.106705,,,
729861625.947205,1.48265,2.061151,130.250639,-0.021011,0.037796,0.986694,-0.050111,-0.072762,-0.004687,67.590271,33.615051,-146.106705,,,
729861625.950552,1.464195,2.040037,130.24663,-0.021011,0.037796,0.986694,-0.062594,-0.070616,-0.016671,67.590271,33.615051,-146.106705,,,
729861625.953854,1.443189,2.019597,130.241054,-0.016647,0.035339,0.992691,-0.062594,-0.070616,-0.016671,67.590271,33.615051,-146.106705,,,
729861625.957227,1.443189,2.019597,130.241054,-0.016647,0.035339,0.992691,-0.062594,-0.070616,-0.016671,67.590271,33.615051,-146.106705,,,
729861625.960531,1.424099,2.003585,130.234176,-0.016647,0.035339,0.992691,-0.067029,-0.058057,-0.026404,67.590271,33.615051,-146.106705,,,
729861625.963857,1.405366,1.991774,130.227314,-0.017807,0.030502,0.998245,-0.067029,-0.058057,-0.026404,67.590271,33.615051,-146.106705,,,
729861625.96726,1.405366,1.991774,130.227314,-0.017807,0.030502,0.998245,-0.067029,-0.058057,-0.026404,67.590271,33.615051,-146.106705,,,
729861625.970529,1.390989,1.989803,130.221562,-0.017807,0.030502,0.998245,-0.054493,-0.012406,-0.024525,67.590271,33.615051,-146.106705,,,
729861625.97386,1.380846,1.993922,130.217706,-0.024994,0.019073,1.021835,-0.054493,-0.012406,-0.024525,67.590271,33.615051,-146.106705,,,
729861625.977309,1.380846,1.993922,130.217706,-0.024994,0.019073,1.021835,-0.054493,-0.012406,-0.024525,67.590271,33.615051,-146.106705,,,
729861625.980518,1.37634,2.007111,130.215971,-0.024994,0.019073,1.021835,-0.022473,0.043383,-0.01036,67.472946,33.727127,-145.932098,,,
729861625.983854,1.377449,2.023585,130.216243,-0.032669,0.00708,1.040161,-0.022473,0.043383,-0.01036,67.472946,33.727127,-145.932098,,,
729861625.9872,1.377449,2.023585,130.216243,-0.032669,0.00708,1.040161,-0.022473,0.043383,-0.01036,67.472946,33.727127,-145.932098,,,
729861625.9906,1.380478,2.045503,130.218401,-0.032669,0.00708,1.040161,0.010118,0.077991,0.005057,67.472946,33.727127,-145.932098,,,
729861625.993847,1.388519,2.065822,130.22198,-0.042557,0.005051,1.03183,0.010118,0.077991,0.005057,67.472946,33.727127,-145.932098,,,
729861625.99719,1.388519,2.065822,130.22198,-0.042557,0.005051,1.03183,0.010118,0.077991,0.005057,67.472946,33.727127,-145.932098,,,
729861626.000551,1.395347,2.086989,130.226103,-0.042557,0.005051,1.03183,0.024561,0.080655,0.014442,67.472946,33.727127,-145.932098,,,
729861626.003862,1.406838,2.101885,130.230715,-0.047791,0.01033,1.014267,0.024561,0.080655,0.014442,67.472946,33.727127,-145.932098,,,
729861626.007203,1.406838,2.101885,130.230715,-0.047791,0.01033,1.014267,0.024561,0.080655,0.014442,67.472946,33.727127,-145.932098,,,
729861626.010606,1.414287,2.114301,130.234724,-0.047791,0.01033,1.014267,0.02407,0.053049,0.013275,67.472946,33.727127,-145.932098,,,
729861626.013847,1.424847,2.116384,130.237965,-0.048645,0.015991,0.995438,0.02407,0.053049,0.013275,67.472946,33.727127,-145.932098,,,
729861626.017197,1.424847,2.116384,130.237965,-0.048645,0.015991,0.995438,0.02407,0.053049,0.013275,67.472946,33.727127,-145.932098,,,
729861626.020516,1.430243,2.116343,130.2405,-0.048645,0.015991,0.995438,0.019463,0.007363,0.010891,67.569885,33.741562,-146.184616,,,
729861626.02386,1.437671,2.10352,130.242494,-0.051636,0.019424,0.980072,0.019463,0.007363,0.010891,67.569885,33.741562,-146.184616,,,
729861626.027298,1.437671,2.10352,130.242494,-0.051636,0.019424,0.980072,0.019463,0.007363,0.010891,67.569885,33.741562,-146.184616,,,
729861626.030545,1.440252,2.090603,130.243876,-0.051636,0.019424,0.980072,0.010328,-0.037648,0.00549,67.569885,33.741562,-146.184616,,,
729861626.033862,1.444325,2.067257,130.244956,-0.050278,0.023087,0.973267,0.010328,-0.037648,0.00549,67.569885,33.741562,-146.184616,,,
729861626.037204,1.444325,2.067257,130.244956,-0.050278,0.023087,0.973267,0.010328,-0.037648,0.00549,67.569885,33.741562,-146.184616,,,
729861626.040548,1.443996,2.049115,130.244443,-0.050278,0.023087,0.973267,0.002698,-0.061463,-0.000267,67.569885,33.741562,-146.184616,,,
729861626.04385,1.441594,2.025779,130.243012,-0.042023,0.026505,0.972992,0.002698,-0.061463,-0.000267,67.569885,33.741562,-146.184616,,,
729861626.047198,1.441594,2.025779,130.243012,-0.042023,0.026505,0.972992,0.002698,-0.061463,-0.000267,67.569885,33.741562,-146.184616,,,
729861626.05052,1.437669,2.01069,130.241263,-0.042023,0.026505,0.972992,-0.011328,-0.052409,-0.005756,67.569885,33.741562,-146.184616,,,
729861626.053854,1.437669,2.01069,130.241263,-0.037201,0.025406,0.978989,-0.011328,-0.052409,-0.005756,67.569885,33.741562,-146.184616,,,
729861626.057207,1.428687,1.996313,130.239537,-0.037201,0.025406,0.978989,-0.011328,-0.052409,-0.005756,67.569885,33.741562,-146.184616,,,
729861626.060518,1.421501,1.98937,130.238089,-0.037201,0.025406,0.978989,-0.023185,-0.026108,-0.01032,67.566208,33.724457,-146.175308,,,
729861626.063844,1.421501,1.98937,130.238089,-0.031967,0.023392,0.980026,-0.023185,-0.026108,-0.01032,67.566208,33.724457,-146.175308,,,
729861626.06719,1.407271,1.986742,130.236819,-0.031967,0.023392,0.980026,-0.023185,-0.026108,-0.01032,67.566208,33.724457,-146.175308,,,
729861626.070519,1.399961,1.99029,130.236293,-0.031967,0.023392,0.980026,-0.026534,0.009073,-0.004525,67.566208,33.724457,-146.175308,,,
729861626.073851,1.399961,1.99029,130.236293,-0.02916,0.018509,0.985718,-0.026534,0.009073,-0.004525,67.566208,33.724457,-146.175308,,,
729861626.07728,1.390168,2.0042,130.237469,-0.02916,0.018509,0.985718,-0.026534,0.009073,-0.004525,67.566208,33.724457,-146.175308,,,
729861626.080548,1.389652,2.020933,130.240458,-0.02916,0.018509,0.985718,-0.004761,0.058006,0.006575,67.566208,33.724457,-146.175308,,,
729861626.083895,1.389652,2.020933,130.240458,-0.033691,0.01297,1.003906,-0.004761,0.058006,0.006575,67.566208,33.724457,-146.175308,,,
729861626.087183,1.389349,2.046338,130.244965,-0.033691,0.01297,1.003906,-0.004761,0.058006,0.006575,67.566208,33.724457,-146.175308,,,
729861626.090518,1.39601,2.067515,130.250885,-0.033691,0.01297,1.003906,0.019886,0.076724,0.020135,67.566208,33.724457,-146.175308,,,
729861626.093852,1.39601,2.067515,130.250885,-0.037018,0.011276,1.005157,0.019886,0.076724,0.020135,67.566208,33.724457,-146.175308,,,
729861626.097203,1.402248,2.092883,130.257193,-0.037018,0.011276,1.005157,0.019886,0.076724,0.020135,67.566208,33.724457,-146.175308,,,
729861626.10052,1.411372,2.108582,130.263315,-0.037018,0.011276,1.005157,0.031693,0.062638,0.021815,67.788895,33.565796,-146.194977,,,
729861626.103851,1.411372,2.108582,130.263315,-0.035934,0.018143,0.989777,0.031693,0.062638,0.021815,67.788895,33.565796,-146.194977,,,
729861626.107279,1.418936,2.125032,130.26797,-0.035934,0.018143,0.989777,0.031693,0.062638,0.021815,67.788895,33.565796,-146.194977,,,
729861626.110537,1.425784,2.129274,130.270942,-0.035934,0.018143,0.989777,0.026519,0.024253,0.010172,67.788895,33.565796,-146.194977,,,
729861626.113906,1.425784,2.129274,130.270942,-0.034195,0.028152,0.9785,0.026519,0.024253,0.010172,67.788895,33.565796,-146.194977,,,
729861626.117187,1.430625,2.131749,130.272018,-0.034195,0.028152,0.9785,0.026519,0.024253,0.010172,67.788895,33.565796,-146.194977,,,
729861626.120533,1.432907,2.123829,130.271652,-0.034195,0.028152,0.9785,0.010626,-0.020088,-0.001141,67.788895,33.565796,-146.194977,,,
729861626.123909,1.432907,2.123829,130.271652,-0.031921,0.030655,0.969345,0.010626,-0.020088,-0.001141,67.788895,33.565796,-146.194977,,,
729861626.127199,1.431861,2.112229,130.270553,-0.031921,0.030655,0.969345,0.010626,-0.020088,-0.001141,67.788895,33.565796,-146.194977,,,
729861626.13053,1.425907,2.096222,130.269557,-0.031921,0.030655,0.969345,-0.015113,-0.051687,-0.004524,67.788895,33.565796,-146.194977,,,
729861626.133912,1.425907,2.096222,130.269557,-0.033798,0.03067,0.969681,-0.015113,-0.051687,-0.004524,67.788895,33.565796,-146.194977,,,
729861626.137183,1.415791,2.078042,130.268969,-0.033798,0.03067,0.969681,-0.015113,-0.051687,-0.004524,67.788895,33.565796,-146.194977,,,
729861626.140519,1.40219,2.059838,130.268325,-0.033798,0.03067,0.969681,-0.045061,-0.063458,-0.002529,67.788895,33.565796,-146.194977,,,
729861626.143908,1.40219,2.059838,130.268325,-0.030487,0.029175,0.972641,-0.045061,-0.063458,-0.002529,67.484344,33.459015,-146.011017,,,
729861626.147199,1.384786,2.04217,130.266626,-0.030487,0.029175,0.972641,-0.045061,-0.063458,-0.002529,67.484344,33.459015,-146.011017,,,
729861626.150541,1.36436,2.02918,130.264373,-0.030487,0.029175,0.972641,-0.066261,-0.049366,-0.010421,67.484344,33.459015,-146.011017,,,
729861626.153916,1.36436,2.02918,130.264373,-0.030487,0.029175,0.972641,-0.066261,-0.049366,-0.010421,67.484344,33.459015,-146.011017,,,
729861626.157258,1.340074,2.019989,130.261508,-0.021362,0.02861,0.979309,-0.066261,-0.049366,-0.010421,67.484344,33.459015,-146.011017,,,
729861626.16053,1.315599,2.017803,130.257026,-0.021362,0.02861,0.979309,-0.083246,-0.008865,-0.016929,67.484344,33.459015,-146.011017,,,
729861626.163862,1.315599,2.017803,130.257026,-0.021362,0.02861,0.979309,-0.083246,-0.008865,-0.016929,67.484344,33.459015,-146.011017,,,
729861626.16722,1.2884,2.022205,130.251529,-0.013321,0.028137,0.993179,-0.083246,-0.008865,-0.016929,67.484344,33.459015,-146.011017,,,
729861626.170524,1.265071,2.033843,130.246353,-0.013321,0.028137,0.993179,-0.080071,0.0343,-0.022913,67.484344,33.459015,-146.011017,,,
729861626.173889,1.265071,2.033843,130.246353,-0.013321,0.028137,0.993179,-0.080071,0.0343,-0.022913,67.484344,33.459015,-146.011017,,,
729861626.177204,1.244597,2.052141,130.242333,-0.014252,0.021286,1.005951,-0.080071,0.0343,-0.022913,67.484344,33.459015,-146.011017,,,
729861626.180528,1.233424,2.07506,130.239432,-0.014252,0.021286,1.005951,-0.046463,0.079295,-0.013973,67.484344,33.459015,-146.011017,,,
729861626.183884,1.233424,2.07506,130.239432,-0.014252,0.021286,1.005951,-0.046463,0.079295,-0.013973,67.639389,33.784027,-146.281738,,,
729861626.187199,1.230777,2.101637,130.237536,-0.021896,0.010483,1.029587,-0.046463,0.079295,-0.013973,67.639389,33.784027,-146.281738,,,
729861626.19052,1.23493,2.129078,130.236291,-0.021896,0.010483,1.029587,0.011121,0.101945,-0.005994,67.639389,33.784027,-146.281738,,,
729861626.193943,1.23493,2.129078,130.236291,-0.021896,0.010483,1.029587,0.011121,0.101945,-0.005994,67.639389,33.784027,-146.281738,,,
729861626.19719,1.247298,2.152893,130.235082,-0.030045,0.002731,1.042526,0.011121,0.101945,-0.005994,67.639389,33.784027,-146.281738,,,
729861626.200561,1.26091,2.17179,130.233946,-0.030045,0.002731,1.042526,0.048896,0.076263,-0.003066,67.639389,33.784027,-146.281738,,,
729861626.203913,1.26091,2.17179,130.233946,-0.030045,0.002731,1.042526,0.048896,0.076263,-0.003066,67.639389,33.784027,-146.281738,,,
729861626.207263,1.278316,2.180258,130.232352,-0.035446,0.006241,1.026794,0.048896,0.076263,-0.003066,67.639389,33.784027,-146.281738,,,
729861626.210522,1.293086,2.180155,130.229753,-0.035446,0.006241,1.026794,0.053154,0.009215,-0.008432,67.639389,33.784027,-146.281738,,,
729861626.213907,1.293086,2.180155,130.229753,-0.035446,0.006241,1.026794,0.053154,0.009215,-0.008432,67.639389,33.784027,-146.281738,,,
729861626.217191,1.310493,2.170024,130.226662,-0.041367,0.016113,1.001877,0.053154,0.009215,-0.008432,67.639389,33.784027,-146.281738,,,
729861626.220521,1.327143,2.154396,130.222983,-0.041367,0.016113,1.001877,0.05616,-0.047856,-0.013106,67.639389,33.784027,-146.281738,,,
729861626.223891,1.327143,2.154396,130.222983,-0.041367,0.016113,1.001877,0.05616,-0.047856,-0.013106,67.675049,33.561356,-146.334961,,,
729861626.227205,1.350643,2.132417,130.219323,-0.042465,0.017456,1.010452,0.05616,-0.047856,-0.013106,67.675049,33.561356,-146.334961,,,
729861626.230527,1.383936,2.114106,130.215882,-0.042465,0.017456,1.010452,0.101211,-0.061541,-0.010139,67.675049,33.561356,-146.334961,,,
729861626.233858,1.383936,2.114106,130.215882,-0.042465,0.017456,1.010452,0.101211,-0.061541,-0.010139,67.675049,33.561356,-146.334961,,,
729861626.237197,1.436008,2.095548,130.213035,-0.037582,0.006821,1.065842,0.101211,-0.061541,-0.010139,67.675049,33.561356,-146.334961,,,
729861626.240529,1.514493,2.084341,130.210654,-0.037582,0.006821,1.065842,0.241552,-0.042496,-0.000114,67.675049,33.561356,-146.334961,,,
729861626.243959,1.514493,2.084341,130.210654,-0.037582,0.006821,1.065842,0.241552,-0.042496,-0.000114,67.675049,33.561356,-146.334961,,,
729861626.247183,1.630311,2.078523,130.208266,-0.032593,-0.014236,1.161163,0.241552,-0.042496,-0.000114,67.675049,33.561356,-146.334961,,,
729861626.250533,1.792132,2.082249,130.204919,-0.032593,-0.014236,1.161163,0.519767,0.008034,0.0076,67.675049,33.561356,-146.334961,,,
729861626.253866,1.792132,2.082249,130.204919,-0.032593,-0.014236,1.161163,0.519767,0.008034,0.0076,67.675049,33.561356,-146.334961,,,
729861626.257252,2.005401,2.094764,130.200156,-0.031235,-0.046936,1.288803,0.519767,0.008034,0.0076,67.675049,33.561356,-146.334961,,,
729861626.260513,2.269493,2.115718,130.194621,-0.031235,-0.046936,1.288803,0.879743,0.067162,0.012493,67.675049,33.561356,-146.334961,,,
729861626.263857,2.269493,2.115718,130.194621,-0.031235,-0.046936,1.288803,0.879743,0.067162,0.012493,67.698578,32.587463,-146.661407,,,
729861626.267197,2.575625,2.14483,130.186415,-0.035233,-0.066101,1.394348,0.879743,0.067162,0.012493,67.698578,32.587463,-146.661407,,,
729861626.270523,2.914503,2.1817,130.169751,-0.035233,-0.066101,1.394348,1.156369,0.125891,-0.002843,67.698578,32.587463,-146.661407,,,
729861626.273874,2.914503,2.1817,130.169751,-0.035233,-0.066101,1.394348,1.156369,0.125891,-0.002843,67.698578,32.587463,-146.661407,,,
729861626.277196,3.283312,2.224478,130.138579,-0.023193,-0.074936,1.394348,1.156369,0.125891,-0.002843,67.698578,32.587463,-146.661407,,,
729861626.280527,3.682408,2.271839,130.091425,-0.023193,-0.074936,1.394348,1.370032,0.154334,-0.097889,67.698578,32.587463,-146.661407,,,
729861626.283856,3.682408,2.271839,130.091425,-0.023193,-0.074936,1.394348,1.370032,0.154334,-0.097889,67.698578,32.587463,-146.661407,,,
729861626.287204,4.113719,2.320327,130.031967,0.008301,-0.023041,1.332718,1.370032,0.154334,-0.097889,67.698578,32.587463,-146.661407,,,
729861626.290518,4.578994,2.361991,129.965653,0.008301,-0.023041,1.332718,1.600568,0.145007,-0.16491,67.698578,32.587463,-146.661407,,,
729861626.293928,4.578994,2.361991,129.965653,0.008301,-0.023041,1.332718,1.600568,0.145007,-0.16491,67.698578,32.587463,-146.661407,,,
729861626.2972,5.077938,2.391179,129.898122,-0.023453,0.000839,1.306168,1.600568,0.145007,-0.16491,67.698578,32.587463,-146.661407,,,
729861626.300533,5.609688,2.408425,129.83325,-0.023453,0.000839,1.306168,1.829895,0.049919,-0.154706,67.698578,32.587463,-146.661407,,,
729861626.303871,5.609688,2.408425,129.83325,-0.023453,0.000839,1.306168,1.829895,0.049919,-0.154706,67.698578,32.587463,-146.661407,,,
729861626.307285,6.177475,2.418906,129.773018,-0.060303,-0.021866,1.283447,1.829895,0.049919,-0.154706,67.807434,29.12941,-147.328064,,,
729861626.31052,6.782815,2.42601,129.718133,-0.060303,-0.021866,1.283447,2.087345,0.007726,-0.10866,67.807434,29.12941,-147.328064,,,
729861626.313861,6.782815,2.42601,129.718133,-0.060303,-0.021866,1.283447,2.087345,0.007726,-0.10866,67.807434,29.12941,-147.328064,,,
729861626.317205,7.4201,2.428089,129.668478,-0.083008,-0.005905,1.287796,2.087345,0.007726,-0.10866,67.807434,29.12941,-147.328064,,,
729861626.320527,8.080187,2.422896,129.622928,-0.083008,-0.005905,1.287796,2.292133,-0.025674,-0.064341,67.807434,29.12941,-147.328064,,,
729861626.323869,8.080187,2.422896,129.622928,-0.083008,-0.005905,1.287796,2.292133,-0.025674,-0.064341,67.807434,29.12941,-147.328064,,,
729861626.327213,8.752512,2.40931,129.579551,-0.085403,0.023041,1.253784,2.292133,-0.025674,-0.064341,67.807434,29.12941,-147.328064,,,
729861626.33058,9.427699,2.387222,129.537408,-0.085403,0.023041,1.253784,2.356776,-0.09417,-0.047438,67.807434,29.12941,-147.328064,,,
729861626.333882,9.427699,2.387222,129.537408,-0.085403,0.023041,1.253784,2.356776,-0.09417,-0.047438,67.807434,29.12941,-147.328064,,,
729861626.337221,10.101419,2.360019,129.495037,-0.069809,0.055389,1.140854,2.356776,-0.09417,-0.047438,67.807434,29.12941,-147.328064,,,
729861626.340522,10.771734,2.332406,129.450456,-0.069809,0.055389,1.140854,2.348026,-0.122143,-0.053427,67.807434,29.12941,-147.328064,,,
729861626.343933,10.771734,2.332406,129.450456,-0.069809,0.055389,1.140854,2.348026,-0.122143,-0.053427,67.807434,29.12941,-147.328064,,,
729861626.347191,11.432255,2.305043,129.402947,-0.05365,0.074127,1.062729,2.348026,-0.122143,-0.053427,67.666626,24.723343,-147.771973,,,
729861626.35053,12.078051,2.279796,129.352547,-0.05365,0.074127,1.062729,2.268703,-0.122214,-0.079886,67.666626,24.723343,-147.771973,,,
729861626.353862,12.078051,2.279796,129.352547,-0.05365,0.074127,1.062729,2.268703,-0.122214,-0.079886,67.666626,24.723343,-147.771973,,,
729861626.357239,12.705776,2.256704,129.300121,-0.038818,0.193939,1.022385,2.268703,-0.122214,-0.079886,67.666626,24.723343,-147.771973,,,
729861626.360513,13.315834,2.234576,129.246557,-0.038818,0.193939,1.022385,2.146646,-0.115571,-0.098937,67.666626,24.723343,-147.771973,,,
729861626.363865,13.315834,2.234576,129.246557,-0.038818,0.193939,1.022385,2.146646,-0.115571,-0.098937,67.666626,24.723343,-147.771973,,,
729861626.367192,13.910579,2.2117,129.193833,-0.034241,0.2202,0.969849,2.146646,-0.115571,-0.098937,67.666626,24.723343,-147.771973,,,
729861626.370521,14.494606,2.189042,129.142304,-0.034241,0.2202,0.969849,2.047292,-0.122492,-0.097275,67.666626,24.723343,-147.771973,,,
729861626.373867,14.494606,2.189042,129.142304,-0.034241,0.2202,0.969849,2.047292,-0.122492,-0.097275,67.666626,24.723343,-147.771973,,,
729861626.377195,15.073677,2.168223,129.091597,-0.039108,0.205002,0.95816,2.047292,-0.122492,-0.097275,67.666626,24.723343,-147.771973,,,
729861626.380526,15.6558,2.151536,129.041601,-0.039108,0.205002,0.95816,2.026136,-0.10446,-0.092163,67.666626,24.723343,-147.771973,,,
729861626.383856,15.6558,2.151536,129.041601,-0.039108,0.205002,0.95816,2.026136,-0.10446,-0.092163,67.666626,24.723343,-147.771973,,,
729861626.3872,16.246146,2.139722,128.991559,-0.034805,0.204636,0.997589,2.026136,-0.10446,-0.092163,67.430634,20.235107,-148.173798,,,
729861626.390526,16.848834,2.13226,128.940642,-0.034805,0.204636,0.997589,2.092902,-0.077191,-0.091574,67.430634,20.235107,-148.173798,,,
729861626.393902,16.848834,2.13226,128.940642,-0.034805,0.204636,0.997589,2.092902,-0.077191,-0.091574,67.430634,20.235107,-148.173798,,,
729861626.397191,17.46601,2.128984,128.888136,-0.021072,0.203369,1.052582,2.092902,-0.077191,-0.091574,67.430634,20.235107,-148.173798,,,
729861626.400523,18.100352,2.130834,128.83346,-0.021072,0.203369,1.052582,2.200807,-0.052375,-0.099427,67.430634,20.235107,-148.173798,,,
729861626.403858,18.100352,2.130834,128.83346,-0.021072,0.203369,1.052582,2.200807,-0.052375,-0.099427,67.430634,20.235107,-148.173798,,,
729861626.407191,18.75451,2.137077,128.77648,-0.014633,0.203918,1.0755,2.200807,-0.052375,-0.099427,67.430634,20.235107,-148.173798,,,
729861626.410518,19.432055,2.146833,128.717818,-0.014633,0.203918,1.0755,2.34769,-0.031856,-0.107114,67.430634,20.235107,-148.173798,,,
729861626.413866,19.432055,2.146833,128.717818,-0.014633,0.203918,1.0755,2.34769,-0.031856,-0.107114,67.430634,20.235107,-148.173798,,,
729861626.417191,20.131266,2.158423,128.65818,-0.014008,0.203873,1.085983,2.34769,-0.031856,-0.107114,67.430634,20.235107,-148.173798,,,
729861626.420519,20.851193,2.172187,128.59731,-0.014008,0.203873,1.085983,2.496086,-0.027161,-0.104239,67.430634,20.235107,-148.173798,,,
729861626.423872,20.851193,2.172187,128.59731,-0.014008,0.203873,1.085983,2.496086,-0.027161,-0.104239,67.430634,20.235107,-148.173798,,,
729861626.427244,21.590659,2.189559,128.535434,-0.018539,0.204483,1.080399,2.496086,-0.027161,-0.104239,67.430634,20.235107,-148.173798,,,
729861626.43052,22.346469,2.210336,128.473132,-0.018539,0.204483,1.080399,2.624445,-0.007579,-0.103139,67.361099,15.136932,-147.867676,,,
729861626.433896,22.346469,2.210336,128.473132,-0.018539,0.204483,1.080399,2.624445,-0.007579,-0.103139,67.361099,15.136932,-147.867676,,,
729861626.437221,23.113209,2.231133,128.410765,-0.021179,0.224426,1.055176,2.624445,-0.007579,-0.103139,67.361099,15.136932,-147.867676,,,
729861626.440531,23.888036,2.249175,128.347866,-0.021179,0.224426,1.055176,2.702951,-0.017851,-0.094627,67.361099,15.136932,-147.867676,,,
729861626.443957,23.888036,2.249175,128.347866,-0.021179,0.224426,1.055176,2.702951,-0.017851,-0.094627,67.361099,15.136932,-147.867676,,,
729861626.447202,24.669017,2.265331,128.283549,-0.023087,0.260574,1.020325,2.702951,-0.017851,-0.094627,67.361099,15.136932,-147.867676,,,
729861626.450544,25.455062,2.281186,128.216905,-0.023087,0.260574,1.020325,2.739828,-0.039814,-0.102305,67.361099,15.136932,-147.867676,,,
729861626.453858,25.455062,2.281186,128.216905,-0.023087,0.260574,1.020325,2.739828,-0.039814,-0.102305,67.361099,15.136932,-147.867676,,,
729861626.457306,26.24438,2.296587,128.146988,-0.026794,0.287628,0.995117,2.739828,-0.039814,-0.102305,67.361099,15.136932,-147.867676,,,
