Time (sec),Pitch (deg),Roll (deg),Yaw(deg),X-Acceleration (g),Y-Acceleration (g),Z-Acceleration (g),Pitch Rate (deg/sec),Roll Rate (deg/sec),Yaw Rate (deg/sec),Magnetic Field in X direction (uT),Magnetic Field in Y direction (uT),Magnetic Field in Z Direction (uT),Latitude (deg),Longitude (deg),Altitude (m)
729860439.479781,-1.61291,-1.901296,-25.187566,0.044189,-0.035217,1.014252,0.029646,-0.021875,-0.011855,79.06102,4.711792,-148.401489,,,
729860439.483087,-1.60271,-1.906478,-25.190056,0.044189,-0.035217,1.014252,0.029646,-0.021875,-0.011855,79.06102,4.711792,-148.401489,,,
729860439.48642,-1.60271,-1.906478,-25.190056,0.044189,-0.035217,1.014252,0.029646,-0.021875,-0.011855,79.06102,4.711792,-148.401489,,,
729860439.489762,-1.590383,-1.907423,-25.192463,0.04628,-0.036819,1.019943,0.045821,0.005952,-0.013476,79.06102,4.711792,-148.401489,,,
729860439.493085,-1.576913,-1.904105,-25.195077,0.04628,-0.036819,1.019943,0.045821,0.005952,-0.013476,79.06102,4.711792,-148.401489,,,
729860439.496425,-1.576913,-1.904105,-25.195077,0.04628,-0.036819,1.019943,0.045821,0.005952,-0.013476,79.06102,4.711792,-148.401489,,,
729860439.499754,-1.563161,-1.898305,-25.198099,0.04483,-0.03392,1.014618,0.047863,0.026209,-0.011741,78.676376,4.81897,-148.569977,,,
729860439.5031,-1.551702,-1.889546,-25.201715,0.04483,-0.03392,1.014618,0.047863,0.026209,-0.011741,78.676376,4.81897,-148.569977,,,
729860439.506425,-1.551702,-1.889546,-25.201715,0.04483,-0.03392,1.014618,0.047863,0.026209,-0.011741,78.676376,4.81897,-148.569977,,,
729860439.509758,-1.541896,-1.880357,-25.205759,0.039963,-0.02832,0.996521,0.031002,0.037013,-0.018601,78.676376,4.81897,-148.569977,,,
729860439.513081,-1.53804,-1.869214,-25.210537,0.039963,-0.02832,0.996521,0.031002,0.037013,-0.018601,78.676376,4.81897,-148.569977,,,
729860439.516428,-1.53804,-1.869214,-25.210537,0.039963,-0.02832,0.996521,0.031002,0.037013,-0.018601,78.676376,4.81897,-148.569977,,,
729860439.51975,-1.537312,-1.859101,-25.215879,0.0383,-0.023544,0.974152,-0.002354,0.038833,-0.020238,78.676376,4.81897,-148.569977,,,
729860439.523081,-1.542448,-1.84949,-25.221724,0.0383,-0.023544,0.974152,-0.002354,0.038833,-0.020238,78.676376,4.81897,-148.569977,,,
729860439.526523,-1.542448,-1.84949,-25.221724,0.0383,-0.023544,0.974152,-0.002354,0.038833,-0.020238,78.676376,4.81897,-148.569977,,,
729860439.529776,-1.550334,-1.841482,-25.228063,0.036041,-0.02037,0.962097,-0.034676,0.029554,-0.020934,78.676376,4.81897,-148.569977,,,
729860439.533095,-1.562911,-1.835297,-25.234184,0.036041,-0.02037,0.962097,-0.034676,0.029554,-0.020934,78.676376,4.81897,-148.569977,,,
729860439.536433,-1.562911,-1.835297,-25.234184,0.036041,-0.02037,0.962097,-0.034676,0.029554,-0.020934,78.676376,4.81897,-148.569977,,,
729860439.539793,-1.577532,-1.829881,-25.239715,0.027969,-0.02095,0.960999,-0.053116,0.02084,-0.016887,78.676376,4.81897,-148.569977,,,
729860439.54309,-1.594721,-1.827647,-25.244143,0.027969,-0.02095,0.960999,-0.053116,0.02084,-0.016887,78.911774,4.830521,-148.722961,,,
729860439.546426,-1.594721,-1.827647,-25.244143,0.027969,-0.02095,0.960999,-0.053116,0.02084,-0.016887,78.911774,4.830521,-148.722961,,,
729860439.549773,-1.611361,-1.824905,-25.24695,0.020782,-0.026413,0.969391,-0.05549,0.009584,-0.007174,78.911774,4.830521,-148.722961,,,
729860439.553142,-1.626774,-1.82637,-25.248591,0.020782,-0.026413,0.969391,-0.05549,0.009584,-0.007174,78.911774,4.830521,-148.722961,,,
729860439.556416,-1.626774,-1.82637,-25.248591,0.020782,-0.026413,0.969391,-0.05549,0.009584,-0.007174,78.911774,4.830521,-148.722961,,,
729860439.559817,-1.637028,-1.826103,-25.249792,0.022308,-0.032425,0.986801,-0.032118,0.002906,-0.004246,78.911774,4.830521,-148.722961,,,
729860439.56312,-1.643831,-1.828922,-25.250556,0.022308,-0.032425,0.986801,-0.032118,0.002906,-0.004246,78.911774,4.830521,-148.722961,,,
729860439.566511,-1.643831,-1.828922,-25.250556,0.022308,-0.032425,0.986801,-0.032118,0.002906,-0.004246,78.911774,4.830521,-148.722961,,,
729860439.569817,-1.644258,-1.828902,-25.250611,0.0233,-0.039139,1.0103,0.009178,0.002206,0.0003,78.911774,4.830521,-148.722961,,,
729860439.573087,-1.640629,-1.832254,-25.250553,0.0233,-0.039139,1.0103,0.009178,0.002206,0.0003,78.911774,4.830521,-148.722961,,,
729860439.576431,-1.640629,-1.832254,-25.250553,0.0233,-0.039139,1.0103,0.009178,0.002206,0.0003,78.911774,4.830521,-148.722961,,,
729860439.579827,-1.631779,-1.83337,-25.249538,0.025574,-0.040405,1.019333,0.037235,-0.00161,0.002774,78.911774,4.830521,-148.722961,,,
729860439.583086,-1.620619,-1.836505,-25.247912,0.025574,-0.040405,1.019333,0.037235,-0.00161,0.002774,78.900299,4.876694,-148.514587,,,
729860439.586473,-1.620619,-1.836505,-25.247912,0.025574,-0.040405,1.019333,0.037235,-0.00161,0.002774,78.900299,4.876694,-148.514587,,,
729860439.589758,-1.608576,-1.835664,-25.246649,0.032043,-0.037674,1.012878,0.046821,0.008532,0.001155,78.900299,4.876694,-148.514587,,,
729860439.593088,-1.596882,-1.83473,-25.246705,0.032043,-0.037674,1.012878,0.046821,0.008532,0.001155,78.900299,4.876694,-148.514587,,,
729860439.596419,-1.596882,-1.83473,-25.246705,0.032043,-0.037674,1.012878,0.046821,0.008532,0.001155,78.900299,4.876694,-148.514587,,,
729860439.599772,-1.587669,-1.830325,-25.248138,0.033829,-0.030441,1.002121,0.027721,0.018392,-0.008843,78.900299,4.876694,-148.514587,,,
729860439.603129,-1.580511,-1.825371,-25.250717,0.033829,-0.030441,1.002121,0.027721,0.018392,-0.008843,78.900299,4.876694,-148.514587,,,
729860439.606504,-1.580511,-1.825371,-25.250717,0.033829,-0.030441,1.002121,0.027721,0.018392,-0.008843,78.900299,4.876694,-148.514587,,,
729860439.609769,-1.578123,-1.816857,-25.254536,0.035965,-0.024887,0.989792,0.005176,0.033689,-0.017632,78.900299,4.876694,-148.514587,,,
729860439.613091,-1.577984,-1.807018,-25.259276,0.035965,-0.024887,0.989792,0.005176,0.033689,-0.017632,78.900299,4.876694,-148.514587,,,
729860439.616442,-1.577984,-1.807018,-25.259276,0.035965,-0.024887,0.989792,0.005176,0.033689,-0.017632,78.900299,4.876694,-148.514587,,,
729860439.619838,-1.582026,-1.795877,-25.26471,0.033081,-0.02121,0.987167,-0.017551,0.042086,-0.019661,78.900299,4.876694,-148.514587,,,
729860439.623086,-1.588117,-1.782635,-25.27026,0.033081,-0.02121,0.987167,-0.017551,0.042086,-0.019661,78.963821,4.721344,-148.335617,,,
729860439.626427,-1.588117,-1.782635,-25.27026,0.033081,-0.02121,0.987167,-0.017551,0.042086,-0.019661,78.963821,4.721344,-148.335617,,,
729860439.629834,-1.596123,-1.772276,-25.274287,0.023422,-0.027771,0.990204,-0.029308,0.035792,-0.011622,78.963821,4.721344,-148.335617,,,
729860439.633085,-1.605302,-1.761735,-25.276537,0.023422,-0.027771,0.990204,-0.029308,0.035792,-0.011622,78.963821,4.721344,-148.335617,,,
729860439.636483,-1.605302,-1.761735,-25.276537,0.023422,-0.027771,0.990204,-0.029308,0.035792,-0.011622,78.963821,4.721344,-148.335617,,,
729860439.639761,-1.614099,-1.754458,-25.277429,0.017548,-0.031845,0.995255,-0.030011,0.027173,-0.001833,78.963821,4.721344,-148.335617,,,
729860439.643101,-1.623802,-1.747049,-25.27682,0.017548,-0.031845,0.995255,-0.030011,0.027173,-0.001833,78.963821,4.721344,-148.335617,,,
729860439.64643,-1.623802,-1.747049,-25.27682,0.017548,-0.031845,0.995255,-0.030011,0.027173,-0.001833,78.963821,4.721344,-148.335617,,,
729860439.649779,-1.630781,-1.742768,-25.275705,0.015076,-0.035065,1.002563,-0.022838,0.016133,0.005431,78.963821,4.721344,-148.335617,,,
729860439.653134,-1.637632,-1.738465,-25.273842,0.015076,-0.035065,1.002563,-0.022838,0.016133,0.005431,78.963821,4.721344,-148.335617,,,
729860439.656511,-1.637632,-1.738465,-25.273842,0.015076,-0.035065,1.002563,-0.022838,0.016133,0.005431,78.963821,4.721344,-148.335617,,,
729860439.659763,-1.640235,-1.737839,-25.271074,0.017822,-0.036606,1.009796,-0.008491,0.001214,0.008753,78.963821,4.721344,-148.335617,,,
729860439.663106,-1.64236,-1.740178,-25.268331,0.017822,-0.036606,1.009796,-0.008491,0.001214,0.008753,78.963821,4.721344,-148.335617,,,
729860439.666435,-1.64236,-1.740178,-25.268331,0.017822,-0.036606,1.009796,-0.008491,0.001214,0.008753,78.903427,4.855392,-148.351974,,,
729860439.669828,-1.639663,-1.745901,-25.266476,0.022659,-0.03566,1.011337,0.014034,-0.017787,0.003326,78.903427,4.855392,-148.351974,,,
729860439.673083,-1.634924,-1.755225,-25.265926,0.022659,-0.03566,1.011337,0.014034,-0.017787,0.003326,78.903427,4.855392,-148.351974,,,
729860439.676461,-1.634924,-1.755225,-25.265926,0.022659,-0.03566,1.011337,0.014034,-0.017787,0.003326,78.903427,4.855392,-148.351974,,,
729860439.679846,-1.627126,-1.765842,-25.26675,0.027588,-0.034302,1.00856,0.02936,-0.033999,-0.006165,78.903427,4.855392,-148.351974,,,
729860439.683093,-1.61784,-1.77799,-25.268701,0.027588,-0.034302,1.00856,0.02936,-0.033999,-0.006165,78.903427,4.855392,-148.351974,,,
729860439.686491,-1.61784,-1.77799,-25.268701,0.027588,-0.034302,1.00856,0.02936,-0.033999,-0.006165,78.903427,4.855392,-148.351974,,,
729860439.689827,-1.608792,-1.788418,-25.27089,0.029816,-0.032455,1.006058,0.031899,-0.029626,-0.011949,78.903427,4.855392,-148.351974,,,
729860439.693215,-1.598975,-1.797584,-25.273167,0.029816,-0.032455,1.006058,0.031899,-0.029626,-0.011949,78.903427,4.855392,-148.351974,,,
729860439.696453,-1.598975,-1.797584,-25.273167,0.029816,-0.032455,1.006058,0.031899,-0.029626,-0.011949,78.903427,4.855392,-148.351974,,,
729860439.699757,-1.591626,-1.802085,-25.275189,0.031647,-0.029572,1.00325,0.024466,-0.010374,-0.009091,78.903427,4.855392,-148.351974,,,
729860439.703102,-1.585637,-1.801944,-25.276852,0.031647,-0.029572,1.00325,0.024466,-0.010374,-0.009091,78.903427,4.855392,-148.351974,,,
729860439.706479,-1.585637,-1.801944,-25.276852,0.031647,-0.029572,1.00325,0.024466,-0.010374,-0.009091,78.968857,4.834061,-148.221558,,,
729860439.709753,-1.582684,-1.798368,-25.277877,0.027374,-0.028458,1.001358,0.007264,0.019682,-0.004566,78.968857,4.834061,-148.221558,,,
729860439.713096,-1.583642,-1.787961,-25.277596,0.027374,-0.028458,1.001358,0.007264,0.019682,-0.004566,78.968857,4.834061,-148.221558,,,
729860439.716422,-1.583642,-1.787961,-25.277596,0.027374,-0.028458,1.001358,0.007264,0.019682,-0.004566,78.968857,4.834061,-148.221558,,,
729860439.719847,-1.586901,-1.777136,-25.276496,0.024246,-0.025894,0.993652,-0.01253,0.044494,0.002605,78.968857,4.834061,-148.221558,,,
729860439.723077,-1.593986,-1.761829,-25.274618,0.024246,-0.025894,0.993652,-0.01253,0.044494,0.002605,78.968857,4.834061,-148.221558,,,
729860439.726426,-1.593986,-1.761829,-25.274618,0.024246,-0.025894,0.993652,-0.01253,0.044494,0.002605,78.968857,4.834061,-148.221558,,,
729860439.729755,-1.60157,-1.75044,-25.272041,0.022018,-0.025345,0.985092,-0.029038,0.042078,0.010081,78.968857,4.834061,-148.221558,,,
729860439.733089,-1.611591,-1.738253,-25.268708,0.022018,-0.025345,0.985092,-0.029038,0.042078,0.010081,78.968857,4.834061,-148.221558,,,
729860439.736469,-1.611591,-1.738253,-25.268708,0.022018,-0.025345,0.985092,-0.029038,0.042078,0.010081,78.968857,4.834061,-148.221558,,,
729860439.739752,-1.620984,-1.732913,-25.265146,0.018143,-0.027603,0.9823,-0.030627,0.016798,0.012267,78.968857,4.834061,-148.221558,,,
729860439.74313,-1.631831,-1.730038,-25.261529,0.018143,-0.027603,0.9823,-0.030627,0.016798,0.012267,78.968857,4.834061,-148.221558,,,
729860439.746424,-1.631831,-1.730038,-25.261529,0.018143,-0.027603,0.9823,-0.030627,0.016798,0.012267,78.821747,4.779907,-148.2034,,,
729860439.749765,-1.640657,-1.734226,-25.258346,0.019501,-0.028214,0.979034,-0.028391,-0.018231,0.013719,78.821747,4.779907,-148.2034,,,
729860439.753156,-1.649086,-1.742392,-25.255897,0.019501,-0.028214,0.979034,-0.028391,-0.018231,0.013719,78.821747,4.779907,-148.2034,,,
729860439.756529,-1.649086,-1.742392,-25.255897,0.019501,-0.028214,0.979034,-0.028391,-0.018231,0.013719,78.821747,4.779907,-148.2034,,,
729860439.759617,-1.653815,-1.755473,-25.254664,0.022598,-0.028824,0.982574,-0.013511,-0.046187,0.002529,78.821747,4.779907,-148.2034,,,
729860439.763168,-1.655829,-1.770034,-25.254435,0.022598,-0.028824,0.982574,-0.013511,-0.046187,0.002529,78.821747,4.779907,-148.2034,,,
729860439.766434,-1.655829,-1.770034,-25.254435,0.022598,-0.028824,0.982574,-0.013511,-0.046187,0.002529,78.821747,4.779907,-148.2034,,,
729860439.769781,-1.653859,-1.785153,-25.254629,0.030029,-0.030731,0.996704,0.009583,-0.048605,-0.004243,78.821747,4.779907,-148.2034,,,
729860439.773099,-1.649284,-1.798633,-25.254945,0.030029,-0.030731,0.996704,0.009583,-0.048605,-0.004243,78.821747,4.779907,-148.2034,,,
729860439.776444,-1.649284,-1.798633,-25.254945,0.030029,-0.030731,0.996704,0.009583,-0.048605,-0.004243,78.821747,4.779907,-148.2034,,,
729860439.779753,-1.641581,-1.810458,-25.254882,0.032654,-0.033356,1.009491,0.028045,-0.037587,-0.000533,78.821747,4.779907,-148.2034,,,
729860439.783088,-1.631176,-1.819972,-25.254096,0.032654,-0.033356,1.009491,0.028045,-0.037587,-0.000533,78.821747,4.779907,-148.2034,,,
729860439.786479,-1.631176,-1.819972,-25.254096,0.032654,-0.033356,1.009491,0.028045,-0.037587,-0.000533,78.658203,4.950775,-148.178482,,,
729860439.789749,-1.619114,-1.827386,-25.253428,0.033798,-0.034302,1.012909,0.044284,-0.020713,0.001588,78.658203,4.950775,-148.178482,,,
729860439.793091,-1.60627,-1.829961,-25.252543,0.033798,-0.034302,1.012909,0.044284,-0.020713,0.001588,78.658203,4.950775,-148.178482,,,
729860439.79646,-1.60627,-1.829961,-25.252543,0.033798,-0.034302,1.012909,0.044284,-0.020713,0.001588,78.658203,4.950775,-148.178482,,,
729860439.799752,-1.595019,-1.829883,-25.251833,0.038666,-0.030273,1.007843,0.035445,0.007166,-0.002843,78.658203,4.950775,-148.178482,,,
729860439.803171,-1.585353,-1.824503,-25.251853,0.038666,-0.030273,1.007843,0.035445,0.007166,-0.002843,78.658203,4.950775,-148.178482,,,
729860439.806422,-1.585353,-1.824503,-25.251853,0.038666,-0.030273,1.007843,0.035445,0.007166,-0.002843,78.658203,4.950775,-148.178482,,,
729860439.809759,-1.578846,-1.817924,-25.25228,0.037079,-0.023605,0.996262,0.019829,0.030492,-0.00295,78.658203,4.950775,-148.178482,,,
729860439.813091,-1.575988,-1.806416,-25.252325,0.037079,-0.023605,0.996262,0.019829,0.030492,-0.00295,78.658203,4.950775,-148.178482,,,
729860439.816429,-1.575988,-1.806416,-25.252325,0.037079,-0.023605,0.996262,0.019829,0.030492,-0.00295,78.658203,4.950775,-148.178482,,,
729860439.819848,-1.576959,-1.797275,-25.251429,0.030701,-0.023468,0.980545,-0.007557,0.035427,0.002636,78.658203,4.950775,-148.178482,,,
729860439.823119,-1.58159,-1.786171,-25.249446,0.030701,-0.023468,0.980545,-0.007557,0.035427,0.002636,78.658203,4.950775,-148.178482,,,
729860439.826456,-1.58159,-1.786171,-25.249446,0.030701,-0.023468,0.980545,-0.007557,0.035427,0.002636,78.658203,4.950775,-148.178482,,,
729860439.829783,-1.589115,-1.779053,-25.246616,0.025681,-0.024734,0.97049,-0.025419,0.024038,0.011822,78.814453,4.860535,-148.374908,,,
729860439.833145,-1.59889,-1.771111,-25.242327,0.025681,-0.024734,0.97049,-0.025419,0.024038,0.011822,78.814453,4.860535,-148.374908,,,
729860439.836514,-1.59889,-1.771111,-25.242327,0.025681,-0.024734,0.97049,-0.025419,0.024038,0.011822,78.814453,4.860535,-148.374908,,,
729860439.839774,-1.609307,-1.766445,-25.236775,0.021576,-0.02774,0.972549,-0.036678,0.015881,0.019948,78.814453,4.860535,-148.374908,,,
729860439.843181,-1.620529,-1.763493,-25.2305,0.021576,-0.02774,0.972549,-0.036678,0.015881,0.019948,78.814453,4.860535,-148.374908,,,
729860439.846488,-1.620529,-1.763493,-25.2305,0.021576,-0.02774,0.972549,-0.036678,0.015881,0.019948,78.814453,4.860535,-148.374908,,,
729860439.849764,-1.630533,-1.764474,-25.223569,0.022614,-0.030624,0.979324,-0.032241,-0.005454,0.025227,78.814453,4.860535,-148.374908,,,
729860439.853149,-1.639873,-1.769001,-25.215954,0.022614,-0.030624,0.979324,-0.032241,-0.005454,0.025227,78.814453,4.860535,-148.374908,,,
729860439.856445,-1.639873,-1.769001,-25.215954,0.022614,-0.030624,0.979324,-0.032241,-0.005454,0.025227,78.814453,4.860535,-148.374908,,,
729860439.859863,-1.646894,-1.776759,-25.208795,0.027252,-0.031067,0.987991,-0.019498,-0.024829,0.023105,78.814453,4.860535,-148.374908,,,
729860439.863093,-1.652194,-1.787787,-25.203613,0.027252,-0.031067,0.987991,-0.019498,-0.024829,0.023105,78.814453,4.860535,-148.374908,,,
729860439.866441,-1.652194,-1.787787,-25.203613,0.027252,-0.031067,0.987991,-0.019498,-0.024829,0.023105,78.814453,4.860535,-148.374908,,,
729860439.869836,-1.653526,-1.800557,-25.2003,0.037079,-0.030914,0.99202,-0.001858,-0.043019,0.010595,78.512634,5.159088,-148.347855,,,
729860439.873135,-1.652797,-1.816555,-25.198674,0.037079,-0.030914,0.99202,-0.001858,-0.043019,0.010595,78.512634,5.159088,-148.347855,,,
729860439.876431,-1.652797,-1.816555,-25.198674,0.037079,-0.030914,0.99202,-0.001858,-0.043019,0.010595,78.512634,5.159088,-148.347855,,,
729860439.87977,-1.649137,-1.832213,-25.19933,0.043884,-0.031464,1.001846,0.015201,-0.052078,-0.006419,78.512634,5.159088,-148.347855,,,
729860439.88312,-1.642676,-1.848853,-25.202049,0.043884,-0.031464,1.001846,0.015201,-0.052078,-0.006419,78.512634,5.159088,-148.347855,,,
729860439.886576,-1.642676,-1.848853,-25.202049,0.043884,-0.031464,1.001846,0.015201,-0.052078,-0.006419,78.512634,5.159088,-148.347855,,,
729860439.889777,-1.635279,-1.862916,-25.20601,0.045792,-0.03067,1.006149,0.026434,-0.043492,-0.018443,78.512634,5.159088,-148.347855,,,
729860439.893144,-1.626162,-1.87501,-25.21109,0.045792,-0.03067,1.006149,0.026434,-0.043492,-0.018443,78.512634,5.159088,-148.347855,,,
729860439.896434,-1.626162,-1.87501,-25.21109,0.045792,-0.03067,1.006149,0.026434,-0.043492,-0.018443,78.512634,5.159088,-148.347855,,,
729860439.899821,-1.617755,-1.883886,-25.216287,0.042267,-0.033463,1.010849,0.029313,-0.023684,-0.01839,78.512634,5.159088,-148.347855,,,
729860439.903137,-1.609521,-1.88764,-25.220798,0.042267,-0.033463,1.010849,0.029313,-0.023684,-0.01839,78.512634,5.159088,-148.347855,,,
729860439.906421,-1.609521,-1.88764,-25.220798,0.042267,-0.033463,1.010849,0.029313,-0.023684,-0.01839,78.512634,5.159088,-148.347855,,,
729860439.90976,-1.602763,-1.887888,-25.224074,0.039963,-0.035263,1.009247,0.025288,0.00598,-0.012047,78.765167,4.986145,-148.328064,,,
729860439.913147,-1.59699,-1.881824,-25.225884,0.039963,-0.035263,1.009247,0.025288,0.00598,-0.012047,78.765167,4.986145,-148.328064,,,
729860439.91643,-1.59699,-1.881824,-25.225884,0.039963,-0.035263,1.009247,0.025288,0.00598,-0.012047,78.765167,4.986145,-148.328064,,,
729860439.919815,-1.593767,-1.874151,-25.226345,0.033615,-0.033676,1.005066,0.010027,0.034057,-0.000876,78.765167,4.986145,-148.328064,,,
729860439.92289,-1.593767,-1.874151,-25.226345,0.033615,-0.033676,1.005066,0.010027,0.034057,-0.000876,78.765167,4.986145,-148.328064,,,
729860439.926548,-1.594321,-1.861055,-25.225348,0.033615,-0.033676,1.005066,0.010027,0.034057,-0.000876,78.765167,4.986145,-148.328064,,,
729860439.929771,-1.597513,-1.848009,-25.223488,0.032288,-0.029892,0.995377,-0.013146,0.048792,0.004647,78.765167,4.986145,-148.328064,,,
729860439.933138,-1.604624,-1.833193,-25.221303,0.032288,-0.029892,0.995377,-0.013146,0.048792,0.004647,78.765167,4.986145,-148.328064,,,
729860439.93648,-1.604624,-1.833193,-25.221303,0.032288,-0.029892,0.995377,-0.013146,0.048792,0.004647,78.765167,4.986145,-148.328064,,,
729860439.939841,-1.6139,-1.821238,-25.219093,0.030472,-0.027985,0.982132,-0.033361,0.043827,0.007372,78.765167,4.986145,-148.328064,,,
729860439.943091,-1.6139,-1.821238,-25.219093,0.030472,-0.027985,0.982132,-0.033361,0.043827,0.007372,78.765167,4.986145,-148.328064,,,
729860439.946446,-1.625304,-1.812146,-25.216638,0.030472,-0.027985,0.982132,-0.033361,0.043827,0.007372,78.765167,4.986145,-148.328064,,,
729860439.949764,-1.637983,-1.805555,-25.214516,0.027786,-0.027145,0.978378,-0.044408,0.021791,0.00761,78.367996,5.104263,-148.180634,,,
729860439.953227,-1.652514,-1.804283,-25.213181,0.027786,-0.027145,0.978378,-0.044408,0.021791,0.00761,78.367996,5.104263,-148.180634,,,
729860439.956433,-1.652514,-1.804283,-25.213181,0.027786,-0.027145,0.978378,-0.044408,0.021791,0.00761,78.367996,5.104263,-148.180634,,,
729860439.959783,-1.667431,-1.803025,-25.212946,0.029907,-0.026749,0.981522,-0.053561,0.006862,-0.002603,78.367996,5.104263,-148.180634,,,
729860439.963103,-1.667431,-1.803025,-25.212946,0.029907,-0.026749,0.981522,-0.053561,0.006862,-0.002603,78.367996,5.104263,-148.180634,,,
729860439.966505,-1.683521,-1.805163,-25.213763,0.029907,-0.026749,0.981522,-0.053561,0.006862,-0.002603,78.367996,5.104263,-148.180634,,,
729860439.96981,-1.699088,-1.803733,-25.215016,0.029739,-0.028641,0.994858,-0.052785,0.008427,-0.004807,78.367996,5.104263,-148.180634,,,
729860439.973092,-1.699088,-1.803733,-25.215016,0.029739,-0.028641,0.994858,-0.052785,0.008427,-0.004807,78.367996,5.104263,-148.180634,,,
729860439.976437,-1.713184,-1.804033,-25.21691,0.029739,-0.028641,0.994858,-0.052785,0.008427,-0.004807,78.367996,5.104263,-148.180634,,,
729860439.979825,-1.72368,-1.800916,-25.218156,0.027466,-0.033752,1.010818,-0.033696,0.013816,-0.001859,78.367996,5.104263,-148.180634,,,
729860439.983075,-1.72368,-1.800916,-25.218156,0.027466,-0.033752,1.010818,-0.033696,0.013816,-0.001859,78.367996,5.104263,-148.180634,,,
729860439.986485,-1.730414,-1.799336,-25.218342,0.027466,-0.033752,1.010818,-0.033696,0.013816,-0.001859,78.367996,5.104263,-148.180634,,,
729860439.989768,-1.731341,-1.796033,-25.217239,0.026535,-0.039688,1.026031,-0.000752,0.014597,0.001839,78.367996,5.104263,-148.180634,,,
729860439.993101,-1.731341,-1.796033,-25.217239,0.026535,-0.039688,1.026031,-0.000752,0.014597,0.001839,78.572174,4.992142,-148.41098,,,
729860439.996452,-1.728612,-1.793983,-25.215457,0.026535,-0.039688,1.026031,-0.000752,0.014597,0.001839,78.572174,4.992142,-148.41098,,,
729860439.999767,-1.720885,-1.791422,-25.213548,0.023392,-0.043167,1.030487,0.030682,0.010825,0.006606,78.572174,4.992142,-148.41098,,,
729860440.003165,-1.720885,-1.791422,-25.213548,0.023392,-0.043167,1.030487,0.030682,0.010825,0.006606,78.572174,4.992142,-148.41098,,,
729860440.006432,-1.709968,-1.789903,-25.211054,0.023392,-0.043167,1.030487,0.030682,0.010825,0.006606,78.572174,4.992142,-148.41098,,,
729860440.009777,-1.697548,-1.789712,-25.208105,0.019333,-0.039017,1.02034,0.044087,0.002623,0.007745,78.572174,4.992142,-148.41098,,,
729860440.013095,-1.697548,-1.789712,-25.208105,0.019333,-0.039017,1.02034,0.044087,0.002623,0.007745,78.572174,4.992142,-148.41098,,,
729860440.016526,-1.685219,-1.791734,-25.205322,0.019333,-0.039017,1.02034,0.044087,0.002623,0.007745,78.572174,4.992142,-148.41098,,,
729860440.019813,-1.673823,-1.794993,-25.203231,0.023193,-0.032455,1.000015,0.040403,-0.00962,0.004062,78.572174,4.992142,-148.41098,,,
729860440.023098,-1.673823,-1.794993,-25.203231,0.023193,-0.032455,1.000015,0.040403,-0.00962,0.004062,78.572174,4.992142,-148.41098,,,
729860440.026442,-1.664282,-1.798668,-25.201232,0.023193,-0.032455,1.000015,0.040403,-0.00962,0.004062,78.572174,4.992142,-148.41098,,,
729860440.029832,-1.657683,-1.802987,-25.199333,0.023026,-0.026199,0.983856,0.022431,-0.013158,0.004426,78.572174,4.992142,-148.41098,,,
729860440.033081,-1.657683,-1.802987,-25.199333,0.023026,-0.026199,0.983856,0.022431,-0.013158,0.004426,78.686508,4.936188,-148.246185,,,
729860440.036496,-1.654395,-1.806461,-25.197686,0.023026,-0.026199,0.983856,0.022431,-0.013158,0.004426,78.686508,4.936188,-148.246185,,,
729860440.039753,-1.656079,-1.81007,-25.195437,0.021317,-0.022705,0.97551,-0.009858,-0.008346,0.005457,78.686508,4.936188,-148.246185,,,
729860440.043195,-1.656079,-1.81007,-25.195437,0.021317,-0.022705,0.97551,-0.009858,-0.008346,0.005457,78.686508,4.936188,-148.246185,,,
729860440.046451,-1.662585,-1.813388,-25.192337,0.021317,-0.022705,0.97551,-0.009858,-0.008346,0.005457,78.686508,4.936188,-148.246185,,,
729860440.04979,-1.672869,-1.816628,-25.188183,0.020782,-0.022812,0.971024,-0.037426,-0.008535,0.015414,78.686508,4.936188,-148.246185,,,
729860440.05316,-1.672869,-1.816628,-25.188183,0.020782,-0.022812,0.971024,-0.037426,-0.008535,0.015414,78.686508,4.936188,-148.246185,,,
729860440.056505,-1.684753,-1.819046,-25.182898,0.020782,-0.022812,0.971024,-0.037426,-0.008535,0.015414,78.686508,4.936188,-148.246185,,,
729860440.059768,-1.696667,-1.821863,-25.177338,0.020874,-0.027542,0.980896,-0.040315,-0.007367,0.019833,78.686508,4.936188,-148.246185,,,
729860440.063113,-1.696667,-1.821863,-25.177338,0.020874,-0.027542,0.980896,-0.040315,-0.007367,0.019833,78.686508,4.936188,-148.246185,,,
729860440.066459,-1.709831,-1.822597,-25.171193,0.020874,-0.027542,0.980896,-0.040315,-0.007367,0.019833,78.686508,4.936188,-148.246185,,,
729860440.069807,-1.721194,-1.823125,-25.164101,0.024643,-0.030807,0.996048,-0.036886,0.00136,0.023433,78.686508,4.936188,-148.246185,,,
729860440.073101,-1.721194,-1.823125,-25.164101,0.024643,-0.030807,0.996048,-0.036886,0.00136,0.023433,78.674591,5.3181,-148.317871,,,
729860440.07645,-1.733376,-1.820323,-25.156725,0.024643,-0.030807,0.996048,-0.036886,0.00136,0.023433,78.674591,5.3181,-148.317871,,,
729860440.079768,-1.741666,-1.818132,-25.149434,0.027664,-0.033829,1.005966,-0.024618,0.011174,0.026871,78.674591,5.3181,-148.317871,,,
729860440.083175,-1.741666,-1.818132,-25.149434,0.027664,-0.033829,1.005966,-0.024618,0.011174,0.026871,78.674591,5.3181,-148.317871,,,
729860440.086489,-1.748542,-1.813066,-25.141226,0.027664,-0.033829,1.005966,-0.024618,0.011174,0.026871,78.674591,5.3181,-148.317871,,,
729860440.089755,-1.750654,-1.810681,-25.132752,0.029572,-0.035599,1.010483,-0.004685,0.01052,0.026489,78.674591,5.3181,-148.317871,,,
729860440.093097,-1.750654,-1.810681,-25.132752,0.029572,-0.035599,1.010483,-0.004685,0.01052,0.026489,78.674591,5.3181,-148.317871,,,
729860440.096494,-1.750247,-1.806863,-25.124671,0.029572,-0.035599,1.010483,-0.004685,0.01052,0.026489,78.674591,5.3181,-148.317871,,,
729860440.099757,-1.744991,-1.806517,-25.117701,0.034119,-0.035492,1.014374,0.023053,0.004553,0.02127,78.674591,5.3181,-148.317871,,,
729860440.103152,-1.744991,-1.806517,-25.117701,0.034119,-0.035492,1.014374,0.023053,0.004553,0.02127,78.674591,5.3181,-148.317871,,,
729860440.106428,-1.736694,-1.805915,-25.112669,0.034119,-0.035492,1.014374,0.023053,0.004553,0.02127,78.674591,5.3181,-148.317871,,,
729860440.109823,-1.72731,-1.809096,-25.109031,0.038162,-0.030869,1.008469,0.035608,-0.0104,0.012285,78.674591,5.3181,-148.317871,,,
729860440.113191,-1.72731,-1.809096,-25.109031,0.038162,-0.030869,1.008469,0.035608,-0.0104,0.012285,78.674591,5.3181,-148.317871,,,
729860440.116441,-1.717148,-1.812585,-25.106471,0.038162,-0.030869,1.008469,0.035608,-0.0104,0.012285,78.642166,5.291275,-148.311172,,,
729860440.119826,-1.709454,-1.819329,-25.105531,0.038498,-0.025803,0.992416,0.023999,-0.020575,-0.000805,78.642166,5.291275,-148.311172,,,
729860440.123196,-1.709454,-1.819329,-25.105531,0.038498,-0.025803,0.992416,0.023999,-0.020575,-0.000805,78.642166,5.291275,-148.311172,,,
729860440.126434,-1.702364,-1.82351,-25.105517,0.038498,-0.025803,0.992416,0.023999,-0.020575,-0.000805,78.642166,5.291275,-148.311172,,,
729860440.129768,-1.699824,-1.829107,-25.105544,0.036026,-0.024261,0.981125,0.007765,-0.015122,-0.000817,78.642166,5.291275,-148.311172,,,
729860440.133092,-1.699824,-1.829107,-25.105544,0.036026,-0.024261,0.981125,0.007765,-0.015122,-0.000817,78.642166,5.291275,-148.311172,,,
729860440.136555,-1.700187,-1.831654,-25.104711,0.036026,-0.024261,0.981125,0.007765,-0.015122,-0.000817,78.642166,5.291275,-148.311172,,,
729860440.139753,-1.705293,-1.83547,-25.102799,0.02948,-0.027054,0.975281,-0.019595,-0.013322,0.009991,78.642166,5.291275,-148.311172,,,
729860440.143138,-1.705293,-1.83547,-25.102799,0.02948,-0.027054,0.975281,-0.019595,-0.013322,0.009991,78.642166,5.291275,-148.311172,,,
729860440.146446,-1.71478,-1.837043,-25.099339,0.02948,-0.027054,0.975281,-0.019595,-0.013322,0.009991,78.642166,5.291275,-148.311172,,,
729860440.149763,-1.728194,-1.83955,-25.095251,0.030258,-0.027481,0.967041,-0.048448,-0.004706,0.015596,78.642166,5.291275,-148.311172,,,
729860440.153175,-1.728194,-1.83955,-25.095251,0.030258,-0.027481,0.967041,-0.048448,-0.004706,0.015596,78.642166,5.291275,-148.311172,,,
729860440.156436,-1.745002,-1.839821,-25.091154,0.030258,-0.027481,0.967041,-0.048448,-0.004706,0.015596,78.672836,5.12352,-148.206314,,,
729860440.159772,-1.762647,-1.840458,-25.086394,0.032761,-0.027313,0.972656,-0.060822,0.000578,0.018455,78.672836,5.12352,-148.206314,,,
729860440.163151,-1.762647,-1.840458,-25.086394,0.032761,-0.027313,0.972656,-0.060822,0.000578,0.018455,78.672836,5.12352,-148.206314,,,
729860440.166454,-1.781373,-1.839984,-25.081568,0.032761,-0.027313,0.972656,-0.060822,0.000578,0.018455,78.672836,5.12352,-148.206314,,,
729860440.169814,-1.798111,-1.840989,-25.077354,0.035095,-0.027405,0.985703,-0.054796,-0.000875,0.014535,78.672836,5.12352,-148.206314,,,
729860440.173106,-1.798111,-1.840989,-25.077354,0.035095,-0.027405,0.985703,-0.054796,-0.000875,0.014535,78.672836,5.12352,-148.206314,,,
729860440.176531,-1.813183,-1.84307,-25.073244,0.035095,-0.027405,0.985703,-0.054796,-0.000875,0.014535,78.672836,5.12352,-148.206314,,,
729860440.179764,-1.823991,-1.847549,-25.069754,0.038559,-0.031265,0.998215,-0.033684,-0.015055,0.010228,78.672836,5.12352,-148.206314,,,
729860440.183121,-1.823991,-1.847549,-25.069754,0.038559,-0.031265,0.998215,-0.033684,-0.015055,0.010228,78.672836,5.12352,-148.206314,,,
729860440.186506,-1.830844,-1.855015,-25.067446,0.038559,-0.031265,0.998215,-0.033684,-0.015055,0.010228,78.672836,5.12352,-148.206314,,,
729860440.18976,-1.834627,-1.862804,-25.066222,0.043381,-0.034698,1.004135,-0.010214,-0.024975,0.002833,78.672836,5.12352,-148.206314,,,
729860440.193119,-1.834627,-1.862804,-25.066222,0.043381,-0.034698,1.004135,-0.010214,-0.024975,0.002833,78.672836,5.12352,-148.206314,,,
729860440.196436,-1.835328,-1.872213,-25.066134,0.043381,-0.034698,1.004135,-0.010214,-0.024975,0.002833,78.50177,5.228302,-148.240753,,,
729860440.199764,-1.835209,-1.878781,-25.066973,0.047989,-0.033691,1.006516,0.002942,-0.014787,-0.007728,78.50177,5.228302,-148.240753,,,
729860440.203169,-1.835209,-1.878781,-25.066973,0.047989,-0.033691,1.006516,0.002942,-0.014787,-0.007728,78.50177,5.228302,-148.240753,,,
729860440.206447,-1.833235,-1.883819,-25.068418,0.047989,-0.033691,1.006516,0.002942,-0.014787,-0.007728,78.50177,5.228302,-148.240753,,,
729860440.209769,-1.832518,-1.884422,-25.069625,0.044403,-0.032684,1.004791,0.003227,0.0009,-0.007072,78.50177,5.228302,-148.240753,,,
729860440.213108,-1.832518,-1.884422,-25.069625,0.044403,-0.032684,1.004791,0.003227,0.0009,-0.007072,78.50177,5.228302,-148.240753,,,
729860440.216509,-1.831487,-1.88173,-25.070165,0.044403,-0.032684,1.004791,0.003227,0.0009,-0.007072,78.50177,5.228302,-148.240753,,,
729860440.219802,-1.832779,-1.875791,-25.069931,0.040451,-0.032242,1.0009,-0.003591,0.026755,0.000425,78.50177,5.228302,-148.240753,,,
729860440.223106,-1.832779,-1.875791,-25.069931,0.040451,-0.032242,1.0009,-0.003591,0.026755,0.000425,78.50177,5.228302,-148.240753,,,
729860440.226433,-1.834761,-1.865942,-25.06916,0.040451,-0.032242,1.0009,-0.003591,0.026755,0.000425,78.50177,5.228302,-148.240753,,,
729860440.229774,-1.839476,-1.853978,-25.068585,0.038849,-0.031494,0.998077,-0.01964,0.04667,0.001496,78.50177,5.228302,-148.240753,,,
729860440.233113,-1.839476,-1.853978,-25.068585,0.038849,-0.031494,0.998077,-0.01964,0.04667,0.001496,78.50177,5.228302,-148.240753,,,
729860440.23647,-1.844459,-1.840134,-25.068463,0.038849,-0.031494,0.998077,-0.01964,0.04667,0.001496,78.564926,5.24408,-148.261215,,,
729860440.239762,-1.849879,-1.82477,-25.0691,0.039413,-0.029282,0.997467,-0.019788,0.057292,-0.002447,78.564926,5.24408,-148.261215,,,
729860440.243111,-1.849879,-1.82477,-25.0691,0.039413,-0.029282,0.997467,-0.019788,0.057292,-0.002447,78.564926,5.24408,-148.261215,,,
729860440.24645,-1.855102,-1.809823,-25.070796,0.039413,-0.029282,0.997467,-0.019788,0.057292,-0.002447,78.564926,5.24408,-148.261215,,,
729860440.249832,-1.861278,-1.796466,-25.073197,0.035675,-0.028702,0.998611,-0.020363,0.049659,-0.009322,78.564926,5.24408,-148.261215,,,
729860440.253244,-1.861278,-1.796466,-25.073197,0.035675,-0.028702,0.998611,-0.020363,0.049659,-0.009322,78.564926,5.24408,-148.261215,,,
729860440.256441,-1.867004,-1.788369,-25.076429,0.035675,-0.028702,0.998611,-0.020363,0.049659,-0.009322,78.564926,5.24408,-148.261215,,,
729860440.259773,-1.873223,-1.783938,-25.080059,0.033035,-0.031433,0.993744,-0.019121,0.013599,-0.011574,78.564926,5.24408,-148.261215,,,
729860440.263218,-1.873223,-1.783938,-25.080059,0.033035,-0.031433,0.993744,-0.019121,0.013599,-0.011574,78.564926,5.24408,-148.261215,,,
729860440.26652,-1.878156,-1.786713,-25.084175,0.033035,-0.031433,0.993744,-0.019121,0.013599,-0.011574,78.564926,5.24408,-148.261215,,,
729860440.269814,-1.88147,-1.792344,-25.08875,0.031067,-0.034225,0.992691,-0.010083,-0.019618,-0.017033,78.564926,5.24408,-148.261215,,,
729860440.273116,-1.88147,-1.792344,-25.08875,0.031067,-0.034225,0.992691,-0.010083,-0.019618,-0.017033,78.564926,5.24408,-148.261215,,,
729860440.276458,-1.884281,-1.806258,-25.093803,0.031067,-0.034225,0.992691,-0.010083,-0.019618,-0.017033,78.564926,5.24408,-148.261215,,,
729860440.279772,-1.885366,-1.820495,-25.098299,0.026337,-0.037262,0.99823,-0.002678,-0.04723,-0.014606,78.800873,5.298401,-148.431259,,,
729860440.283115,-1.885366,-1.820495,-25.098299,0.026337,-0.037262,0.99823,-0.002678,-0.04723,-0.014606,78.800873,5.298401,-148.431259,,,
729860440.28652,-1.884609,-1.841054,-25.102107,0.026337,-0.037262,0.99823,-0.002678,-0.04723,-0.014606,78.800873,5.298401,-148.431259,,,
729860440.28978,-1.882456,-1.860616,-25.105262,0.027664,-0.03978,1.001846,0.010496,-0.068215,-0.01189,78.800873,5.298401,-148.431259,,,
729860440.293191,-1.882456,-1.860616,-25.105262,0.027664,-0.03978,1.001846,0.010496,-0.068215,-0.01189,78.800873,5.298401,-148.431259,,,
729860440.296458,-1.878339,-1.882707,-25.107875,0.027664,-0.03978,1.001846,0.010496,-0.068215,-0.01189,78.800873,5.298401,-148.431259,,,
729860440.299776,-1.872143,-1.902403,-25.110272,0.030487,-0.039185,1.006638,0.022599,-0.064387,-0.01049,78.800873,5.298401,-148.431259,,,
729860440.303032,-1.872143,-1.902403,-25.110272,0.030487,-0.039185,1.006638,0.022599,-0.064387,-0.01049,78.800873,5.298401,-148.431259,,,
729860440.30655,-1.864225,-1.92134,-25.112507,0.030487,-0.039185,1.006638,0.022599,-0.064387,-0.01049,78.800873,5.298401,-148.431259,,,
729860440.309767,-1.855368,-1.936312,-25.114522,0.031723,-0.035309,1.012177,0.031573,-0.046414,-0.008007,78.800873,5.298401,-148.431259,,,
729860440.313125,-1.855368,-1.936312,-25.114522,0.031723,-0.035309,1.012177,0.031573,-0.046414,-0.008007,78.800873,5.298401,-148.431259,,,
729860440.316441,-1.845651,-1.948519,-25.116262,0.031723,-0.035309,1.012177,0.031573,-0.046414,-0.008007,78.800873,5.298401,-148.431259,,,
729860440.319817,-1.837023,-1.954824,-25.11786,0.036163,-0.033295,1.011444,0.030319,-0.015961,-0.007431,78.603989,4.998962,-148.180466,,,
729860440.323096,-1.837023,-1.954824,-25.11786,0.036163,-0.033295,1.011444,0.030319,-0.015961,-0.007431,78.603989,4.998962,-148.180466,,,
729860440.326434,-1.830354,-1.956373,-25.119746,0.036163,-0.033295,1.011444,0.030319,-0.015961,-0.007431,78.603989,4.998962,-148.180466,,,
729860440.32977,-1.827152,-1.951595,-25.121697,0.037521,-0.029694,1.002258,0.008777,0.022525,-0.009885,78.603989,4.998962,-148.180466,,,
729860440.333151,-1.827152,-1.951595,-25.121697,0.037521,-0.029694,1.002258,0.008777,0.022525,-0.009885,78.603989,4.998962,-148.180466,,,
729860440.336577,-1.827645,-1.941495,-25.123987,0.037521,-0.029694,1.002258,0.008777,0.022525,-0.009885,78.603989,4.998962,-148.180466,,,
729860440.339769,-1.832962,-1.927012,-25.126799,0.036819,-0.026764,0.990387,-0.021285,0.056477,-0.009547,78.603989,4.998962,-148.180466,,,
729860440.343124,-1.832962,-1.927012,-25.126799,0.036819,-0.026764,0.990387,-0.021285,0.056477,-0.009547,78.603989,4.998962,-148.180466,,,
729860440.346439,-1.841505,-1.910027,-25.129576,0.036819,-0.026764,0.990387,-0.021285,0.056477,-0.009547,78.603989,4.998962,-148.180466,,,
729860440.349769,-1.852466,-1.893402,-25.132366,0.031342,-0.028168,0.984497,-0.038631,0.061028,-0.01004,78.603989,4.998962,-148.180466,,,
729860440.353169,-1.852466,-1.893402,-25.132366,0.031342,-0.028168,0.984497,-0.038631,0.061028,-0.01004,78.603989,4.998962,-148.180466,,,
729860440.356444,-1.86615,-1.876976,-25.135547,0.031342,-0.028168,0.984497,-0.038631,0.061028,-0.01004,78.603989,4.998962,-148.180466,,,
729860440.359769,-1.87975,-1.864515,-25.138676,0.028152,-0.03064,0.986176,-0.047263,0.042982,-0.009419,78.737213,5.027084,-148.265076,,,
729860440.363105,-1.87975,-1.864515,-25.138676,0.028152,-0.03064,0.986176,-0.047263,0.042982,-0.009419,78.737213,5.027084,-148.265076,,,
729860440.366471,-1.893714,-1.855399,-25.141261,0.028152,-0.03064,0.986176,-0.047263,0.042982,-0.009419,78.737213,5.027084,-148.265076,,,
729860440.369817,-1.904924,-1.852518,-25.143788,0.022232,-0.034393,0.991821,-0.035152,0.009614,-0.008407,78.737213,5.027084,-148.265076,,,
729860440.373183,-1.904924,-1.852518,-25.143788,0.022232,-0.034393,0.991821,-0.035152,0.009614,-0.008407,78.737213,5.027084,-148.265076,,,
729860440.376451,-1.91388,-1.853665,-25.145864,0.022232,-0.034393,0.991821,-0.035152,0.009614,-0.008407,78.737213,5.027084,-148.265076,,,
729860440.379772,-1.9166,-1.859863,-25.146995,0.020279,-0.040085,1.006287,-0.00593,-0.0224,-0.004604,78.737213,5.027084,-148.265076,,,
729860440.383099,-1.9166,-1.859863,-25.146995,0.020279,-0.040085,1.006287,-0.00593,-0.0224,-0.004604,78.737213,5.027084,-148.265076,,,
729860440.386501,-1.915188,-1.86965,-25.147563,0.020279,-0.040085,1.006287,-0.00593,-0.0224,-0.004604,78.737213,5.027084,-148.265076,,,
729860440.389763,-1.909175,-1.882505,-25.147453,0.022995,-0.044189,1.018555,0.02481,-0.04379,-0.001232,78.737213,5.027084,-148.265076,,,
729860440.393111,-1.909175,-1.882505,-25.147453,0.022995,-0.044189,1.018555,0.02481,-0.04379,-0.001232,78.737213,5.027084,-148.265076,,,
729860440.396523,-1.900494,-1.897112,-25.146567,0.022995,-0.044189,1.018555,0.02481,-0.04379,-0.001232,78.737213,5.027084,-148.265076,,,
729860440.399759,-1.890237,-1.912017,-25.14524,0.026947,-0.041016,1.016235,0.037805,-0.048273,0.001377,78.711044,5.216125,-148.571548,,,
729860440.40316,-1.890237,-1.912017,-25.14524,0.026947,-0.041016,1.016235,0.037805,-0.048273,0.001377,78.711044,5.216125,-148.571548,,,
729860440.406447,-1.879573,-1.926758,-25.143865,0.026947,-0.041016,1.016235,0.037805,-0.048273,0.001377,78.711044,5.216125,-148.571548,,,
729860440.409764,-1.870532,-1.938946,-25.142847,0.032837,-0.034683,1.005249,0.030082,-0.039514,0.000658,78.711044,5.216125,-148.571548,,,
729860440.413123,-1.870532,-1.938946,-25.142847,0.032837,-0.034683,1.005249,0.030082,-0.039514,0.000658,78.711044,5.216125,-148.571548,,,
729860440.416481,-1.862975,-1.948995,-25.14284,0.032837,-0.034683,1.005249,0.030082,-0.039514,0.000658,78.711044,5.216125,-148.571548,,,
729860440.419847,-1.858711,-1.954103,-25.143436,0.038147,-0.030655,1.00032,0.014096,-0.010714,-0.004567,78.711044,5.216125,-148.571548,,,
729860440.423086,-1.858711,-1.954103,-25.143436,0.038147,-0.030655,1.00032,0.014096,-0.010714,-0.004567,78.711044,5.216125,-148.571548,,,
729860440.426454,-1.856534,-1.95558,-25.14412,0.038147,-0.030655,1.00032,0.014096,-0.010714,-0.004567,78.711044,5.216125,-148.571548,,,
729860440.429766,-1.858965,-1.955184,-25.144811,0.035202,-0.027283,0.992294,-0.012314,0.005365,-0.00226,78.711044,5.216125,-148.571548,,,
729860440.433165,-1.858965,-1.955184,-25.144811,0.035202,-0.027283,0.992294,-0.012314,0.005365,-0.00226,78.711044,5.216125,-148.571548,,,
729860440.436514,-1.864971,-1.952847,-25.145293,0.035202,-0.027283,0.992294,-0.012314,0.005365,-0.00226,78.711044,5.216125,-148.571548,,,
729860440.439776,-1.874711,-1.950103,-25.14549,0.032913,-0.027695,0.977768,-0.036063,0.012988,-0.00042,78.711044,5.216125,-148.571548,,,
729860440.443121,-1.874711,-1.950103,-25.14549,0.032913,-0.027695,0.977768,-0.036063,0.012988,-0.00042,78.737167,5.222229,-148.571442,,,
729860440.446525,-1.887222,-1.946093,-25.144804,0.032913,-0.027695,0.977768,-0.036063,0.012988,-0.00042,78.737167,5.222229,-148.571442,,,
729860440.449766,-1.902006,-1.945366,-25.143433,0.030594,-0.029572,0.972458,-0.051781,0.004591,0.00469,78.737167,5.222229,-148.571442,,,
729860440.453167,-1.902006,-1.945366,-25.143433,0.030594,-0.029572,0.972458,-0.051781,0.004591,0.00469,78.737167,5.222229,-148.571442,,,
729860440.456456,-1.918317,-1.943317,-25.141706,0.030594,-0.029572,0.972458,-0.051781,0.004591,0.00469,78.737167,5.222229,-148.571442,,,
729860440.459774,-1.933304,-1.946881,-25.13904,0.026276,-0.033783,0.980865,-0.050127,-0.01078,0.010373,78.737167,5.222229,-148.571442,,,
729860440.463118,-1.933304,-1.946881,-25.13904,0.026276,-0.033783,0.980865,-0.050127,-0.01078,0.010373,78.737167,5.222229,-148.571442,,,
729860440.466462,-1.948728,-1.95134,-25.134821,0.026276,-0.033783,0.980865,-0.050127,-0.01078,0.010373,78.737167,5.222229,-148.571442,,,
729860440.469809,-1.961373,-1.962214,-25.129987,0.028076,-0.040329,0.984467,-0.041088,-0.037721,0.020067,78.737167,5.222229,-148.571442,,,
729860440.473164,-1.961373,-1.962214,-25.129987,0.028076,-0.040329,0.984467,-0.041088,-0.037721,0.020067,78.737167,5.222229,-148.571442,,,
729860440.47646,-1.97329,-1.973575,-25.124837,0.028076,-0.040329,0.984467,-0.041088,-0.037721,0.020067,78.737167,5.222229,-148.571442,,,
729860440.479773,-1.980396,-1.988578,-25.12018,0.032425,-0.041122,0.989456,-0.02039,-0.052477,0.01361,78.737167,5.222229,-148.571442,,,
729860440.483107,-1.980396,-1.988578,-25.12018,0.032425,-0.041122,0.989456,-0.02039,-0.052477,0.01361,78.552567,5.282135,-148.50621,,,
729860440.486482,-1.985293,-2.003593,-25.11669,0.032425,-0.041122,0.989456,-0.02039,-0.052477,0.01361,78.552567,5.282135,-148.50621,,,
729860440.48977,-1.98895,-2.019146,-25.115175,0.043365,-0.039322,0.997192,-0.00887,-0.052508,0.00257,78.552567,5.282135,-148.50621,,,
729860440.493115,-1.98895,-2.019146,-25.115175,0.043365,-0.039322,0.997192,-0.00887,-0.052508,0.00257,78.552567,5.282135,-148.50621,,,
729860440.496521,-1.992235,-2.033596,-25.115478,0.043365,-0.039322,0.997192,-0.00887,-0.052508,0.00257,78.552567,5.282135,-148.50621,,,
729860440.499756,-1.99727,-2.04483,-25.117266,0.050919,-0.03331,0.994995,-0.018736,-0.031951,-0.006562,78.552567,5.282135,-148.50621,,,
729860440.503173,-1.99727,-2.04483,-25.117266,0.050919,-0.03331,0.994995,-0.018736,-0.031951,-0.006562,78.552567,5.282135,-148.50621,,,
729860440.506431,-2.003517,-2.051559,-25.120494,0.050919,-0.03331,0.994995,-0.018736,-0.031951,-0.006562,78.552567,5.282135,-148.50621,,,
729860440.509769,-2.01377,-2.053126,-25.1249,0.052216,-0.029449,0.993423,-0.038101,0.002183,-0.015883,78.552567,5.282135,-148.50621,,,
729860440.513126,-2.01377,-2.053126,-25.1249,0.052216,-0.029449,0.993423,-0.038101,0.002183,-0.015883,78.552567,5.282135,-148.50621,,,
729860440.516466,-2.025322,-2.049306,-25.130306,0.052216,-0.029449,0.993423,-0.038101,0.002183,-0.015883,78.552567,5.282135,-148.50621,,,
729860440.519807,-2.040087,-2.040638,-25.136371,0.049454,-0.029388,0.992279,-0.053413,0.039221,-0.022189,78.552567,5.282135,-148.50621,,,
729860440.5231,-2.040087,-2.040638,-25.136371,0.049454,-0.029388,0.992279,-0.053413,0.039221,-0.022189,78.452286,5.417236,-148.561539,,,
729860440.526454,-2.055457,-2.027299,-25.142475,0.049454,-0.029388,0.992279,-0.053413,0.039221,-0.022189,78.452286,5.417236,-148.561539,,,
729860440.529772,-2.073059,-2.011873,-25.148299,0.042465,-0.032745,0.992783,-0.062704,0.059145,-0.018474,78.452286,5.417236,-148.561539,,,
729860440.533121,-2.073059,-2.011873,-25.148299,0.042465,-0.032745,0.992783,-0.062704,0.059145,-0.018474,78.452286,5.417236,-148.561539,,,
729860440.536484,-2.09122,-1.993267,-25.15359,0.042465,-0.032745,0.992783,-0.062704,0.059145,-0.018474,78.452286,5.417236,-148.561539,,,
729860440.539784,-2.109836,-1.976126,-25.157554,0.034836,-0.036652,0.990326,-0.063987,0.061604,-0.01067,78.452286,5.417236,-148.561539,,,
729860440.543115,-2.109836,-1.976126,-25.157554,0.034836,-0.036652,0.990326,-0.063987,0.061604,-0.01067,78.452286,5.417236,-148.561539,,,
729860440.546436,-2.127158,-1.958638,-25.159617,0.034836,-0.036652,0.990326,-0.063987,0.061604,-0.01067,78.452286,5.417236,-148.561539,,,
729860440.549769,-2.141895,-1.944418,-25.160308,0.027695,-0.043396,0.99765,-0.049089,0.051158,-0.001876,78.452286,5.417236,-148.561539,,,
729860440.553153,-2.141895,-1.944418,-25.160308,0.027695,-0.043396,0.99765,-0.049089,0.051158,-0.001876,78.452286,5.417236,-148.561539,,,
729860440.556437,-2.15496,-1.931876,-25.159633,0.027695,-0.043396,0.99765,-0.049089,0.051158,-0.001876,78.452286,5.417236,-148.561539,,,
729860440.559768,-2.164587,-1.923404,-25.157914,0.026764,-0.046066,1.003754,-0.032327,0.03036,0.006624,78.452286,5.417236,-148.561539,,,
729860440.56321,-2.164587,-1.923404,-25.157914,0.026764,-0.046066,1.003754,-0.032327,0.03036,0.006624,78.452286,5.417236,-148.561539,,,
729860440.566443,-2.172609,-1.919276,-25.155706,0.026764,-0.046066,1.003754,-0.032327,0.03036,0.006624,78.427948,5.371262,-148.582901,,,
729860440.569808,-2.177798,-1.91659,-25.153508,0.03096,-0.04567,1.004791,-0.014252,0.010924,0.005237,78.427948,5.371262,-148.582901,,,
729860440.573112,-2.177798,-1.91659,-25.153508,0.03096,-0.04567,1.004791,-0.014252,0.010924,0.005237,78.427948,5.371262,-148.582901,,,
729860440.576549,-2.179058,-1.919681,-25.152153,0.03096,-0.04567,1.004791,-0.014252,0.010924,0.005237,78.427948,5.371262,-148.582901,,,
729860440.579766,-2.177284,-1.921555,-25.15152,0.03302,-0.0439,1.011261,0.007906,-0.004427,-0.000549,78.427948,5.371262,-148.582901,,,
729860440.583129,-2.177284,-1.921555,-25.15152,0.03302,-0.0439,1.011261,0.007906,-0.004427,-0.000549,78.427948,5.371262,-148.582901,,,
729860440.586514,-2.172151,-1.929209,-25.151876,0.03302,-0.0439,1.011261,0.007906,-0.004427,-0.000549,78.427948,5.371262,-148.582901,,,
729860440.589769,-2.16778,-1.93399,-25.152435,0.036636,-0.043732,1.00856,0.014875,-0.01479,-0.004735,78.427948,5.371262,-148.582901,,,
729860440.593118,-2.16778,-1.93399,-25.152435,0.036636,-0.043732,1.00856,0.014875,-0.01479,-0.004735,78.427948,5.371262,-148.582901,,,
729860440.596446,-2.162388,-1.942173,-25.153489,0.036636,-0.043732,1.00856,0.014875,-0.01479,-0.004735,78.427948,5.371262,-148.582901,,,
729860440.599778,-2.160216,-1.94603,-25.155828,0.041367,-0.039734,1.001755,0.00474,-0.012218,-0.010036,78.427948,5.371262,-148.582901,,,
729860440.60318,-2.160216,-1.94603,-25.155828,0.041367,-0.039734,1.001755,0.00474,-0.012218,-0.010036,78.427948,5.371262,-148.582901,,,
729860440.60645,-2.159948,-1.950626,-25.159573,0.041367,-0.039734,1.001755,0.00474,-0.012218,-0.010036,78.500076,5.357208,-148.321732,,,
729860440.609778,-2.163726,-1.950209,-25.163712,0.044739,-0.036224,0.998383,-0.014344,0.007382,-0.015421,78.500076,5.357208,-148.321732,,,
729860440.613123,-2.163726,-1.950209,-25.163712,0.044739,-0.036224,0.998383,-0.014344,0.007382,-0.015421,78.500076,5.357208,-148.321732,,,
729860440.616519,-2.169671,-1.947884,-25.167684,0.044739,-0.036224,0.998383,-0.014344,0.007382,-0.015421,78.500076,5.357208,-148.321732,,,
729860440.619808,-2.177984,-1.942482,-25.171316,0.041153,-0.039078,0.997009,-0.033895,0.024467,-0.015668,78.500076,5.357208,-148.321732,,,
729860440.623116,-2.177984,-1.942482,-25.171316,0.041153,-0.039078,0.997009,-0.033895,0.024467,-0.015668,78.500076,5.357208,-148.321732,,,
729860440.626445,-2.187768,-1.934269,-25.174816,0.041153,-0.039078,0.997009,-0.033895,0.024467,-0.015668,78.500076,5.357208,-148.321732,,,
729860440.629817,-2.1967,-1.924964,-25.177239,0.037369,-0.039841,1.002441,-0.032626,0.037896,-0.006524,78.500076,5.357208,-148.321732,,,
729860440.6331,-2.1967,-1.924964,-25.177239,0.037369,-0.039841,1.002441,-0.032626,0.037896,-0.006524,78.500076,5.357208,-148.321732,,,
729860440.636477,-2.20597,-1.912603,-25.178899,0.037369,-0.039841,1.002441,-0.032626,0.037896,-0.006524,78.500076,5.357208,-148.321732,,,
729860440.639787,-2.211436,-1.90187,-25.180651,0.035995,-0.041382,1.011078,-0.016483,0.040936,-0.006987,78.500076,5.357208,-148.321732,,,
729860440.6431,-2.211436,-1.90187,-25.180651,0.035995,-0.041382,1.011078,-0.016483,0.040936,-0.006987,78.500076,5.357208,-148.321732,,,
729860440.646441,-2.215415,-1.892068,-25.181819,0.035995,-0.041382,1.011078,-0.016483,0.040936,-0.006987,78.648483,5.373611,-148.780258,,,
729860440.649768,-2.215509,-1.886239,-25.18284,0.033432,-0.043671,1.015961,0.006663,0.020402,-0.003123,78.648483,5.373611,-148.780258,,,
729860440.653181,-2.215509,-1.886239,-25.18284,0.033432,-0.043671,1.015961,0.006663,0.020402,-0.003123,78.648483,5.373611,-148.780258,,,
729860440.656452,-2.213436,-1.884811,-25.184247,0.033432,-0.043671,1.015961,0.006663,0.020402,-0.003123,78.648483,5.373611,-148.780258,,,
729860440.65979,-2.207443,-1.888644,-25.186398,0.033798,-0.04216,1.006805,0.022861,-0.013917,-0.012105,78.648483,5.373611,-148.780258,,,
729860440.663115,-2.207443,-1.888644,-25.186398,0.033798,-0.04216,1.006805,0.022861,-0.013917,-0.012105,78.648483,5.373611,-148.780258,,,
729860440.666506,-2.199618,-1.89735,-25.189907,0.033798,-0.04216,1.006805,0.022861,-0.013917,-0.012105,78.648483,5.373611,-148.780258,,,
729860440.669804,-2.188686,-1.909331,-25.194755,0.036224,-0.038956,0.998642,0.040352,-0.041451,-0.018269,78.648483,5.373611,-148.780258,,,
729860440.673126,-2.188686,-1.909331,-25.194755,0.036224,-0.038956,0.998642,0.040352,-0.041451,-0.018269,78.648483,5.373611,-148.780258,,,
729860440.676449,-2.17663,-1.925288,-25.200855,0.036224,-0.038956,0.998642,0.040352,-0.041451,-0.018269,78.648483,5.373611,-148.780258,,,
729860440.679766,-2.163961,-1.941634,-25.208382,0.037354,-0.034103,0.994019,0.041809,-0.05389,-0.031007,78.648483,5.373611,-148.780258,,,
729860440.683117,-2.163961,-1.941634,-25.208382,0.037354,-0.034103,0.994019,0.041809,-0.05389,-0.031007,78.648483,5.373611,-148.780258,,,
729860440.686521,-2.152794,-1.95979,-25.217347,0.037354,-0.034103,0.994019,0.041809,-0.05389,-0.031007,78.648483,5.373611,-148.780258,,,
729860440.689754,-2.142588,-1.974721,-25.226923,0.039032,-0.034027,0.988708,0.035814,-0.047579,-0.035905,78.397232,5.640564,-148.438126,,,
729860440.693204,-2.142588,-1.974721,-25.226923,0.039032,-0.034027,0.988708,0.035814,-0.047579,-0.035905,78.397232,5.640564,-148.438126,,,
729860440.696452,-2.132672,-1.989315,-25.23639,0.039032,-0.034027,0.988708,0.035814,-0.047579,-0.035905,78.397232,5.640564,-148.438126,,,
729860440.699797,-2.124559,-1.997804,-25.245248,0.037537,-0.033112,0.991028,0.02441,-0.020898,-0.03213,78.397232,5.640564,-148.438126,,,
729860440.703171,-2.124559,-1.997804,-25.245248,0.037537,-0.033112,0.991028,0.02441,-0.020898,-0.03213,78.397232,5.640564,-148.438126,,,
729860440.706449,-2.119441,-2.002696,-25.252979,0.037537,-0.033112,0.991028,0.02441,-0.020898,-0.03213,78.397232,5.640564,-148.438126,,,
729860440.709789,-2.119441,-2.002696,-25.252979,0.031799,-0.032364,0.988525,0.005539,0.009619,-0.023739,78.397232,5.640564,-148.438126,,,
729860440.713126,-2.117084,-2.001849,-25.259259,0.031799,-0.032364,0.988525,0.005539,0.009619,-0.023739,78.397232,5.640564,-148.438126,,,
729860440.716509,-2.118671,-1.996909,-25.263888,0.031799,-0.032364,0.988525,0.005539,0.009619,-0.023739,78.397232,5.640564,-148.438126,,,
729860440.71978,-2.118671,-1.996909,-25.266974,0.026962,-0.032455,0.982864,-0.018712,0.038713,-0.012326,78.397232,5.640564,-148.438126,,,
729860440.72312,-2.122811,-1.987783,-25.266974,0.026962,-0.032455,0.982864,-0.018712,0.038713,-0.012326,78.397232,5.640564,-148.438126,,,
729860440.726437,-2.130433,-1.974262,-25.268564,0.026962,-0.032455,0.982864,-0.018712,0.038713,-0.012326,78.397232,5.640564,-148.438126,,,
729860440.729795,-2.130433,-1.974262,-25.268584,0.025269,-0.03447,0.98233,-0.030332,0.057327,0.000809,78.564163,5.517273,-148.500488,,,
729860440.733115,-2.139151,-1.958389,-25.268584,0.025269,-0.03447,0.98233,-0.030332,0.057327,0.000809,78.564163,5.517273,-148.500488,,,
729860440.736474,-2.14982,-1.941544,-25.267898,0.025269,-0.03447,0.98233,-0.030332,0.057327,0.000809,78.564163,5.517273,-148.500488,,,
729860440.739774,-2.14982,-1.941544,-25.267898,0.025269,-0.03447,0.98233,-0.030332,0.057327,0.000809,78.564163,5.517273,-148.500488,,,
729860440.743192,-2.159762,-1.92591,-25.26713,0.023056,-0.034149,0.982742,-0.033202,0.056291,0.003172,78.564163,5.517273,-148.500488,,,
729860440.746438,-2.169664,-1.912418,-25.266641,0.023056,-0.034149,0.982742,-0.033202,0.056291,0.003172,78.564163,5.517273,-148.500488,,,
729860440.749771,-2.169664,-1.912418,-25.266641,0.023056,-0.034149,0.982742,-0.033202,0.056291,0.003172,78.564163,5.517273,-148.500488,,,
729860440.75316,-2.177283,-1.900774,-25.26695,0.023392,-0.033554,0.988556,-0.020983,0.042851,-0.00182,78.564163,5.517273,-148.500488,,,
729860440.756477,-2.182369,-1.89228,-25.268003,0.023392,-0.033554,0.988556,-0.020983,0.042851,-0.00182,78.564163,5.517273,-148.500488,,,
729860440.759796,-2.182369,-1.89228,-25.268003,0.023392,-0.033554,0.988556,-0.020983,0.042851,-0.00182,78.564163,5.517273,-148.500488,,,
729860440.763122,-2.185742,-1.885173,-25.269228,0.023376,-0.038254,0.998932,-0.010658,0.028991,-0.007336,78.564163,5.517273,-148.500488,,,
729860440.76645,-2.185798,-1.88212,-25.270319,0.023376,-0.038254,0.998932,-0.010658,0.028991,-0.007336,78.564163,5.517273,-148.500488,,,
729860440.769811,-2.185798,-1.88212,-25.270319,0.023376,-0.038254,0.998932,0.004312,0.008911,-0.008481,78.576889,5.485245,-148.670242,,,
729860440.773115,-2.184797,-1.880158,-25.271346,0.022781,-0.038803,1.004425,0.004312,0.008911,-0.008481,78.576889,5.485245,-148.670242,,,
729860440.776447,-2.181802,-1.881439,-25.272881,0.022781,-0.038803,1.004425,0.004312,0.008911,-0.008481,78.576889,5.485245,-148.670242,,,
729860440.779826,-2.181802,-1.881439,-25.272881,0.022781,-0.038803,1.004425,0.004312,0.008911,-0.008481,78.576889,5.485245,-148.670242,,,
729860440.783119,-2.17916,-1.883313,-25.274408,0.021576,-0.040405,1.001358,0.00925,-0.004183,-0.00428,78.576889,5.485245,-148.670242,,,
729860440.786531,-2.175948,-1.886419,-25.276058,0.021576,-0.040405,1.001358,0.00925,-0.004183,-0.00428,78.576889,5.485245,-148.670242,,,
729860440.789877,-2.175948,-1.886419,-25.276058,0.021576,-0.040405,1.001358,0.00925,-0.004183,-0.00428,78.576889,5.485245,-148.670242,,,
729860440.79317,-2.173707,-1.890514,-25.278155,0.024292,-0.038574,0.99437,0.009581,-0.011814,-0.007435,78.576889,5.485245,-148.670242,,,
729860440.796436,-2.171227,-1.893815,-25.28042,0.024292,-0.038574,0.99437,0.009581,-0.011814,-0.007435,78.576889,5.485245,-148.670242,,,
729860440.799823,-2.171227,-1.893815,-25.28042,0.024292,-0.038574,0.99437,0.009581,-0.011814,-0.007435,78.576889,5.485245,-148.670242,,,
729860440.803117,-2.17127,-1.896735,-25.283072,0.02739,-0.035629,0.992523,-0.001524,-0.006218,-0.011596,78.576889,5.485245,-148.670242,,,
729860440.806449,-2.172553,-1.896723,-25.285817,0.02739,-0.035629,0.992523,-0.001524,-0.006218,-0.011596,78.576889,5.485245,-148.670242,,,
729860440.809828,-2.172553,-1.896723,-25.285817,0.02739,-0.035629,0.992523,-0.001524,-0.006218,-0.011596,78.798798,5.286621,-148.567551,,,
729860440.813125,-2.176549,-1.896657,-25.287757,0.027679,-0.034454,0.992569,-0.015175,0.005509,-0.006954,78.798798,5.286621,-148.567551,,,
729860440.816443,-2.183068,-1.89267,-25.288505,0.027679,-0.034454,0.992569,-0.015175,0.005509,-0.006954,78.798798,5.286621,-148.567551,,,
729860440.819876,-2.183068,-1.89267,-25.288505,0.027679,-0.034454,0.992569,-0.015175,0.005509,-0.006954,78.798798,5.286621,-148.567551,,,
729860440.823114,-2.192937,-1.887875,-25.288138,0.023102,-0.035187,0.98967,-0.035445,0.021243,0.002106,78.798798,5.286621,-148.567551,,,
729860440.826442,-2.203268,-1.87895,-25.286397,0.023102,-0.035187,0.98967,-0.035445,0.021243,0.002106,78.798798,5.286621,-148.567551,,,
729860440.829848,-2.203268,-1.87895,-25.286397,0.023102,-0.035187,0.98967,-0.035445,0.021243,0.002106,78.798798,5.286621,-148.567551,,,
729860440.833157,-2.214195,-1.87042,-25.283807,0.021347,-0.041687,0.994858,-0.03428,0.032941,0.011566,78.798798,5.286621,-148.567551,,,
729860440.836478,-2.223521,-1.859511,-25.279651,0.021347,-0.041687,0.994858,-0.03428,0.032941,0.011566,78.798798,5.286621,-148.567551,,,
729860440.839936,-2.223521,-1.859511,-25.279651,0.021347,-0.041687,0.994858,-0.03428,0.032941,0.011566,78.798798,5.286621,-148.567551,,,
729860440.843115,-2.231684,-1.850466,-25.27383,0.020294,-0.046097,1.007202,-0.025586,0.033155,0.02041,78.798798,5.286621,-148.567551,,,
729860440.84645,-2.237937,-1.840535,-25.266864,0.020294,-0.046097,1.007202,-0.025586,0.033155,0.02041,78.798798,5.286621,-148.567551,,,
729860440.849831,-2.237937,-1.840535,-25.266864,0.020294,-0.046097,1.007202,-0.025586,0.033155,0.02041,78.955902,5.596451,-148.94548,,,
729860440.853116,-2.242118,-1.834765,-25.259681,0.022537,-0.046234,1.009491,-0.012696,0.020137,0.022685,78.955902,5.596451,-148.94548,,,
729860440.856443,-2.244539,-1.829094,-25.252591,0.022537,-0.046234,1.009491,-0.012696,0.020137,0.022685,78.955902,5.596451,-148.94548,,,
729860440.859876,-2.244539,-1.829094,-25.252591,0.022537,-0.046234,1.009491,-0.012696,0.020137,0.022685,78.955902,5.596451,-148.94548,,,
729860440.863097,-2.244572,-1.827893,-25.246259,0.026703,-0.044922,1.005463,0.003295,0.005724,0.018905,78.955902,5.596451,-148.94548,,,
729860440.866451,-2.243031,-1.827232,-25.240774,0.026703,-0.044922,1.005463,0.003295,0.005724,0.018905,78.955902,5.596451,-148.94548,,,
729860440.86983,-2.243031,-1.827232,-25.240774,0.026703,-0.044922,1.005463,0.003295,0.005724,0.018905,78.955902,5.596451,-148.94548,,,
729860440.873166,-2.241311,-1.830712,-25.236171,0.029388,-0.042801,1.004333,0.008381,-0.011024,0.011887,78.955902,5.596451,-148.94548,,,
729860440.876441,-2.239623,-1.835768,-25.232182,0.029388,-0.042801,1.004333,0.008381,-0.011024,0.011887,78.955902,5.596451,-148.94548,,,
729860440.879782,-2.239623,-1.835768,-25.232182,0.029388,-0.042801,1.004333,0.008381,-0.011024,0.011887,78.955902,5.596451,-148.94548,,,
729860440.883115,-2.238955,-1.844274,-25.228845,0.033188,-0.039963,0.994049,0.002907,-0.027107,0.00988,78.955902,5.596451,-148.94548,,,
729860440.886448,-2.238755,-1.853368,-25.226729,0.033188,-0.039963,0.994049,0.002907,-0.027107,0.00988,78.955902,5.596451,-148.94548,,,
729860440.889793,-2.238755,-1.853368,-25.226729,0.033188,-0.039963,0.994049,0.002907,-0.027107,0.00988,78.955902,5.596451,-148.94548,,,
729860440.893122,-2.240045,-1.86297,-25.226179,0.036545,-0.037277,0.987183,-0.005942,-0.03024,0.001556,78.831024,5.461014,-148.698257,,,
729860440.896444,-2.241573,-1.86996,-25.226543,0.036545,-0.037277,0.987183,-0.005942,-0.03024,0.001556,78.831024,5.461014,-148.698257,,,
729860440.899857,-2.241573,-1.86996,-25.226543,0.036545,-0.037277,0.987183,-0.005942,-0.03024,0.001556,78.831024,5.461014,-148.698257,,,
729860440.903108,-2.245066,-1.876975,-25.227264,0.036575,-0.036087,0.988708,-0.012382,-0.0202,-0.005576,78.831024,5.461014,-148.698257,,,
729860440.906441,-2.248509,-1.880094,-25.228179,0.036575,-0.036087,0.988708,-0.012382,-0.0202,-0.005576,78.831024,5.461014,-148.698257,,,
729860440.909805,-2.248509,-1.880094,-25.228179,0.036575,-0.036087,0.988708,-0.012382,-0.0202,-0.005576,78.831024,5.461014,-148.698257,,,
729860440.913184,-2.251124,-1.882848,-25.228733,0.032852,-0.039886,0.996826,-0.008139,-0.005155,-0.000942,78.831024,5.461014,-148.698257,,,
729860440.916449,-2.25426,-1.88015,-25.227928,0.032852,-0.039886,0.996826,-0.008139,-0.005155,-0.000942,78.831024,5.461014,-148.698257,,,
729860440.919781,-2.25426,-1.88015,-25.227928,0.032852,-0.039886,0.996826,-0.008139,-0.005155,-0.000942,78.831024,5.461014,-148.698257,,,
729860440.923122,-2.254955,-1.877874,-25.225747,0.03244,-0.046402,1.007645,0.001011,0.013141,0.006443,78.831024,5.461014,-148.698257,,,
729860440.926442,-2.255281,-1.87092,-25.222023,0.03244,-0.046402,1.007645,0.001011,0.013141,0.006443,78.831024,5.461014,-148.698257,,,
