Time (sec),Pitch (deg),Roll (deg),Yaw(deg),X-Acceleration (g),Y-Acceleration (g),Z-Acceleration (g),Pitch Rate (deg/sec),Roll Rate (deg/sec),Yaw Rate (deg/sec),Magnetic Field in X direction (uT),Magnetic Field in Y direction (uT),Magnetic Field in Z Direction (uT),Latitude (deg),Longitude (deg),Altitude (m)
729862512.920845,1.036467,4.439378,42.933194,-0.067841,0.017258,1.01207,0.012535,0.009521,-0.049083,53.065063,-8.169083,-146.620071,,,
729862512.924221,1.038257,4.441281,42.915803,-0.07077,0.023636,0.996613,0.008565,0.009575,-0.063836,53.065063,-8.169083,-146.620071,,,
729862512.92752,1.038257,4.441281,42.915803,-0.07077,0.023636,0.996613,0.008565,0.009575,-0.063836,53.065063,-8.169083,-146.620071,,,
729862512.930852,1.038347,4.443445,42.898025,-0.07077,0.023636,0.996613,0.008565,0.009575,-0.063836,53.200668,-8.130142,-146.835297,,,
729862512.93418,1.03889,4.444761,42.880946,-0.075073,0.024963,0.99086,0.003928,0.008162,-0.05933,53.200668,-8.130142,-146.835297,,,
729862512.937585,1.03889,4.444761,42.880946,-0.075073,0.024963,0.99086,0.003928,0.008162,-0.05933,53.200668,-8.130142,-146.835297,,,
729862512.940853,1.037515,4.447349,42.864979,-0.075073,0.024963,0.99086,0.003928,0.008162,-0.05933,53.200668,-8.130142,-146.835297,,,
729862512.944169,1.037515,4.447349,42.864979,-0.088348,0.0168,0.996643,-0.002293,0.022949,-0.042887,53.200668,-8.130142,-146.835297,,,
729862512.947523,1.036458,4.450584,42.851443,-0.088348,0.0168,0.996643,-0.002293,0.022949,-0.042887,53.200668,-8.130142,-146.835297,,,
729862512.950923,1.033952,4.458089,42.841542,-0.088348,0.0168,0.996643,-0.002293,0.022949,-0.042887,53.200668,-8.130142,-146.835297,,,
729862512.954179,1.030085,4.466139,42.83513,-0.099258,0.019089,0.999252,-0.018743,0.040605,-0.02011,53.200668,-8.130142,-146.835297,,,
729862512.95753,1.030085,4.466139,42.83513,-0.099258,0.019089,0.999252,-0.018743,0.040605,-0.02011,53.200668,-8.130142,-146.835297,,,
729862512.960864,1.023369,4.47747,42.831429,-0.099258,0.019089,0.999252,-0.018743,0.040605,-0.02011,53.200668,-8.130142,-146.835297,,,
729862512.964244,1.023369,4.47747,42.831429,-0.096634,0.023056,0.99028,-0.033496,0.041973,-0.007433,53.200668,-8.130142,-146.835297,,,
729862512.967512,1.014951,4.48656,42.829751,-0.096634,0.023056,0.99028,-0.033496,0.041973,-0.007433,53.200668,-8.130142,-146.835297,,,
729862512.97085,1.003873,4.497034,42.828685,-0.096634,0.023056,0.99028,-0.033496,0.041973,-0.007433,53.351151,-8.313538,-146.745087,,,
729862512.974179,1.003873,4.497034,42.828685,-0.092957,0.026199,0.98613,-0.046472,0.031968,-0.009494,53.351151,-8.313538,-146.745087,,,
729862512.977579,0.990718,4.504091,42.827509,-0.092957,0.026199,0.98613,-0.046472,0.031968,-0.009494,53.351151,-8.313538,-146.745087,,,
729862512.980853,0.976935,4.510062,42.825787,-0.092957,0.026199,0.98613,-0.046472,0.031968,-0.009494,53.351151,-8.313538,-146.745087,,,
729862512.984172,0.976935,4.510062,42.825787,-0.092957,0.026199,0.98613,-0.036374,-0.005739,-0.01286,53.351151,-8.313538,-146.745087,,,
729862512.987524,0.964262,4.509161,42.823493,-0.093506,0.017929,0.991348,-0.036374,-0.005739,-0.01286,53.351151,-8.313538,-146.745087,,,
729862512.990917,0.956688,4.504346,42.820952,-0.093506,0.017929,0.991348,-0.036374,-0.005739,-0.01286,53.351151,-8.313538,-146.745087,,,
729862512.994163,0.956688,4.504346,42.820952,-0.09729,0.007706,1.017685,0.006961,-0.037032,-0.007122,53.351151,-8.313538,-146.745087,,,
729862512.997525,0.955287,4.492986,42.818779,-0.09729,0.007706,1.017685,0.006961,-0.037032,-0.007122,53.351151,-8.313538,-146.745087,,,
729862513.000938,0.960209,4.480759,42.817509,-0.09729,0.007706,1.017685,0.006961,-0.037032,-0.007122,53.351151,-8.313538,-146.745087,,,
729862513.004218,0.960209,4.480759,42.817509,-0.09729,0.007706,1.017685,0.042968,-0.042943,0.003458,53.351151,-8.313538,-146.745087,,,
729862513.007512,0.970919,4.466253,42.817369,-0.094559,-0.000153,1.03241,0.042968,-0.042943,0.003458,53.351151,-8.313538,-146.745087,,,
729862513.010848,0.984526,4.453851,42.818563,-0.094559,-0.000153,1.03241,0.042968,-0.042943,0.003458,53.351151,-8.313538,-146.745087,,,
729862513.014207,0.984526,4.453851,42.818563,-0.080872,0.007401,1.024689,0.056196,-0.030713,0.007759,53.451401,-8.525208,-146.740311,,,
729862513.017572,1.000957,4.442478,42.820234,-0.080872,0.007401,1.024689,0.056196,-0.030713,0.007759,53.451401,-8.525208,-146.740311,,,
729862513.02084,1.017108,4.433497,42.821158,-0.080872,0.007401,1.024689,0.056196,-0.030713,0.007759,53.451401,-8.525208,-146.740311,,,
729862513.024204,1.017108,4.433497,42.821158,-0.080872,0.007401,1.024689,0.052888,-0.022134,-0.002712,53.451401,-8.525208,-146.740311,,,
729862513.027518,1.032697,4.42701,42.820594,-0.066681,0.01564,1.0065,0.052888,-0.022134,-0.002712,53.451401,-8.525208,-146.740311,,,
729862513.03092,1.046023,4.421376,42.817889,-0.066681,0.01564,1.0065,0.052888,-0.022134,-0.002712,53.451401,-8.525208,-146.740311,,,
729862513.034212,1.046023,4.421376,42.817889,-0.066681,0.02327,0.99324,0.037589,-0.009402,-0.012986,53.451401,-8.525208,-146.740311,,,
729862513.037517,1.057053,4.421112,42.813819,-0.065033,0.02327,0.99324,0.037589,-0.009402,-0.012986,53.451401,-8.525208,-146.740311,,,
729862513.040841,1.066691,4.417562,42.809559,-0.065033,0.02327,0.99324,0.037589,-0.009402,-0.012986,53.451401,-8.525208,-146.740311,,,
729862513.04423,1.066691,4.417562,42.809559,-0.065033,0.02327,0.99324,0.031162,-0.00652,-0.015152,53.451401,-8.525208,-146.740311,,,
729862513.047526,1.075664,4.418017,42.804985,-0.068649,0.023102,0.991714,0.031162,-0.00652,-0.015152,53.451401,-8.525208,-146.740311,,,
729862513.050847,1.084981,4.416192,42.800635,-0.068649,0.023102,0.991714,0.031162,-0.00652,-0.015152,53.451401,-8.525208,-146.740311,,,
729862513.054206,1.084981,4.416192,42.800635,-0.068649,0.023102,0.991714,0.055282,0.002426,-0.008518,53.235855,-8.418976,-146.769012,,,
729862513.057569,1.098655,4.418564,42.796903,-0.074158,0.014969,1.009109,0.055282,0.002426,-0.008518,53.235855,-8.418976,-146.769012,,,
729862513.06084,1.11639,4.418464,42.793953,-0.074158,0.014969,1.009109,0.055282,0.002426,-0.008518,53.235855,-8.418976,-146.769012,,,
729862513.064173,1.11639,4.418464,42.793953,-0.074158,0.014969,1.009109,0.055282,0.002426,-0.008518,53.235855,-8.418976,-146.769012,,,
729862513.067527,1.139267,4.419123,42.791552,-0.080292,0.005646,1.022736,0.089917,-0.011709,-0.001601,53.235855,-8.418976,-146.769012,,,
729862513.07091,1.166293,4.41328,42.789291,-0.080292,0.005646,1.022736,0.089917,-0.011709,-0.001601,53.235855,-8.418976,-146.769012,,,
729862513.074184,1.166293,4.41328,42.789291,-0.080292,0.005646,1.022736,0.089917,-0.011709,-0.001601,53.235855,-8.418976,-146.769012,,,
729862513.077513,1.194707,4.408022,42.78663,-0.079407,0.012985,1.014664,0.106298,-0.028413,-0.00265,53.235855,-8.418976,-146.769012,,,
729862513.080836,1.22397,4.399299,42.783563,-0.079407,0.012985,1.014664,0.106298,-0.028413,-0.00265,53.235855,-8.418976,-146.769012,,,
729862513.084255,1.22397,4.399299,42.783563,-0.079407,0.012985,1.014664,0.095142,-0.020777,-0.007633,53.235855,-8.418976,-146.769012,,,
729862513.087516,1.24931,4.394595,42.779846,-0.072906,0.019241,1.004089,0.095142,-0.020777,-0.007633,53.235855,-8.418976,-146.769012,,,
729862513.090844,1.274133,4.3895,42.776136,-0.072906,0.019241,1.004089,0.095142,-0.020777,-0.007633,53.235855,-8.418976,-146.769012,,,
729862513.09419,1.274133,4.3895,42.776136,-0.072906,0.019241,1.004089,0.095142,-0.020777,-0.007633,53.056137,-8.393753,-146.248383,,,
729862513.09758,1.293366,4.387746,42.773258,-0.071472,0.025864,0.98912,0.068674,-0.004146,-0.003705,53.056137,-8.393753,-146.248383,,,
729862513.100833,1.311157,4.386401,42.771343,-0.071472,0.025864,0.98912,0.068674,-0.004146,-0.003705,53.056137,-8.393753,-146.248383,,,
729862513.104188,1.311157,4.386401,42.771343,-0.071472,0.025864,0.98912,0.068674,-0.004146,-0.003705,53.056137,-8.393753,-146.248383,,,
729862513.107504,1.323878,4.384562,42.770567,-0.072922,0.032928,0.979202,0.03905,0.002292,0.001719,53.056137,-8.393753,-146.248383,,,
729862513.110846,1.332736,4.384995,42.770996,-0.072922,0.032928,0.979202,0.03905,0.002292,0.001719,53.056137,-8.393753,-146.248383,,,
729862513.114199,1.332736,4.384995,42.770996,-0.072922,0.032928,0.979202,0.03905,0.002292,0.001719,53.056137,-8.393753,-146.248383,,,
729862513.117509,1.338128,4.383459,42.771955,-0.074722,0.034302,0.969421,0.016238,0.00235,0.003384,53.056137,-8.393753,-146.248383,,,
729862513.12084,1.344118,4.381337,42.772998,-0.074722,0.034302,0.969421,0.016238,0.00235,0.003384,53.056137,-8.393753,-146.248383,,,
729862513.124227,1.344118,4.381337,42.772998,-0.074722,0.034302,0.969421,0.016238,0.00235,0.003384,53.056137,-8.393753,-146.248383,,,
729862513.127547,1.351943,4.373493,42.773472,-0.077271,0.027878,0.978958,0.028786,-0.026777,0.000135,53.056137,-8.393753,-146.248383,,,
729862513.130838,1.360781,4.363594,42.772583,-0.077271,0.027878,0.978958,0.028786,-0.026777,0.000135,53.056137,-8.393753,-146.248383,,,
729862513.134213,1.360781,4.363594,42.772583,-0.077271,0.027878,0.978958,0.028786,-0.026777,0.000135,52.937164,-8.473022,-146.294083,,,
729862513.13759,1.370006,4.350433,42.771031,-0.081406,0.022537,0.986893,0.036609,-0.045175,-0.004056,52.937164,-8.473022,-146.294083,,,
729862513.140835,1.379759,4.336211,42.7696,-0.081406,0.022537,0.986893,0.036609,-0.045175,-0.004056,52.937164,-8.473022,-146.294083,,,
729862513.144198,1.379759,4.336211,42.7696,-0.081406,0.022537,0.986893,0.036609,-0.045175,-0.004056,52.937164,-8.473022,-146.294083,,,
729862513.147519,1.386827,4.322318,42.769038,-0.079971,0.02713,0.984085,0.03017,-0.045381,0.00163,52.937164,-8.473022,-146.294083,,,
729862513.150844,1.394547,4.30955,42.770102,-0.079971,0.02713,0.984085,0.03017,-0.045381,0.00163,52.937164,-8.473022,-146.294083,,,
729862513.154221,1.394547,4.30955,42.770102,-0.079971,0.02713,0.984085,0.03017,-0.045381,0.00163,52.937164,-8.473022,-146.294083,,,
729862513.157541,1.399617,4.299776,42.772302,-0.075333,0.027573,0.986954,0.021852,-0.028565,0.009042,52.937164,-8.473022,-146.294083,,,
729862513.160868,1.406274,4.292526,42.774564,-0.075333,0.027573,0.986954,0.021852,-0.028565,0.009042,52.937164,-8.473022,-146.294083,,,
729862513.164209,1.406274,4.292526,42.774564,-0.075333,0.027573,0.986954,0.021852,-0.028565,0.009042,52.937164,-8.473022,-146.294083,,,
729862513.167523,1.412844,4.288393,42.775993,-0.068405,0.024841,0.999924,0.026127,-0.005583,0.003487,52.937164,-8.473022,-146.294083,,,
729862513.170838,1.420313,4.287372,42.776475,-0.068405,0.024841,0.999924,0.026127,-0.005583,0.003487,52.937164,-8.473022,-146.294083,,,
729862513.174224,1.420313,4.287372,42.776475,-0.068405,0.024841,0.999924,0.026127,-0.005583,0.003487,52.937164,-8.473022,-146.294083,,,
729862513.177569,1.42801,4.287995,42.776156,-0.069061,0.023026,1.001923,0.02847,0.009337,-0.002037,53.035904,-8.474716,-146.258804,,,
729862513.180837,1.435498,4.290898,42.775534,-0.069061,0.023026,1.001923,0.02847,0.009337,-0.002037,53.035904,-8.474716,-146.258804,,,
729862513.184178,1.435498,4.290898,42.775534,-0.069061,0.023026,1.001923,0.02847,0.009337,-0.002037,53.035904,-8.474716,-146.258804,,,
729862513.187517,1.441388,4.294457,42.775927,-0.069839,0.028152,0.987122,0.011493,0.015324,0.003719,53.035904,-8.474716,-146.258804,,,
729862513.190853,1.442834,4.297747,42.777453,-0.069839,0.028152,0.987122,0.011493,0.015324,0.003719,53.035904,-8.474716,-146.258804,,,
729862513.194187,1.442834,4.297747,42.777453,-0.069839,0.028152,0.987122,0.011493,0.015324,0.003719,53.035904,-8.474716,-146.258804,,,
729862513.197511,1.441895,4.301272,42.779111,-0.067368,0.03154,0.974655,-0.012275,0.015545,0.002844,53.035904,-8.474716,-146.258804,,,
729862513.200837,1.436782,4.30417,42.780216,-0.067368,0.03154,0.974655,-0.012275,0.015545,0.002844,53.035904,-8.474716,-146.258804,,,
729862513.204167,1.436782,4.30417,42.780216,-0.067368,0.03154,0.974655,-0.012275,0.015545,0.002844,53.035904,-8.474716,-146.258804,,,
729862513.20751,1.429838,4.305215,42.780245,-0.066772,0.030823,0.977539,-0.028605,-0.001149,-0.005898,53.035904,-8.474716,-146.258804,,,
729862513.210837,1.421181,4.302717,42.778593,-0.066772,0.030823,0.977539,-0.028605,-0.001149,-0.005898,53.035904,-8.474716,-146.258804,,,
729862513.214276,1.421181,4.302717,42.778593,-0.066772,0.030823,0.977539,-0.028605,-0.001149,-0.005898,53.035904,-8.474716,-146.258804,,,
729862513.217533,1.411919,4.298839,42.77542,-0.066238,0.029236,0.980331,-0.030495,-0.019055,-0.016487,53.067291,-8.56395,-146.262512,,,
729862513.220842,1.401875,4.293738,42.771571,-0.066238,0.029236,0.980331,-0.030495,-0.019055,-0.016487,53.067291,-8.56395,-146.262512,,,
729862513.224193,1.401875,4.293738,42.771571,-0.066238,0.029236,0.980331,-0.030495,-0.019055,-0.016487,53.067291,-8.56395,-146.262512,,,
729862513.227516,1.390317,4.292643,42.767772,-0.068207,0.028427,0.989761,-0.042131,-0.000103,-0.016746,53.067291,-8.56395,-146.262512,,,
729862513.230862,1.376942,4.293343,42.764384,-0.068207,0.028427,0.989761,-0.042131,-0.000103,-0.016746,53.067291,-8.56395,-146.262512,,,
729862513.234185,1.376942,4.293343,42.764384,-0.068207,0.028427,0.989761,-0.042131,-0.000103,-0.016746,53.067291,-8.56395,-146.262512,,,
729862513.237517,1.362459,4.297254,42.761243,-0.066116,0.026764,0.993118,-0.053039,0.019159,-0.015779,53.067291,-8.56395,-146.262512,,,
729862513.240843,1.346329,4.303184,42.758049,-0.066116,0.026764,0.993118,-0.053039,0.019159,-0.015779,53.067291,-8.56395,-146.262512,,,
729862513.24418,1.346329,4.303184,42.758049,-0.066116,0.026764,0.993118,-0.053039,0.019159,-0.015779,53.067291,-8.56395,-146.262512,,,
729862513.247574,1.330118,4.310887,42.753812,-0.067139,0.025513,0.993912,-0.054355,0.035508,-0.023262,53.067291,-8.56395,-146.262512,,,
729862513.250829,1.314961,4.320682,42.748552,-0.067139,0.025513,0.993912,-0.054355,0.035508,-0.023262,53.067291,-8.56395,-146.262512,,,
729862513.254171,1.314961,4.320682,42.748552,-0.067139,0.025513,0.993912,-0.054355,0.035508,-0.023262,53.067291,-8.56395,-146.262512,,,
729862513.257501,1.30165,4.329216,42.742579,-0.072556,0.02005,1.002182,-0.040915,0.034913,-0.027439,53.206497,-8.590622,-146.471008,,,
729862513.260836,1.291009,4.338284,42.735902,-0.072556,0.02005,1.002182,-0.040915,0.034913,-0.027439,53.206497,-8.590622,-146.471008,,,
729862513.26418,1.291009,4.338284,42.735902,-0.072556,0.02005,1.002182,-0.040915,0.034913,-0.027439,53.206497,-8.590622,-146.471008,,,
729862513.267584,1.283659,4.345513,42.729378,-0.077377,0.015121,1.00444,-0.021763,0.02757,-0.025058,53.206497,-8.590622,-146.471008,,,
729862513.270829,1.276975,4.352657,42.723327,-0.077377,0.015121,1.00444,-0.021763,0.02757,-0.025058,53.206497,-8.590622,-146.471008,,,
729862513.274181,1.276975,4.352657,42.723327,-0.077377,0.015121,1.00444,-0.021763,0.02757,-0.025058,53.206497,-8.590622,-146.471008,,,
729862513.277517,1.271454,4.357918,42.717417,-0.076187,0.018066,0.996811,-0.019495,0.021677,-0.024026,53.206497,-8.590622,-146.471008,,,
729862513.280843,1.264121,4.363164,42.711973,-0.076187,0.018066,0.996811,-0.019495,0.021677,-0.024026,53.206497,-8.590622,-146.471008,,,
729862513.284095,1.264121,4.363164,42.711973,-0.076187,0.018066,0.996811,-0.019495,0.021677,-0.024026,53.206497,-8.590622,-146.471008,,,
729862513.28754,1.257172,4.3664,42.707635,-0.079437,0.020477,0.988754,-0.025165,0.017059,-0.016864,53.206497,-8.590622,-146.471008,,,
729862513.290838,1.249479,4.370144,42.704782,-0.079437,0.020477,0.988754,-0.025165,0.017059,-0.016864,53.206497,-8.590622,-146.471008,,,
729862513.294168,1.249479,4.370144,42.704782,-0.079437,0.020477,0.988754,-0.025165,0.017059,-0.016864,53.206497,-8.590622,-146.471008,,,
729862513.297523,1.242766,4.371629,42.703647,-0.087097,0.018051,0.987946,-0.025436,0.012522,-0.005096,53.206497,-8.590622,-146.471008,,,
729862513.300841,1.2338,4.374475,42.704718,-0.087097,0.018051,0.987946,-0.025436,0.012522,-0.005096,53.343643,-8.428452,-146.610992,,,
729862513.304216,1.2338,4.374475,42.704718,-0.087097,0.018051,0.987946,-0.025436,0.012522,-0.005096,53.343643,-8.428452,-146.610992,,,
729862513.307519,1.223395,4.37605,42.708621,-0.091339,0.020081,0.98143,-0.042443,0.012696,0.013254,53.343643,-8.428452,-146.610992,,,
729862513.310837,1.209541,4.378997,42.714362,-0.091339,0.020081,0.98143,-0.042443,0.012696,0.013254,53.343643,-8.428452,-146.610992,,,
729862513.314188,1.209541,4.378997,42.714362,-0.091339,0.020081,0.98143,-0.042443,0.012696,0.013254,53.343643,-8.428452,-146.610992,,,
729862513.317573,1.193752,4.380281,42.721689,-0.087326,0.025375,0.97438,-0.060778,0.01234,0.02271,53.343643,-8.428452,-146.610992,,,
729862513.320833,1.176794,4.384105,42.729746,-0.087326,0.025375,0.97438,-0.060778,0.01234,0.02271,53.343643,-8.428452,-146.610992,,,
729862513.324189,1.176794,4.384105,42.729746,-0.087326,0.025375,0.97438,-0.060778,0.01234,0.02271,53.343643,-8.428452,-146.610992,,,
729862513.327537,1.161008,4.388119,42.737144,-0.078979,0.021439,0.986725,-0.056356,0.024181,0.018347,53.343643,-8.428452,-146.610992,,,
729862513.33084,1.146965,4.394745,42.744009,-0.078979,0.021439,0.986725,-0.056356,0.024181,0.018347,53.343643,-8.428452,-146.610992,,,
729862513.33417,1.146965,4.394745,42.744009,-0.078979,0.021439,0.986725,-0.056356,0.024181,0.018347,53.343643,-8.428452,-146.610992,,,
729862513.337517,1.137331,4.40097,42.750673,-0.077271,0.012283,1.005554,-0.027972,0.028098,0.018992,53.343643,-8.428452,-146.610992,,,
729862513.340841,1.132797,4.407151,42.756367,-0.077271,0.012283,1.005554,-0.027972,0.028098,0.018992,53.37941,-8.681595,-146.694275,,,
729862513.344216,1.132797,4.407151,42.756367,-0.077271,0.012283,1.005554,-0.027972,0.028098,0.018992,53.37941,-8.681595,-146.694275,,,
729862513.347507,1.134408,4.410522,42.760125,-0.071411,0.00705,1.013657,0.019369,0.009653,0.009068,53.37941,-8.681595,-146.694275,,,
729862513.350842,1.142411,4.411586,42.761453,-0.071411,0.00705,1.013657,0.019369,0.009653,0.009068,53.37941,-8.681595,-146.694275,,,
729862513.354167,1.142411,4.411586,42.761453,-0.071411,0.00705,1.013657,0.019369,0.009653,0.009068,53.37941,-8.681595,-146.694275,,,
729862513.357571,1.153786,4.411664,42.759768,-0.063324,0.010544,1.015945,0.046457,0.002317,-0.009889,53.37941,-8.681595,-146.694275,,,
729862513.360833,1.166401,4.411332,42.755097,-0.063324,0.010544,1.015945,0.046457,0.002317,-0.009889,53.37941,-8.681595,-146.694275,,,
729862513.364184,1.166401,4.411332,42.755097,-0.063324,0.010544,1.015945,0.046457,0.002317,-0.009889,53.37941,-8.681595,-146.694275,,,
729862513.367527,1.177968,4.410445,42.748582,-0.061874,0.017014,1.001465,0.040277,-0.003458,-0.023221,53.37941,-8.681595,-146.694275,,,
729862513.370836,1.187922,4.408634,42.741287,-0.061874,0.017014,1.001465,0.040277,-0.003458,-0.023221,53.37941,-8.681595,-146.694275,,,
729862513.374186,1.187922,4.408634,42.741287,-0.061874,0.017014,1.001465,0.040277,-0.003458,-0.023221,53.37941,-8.681595,-146.694275,,,
729862513.377523,1.195263,4.408558,42.733747,-0.066772,0.023071,0.989548,0.023441,-0.002581,-0.026003,53.37941,-8.681595,-146.694275,,,
729862513.38084,1.199898,4.408272,42.726474,-0.066772,0.023071,0.989548,0.023441,-0.002581,-0.026003,53.361832,-8.287262,-146.267609,,,
729862513.384169,1.199898,4.408272,42.726474,-0.066772,0.023071,0.989548,0.023441,-0.002581,-0.026003,53.361832,-8.287262,-146.267609,,,
729862513.387522,1.201588,4.41164,42.720509,-0.072495,0.022537,0.98996,0.003739,0.006104,-0.017985,53.361832,-8.287262,-146.267609,,,
729862513.390836,1.200962,4.412988,42.716916,-0.072495,0.022537,0.98996,0.003739,0.006104,-0.017985,53.361832,-8.287262,-146.267609,,,
729862513.394259,1.200962,4.412988,42.716916,-0.072495,0.022537,0.98996,0.003739,0.006104,-0.017985,53.361832,-8.287262,-146.267609,,,
729862513.397528,1.199064,4.415904,42.715551,-0.080185,0.022873,0.989624,-0.008659,0.000576,-0.002988,53.361832,-8.287262,-146.267609,,,
729862513.40085,1.196499,4.414815,42.71643,-0.080185,0.022873,0.989624,-0.008659,0.000576,-0.002988,53.361832,-8.287262,-146.267609,,,
729862513.404163,1.196499,4.414815,42.71643,-0.080185,0.022873,0.989624,-0.008659,0.000576,-0.002988,53.361832,-8.287262,-146.267609,,,
729862513.40757,1.194249,4.413966,42.71904,-0.085342,0.022278,0.995209,-0.010077,-0.00245,0.009088,53.361832,-8.287262,-146.267609,,,
729862513.410867,1.190989,4.41306,42.722746,-0.085342,0.022278,0.995209,-0.010077,-0.00245,0.009088,53.361832,-8.287262,-146.267609,,,
729862513.414178,1.190989,4.41306,42.722746,-0.085342,0.022278,0.995209,-0.010077,-0.00245,0.009088,53.361832,-8.287262,-146.267609,,,
729862513.417555,1.187572,4.412888,42.727342,-0.08403,0.020737,0.998459,-0.006977,0.002285,0.015541,53.361832,-8.287262,-146.267609,,,
729862513.420876,1.185379,4.41326,42.732388,-0.08403,0.020737,0.998459,-0.006977,0.002285,0.015541,53.584274,-8.523895,-146.076859,,,
729862513.424182,1.185379,4.41326,42.732388,-0.08403,0.020737,0.998459,-0.006977,0.002285,0.015541,53.584274,-8.523895,-146.076859,,,
729862513.427545,1.181258,4.413494,42.737398,-0.07608,0.022781,0.995346,-0.010875,0.006771,0.01484,53.584274,-8.523895,-146.076859,,,
729862513.430848,1.178065,4.414164,42.74157,-0.07608,0.022781,0.995346,-0.010875,0.006771,0.01484,53.584274,-8.523895,-146.076859,,,
729862513.434196,1.178065,4.414164,42.74157,-0.07608,0.022781,0.995346,-0.010875,0.006771,0.01484,53.584274,-8.523895,-146.076859,,,
729862513.437526,1.173504,4.411022,42.744969,-0.073639,0.027756,0.987335,-0.01171,-0.003851,0.009076,53.584274,-8.523895,-146.076859,,,
729862513.440834,1.170569,4.408306,42.747482,-0.073639,0.027756,0.987335,-0.01171,-0.003851,0.009076,53.584274,-8.523895,-146.076859,,,
729862513.444232,1.170569,4.408306,42.747482,-0.073639,0.027756,0.987335,-0.01171,-0.003851,0.009076,53.584274,-8.523895,-146.076859,,,
729862513.447521,1.167408,4.401625,42.748818,-0.074493,0.025238,0.988632,-0.008709,-0.012633,0.000762,53.584274,-8.523895,-146.076859,,,
729862513.450842,1.166305,4.396681,42.74921,-0.074493,0.025238,0.988632,-0.008709,-0.012633,0.000762,53.584274,-8.523895,-146.076859,,,
729862513.454185,1.166305,4.396681,42.74921,-0.074493,0.025238,0.988632,-0.008709,-0.012633,0.000762,53.584274,-8.523895,-146.076859,,,
729862513.457571,1.167625,4.388599,42.749961,-0.075745,0.020309,0.996414,0.006344,-0.021238,0.004152,53.584274,-8.523895,-146.076859,,,
729862513.460834,1.171139,4.382014,42.75084,-0.075745,0.020309,0.996414,0.006344,-0.021238,0.004152,53.584274,-8.523895,-146.076859,,,
729862513.464181,1.171139,4.382014,42.75084,-0.075745,0.020309,0.996414,0.006344,-0.021238,0.004152,53.317001,-8.524689,-146.495865,,,
729862513.467524,1.17808,4.375354,42.751123,-0.07106,0.017822,1.010132,0.029092,-0.016157,0.001612,53.317001,-8.524689,-146.495865,,,
729862513.47084,1.186942,4.370659,42.750708,-0.07106,0.017822,1.010132,0.029092,-0.016157,0.001612,53.317001,-8.524689,-146.495865,,,
729862513.474177,1.186942,4.370659,42.750708,-0.07106,0.017822,1.010132,0.029092,-0.016157,0.001612,53.317001,-8.524689,-146.495865,,,
729862513.477516,1.196489,4.368083,42.749652,-0.067688,0.013397,1.011551,0.032378,-0.005208,-0.002486,53.317001,-8.524689,-146.495865,,,
729862513.480833,1.204692,4.368038,42.748443,-0.067688,0.013397,1.011551,0.032378,-0.005208,-0.002486,53.317001,-8.524689,-146.495865,,,
729862513.484276,1.204692,4.368038,42.748443,-0.067688,0.013397,1.011551,0.032378,-0.005208,-0.002486,53.317001,-8.524689,-146.495865,,,
729862513.487523,1.211701,4.37302,42.747505,-0.063492,0.016342,1.001068,0.023426,0.019062,-0.001048,53.317001,-8.524689,-146.495865,,,
729862513.490841,1.217617,4.378892,42.746228,-0.063492,0.016342,1.001068,0.023426,0.019062,-0.001048,53.317001,-8.524689,-146.495865,,,
729862513.494176,1.217617,4.378892,42.746228,-0.063492,0.016342,1.001068,0.023426,0.019062,-0.001048,53.317001,-8.524689,-146.495865,,,
729862513.497579,1.22175,4.38771,42.743466,-0.065292,0.02066,0.999054,0.011941,0.029279,-0.01204,53.317001,-8.524689,-146.495865,,,
729862513.500832,1.223477,4.395776,42.73964,-0.065292,0.02066,0.999054,0.011941,0.029279,-0.01204,53.317001,-8.524689,-146.495865,,,
729862513.504181,1.223477,4.395776,42.73964,-0.065292,0.02066,0.999054,0.011941,0.029279,-0.01204,53.523987,-8.537674,-146.47226,,,
729862513.507519,1.222927,4.404799,42.735519,-0.07225,0.021408,0.993027,-0.003812,0.0339,-0.015269,53.523987,-8.537674,-146.47226,,,
729862513.51084,1.220701,4.412741,42.732924,-0.07225,0.021408,0.993027,-0.003812,0.0339,-0.015269,53.523987,-8.537674,-146.47226,,,
729862513.514193,1.220701,4.412741,42.732924,-0.07225,0.021408,0.993027,-0.003812,0.0339,-0.015269,53.523987,-8.537674,-146.47226,,,
729862513.51752,1.218134,4.417294,42.732558,-0.086563,0.021576,0.985184,-0.012071,0.014158,-0.000377,53.523987,-8.537674,-146.47226,,,
729862513.520838,1.21362,4.418596,42.734216,-0.086563,0.021576,0.985184,-0.012071,0.014158,-0.000377,53.523987,-8.537674,-146.47226,,,
729862513.524248,1.21362,4.418596,42.734216,-0.086563,0.021576,0.985184,-0.012071,0.014158,-0.000377,53.523987,-8.537674,-146.47226,,,
729862513.527503,1.20924,4.415451,42.737654,-0.090134,0.024414,0.981125,-0.016051,-0.013666,0.011717,53.523987,-8.537674,-146.47226,,,
729862513.530831,1.205863,4.408455,42.741531,-0.090134,0.024414,0.981125,-0.016051,-0.013666,0.011717,53.523987,-8.537674,-146.47226,,,
729862513.534184,1.205863,4.408455,42.741531,-0.090134,0.024414,0.981125,-0.016051,-0.013666,0.011717,53.523987,-8.537674,-146.47226,,,
729862513.537564,1.20405,4.398215,42.744618,-0.086609,0.020981,0.992691,-0.004908,-0.035457,0.007049,53.523987,-8.537674,-146.47226,,,
729862513.540824,1.203699,4.386722,42.746187,-0.086609,0.020981,0.992691,-0.004908,-0.035457,0.007049,53.523987,-8.537674,-146.47226,,,
729862513.544165,1.203699,4.386722,42.746187,-0.086609,0.020981,0.992691,-0.004908,-0.035457,0.007049,53.260406,-8.470581,-146.324509,,,
729862513.547516,1.204209,4.374864,42.74578,-0.073883,0.02301,0.997742,0.003295,-0.032626,-0.006142,53.260406,-8.470581,-146.324509,,,
729862513.550827,1.2054,4.366505,42.743548,-0.073883,0.02301,0.997742,0.003295,-0.032626,-0.006142,53.260406,-8.470581,-146.324509,,,
729862513.554176,1.2054,4.366505,42.743548,-0.073883,0.02301,0.997742,0.003295,-0.032626,-0.006142,53.260406,-8.470581,-146.324509,,,
729862513.557501,1.205837,4.360502,42.740131,-0.066956,0.025436,0.997787,0.003869,-0.006271,-0.01459,53.260406,-8.470581,-146.324509,,,
729862513.560836,1.205686,4.360066,42.735495,-0.066956,0.025436,0.997787,0.003869,-0.006271,-0.01459,53.260406,-8.470581,-146.324509,,,
729862513.564233,1.205686,4.360066,42.735495,-0.066956,0.025436,0.997787,0.003869,-0.006271,-0.01459,53.260406,-8.470581,-146.324509,,,
729862513.567499,1.204472,4.361403,42.730124,-0.068039,0.028061,0.999924,0.001308,0.01914,-0.020197,53.260406,-8.470581,-146.324509,,,
729862513.570835,1.204183,4.367292,42.724405,-0.068039,0.028061,0.999924,0.001308,0.01914,-0.020197,53.260406,-8.470581,-146.324509,,,
729862513.574178,1.204183,4.367292,42.724405,-0.068039,0.028061,0.999924,0.001308,0.01914,-0.020197,53.260406,-8.470581,-146.324509,,,
729862513.577559,1.203284,4.373569,42.718215,-0.076782,0.023895,0.998138,-0.00205,0.035598,-0.024037,53.260406,-8.470581,-146.324509,,,
729862513.580829,1.201796,4.383918,42.712547,-0.076782,0.023895,0.998138,-0.00205,0.035598,-0.024037,53.260406,-8.470581,-146.324509,,,
729862513.584162,1.201796,4.383918,42.712547,-0.076782,0.023895,0.998138,-0.00205,0.035598,-0.024037,53.195343,-8.423294,-146.546738,,,
729862513.587511,1.200275,4.39404,42.708511,-0.083633,0.022339,0.998047,-0.003787,0.042582,-0.012962,53.195343,-8.423294,-146.546738,,,
729862513.590829,1.199299,4.404141,42.706063,-0.083633,0.022339,0.998047,-0.003787,0.042582,-0.012962,53.195343,-8.423294,-146.546738,,,
729862513.594171,1.199299,4.404141,42.706063,-0.083633,0.022339,0.998047,-0.003787,0.042582,-0.012962,53.195343,-8.423294,-146.546738,,,
729862513.597508,1.199019,4.412046,42.705746,-0.092346,0.019165,0.992569,-0.00063,0.018194,0.002378,53.195343,-8.423294,-146.546738,,,
729862513.60083,1.197166,4.414845,42.707174,-0.092346,0.019165,0.992569,-0.00063,0.018194,0.002378,53.195343,-8.423294,-146.546738,,,
729862513.604215,1.197166,4.414845,42.707174,-0.092346,0.019165,0.992569,-0.00063,0.018194,0.002378,53.195343,-8.423294,-146.546738,,,
729862513.607509,1.192805,4.417505,42.709894,-0.0952,0.021317,0.980606,-0.021077,0.000255,0.010183,53.195343,-8.423294,-146.546738,,,
729862513.61083,1.185505,4.416367,42.714679,-0.0952,0.021317,0.980606,-0.021077,0.000255,0.010183,53.195343,-8.423294,-146.546738,,,
729862513.614183,1.185505,4.416367,42.714679,-0.0952,0.021317,0.980606,-0.021077,0.000255,0.010183,53.195343,-8.423294,-146.546738,,,
729862513.617587,1.175748,4.41624,42.721545,-0.090881,0.025925,0.977264,-0.039984,-0.006806,0.023619,53.195343,-8.423294,-146.546738,,,
729862513.620845,1.162832,4.414009,42.730007,-0.090881,0.025925,0.977264,-0.039984,-0.006806,0.023619,53.195343,-8.423294,-146.546738,,,
729862513.624179,1.162832,4.414009,42.730007,-0.090881,0.025925,0.977264,-0.039984,-0.006806,0.023619,53.195343,-8.423294,-146.546738,,,
729862513.627628,1.147259,4.412507,42.739317,-0.085083,0.023529,0.981262,-0.059958,-0.001516,0.028033,53.278763,-8.331238,-146.487076,,,
729862513.630927,1.130308,4.411762,42.749132,-0.085083,0.023529,0.981262,-0.059958,-0.001516,0.028033,53.278763,-8.331238,-146.487076,,,
729862513.634182,1.130308,4.411762,42.749132,-0.085083,0.023529,0.981262,-0.059958,-0.001516,0.028033,53.278763,-8.331238,-146.487076,,,
729862513.6375,1.114544,4.410296,42.758841,-0.076813,0.018539,0.992172,-0.054654,0.004295,0.027514,53.278763,-8.331238,-146.487076,,,
729862513.640836,1.100695,4.409953,42.767653,-0.076813,0.018539,0.992172,-0.054654,0.004295,0.027514,53.278763,-8.331238,-146.487076,,,
729862513.644266,1.100695,4.409953,42.767653,-0.076813,0.018539,0.992172,-0.054654,0.004295,0.027514,53.278763,-8.331238,-146.487076,,,
729862513.647519,1.090656,4.40747,42.774873,-0.067245,0.013474,1.004608,-0.033699,0.000725,0.017771,53.278763,-8.331238,-146.487076,,,
729862513.650832,1.084024,4.407342,42.780347,-0.067245,0.013474,1.004608,-0.033699,0.000725,0.017771,53.278763,-8.331238,-146.487076,,,
729862513.654188,1.084024,4.407342,42.780347,-0.067245,0.013474,1.004608,-0.033699,0.000725,0.017771,53.278763,-8.331238,-146.487076,,,
729862513.657568,1.082892,4.408533,42.784618,-0.06456,0.008896,1.017563,0.000458,0.011859,0.011982,53.278763,-8.331238,-146.487076,,,
729862513.660855,1.085649,4.412117,42.787783,-0.06456,0.008896,1.017563,0.000458,0.011859,0.011982,53.278763,-8.331238,-146.487076,,,
729862513.664173,1.085649,4.412117,42.787783,-0.06456,0.008896,1.017563,0.000458,0.011859,0.011982,53.278763,-8.331238,-146.487076,,,
729862513.667517,1.093731,4.417398,42.790313,-0.070786,0.006424,1.026108,0.035223,0.01718,0.010349,53.289993,-8.398392,-146.687729,,,
729862513.670881,1.105898,4.421248,42.793056,-0.070786,0.006424,1.026108,0.035223,0.01718,0.010349,53.289993,-8.398392,-146.687729,,,
729862513.674156,1.105898,4.421248,42.793056,-0.070786,0.006424,1.026108,0.035223,0.01718,0.010349,53.289993,-8.398392,-146.687729,,,
729862513.677509,1.121033,4.426309,42.795786,-0.073822,0.007645,1.018799,0.055564,0.01062,0.012202,53.289993,-8.398392,-146.687729,,,
729862513.680828,1.137263,4.427743,42.798287,-0.073822,0.007645,1.018799,0.055564,0.01062,0.012202,53.289993,-8.398392,-146.687729,,,
729862513.684232,1.137263,4.427743,42.798287,-0.073822,0.007645,1.018799,0.055564,0.01062,0.012202,53.289993,-8.398392,-146.687729,,,
729862513.68751,1.153163,4.429832,42.800097,-0.06514,0.013962,0.997421,0.052938,-0.00729,0.007628,53.289993,-8.398392,-146.687729,,,
729862513.690824,1.168271,4.425064,42.80047,-0.06514,0.013962,0.997421,0.052938,-0.00729,0.007628,53.289993,-8.398392,-146.687729,,,
729862513.694173,1.168271,4.425064,42.80047,-0.06514,0.013962,0.997421,0.052938,-0.00729,0.007628,53.289993,-8.398392,-146.687729,,,
729862513.697555,1.182937,4.420481,42.798291,-0.058228,0.021591,0.986801,0.04742,-0.026075,-0.010241,53.289993,-8.398392,-146.687729,,,
729862513.700819,1.195344,4.413438,42.793372,-0.058228,0.021591,0.986801,0.04742,-0.026075,-0.010241,53.289993,-8.398392,-146.687729,,,
729862513.704176,1.195344,4.413438,42.793372,-0.058228,0.021591,0.986801,0.04742,-0.026075,-0.010241,53.289993,-8.398392,-146.687729,,,
729862513.707495,1.207086,4.410677,42.786805,-0.052368,0.018509,0.991943,0.040488,-0.009937,-0.022043,53.290863,-8.514267,-146.62674,,,
729862513.710874,1.216778,4.408396,42.78023,-0.052368,0.018509,0.991943,0.040488,-0.009937,-0.022043,53.290863,-8.514267,-146.62674,,,
729862513.714174,1.216778,4.408396,42.78023,-0.052368,0.018509,0.991943,0.040488,-0.009937,-0.022043,53.290863,-8.514267,-146.62674,,,
729862513.717518,1.224435,4.408569,42.774051,-0.056366,0.0215,0.989929,0.027211,0.003839,-0.020243,53.290863,-8.514267,-146.62674,,,
729862513.720822,1.230328,4.409405,42.768252,-0.056366,0.0215,0.989929,0.027211,0.003839,-0.020243,53.290863,-8.514267,-146.62674,,,
729862513.724222,1.230328,4.409405,42.768252,-0.056366,0.0215,0.989929,0.027211,0.003839,-0.020243,53.290863,-8.514267,-146.62674,,,
729862513.727488,1.232964,4.409393,42.762888,-0.063614,0.029388,0.980545,0.008558,0.006959,-0.018794,53.290863,-8.514267,-146.62674,,,
729862513.730827,1.23328,4.411266,42.757708,-0.063614,0.029388,0.980545,0.008558,0.006959,-0.018794,53.290863,-8.514267,-146.62674,,,
729862513.73418,1.23328,4.411266,42.757708,-0.063614,0.029388,0.980545,0.008558,0.006959,-0.018794,53.290863,-8.514267,-146.62674,,,
729862513.73758,1.228663,4.412171,42.753393,-0.069061,0.027588,0.973114,-0.017361,0.016083,-0.015084,53.290863,-8.514267,-146.62674,,,
729862513.74084,1.221687,4.417092,42.749977,-0.069061,0.027588,0.973114,-0.017361,0.016083,-0.015084,53.290863,-8.514267,-146.62674,,,
729862513.74417,1.221687,4.417092,42.749977,-0.069061,0.027588,0.973114,-0.017361,0.016083,-0.015084,53.290863,-8.514267,-146.62674,,,
729862513.747501,1.210247,4.421139,42.747188,-0.074997,0.032364,0.972351,-0.038153,0.021031,-0.012512,53.410995,-8.335663,-146.11409,,,
729862513.750866,1.198773,4.426024,42.745087,-0.074997,0.032364,0.972351,-0.038153,0.021031,-0.012512,53.410995,-8.335663,-146.11409,,,
729862513.754182,1.198773,4.426024,42.745087,-0.074997,0.032364,0.972351,-0.038153,0.021031,-0.012512,53.410995,-8.335663,-146.11409,,,
729862513.75751,1.186716,4.429454,42.743554,-0.082809,0.028351,0.983994,-0.0329,0.016563,-0.008268,53.410995,-8.335663,-146.11409,,,
729862513.760853,1.178538,4.434067,42.742643,-0.082809,0.028351,0.983994,-0.0329,0.016563,-0.008268,53.410995,-8.335663,-146.11409,,,
729862513.764232,1.178538,4.434067,42.742643,-0.082809,0.028351,0.983994,-0.0329,0.016563,-0.008268,53.410995,-8.335663,-146.11409,,,
729862513.767496,1.172917,4.437697,42.743125,-0.089752,0.01828,1.007538,-0.009445,0.021103,0.003056,53.410995,-8.335663,-146.11409,,,
729862513.770836,1.17115,4.442529,42.745603,-0.089752,0.01828,1.007538,-0.009445,0.021103,0.003056,53.410995,-8.335663,-146.11409,,,
729862513.774162,1.17115,4.442529,42.745603,-0.089752,0.01828,1.007538,-0.009445,0.021103,0.003056,53.410995,-8.335663,-146.11409,,,
729862513.777554,1.171428,4.443458,42.749554,-0.09053,0.01709,1.005768,0.003079,0.013953,0.01388,53.410995,-8.335663,-146.11409,,,
729862513.780861,1.174246,4.44612,42.753761,-0.09053,0.01709,1.005768,0.003079,0.013953,0.01388,53.410995,-8.335663,-146.11409,,,
729862513.784157,1.174246,4.44612,42.753761,-0.09053,0.01709,1.005768,0.003079,0.013953,0.01388,53.410995,-8.335663,-146.11409,,,
729862513.787494,1.178847,4.444099,42.756801,-0.083435,0.021149,1.002838,0.017174,0.009098,0.006191,53.410995,-8.335663,-146.11409,,,
729862513.790847,1.184855,4.446996,42.757312,-0.083435,0.021149,1.002838,0.017174,0.009098,0.006191,53.472641,-8.496094,-146.286774,,,
729862513.79416,1.184855,4.446996,42.757312,-0.083435,0.021149,1.002838,0.017174,0.009098,0.006191,53.472641,-8.496094,-146.286774,,,
729862513.797496,1.190717,4.447755,42.75566,-0.074966,0.019775,1.005066,0.017569,0.020377,-0.009418,53.472641,-8.496094,-146.286774,,,
729862513.800869,1.194784,4.451852,42.752845,-0.074966,0.019775,1.005066,0.017569,0.020377,-0.009418,53.472641,-8.496094,-146.286774,,,
729862513.804216,1.194784,4.451852,42.752845,-0.074966,0.019775,1.005066,0.017569,0.020377,-0.009418,53.472641,-8.496094,-146.286774,,,
729862513.807487,1.199065,4.451502,42.750287,-0.075668,0.021698,0.993149,0.013382,0.006634,-0.008264,53.472641,-8.496094,-146.286774,,,
729862513.810867,1.201631,4.451982,42.748068,-0.075668,0.021698,0.993149,0.013382,0.006634,-0.008264,53.472641,-8.496094,-146.286774,,,
729862513.814176,1.201631,4.451982,42.748068,-0.075668,0.021698,0.993149,0.013382,0.006634,-0.008264,53.472641,-8.496094,-146.286774,,,
729862513.817567,1.203437,4.449572,42.746164,-0.080688,0.025787,0.987579,0.002201,-0.003489,-0.007167,53.472641,-8.496094,-146.286774,,,
729862513.820864,1.202126,4.448314,42.744391,-0.080688,0.025787,0.987579,0.002201,-0.003489,-0.007167,53.472641,-8.496094,-146.286774,,,
729862513.824171,1.202126,4.448314,42.744391,-0.080688,0.025787,0.987579,0.002201,-0.003489,-0.007167,53.472641,-8.496094,-146.286774,,,
729862513.827494,1.198698,4.447845,42.742475,-0.073959,0.023712,0.984863,-0.020421,0.005639,-0.010079,53.472641,-8.496094,-146.286774,,,
729862513.830869,1.191016,4.449338,42.740895,-0.073959,0.023712,0.984863,-0.020421,0.005639,-0.010079,53.519516,-8.454071,-146.518448,,,
729862513.834168,1.191016,4.449338,42.740895,-0.073959,0.023712,0.984863,-0.020421,0.005639,-0.010079,53.519516,-8.454071,-146.518448,,,
729862513.83751,1.182469,4.451937,42.739974,-0.073715,0.02388,0.98671,-0.034124,0.008603,-0.006453,53.519516,-8.454071,-146.518448,,,
729862513.84094,1.172916,4.453739,42.738534,-0.073715,0.02388,0.98671,-0.034124,0.008603,-0.006453,53.519516,-8.454071,-146.518448,,,
729862513.844164,1.172916,4.453739,42.738534,-0.073715,0.02388,0.98671,-0.034124,0.008603,-0.006453,53.519516,-8.454071,-146.518448,,,
729862513.847529,1.164694,4.457154,42.73643,-0.079529,0.02124,1.001068,-0.02416,0.008209,-0.010042,53.519516,-8.454071,-146.518448,,,
729862513.850864,1.158288,4.458937,42.734471,-0.079529,0.02124,1.001068,-0.02416,0.008209,-0.010042,53.519516,-8.454071,-146.518448,,,
729862513.854238,1.158288,4.458937,42.734471,-0.079529,0.02124,1.001068,-0.02416,0.008209,-0.010042,53.519516,-8.454071,-146.518448,,,
729862513.857505,1.153703,4.463583,42.732774,-0.082504,0.013199,1.010559,-0.008192,0.014309,-0.006694,53.519516,-8.454071,-146.518448,,,
729862513.860831,1.153703,4.466903,42.732581,-0.082504,0.013199,1.010559,-0.008192,0.014309,-0.006694,53.519516,-8.454071,-146.518448,,,
729862513.864168,1.152527,4.466903,42.732581,-0.082504,0.013199,1.010559,-0.008192,0.014309,-0.006694,53.519516,-8.454071,-146.518448,,,
729862513.86749,1.155385,4.470739,42.733966,-0.086456,0.013687,1.010437,0.018248,0.01064,0.006465,53.519516,-8.454071,-146.518448,,,
729862513.870824,1.155385,4.470739,42.733966,-0.086456,0.013687,1.010437,0.018248,0.01064,0.006465,53.516006,-8.348404,-146.557602,,,
729862513.874172,1.162549,4.472889,42.736228,-0.086456,0.013687,1.010437,0.018248,0.01064,0.006465,53.516006,-8.348404,-146.557602,,,
729862513.877491,1.173296,4.475153,42.738892,-0.083603,0.01355,1.015961,0.04381,0.012715,0.01125,53.516006,-8.348404,-146.557602,,,
729862513.880892,1.173296,4.475153,42.738892,-0.083603,0.01355,1.015961,0.04381,0.012715,0.01125,53.516006,-8.348404,-146.557602,,,
729862513.884172,1.186524,4.479407,42.741066,-0.083603,0.01355,1.015961,0.04381,0.012715,0.01125,53.516006,-8.348404,-146.557602,,,
729862513.88752,1.200141,4.485521,42.742371,-0.075928,0.014816,1.012527,0.047207,0.030237,0.005294,53.516006,-8.348404,-146.557602,,,
729862513.89084,1.200141,4.485521,42.742371,-0.075928,0.014816,1.012527,0.047207,0.030237,0.005294,53.516006,-8.348404,-146.557602,,,
729862513.894214,1.21301,4.493222,42.74353,-0.075928,0.014816,1.012527,0.047207,0.030237,0.005294,53.516006,-8.348404,-146.557602,,,
729862513.897485,1.224476,4.500063,42.744788,-0.073563,0.022751,0.991577,0.034211,0.020867,0.005074,53.516006,-8.348404,-146.557602,,,
729862513.900835,1.224476,4.500063,42.744788,-0.073563,0.022751,0.991577,0.034211,0.020867,0.005074,53.516006,-8.348404,-146.557602,,,
729862513.904173,1.232909,4.503877,42.745434,-0.073563,0.022751,0.991577,0.034211,0.020867,0.005074,53.516006,-8.348404,-146.557602,,,
729862513.907495,1.239196,4.504791,42.744888,-0.071854,0.025497,0.977386,0.018107,0.00187,-0.004513,53.516006,-8.348404,-146.557602,,,
729862513.910819,1.239196,4.504791,42.744888,-0.071854,0.025497,0.977386,0.018107,0.00187,-0.004513,53.516006,-8.348404,-146.557602,,,
729862513.914186,1.242785,4.504124,42.74332,-0.071854,0.025497,0.977386,0.018107,0.00187,-0.004513,53.522263,-8.496201,-146.575256,,,
729862513.917487,1.244503,4.50123,42.741776,-0.073715,0.024185,0.980469,0.00357,-0.008259,-0.00568,53.522263,-8.496201,-146.575256,,,
729862513.920823,1.244503,4.50123,42.741776,-0.073715,0.024185,0.980469,0.00357,-0.008259,-0.00568,53.522263,-8.496201,-146.575256,,,
729862513.924182,1.24349,4.497566,42.740541,-0.073715,0.024185,0.980469,0.00357,-0.008259,-0.00568,53.522263,-8.496201,-146.575256,,,
729862513.92749,1.23977,4.49317,42.739247,-0.070938,0.028442,0.981354,-0.015559,-0.013491,-0.007573,53.522263,-8.496201,-146.575256,,,
729862513.930931,1.23977,4.49317,42.739247,-0.070938,0.028442,0.981354,-0.015559,-0.013491,-0.007573,53.522263,-8.496201,-146.575256,,,
729862513.934151,1.234381,4.488902,42.737707,-0.070938,0.028442,0.981354,-0.015559,-0.013491,-0.007573,53.522263,-8.496201,-146.575256,,,
729862513.937501,1.227034,4.485791,42.735495,-0.06897,0.027161,0.98114,-0.024179,-0.008248,-0.012927,53.522263,-8.496201,-146.575256,,,
729862513.940846,1.227034,4.485791,42.735495,-0.06897,0.027161,0.98114,-0.024179,-0.008248,-0.012927,53.522263,-8.496201,-146.575256,,,
729862513.944165,1.21839,4.483985,42.732144,-0.06897,0.027161,0.98114,-0.024179,-0.008248,-0.012927,53.522263,-8.496201,-146.575256,,,
729862513.947498,1.206507,4.486446,42.727749,-0.067245,0.026123,0.984192,-0.039619,0.013963,-0.021307,53.522263,-8.496201,-146.575256,,,
729862513.950847,1.206507,4.486446,42.727749,-0.067245,0.026123,0.984192,-0.039619,0.013963,-0.021307,53.522263,-8.496201,-146.575256,,,
729862513.954182,1.194111,4.491924,42.723429,-0.067245,0.026123,0.984192,-0.039619,0.013963,-0.021307,53.463501,-8.507172,-146.299866,,,
729862513.957496,1.180934,4.502178,42.720172,-0.074814,0.025833,0.989578,-0.040447,0.041387,-0.01384,53.463501,-8.507172,-146.299866,,,
729862513.960848,1.180934,4.502178,42.720172,-0.074814,0.025833,0.989578,-0.040447,0.041387,-0.01384,53.463501,-8.507172,-146.299866,,,
729862513.964177,1.170179,4.514098,42.718634,-0.074814,0.025833,0.989578,-0.040447,0.041387,-0.01384,53.463501,-8.507172,-146.299866,,,
729862513.967496,1.16128,4.526591,42.719059,-0.085907,0.018295,0.995743,-0.023899,0.048237,0.001096,53.463501,-8.507172,-146.299866,,,
729862513.970902,1.16128,4.526591,42.719059,-0.085907,0.018295,0.995743,-0.023899,0.048237,0.001096,53.463501,-8.507172,-146.299866,,,
729862513.974177,1.157044,4.539119,42.721371,-0.085907,0.018295,0.995743,-0.023899,0.048237,0.001096,53.463501,-8.507172,-146.299866,,,
729862513.977495,1.158612,4.5477,42.725235,-0.093735,0.01091,1.006119,0.014958,0.027397,0.01486,53.463501,-8.507172,-146.299866,,,
729862513.98083,1.158612,4.5477,42.725235,-0.093735,0.01091,1.006119,0.014958,0.027397,0.01486,53.463501,-8.507172,-146.299866,,,
729862513.984216,1.165655,4.552409,42.729157,-0.093735,0.01091,1.006119,0.014958,0.027397,0.01486,53.463501,-8.507172,-146.299866,,,
729862513.98749,1.177365,4.550443,42.732332,-0.089462,0.012634,1.010391,0.043639,-0.012089,0.011787,53.463501,-8.507172,-146.299866,,,
729862513.990848,1.177365,4.550443,42.732332,-0.089462,0.012634,1.010391,0.043639,-0.012089,0.011787,53.463501,-8.507172,-146.299866,,,
729862513.994161,1.190109,4.54422,42.7348,-0.089462,0.012634,1.010391,0.043639,-0.012089,0.011787,53.505798,-8.37912,-146.39209,,,
729862513.997492,1.202846,4.534084,42.736201,-0.076492,0.016769,0.995377,0.041728,-0.034011,0.004072,53.505798,-8.37912,-146.39209,,,
729862514.000854,1.202846,4.534084,42.736201,-0.076492,0.016769,0.995377,0.041728,-0.034011,0.004072,53.505798,-8.37912,-146.39209,,,
729862514.004178,1.212718,4.523882,42.736248,-0.076492,0.016769,0.995377,0.041728,-0.034011,0.004072,53.505798,-8.37912,-146.39209,,,
729862514.00749,1.219557,4.513527,42.735842,-0.068085,0.024063,0.983398,0.015981,-0.02832,-0.001252,53.505798,-8.37912,-146.39209,,,
729862514.010888,1.219557,4.513527,42.735842,-0.068085,0.024063,0.983398,0.015981,-0.02832,-0.001252,53.505798,-8.37912,-146.39209,,,
729862514.01416,1.221893,4.505615,42.735748,-0.068085,0.024063,0.983398,0.015981,-0.02832,-0.001252,53.505798,-8.37912,-146.39209,,,
729862514.017492,1.221098,4.498167,42.735987,-0.06636,0.028061,0.976898,-0.011289,-0.014836,-0.001333,53.505798,-8.37912,-146.39209,,,
729862514.020842,1.221098,4.498167,42.735987,-0.06636,0.028061,0.976898,-0.011289,-0.014836,-0.001333,53.505798,-8.37912,-146.39209,,,
729862514.024251,1.216225,4.49445,42.736116,-0.06636,0.028061,0.976898,-0.011289,-0.014836,-0.001333,53.505798,-8.37912,-146.39209,,,
729862514.027481,1.209652,4.491651,42.735866,-0.062225,0.028015,0.982056,-0.026502,0.003417,-0.005437,53.505798,-8.37912,-146.39209,,,
729862514.030842,1.209652,4.491651,42.735866,-0.062225,0.028015,0.982056,-0.026502,0.003417,-0.005437,53.505798,-8.37912,-146.39209,,,
729862514.034156,1.201088,4.494239,42.734903,-0.062225,0.028015,0.982056,-0.026502,0.003417,-0.005437,53.749817,-8.481979,-146.336166,,,
729862514.037491,1.192888,4.499201,42.732858,-0.062408,0.022644,0.991074,-0.027976,0.027283,-0.01323,53.749817,-8.481979,-146.336166,,,
729862514.040822,1.192888,4.499201,42.732858,-0.062408,0.022644,0.991074,-0.027976,0.027283,-0.01323,53.749817,-8.481979,-146.336166,,,
729862514.044178,1.184351,4.508022,42.729224,-0.062408,0.022644,0.991074,-0.027976,0.027283,-0.01323,53.749817,-8.481979,-146.336166,,,
729862514.047491,1.176077,4.520528,42.724367,-0.06778,0.018631,0.997467,-0.024758,0.046934,-0.021408,53.749817,-8.481979,-146.336166,,,
729862514.05091,1.176077,4.520528,42.724367,-0.06778,0.018631,0.997467,-0.024758,0.046934,-0.021408,53.749817,-8.481979,-146.336166,,,
729862514.054174,1.169602,4.533711,42.719338,-0.06778,0.018631,0.997467,-0.024758,0.046934,-0.021408,53.749817,-8.481979,-146.336166,,,
729862514.057496,1.164575,4.54978,42.71493,-0.078918,0.014832,1.005005,-0.008989,0.052628,-0.015585,53.749817,-8.481979,-146.336166,,,
729862514.06084,1.164575,4.54978,42.71493,-0.078918,0.014832,1.005005,-0.008989,0.052628,-0.015585,53.749817,-8.481979,-146.336166,,,
729862514.06424,1.162834,4.563709,42.711766,-0.078918,0.014832,1.005005,-0.008989,0.052628,-0.015585,53.749817,-8.481979,-146.336166,,,
729862514.067489,1.16318,4.577748,42.709806,-0.087723,0.014801,1.008087,0.01098,0.041107,-0.005294,53.749817,-8.481979,-146.336166,,,
729862514.070847,1.16318,4.577748,42.709806,-0.087723,0.014801,1.008087,0.01098,0.041107,-0.005294,53.749817,-8.481979,-146.336166,,,
729862514.07418,1.167805,4.587023,42.708908,-0.087723,0.014801,1.008087,0.01098,0.041107,-0.005294,53.749817,-8.481979,-146.336166,,,
729862514.077496,1.174753,4.592807,42.708676,-0.093399,0.013,1.007935,0.030009,0.016962,0.000891,53.747116,-8.381622,-145.968216,,,
729862514.080841,1.174753,4.592807,42.708676,-0.093399,0.013,1.007935,0.030009,0.016962,0.000891,53.747116,-8.381622,-145.968216,,,
729862514.084195,1.183836,4.595515,42.708943,-0.093399,0.013,1.007935,0.030009,0.016962,0.000891,53.747116,-8.381622,-145.968216,,,
729862514.087491,1.193581,4.593981,42.709688,-0.093292,0.015228,1.005188,0.032801,-0.000909,0.004246,53.747116,-8.381622,-145.968216,,,
729862514.09089,1.193581,4.593981,42.709688,-0.093292,0.015228,1.005188,0.032801,-0.000909,0.004246,53.747116,-8.381622,-145.968216,,,
729862514.094169,1.202711,4.591849,42.711314,-0.093292,0.015228,1.005188,0.032801,-0.000909,0.004246,53.747116,-8.381622,-145.968216,,,
729862514.097497,1.211901,4.58593,42.71486,-0.091003,0.018433,1.00145,0.027009,-0.012871,0.016868,53.747116,-8.381622,-145.968216,,,
729862514.100926,1.211901,4.58593,42.71486,-0.091003,0.018433,1.00145,0.027009,-0.012871,0.016868,53.747116,-8.381622,-145.968216,,,
729862514.104212,1.219118,4.581049,42.719711,-0.091003,0.018433,1.00145,0.027009,-0.012871,0.016868,53.747116,-8.381622,-145.968216,,,
729862514.107483,1.225818,4.572883,42.725283,-0.090652,0.021072,1.001587,0.017324,-0.017122,0.020708,53.747116,-8.381622,-145.968216,,,
729862514.11084,1.225818,4.572883,42.725283,-0.090652,0.021072,1.001587,0.017324,-0.017122,0.020708,53.747116,-8.381622,-145.968216,,,
729862514.114168,1.230198,4.566759,42.730946,-0.090652,0.021072,1.001587,0.017324,-0.017122,0.020708,53.747116,-8.381622,-145.968216,,,
729862514.117491,1.232617,4.557288,42.736242,-0.084122,0.025101,0.991531,0.001654,-0.020552,0.016491,53.607819,-8.534378,-146.496521,,,
729862514.120829,1.232617,4.557288,42.736242,-0.084122,0.025101,0.991531,0.001654,-0.020552,0.016491,53.607819,-8.534378,-146.496521,,,
729862514.124174,1.232442,4.549743,42.740942,-0.084122,0.025101,0.991531,0.001654,-0.020552,0.016491,53.607819,-8.534378,-146.496521,,,
729862514.12749,1.230514,4.538567,42.744646,-0.078201,0.026123,0.982452,-0.00891,-0.029772,0.008327,53.607819,-8.534378,-146.496521,,,
729862514.130819,1.230514,4.538567,42.744646,-0.078201,0.026123,0.982452,-0.00891,-0.029772,0.008327,53.607819,-8.534378,-146.496521,,,
729862514.134188,1.227429,4.528776,42.747387,-0.078201,0.026123,0.982452,-0.00891,-0.029772,0.008327,53.607819,-8.534378,-146.496521,,,
729862514.137497,1.224009,4.518334,42.749595,-0.078461,0.025833,0.986984,-0.006785,-0.029256,0.004604,53.607819,-8.534378,-146.496521,,,
729862514.140915,1.224009,4.518334,42.749595,-0.078461,0.025833,0.986984,-0.006785,-0.029256,0.004604,53.607819,-8.534378,-146.496521,,,
729862514.144176,1.222875,4.509572,42.751242,-0.078461,0.025833,0.986984,-0.006785,-0.029256,0.004604,53.607819,-8.534378,-146.496521,,,
729862514.147499,1.22432,4.502837,42.752744,-0.080399,0.021561,1.003296,0.015842,-0.022726,0.00555,53.607819,-8.534378,-146.496521,,,
729862514.150835,1.22432,4.502837,42.752744,-0.080399,0.021561,1.003296,0.015842,-0.022726,0.00555,53.607819,-8.534378,-146.496521,,,
729862514.15423,1.231094,4.496864,42.754344,-0.080399,0.021561,1.003296,0.015842,-0.022726,0.00555,53.607819,-8.534378,-146.496521,,,
729862514.157479,1.2399,4.495509,42.755449,-0.077209,0.020248,1.011337,0.036776,-0.005349,0.004082,53.564331,-8.471802,-146.445496,,,
729862514.16082,1.2399,4.495509,42.755449,-0.077209,0.020248,1.011337,0.036776,-0.005349,0.004082,53.564331,-8.471802,-146.445496,,,
729862514.164162,1.25105,4.494803,42.755783,-0.077209,0.020248,1.011337,0.036776,-0.005349,0.004082,53.564331,-8.471802,-146.445496,,,
729862514.16749,1.262007,4.500523,42.755286,-0.064758,0.022278,1.003403,0.041315,0.021479,-0.000921,53.564331,-8.471802,-146.445496,,,
729862514.17083,1.262007,4.500523,42.755286,-0.064758,0.022278,1.003403,0.041315,0.021479,-0.000921,53.564331,-8.471802,-146.445496,,,
729862514.174162,1.272705,4.508211,42.754016,-0.064758,0.022278,1.003403,0.041315,0.021479,-0.000921,53.564331,-8.471802,-146.445496,,,
729862514.17749,1.28023,4.521625,42.751586,-0.063782,0.027145,0.99794,0.023077,0.047531,-0.010057,53.564331,-8.471802,-146.445496,,,
729862514.180881,1.28023,4.521625,42.751586,-0.063782,0.027145,0.99794,0.023077,0.047531,-0.010057,53.564331,-8.471802,-146.445496,,,
729862514.184156,1.285334,4.535326,42.748503,-0.063782,0.027145,0.99794,0.023077,0.047531,-0.010057,53.564331,-8.471802,-146.445496,,,
729862514.187496,1.288036,4.551603,42.745505,-0.07312,0.028778,0.988876,0.00804,0.051836,-0.010412,53.564331,-8.471802,-146.445496,,,
729862514.190852,1.288036,4.551603,42.745505,-0.07312,0.028778,0.988876,0.00804,0.051836,-0.010412,53.564331,-8.471802,-146.445496,,,
729862514.19421,1.288454,4.564888,42.743241,-0.07312,0.028778,0.988876,0.00804,0.051836,-0.010412,53.564331,-8.471802,-146.445496,,,
729862514.197483,1.285559,4.576835,42.741997,-0.080826,0.028625,0.979568,-0.016396,0.035213,-0.005014,53.615509,-8.193222,-146.168243,,,
729862514.200836,1.285559,4.576835,42.741997,-0.080826,0.028625,0.979568,-0.016396,0.035213,-0.005014,53.615509,-8.193222,-146.168243,,,
729862514.204161,1.278924,4.584762,42.741418,-0.080826,0.028625,0.979568,-0.016396,0.035213,-0.005014,53.615509,-8.193222,-146.168243,,,
729862514.207516,1.270226,4.589654,42.740476,-0.083298,0.029709,0.9758,-0.033337,0.013479,-0.008876,53.615509,-8.193222,-146.168243,,,
729862514.210818,1.270226,4.589654,42.740476,-0.083298,0.029709,0.9758,-0.033337,0.013479,-0.008876,53.615509,-8.193222,-146.168243,,,
729862514.214167,1.25958,4.59147,42.739789,-0.083298,0.029709,0.9758,-0.033337,0.013479,-0.008876,53.615509,-8.193222,-146.168243,,,
729862514.217492,1.249065,4.590653,42.739838,-0.091797,0.025177,0.987457,-0.036412,-0.002683,-0.004096,53.615509,-8.193222,-146.168243,,,
729862514.220887,1.249065,4.590653,42.739838,-0.091797,0.025177,0.987457,-0.036412,-0.002683,-0.004096,53.615509,-8.193222,-146.168243,,,
729862514.22415,1.23845,4.587845,42.740533,-0.091797,0.025177,0.987457,-0.036412,-0.002683,-0.004096,53.615509,-8.193222,-146.168243,,,
729862514.227497,1.228571,4.582542,42.742796,-0.095871,0.020752,0.997772,-0.03259,-0.020139,0.007108,53.615509,-8.193222,-146.168243,,,
729862514.230871,1.228571,4.582542,42.742796,-0.095871,0.020752,0.997772,-0.03259,-0.020139,0.007108,53.615509,-8.193222,-146.168243,,,
729862514.234219,1.21964,4.575599,42.746286,-0.095871,0.020752,0.997772,-0.03259,-0.020139,0.007108,53.615509,-8.193222,-146.168243,,,
729862514.237482,1.212492,4.568247,42.750861,-0.093491,0.019455,1.003708,-0.020287,-0.019788,0.015715,53.615509,-8.193222,-146.168243,,,
729862514.240831,1.212492,4.568247,42.750861,-0.093491,0.019455,1.003708,-0.020287,-0.019788,0.015715,53.759247,-8.101074,-146.33493,,,
729862514.244172,1.208742,4.562984,42.7565,-0.093491,0.019455,1.003708,-0.020287,-0.019788,0.015715,53.759247,-8.101074,-146.33493,,,
729862514.247592,1.20824,4.559029,42.762255,-0.087509,0.014206,1.018768,0.002744,0.003355,0.018113,53.759247,-8.101074,-146.33493,,,
729862514.250826,1.20824,4.559029,42.762255,-0.087509,0.014206,1.018768,0.002744,0.003355,0.018113,53.759247,-8.101074,-146.33493,,,
729862514.254204,1.21156,4.560157,42.768246,-0.087509,0.014206,1.018768,0.002744,0.003355,0.018113,53.759247,-8.101074,-146.33493,,,
729862514.257484,1.219424,4.5612,42.774253,-0.082886,0.010635,1.026596,0.031041,0.022642,0.020034,53.759247,-8.101074,-146.33493,,,
729862514.260877,1.219424,4.5612,42.774253,-0.082886,0.010635,1.026596,0.031041,0.022642,0.020034,53.759247,-8.101074,-146.33493,,,
729862514.264164,1.230894,4.567674,42.779238,-0.082886,0.010635,1.026596,0.031041,0.022642,0.020034,53.759247,-8.101074,-146.33493,,,
729862514.267488,1.246927,4.574359,42.784138,-0.079315,0.012665,1.026413,0.058326,0.035254,0.02142,53.759247,-8.101074,-146.33493,,,
729862514.270827,1.246927,4.574359,42.784138,-0.079315,0.012665,1.026413,0.058326,0.035254,0.02142,53.759247,-8.101074,-146.33493,,,
729862514.274206,1.264345,4.584602,42.789412,-0.079315,0.012665,1.026413,0.058326,0.035254,0.02142,53.759247,-8.101074,-146.33493,,,
729862514.277482,1.282484,4.595838,42.794799,-0.084213,0.015244,1.012604,0.058027,0.040617,0.022281,53.759247,-8.101074,-146.33493,,,
729862514.280818,1.282484,4.595838,42.794799,-0.084213,0.015244,1.012604,0.058027,0.040617,0.022281,53.404068,-8.172974,-146.095535,,,
729862514.284152,1.298498,4.605767,42.800497,-0.084213,0.015244,1.012604,0.058027,0.040617,0.022281,53.404068,-8.172974,-146.095535,,,
729862514.287488,1.3127,4.61386,42.806407,-0.08728,0.023712,0.989014,0.039669,0.02295,0.022426,53.404068,-8.172974,-146.095535,,,
729862514.290829,1.3127,4.61386,42.806407,-0.08728,0.023712,0.989014,0.039669,0.02295,0.022426,53.404068,-8.172974,-146.095535,,,
729862514.294164,1.323031,4.61752,42.812551,-0.08728,0.023712,0.989014,0.039669,0.02295,0.022426,53.404068,-8.172974,-146.095535,,,
729862514.297486,1.33077,4.61914,42.819279,-0.08461,0.027969,0.975388,0.018485,-0.003901,0.024997,53.404068,-8.172974,-146.095535,,,
729862514.300885,1.33077,4.61914,42.819279,-0.08461,0.027969,0.975388,0.018485,-0.003901,0.024997,53.404068,-8.172974,-146.095535,,,
729862514.304159,1.335221,4.61509,42.826437,-0.08461,0.027969,0.975388,0.018485,-0.003901,0.024997,53.404068,-8.172974,-146.095535,,,
729862514.307485,1.337311,4.609483,42.833837,-0.084137,0.026123,0.974854,0.003711,-0.032435,0.025964,53.404068,-8.172974,-146.095535,,,
729862514.310838,1.337311,4.609483,42.833837,-0.084137,0.026123,0.974854,0.003711,-0.032435,0.025964,53.404068,-8.172974,-146.095535,,,
729862514.314204,1.338612,4.598253,42.842047,-0.084137,0.026123,0.974854,0.003711,-0.032435,0.025964,53.404068,-8.172974,-146.095535,,,
729862514.31749,1.339203,4.586805,42.850652,-0.08136,0.025955,0.975021,0.001196,-0.049743,0.028902,53.404068,-8.172974,-146.095535,,,
729862514.320817,1.339203,4.586805,42.850652,-0.08136,0.025955,0.975021,0.001196,-0.049743,0.028902,53.14357,-8.08902,-145.912811,,,
729862514.324164,1.340774,4.571375,42.858949,-0.08136,0.025955,0.975021,0.001196,-0.049743,0.028902,53.14357,-8.08902,-145.912811,,,
729862514.327485,1.343166,4.558165,42.866088,-0.068512,0.024628,0.984634,0.013857,-0.043911,0.022022,53.14357,-8.08902,-145.912811,,,
729862514.33084,1.343166,4.558165,42.866088,-0.068512,0.024628,0.984634,0.013857,-0.043911,0.022022,53.14357,-8.08902,-145.912811,,,
729862514.334151,1.348559,4.546498,42.872126,-0.068512,0.024628,0.984634,0.013857,-0.043911,0.022022,53.14357,-8.08902,-145.912811,,,
729862514.337483,1.354282,4.540083,42.877187,-0.057602,0.022339,0.998901,0.026125,-0.010166,0.01621,53.14357,-8.08902,-145.912811,,,
729862514.34091,1.354282,4.540083,42.877187,-0.057602,0.022339,0.998901,0.026125,-0.010166,0.01621,53.14357,-8.08902,-145.912811,,,
729862514.344173,1.362245,4.53902,42.881125,-0.057602,0.022339,0.998901,0.026125,-0.010166,0.01621,53.14357,-8.08902,-145.912811,,,
729862514.347494,1.369282,4.543723,42.88355,-0.051025,0.023804,0.995331,0.029157,0.031253,0.005826,53.14357,-8.08902,-145.912811,,,
729862514.350849,1.369282,4.543723,42.88355,-0.051025,0.023804,0.995331,0.029157,0.031253,0.005826,53.14357,-8.08902,-145.912811,,,
729862514.35424,1.377724,4.55415,42.88473,-0.051025,0.023804,0.995331,0.029157,0.031253,0.005826,53.14357,-8.08902,-145.912811,,,
729862514.357478,1.384945,4.568378,42.885129,-0.053986,0.024628,0.989716,0.028695,0.055696,0.000408,53.14357,-8.08902,-145.912811,,,
729862514.360877,1.384945,4.568378,42.885129,-0.053986,0.024628,0.989716,0.028695,0.055696,0.000408,53.14357,-8.08902,-145.912811,,,
729862514.364155,1.392189,4.584426,42.884568,-0.053986,0.024628,0.989716,0.028695,0.055696,0.000408,53.291443,-8.036407,-146.102234,,,
729862514.367485,1.398206,4.602122,42.883516,-0.066086,0.024918,0.981277,0.022169,0.058992,-0.003292,53.291443,-8.036407,-146.102234,,,
729862514.370828,1.398206,4.602122,42.883516,-0.066086,0.024918,0.981277,0.022169,0.058992,-0.003292,53.291443,-8.036407,-146.102234,,,
729862514.374156,1.403184,4.617096,42.882783,-0.066086,0.024918,0.981277,0.022169,0.058992,-0.003292,53.291443,-8.036407,-146.102234,,,
729862514.377487,1.406814,4.629676,42.882593,-0.077347,0.027588,0.970383,0.00974,0.03493,-0.000299,53.291443,-8.036407,-146.102234,,,
729862514.380888,1.406814,4.629676,42.882593,-0.077347,0.027588,0.970383,0.00974,0.03493,-0.000299,53.291443,-8.036407,-146.102234,,,
729862514.384171,1.408628,4.635808,42.882098,-0.077347,0.027588,0.970383,0.00974,0.03493,-0.000299,53.291443,-8.036407,-146.102234,,,
729862514.387487,1.40867,4.636835,42.880855,-0.077484,0.031052,0.964142,-0.004078,-0.006442,-0.006454,53.291443,-8.036407,-146.102234,,,
729862514.39084,1.40867,4.636835,42.880855,-0.077484,0.031052,0.964142,-0.004078,-0.006442,-0.006454,53.291443,-8.036407,-146.102234,,,
