Time (sec),Pitch (deg),Roll (deg),Yaw(deg),X-Acceleration (g),Y-Acceleration (g),Z-Acceleration (g),Pitch Rate (deg/sec),Roll Rate (deg/sec),Yaw Rate (deg/sec),Magnetic Field in X direction (uT),Magnetic Field in Y direction (uT),Magnetic Field in Z Direction (uT),Latitude (deg),Longitude (deg),Altitude (m)
729862898.93194,-1.968907,-1.806122,-162.924037,0.01413,-0.028961,0.980972,0.023366,-0.017131,0.015449,56.504471,31.968826,-142.88063,,,
729862898.93532,-1.96745,-1.813607,-162.918718,0.01413,-0.028961,0.980972,0.01007,-0.057614,0.01508,56.504471,31.968826,-142.88063,,,
729862898.938603,-1.964276,-1.82967,-162.913599,0.014511,-0.024887,0.963501,0.01007,-0.057614,0.01508,56.504471,31.968826,-142.88063,,,
729862898.941944,-1.964276,-1.82967,-162.913599,0.014511,-0.024887,0.963501,0.01007,-0.057614,0.01508,56.504471,31.968826,-142.88063,,,
729862898.945312,-1.96531,-1.847265,-162.909252,0.014511,-0.024887,0.963501,-0.003069,-0.092817,0.007145,56.504471,31.968826,-142.88063,,,
729862898.948663,-1.966138,-1.873361,-162.906522,0.022202,-0.019089,0.959732,-0.003069,-0.092817,0.007145,56.504471,31.968826,-142.88063,,,
729862898.951959,-1.966138,-1.873361,-162.906522,0.022202,-0.019089,0.959732,-0.003069,-0.092817,0.007145,56.504471,31.968826,-142.88063,,,
729862898.955309,-1.970175,-1.893485,-162.905236,0.022202,-0.019089,0.959732,-0.019522,-0.078745,-0.003144,56.504471,31.968826,-142.88063,,,
729862898.95861,-1.975117,-1.918195,-162.905202,0.033386,-0.020081,0.972107,-0.019522,-0.078745,-0.003144,56.445282,31.816254,-143.130096,,,
729862898.962023,-1.975117,-1.918195,-162.905202,0.033386,-0.020081,0.972107,-0.019522,-0.078745,-0.003144,56.445282,31.816254,-143.130096,,,
729862898.96528,-1.97996,-1.931369,-162.904605,0.033386,-0.020081,0.972107,-0.012438,-0.038896,0.006167,56.445282,31.816254,-143.130096,,,
729862898.968606,-1.984364,-1.945484,-162.903028,0.036987,-0.027679,0.993683,-0.012438,-0.038896,0.006167,56.445282,31.816254,-143.130096,,,
729862898.971957,-1.984364,-1.945484,-162.903028,0.036987,-0.027679,0.993683,-0.012438,-0.038896,0.006167,56.445282,31.816254,-143.130096,,,
729862898.975273,-1.985784,-1.948804,-162.900806,0.036987,-0.027679,0.993683,0.001748,-0.00275,0.00576,56.445282,31.816254,-143.130096,,,
729862898.978653,-1.986258,-1.951741,-162.898382,0.038345,-0.037399,1.007172,0.001748,-0.00275,0.00576,56.445282,31.816254,-143.130096,,,
729862898.981955,-1.986258,-1.951741,-162.898382,0.038345,-0.037399,1.007172,0.001748,-0.00275,0.00576,56.445282,31.816254,-143.130096,,,
729862898.985273,-1.982965,-1.9448,-162.89549,0.038345,-0.037399,1.007172,0.026853,0.027552,0.005078,56.445282,31.816254,-143.130096,,,
729862898.988607,-1.977471,-1.938159,-162.893245,0.033951,-0.039795,1.018738,0.026853,0.027552,0.005078,56.445282,31.816254,-143.130096,,,
729862898.991957,-1.977471,-1.938159,-162.893245,0.033951,-0.039795,1.018738,0.026853,0.027552,0.005078,56.445282,31.816254,-143.130096,,,
729862898.995318,-1.969027,-1.924602,-162.890768,0.033951,-0.039795,1.018738,0.038584,0.038957,0.009817,56.445282,31.816254,-143.130096,,,
729862898.998607,-1.958617,-1.914563,-162.887259,0.030151,-0.043427,1.014297,0.038584,0.038957,0.009817,56.625916,31.718262,-143.197128,,,
729862899.002044,-1.958617,-1.914563,-162.887259,0.030151,-0.043427,1.014297,0.038584,0.038957,0.009817,56.625916,31.718262,-143.197128,,,
729862899.005281,-1.947277,-1.899555,-162.882399,0.030151,-0.043427,1.014297,0.039163,0.026988,0.017209,56.625916,31.718262,-143.197128,,,
729862899.008612,-1.936897,-1.891267,-162.877049,0.018738,-0.04509,0.996124,0.039163,0.026988,0.017209,56.625916,31.718262,-143.197128,,,
729862899.01203,-1.936897,-1.891267,-162.877049,0.018738,-0.04509,0.996124,0.039163,0.026988,0.017209,56.625916,31.718262,-143.197128,,,
729862899.01534,-1.926366,-1.881278,-162.871204,0.018738,-0.04509,0.996124,0.024856,0.001185,0.014625,56.625916,31.718262,-143.197128,,,
729862899.018607,-1.918872,-1.880379,-162.86561,0.015549,-0.038025,0.982986,0.024856,0.001185,0.014625,56.625916,31.718262,-143.197128,,,
729862899.021942,-1.918872,-1.880379,-162.86561,0.015549,-0.038025,0.982986,0.024856,0.001185,0.014625,56.625916,31.718262,-143.197128,,,
729862899.025291,-1.912012,-1.878494,-162.860054,0.015549,-0.038025,0.982986,0.004748,-0.017234,0.014211,56.625916,31.718262,-143.197128,,,
729862899.028652,-1.910236,-1.883645,-162.855259,0.021255,-0.031281,0.976242,0.004748,-0.017234,0.014211,56.625916,31.718262,-143.197128,,,
729862899.031947,-1.910236,-1.883645,-162.855259,0.021255,-0.031281,0.976242,0.004748,-0.017234,0.014211,56.625916,31.718262,-143.197128,,,
729862899.035289,-1.907695,-1.888226,-162.850781,0.021255,-0.031281,0.976242,-0.012161,-0.019572,0.016441,56.625916,31.718262,-143.197128,,,
729862899.038624,-1.910715,-1.894638,-162.846453,0.025238,-0.029938,0.977325,-0.012161,-0.019572,0.016441,56.45224,31.656174,-143.026535,,,
729862899.042005,-1.910715,-1.894638,-162.846453,0.025238,-0.029938,0.977325,-0.012161,-0.019572,0.016441,56.45224,31.656174,-143.026535,,,
729862899.045327,-1.9135,-1.901244,-162.842211,0.025238,-0.029938,0.977325,-0.025526,-0.016307,0.014524,56.45224,31.656174,-143.026535,,,
729862899.048609,-1.921427,-1.906843,-162.83749,0.030212,-0.031662,0.97644,-0.025526,-0.016307,0.014524,56.45224,31.656174,-143.026535,,,
729862899.051956,-1.921427,-1.906843,-162.83749,0.030212,-0.031662,0.97644,-0.025526,-0.016307,0.014524,56.45224,31.656174,-143.026535,,,
729862899.055353,-1.930444,-1.912045,-162.832925,0.030212,-0.031662,0.97644,-0.03551,0.000663,0.016465,56.45224,31.656174,-143.026535,,,
729862899.058599,-1.940771,-1.912904,-162.828339,0.034561,-0.02951,0.983368,-0.03551,0.000663,0.016465,56.45224,31.656174,-143.026535,,,
729862899.061987,-1.940771,-1.912904,-162.828339,0.034561,-0.02951,0.983368,-0.03551,0.000663,0.016465,56.45224,31.656174,-143.026535,,,
729862899.065281,-1.951487,-1.912375,-162.822964,0.034561,-0.02951,0.983368,-0.021022,0.012781,0.023525,56.45224,31.656174,-143.026535,,,
729862899.068611,-1.959207,-1.909001,-162.81679,0.040131,-0.038635,1.000931,-0.021022,0.012781,0.023525,56.45224,31.656174,-143.026535,,,
729862899.071938,-1.959207,-1.909001,-162.81679,0.040131,-0.038635,1.000931,-0.021022,0.012781,0.023525,56.45224,31.656174,-143.026535,,,
729862899.07529,-1.963856,-1.905413,-162.810592,0.040131,-0.038635,1.000931,0.004513,0.005425,0.018373,56.45224,31.656174,-143.026535,,,
729862899.07865,-1.963686,-1.903792,-162.80528,0.044189,-0.041229,1.00618,0.004513,0.005425,0.018373,56.429489,31.824554,-143.081772,,,
729862899.082017,-1.963686,-1.903792,-162.80528,0.044189,-0.041229,1.00618,0.004513,0.005425,0.018373,56.429489,31.824554,-143.081772,,,
729862899.085285,-1.962322,-1.902986,-162.801117,0.044189,-0.041229,1.00618,0.020487,-0.007107,0.007241,56.429489,31.824554,-143.081772,,,
729862899.08861,-1.956934,-1.905715,-162.798056,0.042328,-0.034805,0.996567,0.020487,-0.007107,0.007241,56.429489,31.824554,-143.081772,,,
729862899.091954,-1.956934,-1.905715,-162.798056,0.042328,-0.034805,0.996567,0.020487,-0.007107,0.007241,56.429489,31.824554,-143.081772,,,
729862899.095375,-1.952979,-1.905335,-162.795323,0.042328,-0.034805,0.996567,0.026023,-0.019344,0.006873,56.429489,31.824554,-143.081772,,,
729862899.098599,-1.945724,-1.911003,-162.79258,0.04071,-0.037201,0.990677,0.026023,-0.019344,0.006873,56.429489,31.824554,-143.081772,,,
729862899.101956,-1.945724,-1.911003,-162.79258,0.04071,-0.037201,0.990677,0.026023,-0.019344,0.006873,56.429489,31.824554,-143.081772,,,
729862899.105314,-1.938831,-1.913085,-162.788699,0.04071,-0.037201,0.990677,0.027716,-0.016772,0.015164,56.429489,31.824554,-143.081772,,,
729862899.108613,-1.930964,-1.918782,-162.783936,0.036087,-0.040863,0.992737,0.027716,-0.016772,0.015164,56.429489,31.824554,-143.081772,,,
729862899.112012,-1.930964,-1.918782,-162.783936,0.036087,-0.040863,0.992737,0.027716,-0.016772,0.015164,56.429489,31.824554,-143.081772,,,
729862899.115272,-1.922552,-1.919124,-162.778993,0.036087,-0.040863,0.992737,0.019818,0.000707,0.01161,56.429489,31.824554,-143.081772,,,
729862899.118604,-1.916725,-1.919719,-162.775178,0.04277,-0.034134,0.991867,0.019818,0.000707,0.01161,56.429489,31.824554,-143.081772,,,
729862899.122019,-1.916725,-1.919719,-162.775178,0.04277,-0.034134,0.991867,0.019818,0.000707,0.01161,56.630554,31.491867,-143.268539,,,
729862899.125285,-1.91272,-1.916502,-162.772707,0.04277,-0.034134,0.991867,0.004331,0.015501,0.002683,56.630554,31.491867,-143.268539,,,
729862899.128689,-1.911276,-1.913288,-162.771312,0.049194,-0.02742,0.988358,0.004331,0.015501,0.002683,56.630554,31.491867,-143.268539,,,
729862899.131959,-1.911276,-1.913288,-162.771312,0.049194,-0.02742,0.988358,0.004331,0.015501,0.002683,56.630554,31.491867,-143.268539,,,
729862899.135283,-1.911878,-1.908249,-162.770326,0.049194,-0.02742,0.988358,-0.013022,0.021968,0.002155,56.630554,31.491867,-143.268539,,,
729862899.138616,-1.915255,-1.902869,-162.769305,0.040146,-0.030991,0.985733,-0.013022,0.021968,0.002155,56.630554,31.491867,-143.268539,,,
729862899.14196,-1.915255,-1.902869,-162.769305,0.040146,-0.030991,0.985733,-0.013022,0.021968,0.002155,56.630554,31.491867,-143.268539,,,
729862899.14534,-1.921062,-1.897431,-162.768073,0.040146,-0.030991,0.985733,-0.033941,0.02444,0.009854,56.630554,31.491867,-143.268539,,,
729862899.148608,-1.930515,-1.890987,-162.765863,0.032486,-0.035263,0.983627,-0.033941,0.02444,0.009854,56.630554,31.491867,-143.268539,,,
729862899.151962,-1.930515,-1.890987,-162.765863,0.032486,-0.035263,0.983627,-0.033941,0.02444,0.009854,56.630554,31.491867,-143.268539,,,
729862899.155297,-1.943931,-1.887034,-162.762225,0.032486,-0.035263,0.983627,-0.049042,0.019149,0.019723,56.630554,31.491867,-143.268539,,,
729862899.158613,-1.957738,-1.881284,-162.757031,0.030319,-0.034805,0.980347,-0.049042,0.019149,0.019723,56.630554,31.491867,-143.268539,,,
729862899.161988,-1.957738,-1.881284,-162.757031,0.030319,-0.034805,0.980347,-0.049042,0.019149,0.019723,56.979614,31.665649,-143.387634,,,
729862899.165293,-1.973934,-1.880302,-162.751098,0.030319,-0.034805,0.980347,-0.049026,0.004864,0.021931,56.979614,31.665649,-143.387634,,,
729862899.168611,-1.988935,-1.878916,-162.745156,0.033493,-0.038773,0.98671,-0.049026,0.004864,0.021931,56.979614,31.665649,-143.387634,,,
729862899.172015,-1.988935,-1.878916,-162.745156,0.033493,-0.038773,0.98671,-0.049026,0.004864,0.021931,56.979614,31.665649,-143.387634,,,
729862899.17528,-2.003439,-1.882109,-162.740231,0.033493,-0.038773,0.98671,-0.042005,-0.011437,0.013958,56.979614,31.665649,-143.387634,,,
729862899.17864,-2.016379,-1.885412,-162.736135,0.039627,-0.035446,0.997253,-0.042005,-0.011437,0.013958,56.979614,31.665649,-143.387634,,,
729862899.181959,-2.016379,-1.885412,-162.736135,0.039627,-0.035446,0.997253,-0.042005,-0.011437,0.013958,56.979614,31.665649,-143.387634,,,
729862899.185355,-2.028018,-1.891947,-162.732746,0.039627,-0.035446,0.997253,-0.023624,-0.016116,0.010721,56.979614,31.665649,-143.387634,,,
729862899.188596,-2.035927,-1.897811,-162.729677,0.042862,-0.038208,1.007202,-0.023624,-0.016116,0.010721,56.979614,31.665649,-143.387634,,,
729862899.191963,-2.035927,-1.897811,-162.729677,0.042862,-0.038208,1.007202,-0.023624,-0.016116,0.010721,56.979614,31.665649,-143.387634,,,
729862899.195325,-2.041347,-1.904643,-162.726656,0.042862,-0.038208,1.007202,0.000735,-0.018102,0.006479,56.979614,31.665649,-143.387634,,,
729862899.198639,-2.041695,-1.910157,-162.724226,0.044357,-0.046722,1.019867,0.000735,-0.018102,0.006479,56.979614,31.665649,-143.387634,,,
729862899.201946,-2.041695,-1.910157,-162.724226,0.044357,-0.046722,1.019867,0.000735,-0.018102,0.006479,56.8414,31.709259,-143.335785,,,
729862899.205303,-2.03738,-1.919339,-162.72292,0.044357,-0.046722,1.019867,0.026711,-0.014368,-7.4e-05,56.8414,31.709259,-143.335785,,,
729862899.208643,-2.031151,-1.924417,-162.721848,0.047134,-0.041626,1.024185,0.026711,-0.014368,-7.4e-05,56.8414,31.709259,-143.335785,,,
729862899.212043,-2.031151,-1.924417,-162.721848,0.047134,-0.041626,1.024185,0.026711,-0.014368,-7.4e-05,56.8414,31.709259,-143.335785,,,
729862899.215277,-2.020985,-1.931692,-162.720835,0.047134,-0.041626,1.024185,0.032027,-0.001883,0.000725,56.8414,31.709259,-143.335785,,,
729862899.218612,-2.011742,-1.933505,-162.719749,0.04335,-0.039429,1.016373,0.032027,-0.001883,0.000725,56.8414,31.709259,-143.335785,,,
729862899.221953,-2.011742,-1.933505,-162.719749,0.04335,-0.039429,1.016373,0.032027,-0.001883,0.000725,56.8414,31.709259,-143.335785,,,
729862899.225345,-2.002658,-1.935313,-162.718682,0.04335,-0.039429,1.016373,0.027351,0.007261,0.000867,56.8414,31.709259,-143.335785,,,
729862899.228716,-1.99498,-1.934395,-162.71804,0.043747,-0.036102,1.004288,0.027351,0.007261,0.000867,56.8414,31.709259,-143.335785,,,
729862899.231936,-1.99498,-1.934395,-162.71804,0.043747,-0.036102,1.004288,0.027351,0.007261,0.000867,56.8414,31.709259,-143.335785,,,
729862899.235306,-1.989154,-1.931888,-162.717626,0.043747,-0.036102,1.004288,0.010354,0.016239,-0.001725,56.8414,31.709259,-143.335785,,,
729862899.238705,-1.985618,-1.928617,-162.717638,0.042328,-0.033112,0.996887,0.010354,0.016239,-0.001725,56.8414,31.709259,-143.335785,,,
729862899.241987,-1.985618,-1.928617,-162.717638,0.042328,-0.033112,0.996887,0.010354,0.016239,-0.001725,56.8414,31.709259,-143.335785,,,
729862899.245332,-1.985337,-1.922348,-162.71781,0.042328,-0.033112,0.996887,-0.008424,0.033312,-0.000443,56.893661,31.678589,-143.429077,,,
729862899.248597,-1.987788,-1.913795,-162.717715,0.041183,-0.03006,0.993515,-0.008424,0.033312,-0.000443,56.893661,31.678589,-143.429077,,,
729862899.252008,-1.987788,-1.913795,-162.717715,0.041183,-0.03006,0.993515,-0.008424,0.033312,-0.000443,56.893661,31.678589,-143.429077,,,
729862899.255274,-1.993457,-1.904102,-162.716716,0.041183,-0.03006,0.993515,-0.024116,0.041889,0.0065,56.893661,31.678589,-143.429077,,,
729862899.258617,-1.999866,-1.893075,-162.714421,0.034256,-0.035461,0.994141,-0.024116,0.041889,0.0065,56.893661,31.678589,-143.429077,,,
729862899.262029,-1.999866,-1.893075,-162.714421,0.034256,-0.035461,0.994141,-0.024116,0.041889,0.0065,56.893661,31.678589,-143.429077,,,
729862899.265356,-2.007411,-1.884298,-162.712557,0.034256,-0.035461,0.994141,-0.031174,0.034533,0.000282,56.893661,31.678589,-143.429077,,,
729862899.268604,-2.015773,-1.87445,-162.712262,0.038788,-0.034592,0.992508,-0.031174,0.034533,0.000282,56.893661,31.678589,-143.429077,,,
729862899.271956,-2.015773,-1.87445,-162.712262,0.038788,-0.034592,0.992508,-0.031174,0.034533,0.000282,56.893661,31.678589,-143.429077,,,
729862899.275286,-2.026073,-1.868735,-162.714247,0.038788,-0.034592,0.992508,-0.026154,0.020848,-0.016719,56.893661,31.678589,-143.429077,,,
729862899.278752,-2.033708,-1.86239,-162.717817,0.043015,-0.029953,0.998093,-0.026154,0.020848,-0.016719,56.893661,31.678589,-143.429077,,,
729862899.281939,-2.033708,-1.86239,-162.717817,0.043015,-0.029953,0.998093,-0.026154,0.020848,-0.016719,56.893661,31.678589,-143.429077,,,
729862899.285292,-2.041115,-1.861896,-162.722079,0.043015,-0.029953,0.998093,-0.001915,0.005493,-0.010135,57.042816,31.644043,-143.526245,,,
729862899.288676,-2.043551,-1.860592,-162.725284,0.033478,-0.038467,1.008591,-0.001915,0.005493,-0.010135,57.042816,31.644043,-143.526245,,,
729862899.29201,-2.043551,-1.860592,-162.725284,0.033478,-0.038467,1.008591,-0.001915,0.005493,-0.010135,57.042816,31.644043,-143.526245,,,
729862899.295317,-2.043165,-1.865324,-162.726423,0.033478,-0.038467,1.008591,0.027099,-0.009439,0.001037,57.042816,31.644043,-143.526245,,,
729862899.298702,-2.037506,-1.868644,-162.725484,0.02507,-0.048416,1.017654,0.027099,-0.009439,0.001037,57.042816,31.644043,-143.526245,,,
729862899.301937,-2.037506,-1.868644,-162.725484,0.02507,-0.048416,1.017654,0.027099,-0.009439,0.001037,57.042816,31.644043,-143.526245,,,
729862899.305353,-2.028303,-1.876124,-162.723415,0.02507,-0.048416,1.017654,0.044963,-0.020164,0.006454,57.042816,31.644043,-143.526245,,,
729862899.308616,-2.015722,-1.882417,-162.720566,0.027344,-0.042633,1.016327,0.044963,-0.020164,0.006454,57.042816,31.644043,-143.526245,,,
729862899.311982,-2.015722,-1.882417,-162.720566,0.027344,-0.042633,1.016327,0.044963,-0.020164,0.006454,57.042816,31.644043,-143.526245,,,
729862899.315278,-2.002828,-1.893008,-162.717603,0.027344,-0.042633,1.016327,0.043036,-0.025496,0.006448,57.042816,31.644043,-143.526245,,,
729862899.318623,-1.990467,-1.900855,-162.714401,0.036926,-0.034866,1.000702,0.043036,-0.025496,0.006448,57.042816,31.644043,-143.526245,,,
729862899.321952,-1.990467,-1.900855,-162.714401,0.036926,-0.034866,1.000702,0.043036,-0.025496,0.006448,57.042816,31.644043,-143.526245,,,
729862899.325271,-1.980231,-1.909808,-162.711896,0.036926,-0.034866,1.000702,0.019793,-0.00408,0.002901,57.148697,31.566605,-143.437073,,,
729862899.328637,-1.9743,-1.91262,-162.710286,0.039093,-0.027405,0.98819,0.019793,-0.00408,0.002901,57.148697,31.566605,-143.437073,,,
729862899.331996,-1.9743,-1.91262,-162.710286,0.039093,-0.027405,0.98819,0.019793,-0.00408,0.002901,57.148697,31.566605,-143.437073,,,
729862899.335276,-1.970844,-1.913172,-162.709084,0.039093,-0.027405,0.98819,-0.008488,0.020102,0.000689,57.148697,31.566605,-143.437073,,,
729862899.338626,-1.970844,-1.909059,-162.707977,0.03923,-0.025909,0.986267,-0.008488,0.020102,0.000689,57.148697,31.566605,-143.437073,,,
729862899.341942,-1.971766,-1.909059,-162.707977,0.03923,-0.025909,0.986267,-0.008488,0.020102,0.000689,57.148697,31.566605,-143.437073,,,
729862899.345344,-1.976234,-1.902973,-162.706676,0.03923,-0.025909,0.986267,-0.02306,0.029872,0.003611,57.148697,31.566605,-143.437073,,,
729862899.3486,-1.976234,-1.895717,-162.705044,0.03923,-0.025909,0.986267,-0.02306,0.029872,0.003611,57.148697,31.566605,-143.437073,,,
729862899.351957,-1.982189,-1.895717,-162.705044,0.037888,-0.027908,0.988129,-0.02306,0.029872,0.003611,57.148697,31.566605,-143.437073,,,
729862899.355272,-1.989098,-1.891439,-162.703239,0.037888,-0.027908,0.988129,-0.027187,0.011561,0.002951,57.148697,31.566605,-143.437073,,,
729862899.358642,-1.996968,-1.887853,-162.702003,0.034195,-0.028763,0.986984,-0.027187,0.011561,0.002951,57.148697,31.566605,-143.437073,,,
729862899.361985,-1.996968,-1.887853,-162.702003,0.034195,-0.028763,0.986984,-0.027187,0.011561,0.002951,57.148697,31.566605,-143.437073,,,
729862899.36527,-2.004505,-1.890473,-162.701744,0.034195,-0.028763,0.986984,-0.031078,-0.016654,-0.001623,56.988419,31.668472,-143.180344,,,
729862899.368618,-2.004505,-1.894256,-162.701843,0.033585,-0.029404,0.982544,-0.031078,-0.016654,-0.001623,56.988419,31.668472,-143.180344,,,
729862899.372021,-2.013636,-1.894256,-162.701843,0.033585,-0.029404,0.982544,-0.031078,-0.016654,-0.001623,56.988419,31.668472,-143.180344,,,
729862899.375284,-2.023857,-1.899576,-162.701623,0.033585,-0.029404,0.982544,-0.030146,-0.025807,0.005675,56.988419,31.668472,-143.180344,,,
729862899.378656,-2.023857,-1.907282,-162.700359,0.033585,-0.034607,0.988892,-0.030146,-0.025807,0.005675,56.988419,31.668472,-143.180344,,,
729862899.38196,-2.032499,-1.907282,-162.700359,0.030029,-0.034607,0.988892,-0.030146,-0.025807,0.005675,56.988419,31.668472,-143.180344,,,
729862899.385364,-2.043485,-1.913173,-162.698341,0.030029,-0.034607,0.988892,-0.016253,-0.025443,0.006501,56.988419,31.668472,-143.180344,,,
729862899.388652,-2.043485,-1.913173,-162.696627,0.030029,-0.034607,0.988892,-0.016253,-0.025443,0.006501,56.988419,31.668472,-143.180344,,,
729862899.391946,-2.048901,-1.920557,-162.696627,0.035431,-0.036896,1.001617,-0.016253,-0.025443,0.006501,56.988419,31.668472,-143.180344,,,
729862899.395326,-2.051466,-1.925815,-162.695888,0.035431,-0.036896,1.001617,0.013961,-0.01606,-0.003041,56.988419,31.668472,-143.180344,,,
729862899.398729,-2.051466,-1.931661,-162.695879,0.044632,-0.038681,1.016342,0.013961,-0.01606,-0.003041,56.988419,31.668472,-143.180344,,,
729862899.401954,-2.049137,-1.931661,-162.695879,0.044632,-0.038681,1.016342,0.013961,-0.01606,-0.003041,56.988419,31.668472,-143.180344,,,
729862899.405294,-2.042527,-1.937939,-162.696622,0.044632,-0.038681,1.016342,0.03608,-0.00663,-0.004915,56.988419,31.668472,-143.180344,,,
729862899.408674,-2.042527,-1.937939,-162.696622,0.044632,-0.038681,1.016342,0.03608,-0.00663,-0.004915,56.933975,31.967041,-143.274872,,,
729862899.412014,-2.033048,-1.940908,-162.697689,0.044907,-0.041656,1.01683,0.03608,-0.00663,-0.004915,56.933975,31.967041,-143.274872,,,
729862899.41529,-2.019094,-1.942007,-162.699033,0.044907,-0.041656,1.01683,0.046011,0.018878,-0.010642,56.933975,31.967041,-143.274872,,,
729862899.418618,-2.019094,-1.942007,-162.699033,0.044907,-0.041656,1.01683,0.046011,0.018878,-0.010642,56.933975,31.967041,-143.274872,,,
729862899.421938,-2.005566,-1.938047,-162.70069,0.042084,-0.037827,1.017319,0.046011,0.018878,-0.010642,56.933975,31.967041,-143.274872,,,
729862899.425349,-1.989944,-1.931903,-162.701882,0.042084,-0.037827,1.017319,0.045546,0.040697,-0.005029,56.933975,31.967041,-143.274872,,,
729862899.428628,-1.989944,-1.931903,-162.701882,0.042084,-0.037827,1.017319,0.045546,0.040697,-0.005029,56.933975,31.967041,-143.274872,,,
729862899.432008,-1.976601,-1.921042,-162.702664,0.03476,-0.034821,1.009064,0.045546,0.040697,-0.005029,56.933975,31.967041,-143.274872,,,
729862899.435277,-1.964205,-1.909203,-162.703412,0.03476,-0.034821,1.009064,0.022977,0.04898,-0.002258,56.933975,31.967041,-143.274872,,,
729862899.438689,-1.964205,-1.909203,-162.703412,0.03476,-0.034821,1.009064,0.022977,0.04898,-0.002258,56.933975,31.967041,-143.274872,,,
729862899.441944,-1.956934,-1.89617,-162.703591,0.029175,-0.031525,0.988678,0.022977,0.04898,-0.002258,56.933975,31.967041,-143.274872,,,
729862899.445322,-1.952108,-1.884686,-162.703983,0.029175,-0.031525,0.988678,-0.004316,0.032579,-0.00578,56.933975,31.967041,-143.274872,,,
729862899.448645,-1.952108,-1.884686,-162.703983,0.029175,-0.031525,0.988678,-0.004316,0.032579,-0.00578,56.988342,31.700272,-143.262161,,,
729862899.451938,-1.952132,-1.875394,-162.705212,0.022537,-0.025467,0.975555,-0.004316,0.032579,-0.00578,56.988342,31.700272,-143.262161,,,
729862899.455279,-1.954199,-1.869626,-162.706485,0.022537,-0.025467,0.975555,-0.01968,0.013771,-0.002377,56.988342,31.700272,-143.262161,,,
729862899.458647,-1.954199,-1.869626,-162.706485,0.022537,-0.025467,0.975555,-0.01968,0.013771,-0.002377,56.988342,31.700272,-143.262161,,,
729862899.462014,-1.959347,-1.866098,-162.706857,0.01857,-0.030807,0.976212,-0.01968,0.013771,-0.002377,56.988342,31.700272,-143.262161,,,
729862899.465023,-1.966327,-1.864365,-162.706372,0.01857,-0.030807,0.976212,-0.030157,-0.005581,0.007444,56.988342,31.700272,-143.262161,,,
729862899.468705,-1.966327,-1.864365,-162.706372,0.01857,-0.030807,0.976212,-0.030157,-0.005581,0.007444,56.988342,31.700272,-143.262161,,,
729862899.471961,-1.974129,-1.865555,-162.704961,0.018127,-0.032944,0.983429,-0.030157,-0.005581,0.007444,56.988342,31.700272,-143.262161,,,
729862899.475281,-1.98374,-1.870141,-162.702777,0.018127,-0.032944,0.983429,-0.033781,-0.018123,0.005202,56.988342,31.700272,-143.262161,,,
729862899.478726,-1.98374,-1.870141,-162.702777,0.018127,-0.032944,0.983429,-0.033781,-0.018123,0.005202,56.988342,31.700272,-143.262161,,,
729862899.481945,-1.99319,-1.875262,-162.701061,0.019302,-0.029861,0.986435,-0.033781,-0.018123,0.005202,56.988342,31.700272,-143.262161,,,
729862899.485281,-2.002478,-1.883345,-162.699952,0.019302,-0.029861,0.986435,-0.019322,-0.002952,0.004129,56.988342,31.700272,-143.262161,,,
729862899.488611,-2.002478,-1.883345,-162.699952,0.019302,-0.029861,0.986435,-0.019322,-0.002952,0.004129,56.989777,31.877289,-143.35228,,,
729862899.492012,-2.008597,-1.88584,-162.698293,0.023468,-0.033112,1.003571,-0.019322,-0.002952,0.004129,56.989777,31.877289,-143.35228,,,
729862899.495316,-2.012504,-1.888895,-162.695776,0.023468,-0.033112,1.003571,0.008992,0.007348,0.009517,56.989777,31.877289,-143.35228,,,
729862899.498611,-2.012504,-1.888895,-162.695776,0.023468,-0.033112,1.003571,0.008992,0.007348,0.009517,56.989777,31.877289,-143.35228,,,
729862899.501947,-2.011038,-1.887391,-162.692217,0.027206,-0.044617,1.016006,0.008992,0.007348,0.009517,56.989777,31.877289,-143.35228,,,
729862899.505277,-2.006304,-1.886409,-162.688525,0.027206,-0.044617,1.016006,0.032584,0.012389,0.01069,56.989777,31.877289,-143.35228,,,
729862899.508613,-2.006304,-1.886409,-162.688525,0.027206,-0.044617,1.016006,0.032584,0.012389,0.01069,56.989777,31.877289,-143.35228,,,
729862899.512,-1.99775,-1.883616,-162.685064,0.027679,-0.042908,1.016739,0.032584,0.012389,0.01069,56.989777,31.877289,-143.35228,,,
729862899.515327,-1.986207,-1.881282,-162.68228,0.027679,-0.042908,1.016739,0.039329,0.001939,0.004261,56.989777,31.877289,-143.35228,,,
729862899.518674,-1.986207,-1.881282,-162.68228,0.027679,-0.042908,1.016739,0.039329,0.001939,0.004261,56.989777,31.877289,-143.35228,,,
729862899.52197,-1.974415,-1.881018,-162.680032,0.026901,-0.037903,1.0009,0.039329,0.001939,0.004261,56.989777,31.877289,-143.35228,,,
729862899.52529,-1.962362,-1.881988,-162.677829,0.026901,-0.037903,1.0009,0.029219,-0.014877,0.00393,56.989777,31.877289,-143.35228,,,
729862899.528472,-1.962362,-1.881988,-162.677829,0.026901,-0.037903,1.0009,0.029219,-0.014877,0.00393,56.989777,31.877289,-143.35228,,,
729862899.531999,-1.953112,-1.886543,-162.675744,0.02243,-0.035751,0.9841,0.029219,-0.014877,0.00393,56.932495,31.961807,-143.895416,,,
729862899.535279,-1.944178,-1.888791,-162.67324,0.02243,-0.035751,0.9841,0.021829,-0.015475,0.009138,56.932495,31.961807,-143.895416,,,
729862899.538627,-1.944178,-1.888791,-162.67324,0.02243,-0.035751,0.9841,0.021829,-0.015475,0.009138,56.932495,31.961807,-143.895416,,,
729862899.54203,-1.937822,-1.893849,-162.670133,0.021515,-0.037292,0.987488,0.021829,-0.015475,0.009138,56.932495,31.961807,-143.895416,,,
729862899.545318,-1.932393,-1.893981,-162.6663,0.021515,-0.037292,0.987488,0.015568,-0.005973,0.017524,56.932495,31.961807,-143.895416,,,
729862899.548624,-1.932393,-1.893981,-162.6663,0.021515,-0.037292,0.987488,0.015568,-0.005973,0.017524,56.932495,31.961807,-143.895416,,,
729862899.551986,-1.928603,-1.896718,-162.661647,0.024536,-0.036072,0.990921,0.015568,-0.005973,0.017524,56.932495,31.961807,-143.895416,,,
729862899.555277,-1.926237,-1.895018,-162.65631,0.024536,-0.036072,0.990921,0.001462,-0.004578,0.015454,56.932495,31.961807,-143.895416,,,
729862899.558622,-1.926237,-1.895018,-162.65631,0.024536,-0.036072,0.990921,0.001462,-0.004578,0.015454,56.932495,31.961807,-143.895416,,,
729862899.562081,-1.926032,-1.897149,-162.65146,0.03157,-0.03418,0.98288,0.001462,-0.004578,0.015454,56.932495,31.961807,-143.895416,,,
729862899.565267,-1.927286,-1.89656,-162.647458,0.03157,-0.03418,0.98288,-0.017731,-0.010832,0.008564,56.932495,31.961807,-143.895416,,,
729862899.568689,-1.927286,-1.89656,-162.647458,0.03157,-0.03418,0.98288,-0.017731,-0.010832,0.008564,56.932495,31.961807,-143.895416,,,
729862899.571963,-1.931641,-1.899949,-162.644808,0.037415,-0.028458,0.973801,-0.017731,-0.010832,0.008564,56.992325,31.903244,-143.703186,,,
729862899.575274,-1.938473,-1.901298,-162.64256,0.037415,-0.028458,0.973801,-0.02908,-0.010743,0.007029,56.992325,31.903244,-143.703186,,,
729862899.578682,-1.938473,-1.901298,-162.64256,0.037415,-0.028458,0.973801,-0.02908,-0.010743,0.007029,56.992325,31.903244,-143.703186,,,
729862899.582016,-1.94669,-1.904638,-162.640066,0.039841,-0.02951,0.975174,-0.02908,-0.010743,0.007029,56.992325,31.903244,-143.703186,,,
729862899.585272,-1.958404,-1.905302,-162.636256,0.039841,-0.02951,0.975174,-0.029973,-0.004426,0.012889,56.992325,31.903244,-143.703186,,,
729862899.588629,-1.958404,-1.905302,-162.636256,0.039841,-0.02951,0.975174,-0.029973,-0.004426,0.012889,56.992325,31.903244,-143.703186,,,
729862899.591964,-1.96744,-1.906868,-162.632009,0.038116,-0.036407,0.986191,-0.029973,-0.004426,0.012889,56.992325,31.903244,-143.703186,,,
729862899.595318,-1.975603,-1.907112,-162.628674,0.038116,-0.036407,0.986191,-0.009372,-0.013413,0.005577,56.992325,31.903244,-143.703186,,,
729862899.598424,-1.975603,-1.907112,-162.628674,0.038116,-0.036407,0.986191,-0.009372,-0.013413,0.005577,56.992325,31.903244,-143.703186,,,
729862899.601974,-1.978977,-1.910555,-162.626745,0.044052,-0.03566,0.995712,-0.009372,-0.013413,0.005577,56.992325,31.903244,-143.703186,,,
729862899.605276,-1.979794,-1.91334,-162.626482,0.044052,-0.03566,0.995712,0.012222,-0.011437,-0.001607,56.992325,31.903244,-143.703186,,,
729862899.608687,-1.979794,-1.91334,-162.626482,0.044052,-0.03566,0.995712,0.012222,-0.011437,-0.001607,56.992325,31.903244,-143.703186,,,
729862899.611989,-1.97741,-1.917509,-162.627035,0.052155,-0.032501,1.002258,0.012222,-0.011437,-0.001607,56.886261,31.777237,-143.452835,,,
729862899.61527,-1.973914,-1.916611,-162.627014,0.052155,-0.032501,1.002258,0.012091,0.003242,0.002493,56.886261,31.777237,-143.452835,,,
729862899.618627,-1.973914,-1.916611,-162.627014,0.052155,-0.032501,1.002258,0.012091,0.003242,0.002493,56.886261,31.777237,-143.452835,,,
729862899.622013,-1.970006,-1.916732,-162.626198,0.04454,-0.037216,1.00296,0.012091,0.003242,0.002493,56.886261,31.777237,-143.452835,,,
729862899.625266,-1.967312,-1.912022,-162.624688,0.04454,-0.037216,1.00296,0.012719,0.013521,0.002759,56.886261,31.777237,-143.452835,,,
729862899.628651,-1.967312,-1.912022,-162.624688,0.04454,-0.037216,1.00296,0.012719,0.013521,0.002759,56.886261,31.777237,-143.452835,,,
729862899.631962,-1.9635,-1.908579,-162.62309,0.039749,-0.037537,0.999222,0.012719,0.013521,0.002759,56.886261,31.777237,-143.452835,,,
729862899.635273,-1.96033,-1.901289,-162.621393,0.039749,-0.037537,0.999222,0.009633,0.035102,0.0004,56.886261,31.777237,-143.452835,,,
729862899.638608,-1.96033,-1.901289,-162.621393,0.039749,-0.037537,0.999222,0.009633,0.035102,0.0004,56.886261,31.777237,-143.452835,,,
729862899.641959,-1.957869,-1.893207,-162.620314,0.045258,-0.031876,0.998932,0.009633,0.035102,0.0004,56.886261,31.777237,-143.452835,,,
729862899.645319,-1.957882,-1.883102,-162.61993,0.045258,-0.031876,0.998932,-0.010207,0.03832,-0.004082,56.886261,31.777237,-143.452835,,,
729862899.648693,-1.957882,-1.883102,-162.61993,0.045258,-0.031876,0.998932,-0.010207,0.03832,-0.004082,56.886261,31.777237,-143.452835,,,
729862899.651794,-1.96058,-1.872823,-162.620212,0.043152,-0.028946,0.993286,-0.010207,0.03832,-0.004082,57.30069,31.688766,-143.288742,,,
729862899.655298,-1.963955,-1.866403,-162.621678,0.043152,-0.028946,0.993286,-0.027966,0.02203,-0.010999,57.30069,31.688766,-143.288742,,,
729862899.658616,-1.963955,-1.866403,-162.621678,0.043152,-0.028946,0.993286,-0.027966,0.02203,-0.010999,57.30069,31.688766,-143.288742,,,
729862899.662123,-1.971195,-1.860405,-162.624512,0.037033,-0.026077,0.983215,-0.027966,0.02203,-0.010999,57.30069,31.688766,-143.288742,,,
729862899.665267,-1.980619,-1.858221,-162.627629,0.037033,-0.026077,0.983215,-0.044375,0.017015,-0.006521,57.30069,31.688766,-143.288742,,,
729862899.668633,-1.980619,-1.858221,-162.627629,0.037033,-0.026077,0.983215,-0.044375,0.017015,-0.006521,57.30069,31.688766,-143.288742,,,
729862899.671958,-1.993525,-1.854107,-162.629527,0.02951,-0.032089,0.987564,-0.044375,0.017015,-0.006521,57.30069,31.688766,-143.288742,,,
729862899.675275,-2.0085,-1.851061,-162.629901,0.02951,-0.032089,0.987564,-0.048866,0.0271,0.006831,57.30069,31.688766,-143.288742,,,
729862899.67867,-2.0085,-1.851061,-162.629901,0.02951,-0.032089,0.987564,-0.048866,0.0271,0.006831,57.30069,31.688766,-143.288742,,,
729862899.681956,-2.022615,-1.844778,-162.628261,0.028152,-0.038773,1.001373,-0.048866,0.0271,0.006831,57.30069,31.688766,-143.288742,,,
729862899.685276,-2.034935,-1.841344,-162.625533,0.028152,-0.038773,1.001373,-0.024966,0.030229,0.010668,57.30069,31.688766,-143.288742,,,
729862899.688671,-2.034935,-1.841344,-162.625533,0.028152,-0.038773,1.001373,-0.024966,0.030229,0.010668,57.30069,31.688766,-143.288742,,,
729862899.691945,-2.043568,-1.833433,-162.622118,0.029648,-0.043411,1.016769,-0.024966,0.030229,0.010668,57.30069,31.688766,-143.288742,,,
729862899.695318,-2.046693,-1.831537,-162.618999,0.029648,-0.043411,1.016769,0.009956,0.021166,0.005322,57.237915,31.886505,-143.376831,,,
729862899.698617,-2.046693,-1.831537,-162.618999,0.029648,-0.043411,1.016769,0.009956,0.021166,0.005322,57.237915,31.886505,-143.376831,,,
729862899.702018,-2.045817,-1.82604,-162.616387,0.036026,-0.046036,1.026627,0.009956,0.021166,0.005322,57.237915,31.886505,-143.376831,,,
729862899.705276,-2.040607,-1.825133,-162.614867,0.036026,-0.046036,1.026627,0.039583,0.00463,0.000639,57.237915,31.886505,-143.376831,,,
729862899.708625,-2.040607,-1.825133,-162.614867,0.036026,-0.046036,1.026627,0.039583,0.00463,0.000639,57.237915,31.886505,-143.376831,,,
729862899.712007,-2.030165,-1.82384,-162.613986,0.037155,-0.044724,1.025162,0.039583,0.00463,0.000639,57.237915,31.886505,-143.376831,,,
729862899.715307,-2.016834,-1.828045,-162.61277,0.037155,-0.044724,1.025162,0.05376,-0.022562,0.002086,57.237915,31.886505,-143.376831,,,
729862899.718623,-2.016834,-1.828045,-162.61277,0.037155,-0.044724,1.025162,0.05376,-0.022562,0.002086,57.237915,31.886505,-143.376831,,,
729862899.721962,-2.001782,-1.833776,-162.611214,0.028687,-0.044662,1.01416,0.05376,-0.022562,0.002086,57.237915,31.886505,-143.376831,,,
729862899.725272,-1.985962,-1.84651,-162.609405,0.028687,-0.044662,1.01416,0.05089,-0.038792,0.005762,57.237915,31.886505,-143.376831,,,
729862899.728733,-1.985962,-1.84651,-162.609405,0.028687,-0.044662,1.01416,0.05089,-0.038792,0.005762,57.237915,31.886505,-143.376831,,,
729862899.731954,-1.9718,-1.85762,-162.606989,0.033646,-0.037811,0.995438,0.05089,-0.038792,0.005762,57.237915,31.886505,-143.376831,,,
729862899.735282,-1.957877,-1.872115,-162.604673,0.033646,-0.037811,0.995438,0.029768,-0.034646,0.002957,57.223557,31.627502,-143.535507,,,
729862899.738625,-1.957877,-1.872115,-162.604673,0.033646,-0.037811,0.995438,0.029768,-0.034646,0.002957,57.223557,31.627502,-143.535507,,,
729862899.742022,-1.94853,-1.88306,-162.603167,0.044357,-0.028427,0.988373,0.029768,-0.034646,0.002957,57.223557,31.627502,-143.535507,,,
729862899.745308,-1.94108,-1.893595,-162.603572,0.044357,-0.028427,0.988373,0.008221,-0.022027,-0.008718,57.223557,31.627502,-143.535507,,,
729862899.748631,-1.94108,-1.893595,-162.603572,0.044357,-0.028427,0.988373,0.008221,-0.022027,-0.008718,57.223557,31.627502,-143.535507,,,
729862899.751959,-1.938034,-1.901747,-162.605315,0.05336,-0.022797,0.985992,0.008221,-0.022027,-0.008718,57.223557,31.627502,-143.535507,,,
729862899.755274,-1.936739,-1.905154,-162.607633,0.05336,-0.022797,0.985992,-0.002798,0.004734,-0.010018,57.223557,31.627502,-143.535507,,,
729862899.75863,-1.936739,-1.905154,-162.607633,0.05336,-0.022797,0.985992,-0.002798,0.004734,-0.010018,57.223557,31.627502,-143.535507,,,
729862899.761989,-1.937247,-1.905263,-162.609904,0.051239,-0.022064,0.992783,-0.002798,0.004734,-0.010018,57.223557,31.627502,-143.535507,,,
729862899.765271,-1.940217,-1.899547,-162.610803,0.051239,-0.022064,0.992783,-0.00674,0.037063,0.006756,57.223557,31.627502,-143.535507,,,
729862899.768675,-1.940217,-1.899547,-162.610803,0.051239,-0.022064,0.992783,-0.00674,0.037063,0.006756,57.223557,31.627502,-143.535507,,,
729862899.771947,-1.941981,-1.890953,-162.609767,0.044006,-0.034454,1.000748,-0.00674,0.037063,0.006756,57.223557,31.627502,-143.535507,,,
729862899.775275,-1.945986,-1.879092,-162.607826,0.044006,-0.034454,1.000748,-0.006673,0.041796,-0.000585,57.127151,31.720215,-143.49411,,,
729862899.778645,-1.945986,-1.879092,-162.607826,0.044006,-0.034454,1.000748,-0.006673,0.041796,-0.000585,57.127151,31.720215,-143.49411,,,
729862899.782002,-1.94744,-1.868102,-162.607005,0.044205,-0.034439,1.000717,-0.006673,0.041796,-0.000585,57.127151,31.720215,-143.49411,,,
729862899.785268,-1.950298,-1.860046,-162.608034,0.044205,-0.034439,1.000717,0.014666,0.019289,-0.009377,57.127151,31.720215,-143.49411,,,
729862899.788625,-1.950298,-1.860046,-162.608034,0.044205,-0.034439,1.000717,0.014666,0.019289,-0.009377,57.127151,31.720215,-143.49411,,,
729862899.791947,-1.947984,-1.853906,-162.610199,0.042877,-0.03038,1.003708,0.014666,0.019289,-0.009377,57.127151,31.720215,-143.49411,,,
729862899.79531,-1.94463,-1.851942,-162.613101,0.042877,-0.03038,1.003708,0.038025,-0.004395,-0.013132,57.127151,31.720215,-143.49411,,,
729862899.798614,-1.94463,-1.851942,-162.613101,0.042877,-0.03038,1.003708,0.038025,-0.004395,-0.013132,57.127151,31.720215,-143.49411,,,
729862899.801951,-1.935236,-1.853073,-162.616254,0.035416,-0.039948,1.012711,0.038025,-0.004395,-0.013132,57.127151,31.720215,-143.49411,,,
729862899.805271,-1.924317,-1.857767,-162.619116,0.035416,-0.039948,1.012711,0.059193,-0.037237,-0.015677,57.127151,31.720215,-143.49411,,,
729862899.808669,-1.924317,-1.857767,-162.619116,0.035416,-0.039948,1.012711,0.059193,-0.037237,-0.015677,57.127151,31.720215,-143.49411,,,
729862899.811979,-1.908448,-1.868169,-162.621918,0.030945,-0.042969,1.012527,0.059193,-0.037237,-0.015677,57.127151,31.720215,-143.49411,,,
729862899.815272,-1.890944,-1.882886,-162.625078,0.030945,-0.042969,1.012527,0.067343,-0.048917,-0.019472,56.951141,31.456833,-143.494308,,,
729862899.818622,-1.890944,-1.882886,-162.625078,0.030945,-0.042969,1.012527,0.067343,-0.048917,-0.019472,56.951141,31.456833,-143.494308,,,
729862899.822011,-1.871835,-1.897201,-162.628997,0.030441,-0.037857,1.010376,0.067343,-0.048917,-0.019472,56.951141,31.456833,-143.494308,,,
729862899.825271,-1.851746,-1.913483,-162.633333,0.030441,-0.037857,1.010376,0.060158,-0.030884,-0.015733,56.951141,31.456833,-143.494308,,,
729862899.828661,-1.851746,-1.913483,-162.633333,0.030441,-0.037857,1.010376,0.060158,-0.030884,-0.015733,56.951141,31.456833,-143.494308,,,
729862899.831953,-1.833995,-1.923336,-162.637125,0.032227,-0.037796,1.010147,0.060158,-0.030884,-0.015733,56.951141,31.456833,-143.494308,,,
729862899.835277,-1.815252,-1.935353,-162.640523,0.032227,-0.037796,1.010147,0.04952,-0.000644,-0.011871,56.951141,31.456833,-143.494308,,,
729862899.838628,-1.815252,-1.935353,-162.640523,0.032227,-0.037796,1.010147,0.04952,-0.000644,-0.011871,56.951141,31.456833,-143.494308,,,
729862899.841959,-1.800866,-1.937314,-162.643519,0.032455,-0.035583,1.005219,0.04952,-0.000644,-0.011871,56.951141,31.456833,-143.494308,,,
729862899.845317,-1.787621,-1.939531,-162.646783,0.032455,-0.035583,1.005219,0.027027,0.024478,-0.014872,56.951141,31.456833,-143.494308,,,
729862899.848687,-1.787621,-1.939531,-162.646783,0.032455,-0.035583,1.005219,0.027027,0.024478,-0.014872,56.951141,31.456833,-143.494308,,,
729862899.851971,-1.779553,-1.933935,-162.649855,0.032562,-0.030075,0.994659,0.027027,0.024478,-0.014872,56.951141,31.456833,-143.494308,,,
729862899.855285,-1.77558,-1.928493,-162.652814,0.032562,-0.030075,0.994659,0.00692,0.03499,-0.007035,56.951141,31.456833,-143.494308,,,
729862899.858625,-1.77558,-1.928493,-162.652814,0.032562,-0.030075,0.994659,0.00692,0.03499,-0.007035,57.003754,31.537064,-143.353973,,,
729862899.862022,-1.773153,-1.919468,-162.654766,0.027481,-0.030136,0.987488,0.00692,0.03499,-0.007035,57.003754,31.537064,-143.353973,,,
729862899.865282,-1.773314,-1.913158,-162.655347,0.027481,-0.030136,0.987488,-0.00076,0.027658,0.006254,57.003754,31.537064,-143.353973,,,
729862899.868618,-1.773314,-1.913158,-162.655347,0.027481,-0.030136,0.987488,-0.00076,0.027658,0.006254,57.003754,31.537064,-143.353973,,,
729862899.871963,-1.773735,-1.905259,-162.654215,0.019272,-0.034378,0.985474,-0.00076,0.027658,0.006254,57.003754,31.537064,-143.353973,,,
729862899.87528,-1.773324,-1.902389,-162.651253,0.019272,-0.034378,0.985474,0.012014,0.000821,0.010243,57.003754,31.537064,-143.353973,,,
729862899.878717,-1.773324,-1.902389,-162.651253,0.019272,-0.034378,0.985474,0.012014,0.000821,0.010243,57.003754,31.537064,-143.353973,,,
729862899.881966,-1.770834,-1.901706,-162.647615,0.021362,-0.036865,0.991989,0.012014,0.000821,0.010243,57.003754,31.537064,-143.353973,,,
729862899.885279,-1.76806,-1.906963,-162.645078,0.021362,-0.036865,0.991989,0.029759,-0.040706,-0.00164,57.003754,31.537064,-143.353973,,,
729862899.888693,-1.76806,-1.906963,-162.645078,0.021362,-0.036865,0.991989,0.029759,-0.040706,-0.00164,57.003754,31.537064,-143.353973,,,
729862899.891959,-1.760789,-1.917691,-162.644504,0.033585,-0.029083,0.98941,0.029759,-0.040706,-0.00164,57.003754,31.537064,-143.353973,,,
729862899.895325,-1.7546,-1.931004,-162.645846,0.033585,-0.029083,0.98941,0.033986,-0.047611,-0.013121,57.003754,31.537064,-143.353973,,,
729862899.898623,-1.7546,-1.931004,-162.645846,0.033585,-0.029083,0.98941,0.033986,-0.047611,-0.013121,57.130142,31.281357,-143.411591,,,
729862899.902014,-1.744823,-1.945793,-162.648568,0.04393,-0.022812,0.987854,0.033986,-0.047611,-0.013121,57.130142,31.281357,-143.411591,,,
729862899.905265,-1.736076,-1.958603,-162.651754,0.04393,-0.022812,0.987854,0.033067,-0.03829,-0.014303,57.130142,31.281357,-143.411591,,,
729862899.90862,-1.736076,-1.958603,-162.651754,0.04393,-0.022812,0.987854,0.033067,-0.03829,-0.014303,57.130142,31.281357,-143.411591,,,
729862899.911995,-1.726437,-1.970802,-162.654847,0.046265,-0.026993,0.988235,0.033067,-0.03829,-0.014303,57.130142,31.281357,-143.411591,,,
729862899.915271,-1.720203,-1.980477,-162.658485,0.046265,-0.026993,0.988235,0.016643,-0.01881,-0.019278,57.130142,31.281357,-143.411591,,,
729862899.91862,-1.720203,-1.980477,-162.658485,0.046265,-0.026993,0.988235,0.016643,-0.01881,-0.019278,57.130142,31.281357,-143.411591,,,
729862899.921951,-1.7146,-1.987782,-162.662777,0.044846,-0.019958,0.977112,0.016643,-0.01881,-0.019278,57.130142,31.281357,-143.411591,,,
729862899.925272,-1.712382,-1.990194,-162.667408,0.044846,-0.019958,0.977112,-0.005649,0.012025,-0.019083,57.130142,31.281357,-143.411591,,,
729862899.928731,-1.712382,-1.990194,-162.667408,0.044846,-0.019958,0.977112,-0.005649,0.012025,-0.019083,57.130142,31.281357,-143.411591,,,
729862899.931962,-1.712148,-1.989382,-162.67253,0.043152,-0.0186,0.973709,-0.005649,0.012025,-0.019083,57.130142,31.281357,-143.411591,,,
729862899.935283,-1.714892,-1.985362,-162.677746,0.043152,-0.0186,0.973709,-0.024951,0.021944,-0.021225,57.130142,31.281357,-143.411591,,,
729862899.938614,-1.714892,-1.985362,-162.677746,0.043152,-0.0186,0.973709,-0.024951,0.021944,-0.021225,56.772156,31.44458,-143.838684,,,
729862899.941958,-1.721219,-1.980136,-162.683242,0.038956,-0.021027,0.966644,-0.024951,0.021944,-0.021225,56.772156,31.44458,-143.838684,,,
729862899.945324,-1.730456,-1.97057,-162.689326,0.038956,-0.021027,0.966644,-0.036591,0.033986,-0.022344,56.772156,31.44458,-143.838684,,,
729862899.948622,-1.730456,-1.97057,-162.689326,0.038956,-0.021027,0.966644,-0.036591,0.033986,-0.022344,56.772156,31.44458,-143.838684,,,
729862899.952013,-1.740388,-1.961807,-162.695791,0.032196,-0.022324,0.972855,-0.036591,0.033986,-0.022344,56.772156,31.44458,-143.838684,,,
729862899.955268,-1.751727,-1.947961,-162.702026,0.032196,-0.022324,0.972855,-0.028404,0.03683,-0.016734,56.772156,31.44458,-143.838684,,,
729862899.958608,-1.751727,-1.947961,-162.702026,0.032196,-0.022324,0.972855,-0.028404,0.03683,-0.016734,56.772156,31.44458,-143.838684,,,
729862899.961983,-1.76006,-1.938392,-162.707371,0.02269,-0.033783,0.987762,-0.028404,0.03683,-0.016734,56.772156,31.44458,-143.838684,,,
729862899.966674,-1.766692,-1.926907,-162.711106,0.02269,-0.033783,0.987762,-0.008694,0.027852,-0.008463,56.772156,31.44458,-143.838684,,,
729862899.968465,-1.766692,-1.926907,-162.711106,0.02269,-0.033783,0.987762,-0.008694,0.027852,-0.008463,56.772156,31.44458,-143.838684,,,
729862899.971996,-1.770371,-1.919065,-162.713988,0.01976,-0.039154,0.994431,-0.008694,0.027852,-0.008463,56.772156,31.44458,-143.838684,,,
729862899.975281,-1.77138,-1.913325,-162.716417,0.01976,-0.039154,0.994431,-0.000634,0.019957,-0.004016,56.772156,31.44458,-143.838684,,,
729862899.978661,-1.77138,-1.913325,-162.716417,0.01976,-0.039154,0.994431,-0.000634,0.019957,-0.004016,56.812469,31.355072,-143.450653,,,
729862899.981964,-1.771689,-1.907462,-162.717665,0.015228,-0.034592,0.994812,-0.000634,0.019957,-0.004016,56.812469,31.355072,-143.450653,,,
729862899.985311,-1.770796,-1.905816,-162.717951,0.015228,-0.034592,0.994812,-0.002884,0.011272,0.003176,56.812469,31.355072,-143.450653,,,
729862899.988625,-1.770796,-1.905816,-162.717951,0.015228,-0.034592,0.994812,-0.002884,0.011272,0.003176,56.812469,31.355072,-143.450653,,,
729862899.992021,-1.771595,-1.902954,-162.717271,0.009888,-0.034363,0.986023,-0.002884,0.011272,0.003176,56.812469,31.355072,-143.450653,,,
729862899.995307,-1.773242,-1.903977,-162.715543,0.009888,-0.034363,0.986023,-0.017328,0.004987,0.009407,56.812469,31.355072,-143.450653,,,
729862899.998624,-1.773242,-1.903977,-162.715543,0.009888,-0.034363,0.986023,-0.017328,0.004987,0.009407,56.812469,31.355072,-143.450653,,,
729862900.001966,-1.778066,-1.902703,-162.713074,0.009018,-0.0289,0.978638,-0.017328,0.004987,0.009407,56.812469,31.355072,-143.450653,,,
729862900.005279,-1.783357,-1.903353,-162.710229,0.009018,-0.0289,0.978638,-0.034124,0.008655,0.01527,56.812469,31.355072,-143.450653,,,
729862900.00862,-1.783357,-1.903353,-162.710229,0.009018,-0.0289,0.978638,-0.034124,0.008655,0.01527,56.812469,31.355072,-143.450653,,,
729862900.012009,-1.792966,-1.90171,-162.706586,0.015915,-0.023636,0.978928,-0.034124,0.008655,0.01527,56.812469,31.355072,-143.450653,,,
729862900.015277,-1.80292,-1.902047,-162.702142,0.015915,-0.023636,0.978928,-0.042982,0.001687,0.017817,56.812469,31.355072,-143.450653,,,
729862900.018657,-1.80292,-1.902047,-162.702142,0.015915,-0.023636,0.978928,-0.042982,0.001687,0.017817,56.812469,31.355072,-143.450653,,,
729862900.021941,-1.815405,-1.902034,-162.69766,0.020905,-0.028,0.983917,-0.042982,0.001687,0.017817,56.902008,31.367126,-143.316544,,,
729862900.025277,-1.827222,-1.9054,-162.693386,0.020905,-0.028,0.983917,-0.047945,-0.019094,0.015071,56.902008,31.367126,-143.316544,,,
729862900.028645,-1.827222,-1.9054,-162.693386,0.020905,-0.028,0.983917,-0.047945,-0.019094,0.015071,56.902008,31.367126,-143.316544,,,
729862900.032012,-1.841204,-1.910327,-162.689414,0.024261,-0.02774,0.983948,-0.047945,-0.019094,0.015071,56.902008,31.367126,-143.316544,,,
729862900.035273,-1.85431,-1.917735,-162.685992,0.024261,-0.02774,0.983948,-0.04531,-0.036261,0.011112,56.902008,31.367126,-143.316544,,,
729862900.038611,-1.85431,-1.917735,-162.685992,0.024261,-0.02774,0.983948,-0.04531,-0.036261,0.011112,56.902008,31.367126,-143.316544,,,
729862900.041942,-1.867736,-1.928257,-162.682798,0.029114,-0.026291,0.986069,-0.04531,-0.036261,0.011112,56.902008,31.367126,-143.316544,,,
729862900.045317,-1.880575,-1.938043,-162.679226,0.029114,-0.026291,0.986069,-0.043865,-0.037872,0.01738,56.902008,31.367126,-143.316544,,,
729862900.048623,-1.880575,-1.938043,-162.679226,0.029114,-0.026291,0.986069,-0.043865,-0.037872,0.01738,56.902008,31.367126,-143.316544,,,
729862900.051966,-1.892999,-1.949266,-162.674594,0.031296,-0.033432,0.996124,-0.043865,-0.037872,0.01738,56.902008,31.367126,-143.316544,,,
729862900.055277,-1.904992,-1.956283,-162.668378,0.031296,-0.033432,0.996124,-0.02339,-0.018138,0.022299,56.902008,31.367126,-143.316544,,,
729862900.0587,-1.904992,-1.956283,-162.668378,0.031296,-0.033432,0.996124,-0.02339,-0.018138,0.022299,56.902008,31.367126,-143.316544,,,
729862900.061992,-1.913332,-1.962779,-162.661565,0.03566,-0.036774,1.010193,-0.02339,-0.018138,0.022299,56.724808,31.347733,-143.916687,,,
729862900.065313,-1.913332,-1.962654,-162.654963,0.03566,-0.036774,1.010193,-0.005314,-0.002484,0.022883,56.724808,31.347733,-143.916687,,,
729862900.068623,-1.918689,-1.962654,-162.654963,0.03566,-0.036774,1.010193,-0.005314,-0.002484,0.022883,56.724808,31.347733,-143.916687,,,
729862900.072041,-1.920959,-1.964225,-162.648923,0.043106,-0.034882,1.021667,-0.005314,-0.002484,0.022883,56.724808,31.347733,-143.916687,,,
729862900.075283,-1.920959,-1.957013,-162.643133,0.043106,-0.034882,1.021667,0.006201,0.024457,0.018821,56.724808,31.347733,-143.916687,,,
729862900.078658,-1.921235,-1.957013,-162.643133,0.043106,-0.034882,1.021667,0.006201,0.024457,0.018821,56.724808,31.347733,-143.916687,,,
729862900.081958,-1.920296,-1.952188,-162.637362,0.0457,-0.032333,1.020508,0.006201,0.024457,0.018821,56.724808,31.347733,-143.916687,,,
729862900.085324,-1.91878,-1.936806,-162.630466,0.0457,-0.032333,1.020508,-0.009118,0.044848,0.027648,56.724808,31.347733,-143.916687,,,
729862900.088618,-1.91878,-1.936806,-162.630466,0.0457,-0.032333,1.020508,-0.009118,0.044848,0.027648,56.724808,31.347733,-143.916687,,,
729862900.091958,-1.921608,-1.924721,-162.622698,0.040955,-0.033432,1.005432,-0.009118,0.044848,0.027648,56.724808,31.347733,-143.916687,,,
729862900.09532,-1.926262,-1.906823,-162.613608,0.040955,-0.033432,1.005432,-0.03591,0.047526,0.028013,56.724808,31.347733,-143.916687,,,
729862900.098664,-1.926262,-1.906823,-162.613608,0.040955,-0.033432,1.005432,-0.03591,0.047526,0.028013,56.724808,31.347733,-143.916687,,,
729862900.101944,-1.936113,-1.893503,-162.605022,0.035919,-0.029114,0.990814,-0.03591,0.047526,0.028013,56.967789,31.659424,-143.513351,,,
729862900.105275,-1.936113,-1.893503,-162.605022,0.035919,-0.029114,0.990814,-0.05586,0.035996,0.015604,56.967789,31.659424,-143.513351,,,
729862900.108622,-1.948094,-1.878451,-162.597971,0.035919,-0.029114,0.990814,-0.05586,0.035996,0.015604,56.967789,31.659424,-143.513351,,,
729862900.112,-1.963798,-1.868036,-162.592759,0.043655,-0.026077,0.991669,-0.05586,0.035996,0.015604,56.967789,31.659424,-143.513351,,,
729862900.115273,-1.963798,-1.868036,-162.592759,0.043655,-0.026077,0.991669,-0.055155,0.021965,0.008102,56.967789,31.659424,-143.513351,,,
729862900.118621,-1.978995,-1.857647,-162.588878,0.043655,-0.026077,0.991669,-0.055155,0.021965,0.008102,56.967789,31.659424,-143.513351,,,
729862900.121995,-1.99538,-1.851116,-162.586045,0.046097,-0.027679,1.00412,-0.055155,0.021965,0.008102,56.967789,31.659424,-143.513351,,,
729862900.125283,-1.99538,-1.851116,-162.586045,0.046097,-0.027679,1.00412,-0.01702,-0.001216,0.001686,56.967789,31.659424,-143.513351,,,
729862900.128658,-2.006883,-1.847334,-162.584242,0.046097,-0.027679,1.00412,-0.01702,-0.001216,0.001686,56.967789,31.659424,-143.513351,,,
729862900.131937,-2.013771,-1.847526,-162.582985,0.042389,-0.041458,1.025223,-0.01702,-0.001216,0.001686,56.967789,31.659424,-143.513351,,,
729862900.135338,-2.013771,-1.847526,-162.582985,0.042389,-0.041458,1.025223,0.030371,-0.022147,-0.004948,56.967789,31.659424,-143.513351,,,
729862900.13861,-2.012855,-1.85095,-162.582111,0.042389,-0.041458,1.025223,0.030371,-0.022147,-0.004948,56.967789,31.659424,-143.513351,,,
729862900.141945,-2.005178,-1.857267,-162.582375,0.046677,-0.047562,1.042709,0.030371,-0.022147,-0.004948,56.971237,31.536514,-143.571503,,,
729862900.145317,-2.005178,-1.857267,-162.582375,0.046677,-0.047562,1.042709,0.030371,-0.022147,-0.004948,56.971237,31.536514,-143.571503,,,
729862900.14867,-1.992173,-1.866369,-162.583281,0.046677,-0.047562,1.042709,0.060201,-0.029872,-0.00765,56.971237,31.536514,-143.571503,,,
729862900.151946,-1.975682,-1.875473,-162.584185,0.044601,-0.043228,1.033386,0.060201,-0.029872,-0.00765,56.971237,31.536514,-143.571503,,,
729862900.155289,-1.975682,-1.875473,-162.584185,0.044601,-0.043228,1.033386,0.060201,-0.029872,-0.00765,56.971237,31.536514,-143.571503,,,
729862900.158609,-1.957888,-1.887353,-162.584803,0.044601,-0.043228,1.033386,0.059615,-0.024323,-0.002804,56.971237,31.536514,-143.571503,,,
729862900.161979,-1.940895,-1.895486,-162.584621,0.043442,-0.039108,1.017639,0.059615,-0.024323,-0.002804,56.971237,31.536514,-143.571503,,,
729862900.165283,-1.940895,-1.895486,-162.584621,0.043442,-0.039108,1.017639,0.059615,-0.024323,-0.002804,56.971237,31.536514,-143.571503,,,
729862900.168627,-1.925296,-1.903853,-162.584399,0.043442,-0.039108,1.017639,0.044596,-0.002154,-0.003578,56.971237,31.536514,-143.571503,,,
729862900.17195,-1.912303,-1.905471,-162.584292,0.041046,-0.034439,1.010345,0.044596,-0.002154,-0.003578,56.971237,31.536514,-143.571503,,,
729862900.175336,-1.912303,-1.905471,-162.584292,0.041046,-0.034439,1.010345,0.044596,-0.002154,-0.003578,56.971237,31.536514,-143.571503,,,
729862900.178656,-1.901233,-1.906563,-162.584773,0.041046,-0.034439,1.010345,0.031701,0.010907,-0.007384,56.971237,31.536514,-143.571503,,,
729862900.181938,-1.892064,-1.904453,-162.585912,0.046127,-0.031799,1.008163,0.031701,0.010907,-0.007384,56.971237,31.536514,-143.571503,,,
729862900.185314,-1.892064,-1.904453,-162.585912,0.046127,-0.031799,1.008163,0.031701,0.010907,-0.007384,56.860626,31.542892,-143.561493,,,
729862900.188663,-1.882437,-1.901094,-162.587024,0.046127,-0.031799,1.008163,0.028195,0.029274,-0.004826,56.860626,31.542892,-143.561493,,,
729862900.191937,-1.874035,-1.894067,-162.586898,0.043747,-0.034485,1.014893,0.028195,0.029274,-0.004826,56.860626,31.542892,-143.561493,,,
729862900.195384,-1.874035,-1.894067,-162.586898,0.043747,-0.034485,1.014893,0.028195,0.029274,-0.004826,56.860626,31.542892,-143.561493,,,
729862900.198618,-1.865295,-1.886955,-162.584848,0.043747,-0.034485,1.014893,0.023565,0.044071,0.011247,56.860626,31.542892,-143.561493,,,
729862900.201952,-1.858423,-1.875356,-162.581019,0.036819,-0.038361,1.016891,0.023565,0.044071,0.011247,56.860626,31.542892,-143.561493,,,
729862900.205307,-1.858423,-1.875356,-162.581019,0.036819,-0.038361,1.016891,0.023565,0.044071,0.011247,56.860626,31.542892,-143.561493,,,
729862900.208622,-1.852089,-1.866183,-162.577687,0.036819,-0.038361,1.016891,0.021114,0.028963,0.002276,56.860626,31.542892,-143.561493,,,
729862900.212023,-1.846646,-1.857682,-162.57624,0.0383,-0.035477,1.004669,0.021114,0.028963,0.002276,56.860626,31.542892,-143.561493,,,
729862900.215284,-1.846646,-1.857682,-162.57624,0.0383,-0.035477,1.004669,0.021114,0.028963,0.002276,56.860626,31.542892,-143.561493,,,
729862900.218618,-1.842432,-1.854811,-162.577275,0.0383,-0.035477,1.004669,0.020182,0.005498,-0.014767,56.860626,31.542892,-143.561493,,,
729862900.221947,-1.836631,-1.853461,-162.580714,0.04364,-0.02475,0.998657,0.020182,0.005498,-0.014767,56.860626,31.542892,-143.561493,,,
729862900.225276,-1.836631,-1.853461,-162.580714,0.04364,-0.02475,0.998657,0.020182,0.005498,-0.014767,56.901215,31.20578,-143.269974,,,
729862900.228697,-1.832782,-1.855719,-162.584614,0.04364,-0.02475,0.998657,0.02772,0.003806,-0.008623,56.901215,31.20578,-143.269974,,,
729862900.231933,-1.8257,-1.855422,-162.587017,0.042786,-0.032974,1.003098,0.02772,0.003806,-0.008623,56.901215,31.20578,-143.269974,,,
729862900.235328,-1.8257,-1.855422,-162.587017,0.042786,-0.032974,1.003098,0.02772,0.003806,-0.008623,56.901215,31.20578,-143.269974,,,
729862900.238612,-1.819226,-1.856805,-162.588248,0.042786,-0.032974,1.003098,0.033309,0.005947,-0.004143,56.901215,31.20578,-143.269974,,,
729862900.241944,-1.810153,-1.85591,-162.588656,0.035248,-0.037292,1.00293,0.033309,0.005947,-0.004143,56.901215,31.20578,-143.269974,,,
729862900.245328,-1.810153,-1.85591,-162.588656,0.035248,-0.037292,1.00293,0.033309,0.005947,-0.004143,56.901215,31.20578,-143.269974,,,
729862900.248621,-1.801388,-1.856472,-162.589404,0.035248,-0.037292,1.00293,0.038554,0.010297,-0.006844,56.901215,31.20578,-143.269974,,,
729862900.251941,-1.790567,-1.854453,-162.590503,0.034454,-0.033035,1.000473,0.038554,0.010297,-0.006844,56.901215,31.20578,-143.269974,,,
729862900.255365,-1.790567,-1.854453,-162.590503,0.034454,-0.033035,1.000473,0.038554,0.010297,-0.006844,56.901215,31.20578,-143.269974,,,
729862900.25862,-1.778131,-1.853886,-162.592001,0.034454,-0.033035,1.000473,0.058863,0.012536,-0.012623,56.901215,31.20578,-143.269974,,,
729862900.261975,-1.762746,-1.850961,-162.594264,0.041733,-0.031464,1.007339,0.058863,0.012536,-0.012623,56.901215,31.20578,-143.269974,,,
729862900.265274,-1.762746,-1.850961,-162.594264,0.041733,-0.031464,1.007339,0.058863,0.012536,-0.012623,56.868103,31.266083,-143.161835,,,
729862900.268673,-1.744486,-1.851675,-162.597204,0.041733,-0.031464,1.007339,0.073394,0.003776,-0.015396,56.868103,31.266083,-143.161835,,,
729862900.271938,-1.723975,-1.851267,-162.600414,0.039001,-0.034607,1.003296,0.073394,0.003776,-0.015396,56.868103,31.266083,-143.161835,,,
729862900.275286,-1.723975,-1.851267,-162.600414,0.039001,-0.034607,1.003296,0.073394,0.003776,-0.015396,56.868103,31.266083,-143.161835,,,
729862900.278648,-1.704202,-1.854791,-162.603296,0.039001,-0.034607,1.003296,0.062132,-0.011606,-0.008959,56.868103,31.266083,-143.161835,,,
729862900.281941,-1.685738,-1.858469,-162.605082,0.029434,-0.028915,0.979874,0.062132,-0.011606,-0.008959,56.868103,31.266083,-143.161835,,,
729862900.28529,-1.685738,-1.858469,-162.605082,0.029434,-0.028915,0.979874,0.062132,-0.011606,-0.008959,56.868103,31.266083,-143.161835,,,
729862900.28863,-1.673249,-1.863831,-162.60648,0.029434,-0.028915,0.979874,0.027416,-0.019104,-0.008286,56.868103,31.266083,-143.161835,,,
729862900.291937,-1.663813,-1.869706,-162.608028,0.029617,-0.023605,0.960419,0.027416,-0.019104,-0.008286,56.868103,31.266083,-143.161835,,,
729862900.295367,-1.663813,-1.869706,-162.608028,0.029617,-0.023605,0.960419,0.027416,-0.019104,-0.008286,56.868103,31.266083,-143.161835,,,
729862900.298614,-1.659888,-1.878349,-162.610674,0.029617,-0.023605,0.960419,-0.004167,-0.018727,-0.017676,56.868103,31.266083,-143.161835,,,
729862900.301942,-1.660146,-1.884684,-162.614964,0.04007,-0.013367,0.952057,-0.004167,-0.018727,-0.017676,56.868103,31.266083,-143.161835,,,
729862900.305288,-1.660146,-1.884684,-162.614964,0.04007,-0.013367,0.952057,-0.004167,-0.018727,-0.017676,56.868103,31.266083,-143.161835,,,
729862900.308675,-1.663547,-1.892283,-162.620932,0.04007,-0.013367,0.952057,-0.030486,-0.002566,-0.023279,56.821716,31.46492,-143.350677,,,
729862900.311977,-1.67116,-1.893843,-162.627298,0.042297,-0.015533,0.96051,-0.030486,-0.002566,-0.023279,56.821716,31.46492,-143.350677,,,
729862900.315287,-1.67116,-1.893843,-162.627298,0.042297,-0.015533,0.96051,-0.030486,-0.002566,-0.023279,56.821716,31.46492,-143.350677,,,
729862900.318611,-1.682508,-1.894259,-162.633314,0.042297,-0.015533,0.96051,-0.041482,0.020909,-0.019914,56.821716,31.46492,-143.350677,,,
729862900.321939,-1.693449,-1.890097,-162.638976,0.033936,-0.025894,0.968948,-0.041482,0.020909,-0.019914,56.821716,31.46492,-143.350677,,,
729862900.325295,-1.693449,-1.890097,-162.638976,0.033936,-0.025894,0.968948,-0.041482,0.020909,-0.019914,56.821716,31.46492,-143.350677,,,
729862900.328653,-1.706726,-1.884028,-162.64455,0.033936,-0.025894,0.968948,-0.040397,0.031369,-0.022164,56.821716,31.46492,-143.350677,,,
729862900.331939,-1.718611,-1.87625,-162.650663,0.03009,-0.030426,0.976852,-0.040397,0.031369,-0.022164,56.821716,31.46492,-143.350677,,,
729862900.335339,-1.718611,-1.87625,-162.650663,0.03009,-0.030426,0.976852,-0.040397,0.031369,-0.022164,56.821716,31.46492,-143.350677,,,
729862900.338608,-1.72973,-1.868713,-162.657575,0.03009,-0.030426,0.976852,-0.031274,0.028643,-0.024894,56.821716,31.46492,-143.350677,,,
729862900.341946,-1.738552,-1.860697,-162.664519,0.027252,-0.033188,0.986328,-0.031274,0.028643,-0.024894,56.821716,31.46492,-143.350677,,,
729862900.345333,-1.738552,-1.860697,-162.664519,0.027252,-0.033188,0.986328,-0.031274,0.028643,-0.024894,56.821716,31.46492,-143.350677,,,
729862900.348689,-1.746198,-1.856866,-162.670888,0.027252,-0.033188,0.986328,-0.014424,0.018504,-0.016427,56.787689,31.337021,-143.063217,,,
729862900.351943,-1.750925,-1.852137,-162.675682,0.01799,-0.040207,0.992249,-0.014424,0.018504,-0.016427,56.787689,31.337021,-143.063217,,,
729862900.355301,-1.750925,-1.852137,-162.675682,0.01799,-0.040207,0.992249,-0.014424,0.018504,-0.016427,56.787689,31.337021,-143.063217,,,
729862900.358631,-1.753821,-1.850818,-162.678355,0.01799,-0.040207,0.992249,0.000795,-0.004661,-0.003002,56.787689,31.337021,-143.063217,,,
