Time (sec),Pitch (deg),Roll (deg),Yaw(deg),X-Acceleration (g),Y-Acceleration (g),Z-Acceleration (g),Pitch Rate (deg/sec),Roll Rate (deg/sec),Yaw Rate (deg/sec),Magnetic Field in X direction (uT),Magnetic Field in Y direction (uT),Magnetic Field in Z Direction (uT),Latitude (deg),Longitude (deg),Altitude (m)
729862780.804793,-2.137249,-2.210835,-163.975043,0.038956,-0.03331,1.002441,0.015147,-0.015375,0.013193,49.318573,35.364639,-140.390594,,,
729862780.808082,-2.133599,-2.216563,-163.969981,0.038956,-0.03331,1.002441,-0.00864,-0.010286,0.018638,49.318573,35.364639,-140.390594,,,
729862780.811491,-2.133599,-2.216563,-163.969981,0.038956,-0.03331,1.002441,-0.00864,-0.010286,0.018638,49.318573,35.364639,-140.390594,,,
729862780.814764,-2.135112,-2.220525,-163.96427,0.036301,-0.031754,0.988342,-0.00864,-0.010286,0.018638,49.318573,35.364639,-140.390594,,,
729862780.817952,-2.13941,-2.224058,-163.957918,0.036301,-0.031754,0.988342,-0.035141,-0.003528,0.023294,49.318573,35.364639,-140.390594,,,
729862780.821453,-2.13941,-2.224058,-163.957918,0.036301,-0.031754,0.988342,-0.035141,-0.003528,0.023294,49.318573,35.364639,-140.390594,,,
729862780.824844,-2.14914,-2.226296,-163.950792,0.031845,-0.029129,0.975555,-0.035141,-0.003528,0.023294,49.318573,35.364639,-140.390594,,,
729862780.828076,-2.161375,-2.226435,-163.943978,0.031845,-0.029129,0.975555,-0.058637,-0.006003,0.020437,49.716766,35.292389,-140.616074,,,
729862780.831439,-2.161375,-2.226435,-163.943978,0.031845,-0.029129,0.975555,-0.058637,-0.006003,0.020437,49.716766,35.292389,-140.616074,,,
729862780.834592,-2.177684,-2.228301,-163.937928,0.039307,-0.028702,0.976746,-0.058637,-0.006003,0.020437,49.716766,35.292389,-140.616074,,,
729862780.838114,-2.196663,-2.227437,-163.932674,0.039307,-0.028702,0.976746,-0.057323,-0.003636,0.01444,49.716766,35.292389,-140.616074,,,
729862780.841421,-2.196663,-2.227437,-163.932674,0.039307,-0.028702,0.976746,-0.057323,-0.003636,0.01444,49.716766,35.292389,-140.616074,,,
729862780.844765,-2.214368,-2.228858,-163.928394,0.043655,-0.033752,0.993057,-0.057323,-0.003636,0.01444,49.716766,35.292389,-140.616074,,,
729862780.848105,-2.229042,-2.229661,-163.924114,0.043655,-0.033752,0.993057,-0.029077,0.00083,0.01474,49.716766,35.292389,-140.616074,,,
729862780.85137,-2.229042,-2.229661,-163.924114,0.043655,-0.033752,0.993057,-0.029077,0.00083,0.01474,49.716766,35.292389,-140.616074,,,
729862780.854792,-2.239062,-2.229908,-163.919823,0.044296,-0.045456,1.0159,-0.029077,0.00083,0.01474,49.716766,35.292389,-140.616074,,,
729862780.858086,-2.243663,-2.229376,-163.914982,0.044296,-0.045456,1.0159,0.00888,0.006446,0.019331,49.716766,35.292389,-140.616074,,,
729862780.86143,-2.243663,-2.229376,-163.914982,0.044296,-0.045456,1.0159,0.00888,0.006446,0.019331,49.716766,35.292389,-140.616074,,,
729862780.864757,-2.242884,-2.228276,-163.909072,0.043884,-0.053894,1.03064,0.00888,0.006446,0.019331,49.716766,35.292389,-140.616074,,,
729862780.867987,-2.242884,-2.225067,-163.902879,0.043884,-0.053894,1.03064,0.040038,0.009489,0.017128,49.716766,35.292389,-140.616074,,,
729862780.871459,-2.237383,-2.225067,-163.902879,0.043884,-0.053894,1.03064,0.040038,0.009489,0.017128,49.59964,35.178696,-140.325073,,,
729862780.874817,-2.227406,-2.222845,-163.897014,0.043243,-0.051315,1.027069,0.040038,0.009489,0.017128,49.59964,35.178696,-140.325073,,,
729862780.878077,-2.215392,-2.220063,-163.891495,0.043243,-0.051315,1.027069,0.049288,-0.00266,0.01353,49.59964,35.178696,-140.325073,,,
729862780.881425,-2.215392,-2.220063,-163.891495,0.043243,-0.051315,1.027069,0.049288,-0.00266,0.01353,49.59964,35.178696,-140.325073,,,
729862780.884641,-2.202164,-2.220102,-163.886563,0.046021,-0.040756,1.009323,0.049288,-0.00266,0.01353,49.59964,35.178696,-140.325073,,,
729862780.888097,-2.187467,-2.222376,-163.882229,0.046021,-0.040756,1.009323,0.039678,-0.010786,0.013993,49.59964,35.178696,-140.325073,,,
729862780.891421,-2.187467,-2.222376,-163.882229,0.046021,-0.040756,1.009323,0.039678,-0.010786,0.013993,49.59964,35.178696,-140.325073,,,
729862780.894763,-2.175402,-2.225715,-163.87791,0.047928,-0.035446,0.989471,0.039678,-0.010786,0.013993,49.59964,35.178696,-140.325073,,,
729862780.898079,-2.165404,-2.229067,-163.872974,0.047928,-0.035446,0.989471,0.015308,-0.007195,0.014232,49.59964,35.178696,-140.325073,,,
729862780.901359,-2.165404,-2.229067,-163.872974,0.047928,-0.035446,0.989471,0.015308,-0.007195,0.014232,49.59964,35.178696,-140.325073,,,
729862780.904788,-2.160821,-2.231965,-163.86815,0.042786,-0.032547,0.975571,0.015308,-0.007195,0.014232,49.59964,35.178696,-140.325073,,,
729862780.908073,-2.159037,-2.230597,-163.863013,0.042786,-0.032547,0.975571,-0.016538,0.015818,0.019688,49.59964,35.178696,-140.325073,,,
729862780.911435,-2.159037,-2.230597,-163.863013,0.042786,-0.032547,0.975571,-0.016538,0.015818,0.019688,49.671753,35.398514,-140.425858,,,
729862780.914829,-2.16346,-2.227102,-163.857668,0.045059,-0.030426,0.976456,-0.016538,0.015818,0.019688,49.671753,35.398514,-140.425858,,,
729862780.91796,-2.16346,-2.227102,-163.857668,0.045059,-0.030426,0.976456,-0.038769,0.040735,0.014073,49.671753,35.398514,-140.425858,,,
729862780.921441,-2.170571,-2.220401,-163.852644,0.045059,-0.030426,0.976456,-0.038769,0.040735,0.014073,49.671753,35.398514,-140.425858,,,
729862780.924746,-2.182236,-2.209898,-163.848045,0.051514,-0.029404,0.982635,-0.038769,0.040735,0.014073,49.671753,35.398514,-140.425858,,,
729862780.928081,-2.182236,-2.209898,-163.844879,0.051514,-0.029404,0.982635,-0.049345,0.040586,1.2e-05,49.671753,35.398514,-140.425858,,,
729862780.931421,-2.195555,-2.199704,-163.844879,0.051514,-0.029404,0.982635,-0.049345,0.040586,1.2e-05,49.671753,35.398514,-140.425858,,,
729862780.934619,-2.210037,-2.188913,-163.843787,0.056534,-0.032715,0.986771,-0.049345,0.040586,1.2e-05,49.671753,35.398514,-140.425858,,,
729862780.938099,-2.225628,-2.182372,-163.844966,0.056534,-0.032715,0.986771,-0.042763,0.016309,-0.009344,49.671753,35.398514,-140.425858,,,
729862780.941473,-2.225628,-2.182372,-163.844966,0.056534,-0.032715,0.986771,-0.042763,0.016309,-0.009344,49.671753,35.398514,-140.425858,,,
729862780.944755,-2.238258,-2.178197,-163.847834,0.053726,-0.034698,0.98822,-0.042763,0.016309,-0.009344,49.671753,35.398514,-140.425858,,,
729862780.948083,-2.238258,-2.178197,-163.847834,0.053726,-0.034698,0.98822,-0.017682,0.013533,-0.012101,49.671753,35.398514,-140.425858,,,
729862780.951289,-2.25097,-2.176904,-163.851444,0.053726,-0.034698,0.98822,-0.017682,0.013533,-0.012101,49.693924,35.408966,-140.277222,,,
729862780.954764,-2.257204,-2.173912,-163.854442,0.045959,-0.044006,1.007141,-0.017682,0.013533,-0.012101,49.693924,35.408966,-140.277222,,,
729862780.958081,-2.257204,-2.173912,-163.854442,0.045959,-0.044006,1.007141,0.025882,0.019343,0.002568,49.693924,35.408966,-140.277222,,,
729862780.961437,-2.259444,-2.170455,-163.855388,0.045959,-0.044006,1.007141,0.025882,0.019343,0.002568,49.693924,35.408966,-140.277222,,,
729862780.964815,-2.254431,-2.165658,-163.853697,0.036789,-0.058136,1.028442,0.025882,0.019343,0.002568,49.693924,35.408966,-140.277222,,,
729862780.968024,-2.254431,-2.165658,-163.853697,0.036789,-0.058136,1.028442,0.025882,0.019343,0.002568,49.693924,35.408966,-140.277222,,,
729862780.971441,-2.244702,-2.163679,-163.850806,0.036789,-0.058136,1.028442,0.046188,0.010068,0.00548,49.693924,35.408966,-140.277222,,,
729862780.974759,-2.232033,-2.161185,-163.84809,0.036957,-0.050674,1.014557,0.046188,0.010068,0.00548,49.693924,35.408966,-140.277222,,,
729862780.978084,-2.232033,-2.161185,-163.84809,0.036957,-0.050674,1.014557,0.046188,0.010068,0.00548,49.693924,35.408966,-140.277222,,,
729862780.981425,-2.217914,-2.163894,-163.846908,0.036957,-0.050674,1.014557,0.043303,-0.009359,-0.006177,49.693924,35.408966,-140.277222,,,
729862780.984626,-2.205223,-2.167136,-163.847431,0.040558,-0.036362,0.993103,0.043303,-0.009359,-0.006177,49.693924,35.408966,-140.277222,,,
729862780.988109,-2.205223,-2.167136,-163.847431,0.040558,-0.036362,0.993103,0.026941,-0.016457,-0.001684,49.693924,35.408966,-140.277222,,,
729862780.991483,-2.193071,-2.173225,-163.848978,0.040558,-0.036362,0.993103,0.026941,-0.016457,-0.001684,49.693924,35.408966,-140.277222,,,
729862780.994755,-2.185534,-2.178776,-163.849463,0.0345,-0.035049,0.981445,0.026941,-0.016457,-0.001684,49.742996,35.399094,-140.431747,,,
729862780.998079,-2.185534,-2.178776,-163.849463,0.0345,-0.035049,0.981445,0.026941,-0.016457,-0.001684,49.742996,35.399094,-140.431747,,,
729862781.001385,-2.180604,-2.186176,-163.847236,0.0345,-0.035049,0.981445,-0.002415,-0.011138,0.013778,49.742996,35.399094,-140.431747,,,
729862781.004815,-2.180655,-2.190185,-163.843031,0.027283,-0.04007,0.981049,-0.002415,-0.011138,0.013778,49.742996,35.399094,-140.431747,,,
729862781.008168,-2.180655,-2.190185,-163.843031,0.027283,-0.04007,0.981049,-0.002415,-0.011138,0.013778,49.742996,35.399094,-140.431747,,,
729862781.011424,-2.183049,-2.196678,-163.838684,0.027283,-0.04007,0.981049,-0.028223,-0.005451,0.015137,49.742996,35.399094,-140.431747,,,
729862781.014845,-2.190502,-2.198714,-163.834701,0.03479,-0.032639,0.977753,-0.028223,-0.005451,0.015137,49.742996,35.399094,-140.431747,,,
729862781.018001,-2.190502,-2.198714,-163.834701,0.03479,-0.032639,0.977753,-0.028223,-0.005451,0.015137,49.742996,35.399094,-140.431747,,,
729862781.021489,-2.199238,-2.20516,-163.832248,0.03479,-0.032639,0.977753,-0.039627,-0.009694,0.001074,49.742996,35.399094,-140.431747,,,
729862781.024756,-2.210472,-2.20778,-163.831257,0.046707,-0.026764,0.980682,-0.039627,-0.009694,0.001074,49.742996,35.399094,-140.431747,,,
729862781.027906,-2.210472,-2.20778,-163.831257,0.046707,-0.026764,0.980682,-0.039627,-0.009694,0.001074,49.742996,35.399094,-140.431747,,,
729862781.031452,-2.22254,-2.213625,-163.831872,0.046707,-0.026764,0.980682,-0.045941,-0.000494,-0.004211,49.742996,35.399094,-140.431747,,,
729862781.034648,-2.235402,-2.215172,-163.8332,0.04895,-0.030533,0.990936,-0.045941,-0.000494,-0.004211,49.670761,35.486786,-140.457031,,,
729862781.038158,-2.235402,-2.215172,-163.8332,0.04895,-0.030533,0.990936,-0.045941,-0.000494,-0.004211,49.670761,35.486786,-140.457031,,,
729862781.041454,-2.249293,-2.216841,-163.833942,0.04895,-0.030533,0.990936,-0.033601,0.001575,0.000117,49.670761,35.486786,-140.457031,,,
729862781.044746,-2.259319,-2.216876,-163.834092,0.044373,-0.039047,0.99823,-0.033601,0.001575,0.000117,49.670761,35.486786,-140.457031,,,
729862781.048101,-2.259319,-2.216876,-163.834092,0.044373,-0.039047,0.99823,-0.033601,0.001575,0.000117,49.670761,35.486786,-140.457031,,,
729862781.051295,-2.269515,-2.214346,-163.833895,0.044373,-0.039047,0.99823,-0.00974,0.01582,0.002049,49.670761,35.486786,-140.457031,,,
729862781.054796,-2.27324,-2.210722,-163.833155,0.041046,-0.043823,1.007858,-0.00974,0.01582,0.002049,49.670761,35.486786,-140.457031,,,
729862781.057976,-2.27324,-2.210722,-163.833155,0.041046,-0.043823,1.007858,-0.00974,0.01582,0.002049,49.670761,35.486786,-140.457031,,,
729862781.061448,-2.275235,-2.204594,-163.831611,0.041046,-0.043823,1.007858,0.009232,0.033486,0.004628,49.670761,35.486786,-140.457031,,,
729862781.064763,-2.273664,-2.19625,-163.829388,0.039108,-0.046066,1.014603,0.009232,0.033486,0.004628,49.670761,35.486786,-140.457031,,,
729862781.068091,-2.273664,-2.19625,-163.829388,0.039108,-0.046066,1.014603,0.009232,0.033486,0.004628,49.670761,35.486786,-140.457031,,,
729862781.071435,-2.269526,-2.187963,-163.827632,0.039108,-0.046066,1.014603,0.017123,0.025864,0.003619,49.670761,35.486786,-140.457031,,,
729862781.074763,-2.264871,-2.18056,-163.826423,0.037659,-0.044083,1.003403,0.017123,0.025864,0.003619,49.626221,35.485428,-140.439713,,,
729862781.078111,-2.264871,-2.18056,-163.826423,0.037659,-0.044083,1.003403,0.017123,0.025864,0.003619,49.626221,35.485428,-140.439713,,,
729862781.081474,-2.258197,-2.174248,-163.825499,0.037659,-0.044083,1.003403,0.024498,0.009103,-0.000889,49.626221,35.485428,-140.439713,,,
729862781.084641,-2.251461,-2.171116,-163.825319,0.034424,-0.041306,0.996643,0.024498,0.009103,-0.000889,49.626221,35.485428,-140.439713,,,
729862781.088133,-2.251461,-2.171116,-163.825319,0.034424,-0.041306,0.996643,0.024498,0.009103,-0.000889,49.626221,35.485428,-140.439713,,,
729862781.091417,-2.245307,-2.167356,-163.824951,0.034424,-0.041306,0.996643,0.020808,-0.005895,0.003634,49.626221,35.485428,-140.439713,,,
729862781.094766,-2.239655,-2.168436,-163.823394,0.027786,-0.042786,0.993362,0.020808,-0.005895,0.003634,49.626221,35.485428,-140.439713,,,
729862781.09812,-2.239655,-2.168436,-163.823394,0.027786,-0.042786,0.993362,0.020808,-0.005895,0.003634,49.626221,35.485428,-140.439713,,,
729862781.101299,-2.23376,-2.172105,-163.821127,0.027786,-0.042786,0.993362,0.006155,-0.020476,0.00751,49.626221,35.485428,-140.439713,,,
729862781.104787,-2.231685,-2.177624,-163.818837,0.025085,-0.0383,0.98735,0.006155,-0.020476,0.00751,49.626221,35.485428,-140.439713,,,
729862781.1082,-2.231685,-2.177624,-163.818837,0.025085,-0.0383,0.98735,0.006155,-0.020476,0.00751,49.626221,35.485428,-140.439713,,,
729862781.111424,-2.229342,-2.188008,-163.816609,0.025085,-0.0383,0.98735,-0.005788,-0.028852,0.005272,49.626221,35.485428,-140.439713,,,
729862781.114748,-2.231188,-2.196634,-163.814416,0.0298,-0.032852,0.98764,-0.005788,-0.028852,0.005272,49.51416,35.621338,-140.655396,,,
729862781.118051,-2.231188,-2.196634,-163.814416,0.0298,-0.032852,0.98764,-0.005788,-0.028852,0.005272,49.51416,35.621338,-140.655396,,,
729862781.121527,-2.233169,-2.207566,-163.812404,0.0298,-0.032852,0.98764,-0.014746,-0.020724,0.008569,49.51416,35.621338,-140.655396,,,
729862781.124746,-2.23768,-2.214993,-163.810014,0.034241,-0.033371,0.988129,-0.014746,-0.020724,0.008569,49.51416,35.621338,-140.655396,,,
729862781.128107,-2.23768,-2.214993,-163.810014,0.034241,-0.033371,0.988129,-0.014746,-0.020724,0.008569,49.51416,35.621338,-140.655396,,,
729862781.131446,-2.243205,-2.220878,-163.807085,0.034241,-0.033371,0.988129,-0.020577,0.005542,0.013891,49.51416,35.621338,-140.655396,,,
729862781.134632,-2.248831,-2.221708,-163.803246,0.042053,-0.033386,0.996353,-0.020577,0.005542,0.013891,49.51416,35.621338,-140.655396,,,
729862781.138121,-2.248831,-2.221708,-163.803246,0.042053,-0.033386,0.996353,-0.020577,0.005542,0.013891,49.51416,35.621338,-140.655396,,,
729862781.141418,-2.256243,-2.217807,-163.798716,0.042053,-0.033386,0.996353,-0.022504,0.037583,0.01759,49.51416,35.621338,-140.655396,,,
729862781.144751,-2.263005,-2.208006,-163.793615,0.041626,-0.034363,0.99968,-0.022504,0.037583,0.01759,49.51416,35.621338,-140.655396,,,
729862781.148158,-2.263005,-2.208006,-163.793615,0.041626,-0.034363,0.99968,-0.022504,0.037583,0.01759,49.51416,35.621338,-140.655396,,,
729862781.151301,-2.270499,-2.194244,-163.788472,0.041626,-0.034363,0.99968,-0.016341,0.05315,0.014023,49.51416,35.621338,-140.655396,,,
729862781.154773,-2.275805,-2.179732,-163.783993,0.041092,-0.037064,1.00029,-0.016341,0.05315,0.014023,49.51416,35.621338,-140.655396,,,
729862781.158078,-2.275805,-2.179732,-163.783993,0.041092,-0.037064,1.00029,-0.016341,0.05315,0.014023,49.900787,35.564819,-140.85759,,,
729862781.161504,-2.279786,-2.166052,-163.780166,0.041092,-0.037064,1.00029,-0.002733,0.038097,0.00404,49.900787,35.564819,-140.85759,,,
729862781.164746,-2.280585,-2.154682,-163.777656,0.042618,-0.034897,0.999771,-0.002733,0.038097,0.00404,49.900787,35.564819,-140.85759,,,
729862781.167978,-2.280585,-2.154682,-163.777656,0.042618,-0.034897,0.999771,-0.002733,0.038097,0.00404,49.900787,35.564819,-140.85759,,,
729862781.171454,-2.279705,-2.146166,-163.776581,0.042618,-0.034897,0.999771,0.011403,0.004077,0.00035,49.900787,35.564819,-140.85759,,,
729862781.174749,-2.276279,-2.143619,-163.776148,0.031342,-0.037842,0.998322,0.011403,0.004077,0.00035,49.900787,35.564819,-140.85759,,,
729862781.178116,-2.276279,-2.143619,-163.776148,0.031342,-0.037842,0.998322,0.011403,0.004077,0.00035,49.900787,35.564819,-140.85759,,,
729862781.18145,-2.271078,-2.14373,-163.774934,0.031342,-0.037842,0.998322,0.026692,-0.028012,0.011287,49.900787,35.564819,-140.85759,,,
729862781.184626,-2.263735,-2.150861,-163.772207,0.02066,-0.041656,0.997879,0.026692,-0.028012,0.011287,49.900787,35.564819,-140.85759,,,
729862781.188194,-2.263735,-2.150861,-163.772207,0.02066,-0.041656,0.997879,0.026692,-0.028012,0.011287,49.900787,35.564819,-140.85759,,,
729862781.191424,-2.255498,-2.158213,-163.767989,0.02066,-0.041656,0.997879,0.0255,-0.0431,0.01809,49.900787,35.564819,-140.85759,,,
729862781.194751,-2.248563,-2.170319,-163.762914,0.019363,-0.040192,0.995132,0.0255,-0.0431,0.01809,49.900787,35.564819,-140.85759,,,
729862781.198107,-2.248563,-2.170319,-163.762914,0.019363,-0.040192,0.995132,0.0255,-0.0431,0.01809,50.000961,35.366043,-140.721985,,,
729862781.201396,-2.242207,-2.180929,-163.757449,0.019363,-0.040192,0.995132,0.014323,-0.034196,0.013942,50.000961,35.366043,-140.721985,,,
729862781.204764,-2.238573,-2.191899,-163.752588,0.028641,-0.033554,0.995087,0.014323,-0.034196,0.013942,50.000961,35.366043,-140.721985,,,
729862781.208098,-2.238573,-2.191899,-163.752588,0.028641,-0.033554,0.995087,0.014323,-0.034196,0.013942,50.000961,35.366043,-140.721985,,,
729862781.211437,-2.235812,-2.200458,-163.748553,0.028641,-0.033554,0.995087,0.000506,-0.017034,0.012229,50.000961,35.366043,-140.721985,,,
729862781.214755,-2.23632,-2.206703,-163.745011,0.038269,-0.034271,0.997314,0.000506,-0.017034,0.012229,50.000961,35.366043,-140.721985,,,
729862781.21798,-2.23632,-2.206703,-163.745011,0.038269,-0.034271,0.997314,0.000506,-0.017034,0.012229,50.000961,35.366043,-140.721985,,,
729862781.221451,-2.238029,-2.210917,-163.741577,0.038269,-0.034271,0.997314,-0.014553,0.013287,0.013216,50.000961,35.366043,-140.721985,,,
729862781.224747,-2.242538,-2.209304,-163.737954,0.042023,-0.035324,0.998001,-0.014553,0.013287,0.013216,50.000961,35.366043,-140.721985,,,
729862781.228049,-2.242538,-2.209304,-163.737954,0.042023,-0.035324,0.998001,-0.014553,0.013287,0.013216,50.000961,35.366043,-140.721985,,,
729862781.231437,-2.247273,-2.202246,-163.733553,0.042023,-0.035324,0.998001,-0.021999,0.049486,0.021674,50.000961,35.366043,-140.721985,,,
729862781.234633,-2.253719,-2.189896,-163.727805,0.037308,-0.040329,1.007156,-0.021999,0.049486,0.021674,50.000961,35.366043,-140.721985,,,
729862781.2381,-2.253719,-2.189896,-163.727805,0.037308,-0.040329,1.007156,-0.021999,0.049486,0.021674,50.024033,35.455734,-140.618835,,,
729862781.241492,-2.259907,-2.17525,-163.720485,0.037308,-0.040329,1.007156,-0.021748,0.061668,0.031316,50.024033,35.455734,-140.618835,,,
729862781.244748,-2.266561,-2.158225,-163.711427,0.033051,-0.045593,1.007706,-0.021748,0.061668,0.031316,50.024033,35.455734,-140.618835,,,
729862781.2481,-2.266561,-2.158225,-163.711427,0.033051,-0.045593,1.007706,-0.021748,0.061668,0.031316,50.024033,35.455734,-140.618835,,,
729862781.251307,-2.270626,-2.143045,-163.702175,0.033051,-0.045593,1.007706,-0.00533,0.042658,0.024979,50.024033,35.455734,-140.618835,,,
729862781.254776,-2.272793,-2.13041,-163.694413,0.035599,-0.044495,1.00589,-0.00533,0.042658,0.024979,50.024033,35.455734,-140.618835,,,
729862781.258094,-2.272793,-2.13041,-163.694413,0.035599,-0.044495,1.00589,-0.00533,0.042658,0.024979,50.024033,35.455734,-140.618835,,,
729862781.261438,-2.272893,-2.120604,-163.688421,0.035599,-0.044495,1.00589,0.009384,0.005101,0.014484,50.024033,35.455734,-140.618835,,,
729862781.264751,-2.271439,-2.118248,-163.683839,0.042038,-0.040131,0.999649,0.009384,0.005101,0.014484,50.024033,35.455734,-140.618835,,,
729862781.268028,-2.271439,-2.118248,-163.683839,0.042038,-0.040131,0.999649,0.009384,0.005101,0.014484,50.024033,35.455734,-140.618835,,,
729862781.271434,-2.268538,-2.116384,-163.679676,0.042038,-0.040131,0.999649,0.020474,-0.019628,0.014675,50.024033,35.455734,-140.618835,,,
729862781.274756,-2.262982,-2.122434,-163.675346,0.037933,-0.046295,1.001892,0.020474,-0.019628,0.014675,50.024033,35.455734,-140.618835,,,
729862781.278086,-2.262982,-2.122434,-163.675346,0.037933,-0.046295,1.001892,0.020474,-0.019628,0.014675,50.043762,35.177872,-140.593536,,,
729862781.281482,-2.255848,-2.126429,-163.670493,0.037933,-0.046295,1.001892,0.034264,-0.030994,0.014427,50.043762,35.177872,-140.593536,,,
729862781.284622,-2.247409,-2.135651,-163.665718,0.035904,-0.047348,1.006104,0.034264,-0.030994,0.014427,50.043762,35.177872,-140.593536,,,
729862781.288117,-2.247409,-2.135651,-163.665718,0.035904,-0.047348,1.006104,0.034264,-0.030994,0.014427,50.043762,35.177872,-140.593536,,,
729862781.291421,-2.236588,-2.144017,-163.661087,0.035904,-0.047348,1.006104,0.032817,-0.026964,0.012161,50.043762,35.177872,-140.593536,,,
729862781.294758,-2.227334,-2.152227,-163.657126,0.045227,-0.041824,1.003052,0.032817,-0.026964,0.012161,50.043762,35.177872,-140.593536,,,
729862781.298081,-2.227334,-2.152227,-163.657126,0.045227,-0.041824,1.003052,0.032817,-0.026964,0.012161,50.043762,35.177872,-140.593536,,,
729862781.301291,-2.218844,-2.158967,-163.654053,0.045227,-0.041824,1.003052,0.019562,-0.011108,0.006095,50.043762,35.177872,-140.593536,,,
729862781.304782,-2.213241,-2.163189,-163.651625,0.051392,-0.037003,0.996841,0.019562,-0.011108,0.006095,50.043762,35.177872,-140.593536,,,
729862781.308092,-2.213241,-2.163189,-163.651625,0.051392,-0.037003,0.996841,0.019562,-0.011108,0.006095,50.043762,35.177872,-140.593536,,,
729862781.311422,-2.209328,-2.166053,-163.649833,0.051392,-0.037003,0.996841,0.008083,0.001057,0.001216,50.043762,35.177872,-140.593536,,,
729862781.314794,-2.207563,-2.166403,-163.648623,0.051956,-0.035675,0.988205,0.008083,0.001057,0.001216,50.043762,35.177872,-140.593536,,,
729862781.31806,-2.207563,-2.166403,-163.648623,0.051956,-0.035675,0.988205,0.008083,0.001057,0.001216,50.043762,35.177872,-140.593536,,,
729862781.321487,-2.207602,-2.165577,-163.648224,0.051956,-0.035675,0.988205,-0.002113,0.000576,0.000208,49.895386,35.374161,-140.841965,,,
729862781.324757,-2.208536,-2.165774,-163.647876,0.045166,-0.037506,0.987289,-0.002113,0.000576,0.000208,49.895386,35.374161,-140.841965,,,
729862781.328118,-2.208536,-2.165774,-163.647876,0.045166,-0.037506,0.987289,-0.002113,0.000576,0.000208,49.895386,35.374161,-140.841965,,,
729862781.331509,-2.212078,-2.163687,-163.646782,0.045166,-0.037506,0.987289,-0.010807,0.010767,0.007101,49.895386,35.374161,-140.841965,,,
729862781.33464,-2.215146,-2.160634,-163.644941,0.038406,-0.042725,0.98999,-0.010807,0.010767,0.007101,49.895386,35.374161,-140.841965,,,
729862781.33811,-2.215146,-2.160634,-163.644941,0.038406,-0.042725,0.98999,-0.010807,0.010767,0.007101,49.895386,35.374161,-140.841965,,,
729862781.34143,-2.219369,-2.156064,-163.642324,0.038406,-0.042725,0.98999,-0.008957,0.014231,0.008865,49.895386,35.374161,-140.841965,,,
729862781.344752,-2.222877,-2.151947,-163.639572,0.037811,-0.043503,0.993576,-0.008957,0.014231,0.008865,49.895386,35.374161,-140.841965,,,
729862781.348099,-2.222877,-2.151947,-163.639572,0.037811,-0.043503,0.993576,-0.008957,0.014231,0.008865,49.895386,35.374161,-140.841965,,,
729862781.351301,-2.225971,-2.150393,-163.63736,0.037811,-0.043503,0.993576,-0.003412,0.000849,0.003846,49.895386,35.374161,-140.841965,,,
729862781.354776,-2.227166,-2.150119,-163.635874,0.039368,-0.044266,0.994141,-0.003412,0.000849,0.003846,49.895386,35.374161,-140.841965,,,
729862781.358139,-2.227166,-2.150119,-163.635874,0.039368,-0.044266,0.994141,-0.003412,0.000849,0.003846,49.895386,35.374161,-140.841965,,,
729862781.361423,-2.228447,-2.151444,-163.634825,0.039368,-0.044266,0.994141,0.008358,-0.008824,0.003067,50.1465,35.35228,-140.953049,,,
729862781.364777,-2.226893,-2.154237,-163.633981,0.042374,-0.046921,0.998383,0.008358,-0.008824,0.003067,50.1465,35.35228,-140.953049,,,
729862781.367992,-2.226893,-2.154237,-163.633981,0.042374,-0.046921,0.998383,0.008358,-0.008824,0.003067,50.1465,35.35228,-140.953049,,,
729862781.371492,-2.225993,-2.157614,-163.632745,0.042374,-0.046921,0.998383,0.014044,-0.010832,0.004697,50.1465,35.35228,-140.953049,,,
729862781.374763,-2.22239,-2.161467,-163.631356,0.040192,-0.047455,0.998352,0.014044,-0.010832,0.004697,50.1465,35.35228,-140.953049,,,
729862781.378087,-2.22239,-2.161467,-163.631356,0.040192,-0.047455,0.998352,0.014044,-0.010832,0.004697,50.1465,35.35228,-140.953049,,,
729862781.381458,-2.218031,-2.168051,-163.630676,0.040192,-0.047455,0.998352,0.025334,-0.012593,-0.002403,50.1465,35.35228,-140.953049,,,
729862781.384639,-2.212067,-2.172702,-163.630762,0.042297,-0.042709,0.999802,0.025334,-0.012593,-0.002403,50.1465,35.35228,-140.953049,,,
729862781.388113,-2.212067,-2.172702,-163.630762,0.042297,-0.042709,0.999802,0.025334,-0.012593,-0.002403,50.1465,35.35228,-140.953049,,,
729862781.391421,-2.204166,-2.1809,-163.631641,0.042297,-0.042709,0.999802,0.027564,-0.012426,-0.006875,50.1465,35.35228,-140.953049,,,
729862781.394752,-2.19633,-2.185267,-163.632805,0.042892,-0.042633,0.996262,0.027564,-0.012426,-0.006875,50.1465,35.35228,-140.953049,,,
729862781.398089,-2.19633,-2.185267,-163.632805,0.042892,-0.042633,0.996262,0.027564,-0.012426,-0.006875,50.1465,35.35228,-140.953049,,,
729862781.401324,-2.188414,-2.19198,-163.633745,0.042892,-0.042633,0.996262,0.023829,-0.007299,-0.007428,50.174637,35.336121,-140.80014,,,
729862781.404766,-2.181689,-2.195137,-163.634661,0.04332,-0.038101,0.992615,0.023829,-0.007299,-0.007428,50.174637,35.336121,-140.80014,,,
729862781.408101,-2.181689,-2.195137,-163.634661,0.04332,-0.038101,0.992615,0.023829,-0.007299,-0.007428,50.174637,35.336121,-140.80014,,,
729862781.411482,-2.176281,-2.198289,-163.636392,0.04332,-0.038101,0.992615,0.011989,-0.003489,-0.006844,50.174637,35.336121,-140.80014,,,
729862781.414741,-2.172535,-2.199501,-163.638103,0.041031,-0.037445,0.984741,0.011989,-0.003489,-0.006844,50.174637,35.336121,-140.80014,,,
729862781.417971,-2.172535,-2.199501,-163.638103,0.041031,-0.037445,0.984741,0.011989,-0.003489,-0.006844,50.174637,35.336121,-140.80014,,,
729862781.421455,-2.171887,-2.199849,-163.63908,0.041031,-0.037445,0.984741,-0.006527,0.003132,-0.00433,50.174637,35.336121,-140.80014,,,
729862781.424747,-2.173093,-2.199146,-163.639546,0.033539,-0.03801,0.978271,-0.006527,0.003132,-0.00433,50.174637,35.336121,-140.80014,,,
729862781.428102,-2.173093,-2.199146,-163.639546,0.033539,-0.03801,0.978271,-0.006527,0.003132,-0.00433,50.174637,35.336121,-140.80014,,,
729862781.431422,-2.177947,-2.198026,-163.639663,0.033539,-0.03801,0.978271,-0.020638,0.004209,0.000498,50.174637,35.336121,-140.80014,,,
729862781.434625,-2.183645,-2.197615,-163.639428,0.02861,-0.038101,0.9785,-0.020638,0.004209,0.000498,50.174637,35.336121,-140.80014,,,
729862781.438164,-2.183645,-2.197615,-163.639428,0.02861,-0.038101,0.9785,-0.020638,0.004209,0.000498,50.174637,35.336121,-140.80014,,,
729862781.441405,-2.191287,-2.198029,-163.639062,0.02861,-0.038101,0.9785,-0.016789,0.007504,0.005058,50.174637,35.336121,-140.80014,,,
729862781.444754,-2.196919,-2.19697,-163.637819,0.030151,-0.042114,0.992584,-0.016789,0.007504,0.005058,50.255798,35.318115,-140.581223,,,
729862781.448106,-2.196919,-2.19697,-163.637819,0.030151,-0.042114,0.992584,-0.016789,0.007504,0.005058,50.255798,35.318115,-140.581223,,,
729862781.451313,-2.203771,-2.196346,-163.63614,0.030151,-0.042114,0.992584,-0.010783,0.003808,0.005547,50.255798,35.318115,-140.581223,,,
729862781.4548,-2.207357,-2.195197,-163.634479,0.032211,-0.043701,1.003601,-0.010783,0.003808,0.005547,50.255798,35.318115,-140.581223,,,
729862781.458108,-2.207357,-2.195197,-163.634479,0.032211,-0.043701,1.003601,-0.010783,0.003808,0.005547,50.255798,35.318115,-140.581223,,,
729862781.461443,-2.210691,-2.196316,-163.633113,0.032211,-0.043701,1.003601,-0.003706,-0.01049,0.000819,50.255798,35.318115,-140.581223,,,
729862781.464759,-2.211249,-2.199332,-163.63224,0.033096,-0.043243,1.000351,-0.003706,-0.01049,0.000819,50.255798,35.318115,-140.581223,,,
729862781.467981,-2.211249,-2.199332,-163.63224,0.033096,-0.043243,1.000351,-0.003706,-0.01049,0.000819,50.255798,35.318115,-140.581223,,,
729862781.471447,-2.212268,-2.205439,-163.631601,0.033096,-0.043243,1.000351,-0.002193,-0.018417,0.00142,50.255798,35.318115,-140.581223,,,
729862781.474755,-2.212994,-2.211363,-163.630887,0.032593,-0.041763,0.994995,-0.002193,-0.018417,0.00142,50.255798,35.318115,-140.581223,,,
729862781.478184,-2.212994,-2.211363,-163.630887,0.032593,-0.041763,0.994995,-0.002193,-0.018417,0.00142,50.255798,35.318115,-140.581223,,,
729862781.481416,-2.214332,-2.218158,-163.62986,0.032593,-0.041763,0.994995,-0.003882,-0.012717,0.003211,50.255798,35.318115,-140.581223,,,
729862781.484691,-2.215258,-2.223357,-163.629006,0.036362,-0.039642,0.993164,-0.003882,-0.012717,0.003211,50.136993,35.28273,-140.674118,,,
729862781.488132,-2.215258,-2.223357,-163.629006,0.036362,-0.039642,0.993164,-0.003882,-0.012717,0.003211,50.136993,35.28273,-140.674118,,,
729862781.491458,-2.216601,-2.22856,-163.628375,0.036362,-0.039642,0.993164,-0.009637,-0.003762,0.00419,50.136993,35.28273,-140.674118,,,
729862781.494746,-2.219499,-2.23101,-163.627045,0.039154,-0.038788,0.992752,-0.009637,-0.003762,0.00419,50.136993,35.28273,-140.674118,,,
729862781.498098,-2.219499,-2.23101,-163.627045,0.039154,-0.038788,0.992752,-0.009637,-0.003762,0.00419,50.136993,35.28273,-140.674118,,,
729862781.501348,-2.22358,-2.233336,-163.624954,0.039154,-0.038788,0.992752,-0.01357,-0.005678,0.009983,50.136993,35.28273,-140.674118,,,
729862781.504773,-2.228101,-2.235406,-163.622815,0.038132,-0.043106,0.99202,-0.01357,-0.005678,0.009983,50.136993,35.28273,-140.674118,,,
729862781.508103,-2.228101,-2.235406,-163.622815,0.038132,-0.043106,0.99202,-0.01357,-0.005678,0.009983,50.136993,35.28273,-140.674118,,,
729862781.511445,-2.232429,-2.235725,-163.620875,0.038132,-0.043106,0.99202,-0.010378,-0.000888,0.006548,50.136993,35.28273,-140.674118,,,
729862781.51475,-2.23584,-2.236844,-163.618838,0.041336,-0.042969,0.999115,-0.010378,-0.000888,0.006548,50.136993,35.28273,-140.674118,,,
729862781.51804,-2.23584,-2.236844,-163.618838,0.041336,-0.042969,0.999115,-0.010378,-0.000888,0.006548,50.136993,35.28273,-140.674118,,,
729862781.521429,-2.23764,-2.233781,-163.616669,0.041336,-0.042969,0.999115,0.000983,0.01384,0.003187,50.136993,35.28273,-140.674118,,,
729862781.524751,-2.238007,-2.231293,-163.614944,0.046143,-0.042343,1.00621,0.000983,0.01384,0.003187,50.041916,35.315292,-140.694702,,,
729862781.528084,-2.238007,-2.231293,-163.614944,0.046143,-0.042343,1.00621,0.000983,0.01384,0.003187,50.041916,35.315292,-140.694702,,,
729862781.531492,-2.238038,-2.226457,-163.612915,0.046143,-0.042343,1.00621,0.004385,0.013117,0.006781,50.041916,35.315292,-140.694702,,,
729862781.53464,-2.236575,-2.223775,-163.610655,0.045349,-0.042297,0.999161,0.004385,0.013117,0.006781,50.041916,35.315292,-140.694702,,,
729862781.53812,-2.236575,-2.223775,-163.610655,0.045349,-0.042297,0.999161,0.004385,0.013117,0.006781,50.041916,35.315292,-140.694702,,,
729862781.541431,-2.236154,-2.220158,-163.608656,0.045349,-0.042297,0.999161,0.001829,0.006829,0.003133,50.041916,35.315292,-140.694702,,,
729862781.544751,-2.235414,-2.218778,-163.607079,0.044281,-0.040436,0.994156,0.001829,0.006829,0.003133,50.041916,35.315292,-140.694702,,,
729862781.548091,-2.235414,-2.218778,-163.607079,0.044281,-0.040436,0.994156,0.001829,0.006829,0.003133,50.041916,35.315292,-140.694702,,,
729862781.55131,-2.236483,-2.217891,-163.606755,0.044281,-0.040436,0.994156,-0.000782,-0.009708,-0.008038,50.041916,35.315292,-140.694702,,,
729862781.554772,-2.237185,-2.221275,-163.608449,0.050903,-0.03717,0.988327,-0.000782,-0.009708,-0.008038,50.041916,35.315292,-140.694702,,,
729862781.558138,-2.237185,-2.221275,-163.608449,0.050903,-0.03717,0.988327,-0.000782,-0.009708,-0.008038,50.041916,35.315292,-140.694702,,,
729862781.56142,-2.239469,-2.225722,-163.611523,0.050903,-0.03717,0.988327,-0.011965,-0.023756,-0.017971,50.041916,35.315292,-140.694702,,,
729862781.564759,-2.243179,-2.233005,-163.616189,0.059464,-0.03418,0.983139,-0.011965,-0.023756,-0.017971,50.122162,35.131577,-140.786255,,,
729862781.567974,-2.243179,-2.233005,-163.616189,0.059464,-0.03418,0.983139,-0.011965,-0.023756,-0.017971,50.122162,35.131577,-140.786255,,,
729862781.571492,-2.248419,-2.240412,-163.622488,0.059464,-0.03418,0.983139,-0.024029,-0.021936,-0.026931,50.122162,35.131577,-140.786255,,,
729862781.574745,-2.255114,-2.247416,-163.629742,0.057053,-0.031265,0.983551,-0.024029,-0.021936,-0.026931,50.122162,35.131577,-140.786255,,,
729862781.5781,-2.255114,-2.247416,-163.629742,0.057053,-0.031265,0.983551,-0.024029,-0.021936,-0.026931,50.122162,35.131577,-140.786255,,,
729862781.581429,-2.262533,-2.252758,-163.637534,0.057053,-0.031265,0.983551,-0.020964,-0.003856,-0.026716,50.122162,35.131577,-140.786255,,,
729862781.584627,-2.268759,-2.255502,-163.645711,0.055099,-0.035568,0.995773,-0.020964,-0.003856,-0.026716,50.122162,35.131577,-140.786255,,,
729862781.588113,-2.268759,-2.255502,-163.645711,0.055099,-0.035568,0.995773,-0.020964,-0.003856,-0.026716,50.122162,35.131577,-140.786255,,,
729862781.591426,-2.274338,-2.255072,-163.65362,0.055099,-0.035568,0.995773,-0.008489,0.016082,-0.023024,50.122162,35.131577,-140.786255,,,
729862781.594761,-2.277467,-2.251615,-163.660862,0.053284,-0.041519,1.007156,-0.008489,0.016082,-0.023024,50.122162,35.131577,-140.786255,,,
729862781.598092,-2.277467,-2.251615,-163.660862,0.053284,-0.041519,1.007156,-0.008489,0.016082,-0.023024,50.122162,35.131577,-140.786255,,,
729862781.60131,-2.2798,-2.246678,-163.66758,0.053284,-0.041519,1.007156,-0.002986,0.026471,-0.023733,50.122162,35.131577,-140.786255,,,
729862781.604856,-2.280855,-2.240154,-163.67389,0.045853,-0.043137,1.002121,-0.002986,0.026471,-0.023733,50.122162,35.131577,-140.786255,,,
729862781.60809,-2.280855,-2.240154,-163.67389,0.045853,-0.043137,1.002121,-0.002986,0.026471,-0.023733,49.974258,35.376358,-140.78418,,,
729862781.611439,-2.282611,-2.234459,-163.680164,0.045853,-0.043137,1.002121,-0.010153,0.026829,-0.018605,49.974258,35.376358,-140.78418,,,
729862781.614759,-2.285063,-2.227369,-163.685754,0.037979,-0.04213,0.9897,-0.010153,0.026829,-0.018605,49.974258,35.376358,-140.78418,,,
729862781.617974,-2.285063,-2.227369,-163.685754,0.037979,-0.04213,0.9897,-0.010153,0.026829,-0.018605,49.974258,35.376358,-140.78418,,,
729862781.621472,-2.290246,-2.222901,-163.689784,0.037979,-0.04213,0.9897,-0.025627,0.020606,-0.010995,49.974258,35.376358,-140.78418,,,
729862781.624755,-2.297726,-2.217763,-163.692622,0.029327,-0.043518,0.982712,-0.025627,0.020606,-0.010995,49.974258,35.376358,-140.78418,,,
729862781.628124,-2.297726,-2.217763,-163.692622,0.029327,-0.043518,0.982712,-0.025627,0.020606,-0.010995,49.974258,35.376358,-140.78418,,,
729862781.63151,-2.3068,-2.215713,-163.695216,0.029327,-0.043518,0.982712,-0.031597,0.00277,-0.010263,49.974258,35.376358,-140.78418,,,
729862781.634715,-2.315662,-2.214511,-163.697885,0.032135,-0.042084,0.987274,-0.031597,0.00277,-0.010263,49.974258,35.376358,-140.78418,,,
729862781.638107,-2.315662,-2.214511,-163.697885,0.032135,-0.042084,0.987274,-0.031597,0.00277,-0.010263,49.974258,35.376358,-140.78418,,,
729862781.64151,-2.323338,-2.219368,-163.701357,0.032135,-0.042084,0.987274,-0.028544,-0.013065,-0.014954,49.974258,35.376358,-140.78418,,,
729862781.64478,-2.331266,-2.223076,-163.705109,0.035172,-0.043365,0.993668,-0.028544,-0.013065,-0.014954,49.974258,35.376358,-140.78418,,,
729862781.648103,-2.331266,-2.223076,-163.705109,0.035172,-0.043365,0.993668,-0.028544,-0.013065,-0.014954,49.932526,35.275833,-141.170044,,,
729862781.651362,-2.337455,-2.234352,-163.709828,0.035172,-0.043365,0.993668,-0.026941,-0.021726,-0.018395,49.932526,35.275833,-141.170044,,,
729862781.654798,-2.345458,-2.241402,-163.715082,0.035233,-0.042862,0.996262,-0.026941,-0.021726,-0.018395,49.932526,35.275833,-141.170044,,,
729862781.658172,-2.345458,-2.241402,-163.715082,0.035233,-0.042862,0.996262,-0.026941,-0.021726,-0.018395,49.932526,35.275833,-141.170044,,,
729862781.661469,-2.352187,-2.252817,-163.720606,0.035233,-0.042862,0.996262,-0.032717,-0.022401,-0.017844,49.932526,35.275833,-141.170044,,,
729862781.664765,-2.36127,-2.260643,-163.725499,0.037125,-0.041656,0.996323,-0.032717,-0.022401,-0.017844,49.932526,35.275833,-141.170044,,,
729862781.668118,-2.36127,-2.260643,-163.725499,0.037125,-0.041656,0.996323,-0.032717,-0.022401,-0.017844,49.932526,35.275833,-141.170044,,,
729862781.671428,-2.370497,-2.270912,-163.729811,0.037125,-0.041656,0.996323,-0.037358,-0.011115,-0.011669,49.932526,35.275833,-141.170044,,,
729862781.674759,-2.380995,-2.275181,-163.733203,0.036011,-0.043396,0.997253,-0.037358,-0.011115,-0.011669,49.932526,35.275833,-141.170044,,,
729862781.678099,-2.380995,-2.275181,-163.733203,0.036011,-0.043396,0.997253,-0.037358,-0.011115,-0.011669,49.932526,35.275833,-141.170044,,,
729862781.681493,-2.391609,-2.280236,-163.735122,0.036011,-0.043396,0.997253,-0.034663,0.004931,-0.002483,49.932526,35.275833,-141.170044,,,
729862781.684687,-2.401924,-2.280518,-163.735667,0.03598,-0.045853,1.007172,-0.034663,0.004931,-0.002483,49.932526,35.275833,-141.170044,,,
729862781.688127,-2.401924,-2.280518,-163.735667,0.03598,-0.045853,1.007172,-0.034663,0.004931,-0.002483,49.902008,35.463409,-140.879562,,,
729862781.691421,-2.411379,-2.280061,-163.735339,0.03598,-0.045853,1.007172,-0.020817,0.005059,0.005181,49.902008,35.463409,-140.879562,,,
729862781.694747,-2.418618,-2.278642,-163.734258,0.036179,-0.048004,1.012421,-0.020817,0.005059,0.005181,49.902008,35.463409,-140.879562,,,
729862781.698106,-2.418618,-2.278642,-163.734258,0.036179,-0.048004,1.012421,-0.020817,0.005059,0.005181,49.902008,35.463409,-140.879562,,,
729862781.70135,-2.423712,-2.276841,-163.732699,0.036179,-0.048004,1.012421,-0.003792,0.00658,0.007183,49.902008,35.463409,-140.879562,,,
729862781.704832,-2.425828,-2.276016,-163.730716,0.04306,-0.047836,1.015518,-0.003792,0.00658,0.007183,49.902008,35.463409,-140.879562,,,
729862781.708232,-2.425828,-2.276016,-163.730716,0.04306,-0.047836,1.015518,-0.003792,0.00658,0.007183,49.902008,35.463409,-140.879562,,,
729862781.711435,-2.425384,-2.272849,-163.728888,0.04306,-0.047836,1.015518,0.007335,-0.002905,0.004123,49.902008,35.463409,-140.879562,,,
729862781.714811,-2.423469,-2.273982,-163.727284,0.043121,-0.046112,1.014526,0.007335,-0.002905,0.004123,49.902008,35.463409,-140.879562,,,
729862781.71799,-2.423469,-2.273982,-163.727284,0.043121,-0.046112,1.014526,0.007335,-0.002905,0.004123,49.902008,35.463409,-140.879562,,,
729862781.721501,-2.420976,-2.276493,-163.725607,0.043121,-0.046112,1.014526,0.013323,-0.024718,0.00349,49.902008,35.463409,-140.879562,,,
729862781.724775,-2.418067,-2.282998,-163.724123,0.04248,-0.043304,1.00235,0.013323,-0.024718,0.00349,49.902008,35.463409,-140.879562,,,
729862781.728081,-2.418067,-2.282998,-163.724123,0.04248,-0.043304,1.00235,0.013323,-0.024718,0.00349,49.793365,35.350357,-140.774048,,,
729862781.731415,-2.415115,-2.290414,-163.722255,0.04248,-0.043304,1.00235,0.014799,-0.026116,0.00611,49.793365,35.350357,-140.774048,,,
729862781.734723,-2.410925,-2.299228,-163.72002,0.04248,-0.043304,1.00235,0.014799,-0.026116,0.00611,49.793365,35.350357,-140.774048,,,
729862781.738113,-2.410925,-2.299228,-163.72002,0.042709,-0.043198,1.004333,0.014799,-0.026116,0.00611,49.793365,35.350357,-140.774048,,,
729862781.741428,-2.406181,-2.305676,-163.717701,0.042709,-0.043198,1.004333,0.025173,-0.016432,0.004192,49.793365,35.350357,-140.774048,,,
729862781.744799,-2.399998,-2.311428,-163.715682,0.049377,-0.043289,1.008713,0.025173,-0.016432,0.004192,49.793365,35.350357,-140.774048,,,
729862781.748149,-2.399998,-2.311428,-163.715682,0.049377,-0.043289,1.008713,0.025173,-0.016432,0.004192,49.793365,35.350357,-140.774048,,,
729862781.751303,-2.393161,-2.314579,-163.714619,0.049377,-0.043289,1.008713,0.027397,-0.009312,-0.007665,49.793365,35.350357,-140.774048,,,
729862781.754881,-2.386127,-2.317718,-163.715604,0.057114,-0.037643,1.00946,0.027397,-0.009312,-0.007665,49.793365,35.350357,-140.774048,,,
729862781.758094,-2.386127,-2.317718,-163.715604,0.057114,-0.037643,1.00946,0.027397,-0.009312,-0.007665,49.793365,35.350357,-140.774048,,,
729862781.761486,-2.378743,-2.319226,-163.718747,0.057114,-0.037643,1.00946,0.025276,-0.000879,-0.016687,49.793365,35.350357,-140.774048,,,
729862781.76479,-2.378743,-2.320928,-163.7231,0.053879,-0.031387,1.001236,0.025276,-0.000879,-0.016687,49.793365,35.350357,-140.774048,,,
729862781.767936,-2.371087,-2.320928,-163.7231,0.053879,-0.031387,1.001236,0.025276,-0.000879,-0.016687,49.793365,35.350357,-140.774048,,,
729862781.771445,-2.36635,-2.320759,-163.728021,0.053879,-0.031387,1.001236,0.012108,0.00022,-0.020446,49.833328,35.457214,-140.544449,,,
729862781.774813,-2.36261,-2.321742,-163.733321,0.047363,-0.030441,0.990799,0.012108,0.00022,-0.020446,49.833328,35.457214,-140.544449,,,
729862781.778078,-2.36261,-2.321742,-163.733321,0.047363,-0.030441,0.990799,0.012108,0.00022,-0.020446,49.833328,35.457214,-140.544449,,,
729862781.781426,-2.361977,-2.322689,-163.738959,0.047363,-0.030441,0.990799,-0.002021,-0.00604,-0.020074,49.833328,35.457214,-140.544449,,,
729862781.784637,-2.361977,-2.322689,-163.738959,0.047363,-0.030441,0.990799,-0.002021,-0.00604,-0.020074,49.833328,35.457214,-140.544449,,,
729862781.788173,-2.362865,-2.324979,-163.744973,0.043839,-0.032166,0.98288,-0.002021,-0.00604,-0.020074,49.833328,35.457214,-140.544449,,,
729862781.791416,-2.366605,-2.32892,-163.750753,0.043839,-0.032166,0.98288,-0.01662,-0.010098,-0.022364,49.833328,35.457214,-140.544449,,,
729862781.794763,-2.366605,-2.32892,-163.750753,0.043839,-0.032166,0.98288,-0.01662,-0.010098,-0.022364,49.833328,35.457214,-140.544449,,,
729862781.798099,-2.370818,-2.33299,-163.756569,0.040543,-0.03537,0.980759,-0.01662,-0.010098,-0.022364,49.833328,35.457214,-140.544449,,,
729862781.801315,-2.377129,-2.338054,-163.762614,0.040543,-0.03537,0.980759,-0.024838,-0.015724,-0.022356,49.833328,35.457214,-140.544449,,,
729862781.804798,-2.377129,-2.338054,-163.762614,0.040543,-0.03537,0.980759,-0.024838,-0.015724,-0.022356,49.833328,35.457214,-140.544449,,,
729862781.808095,-2.383723,-2.343806,-163.768634,0.041519,-0.0354,0.981506,-0.024838,-0.015724,-0.022356,49.833328,35.457214,-140.544449,,,
729862781.811428,-2.391647,-2.350682,-163.773728,0.041519,-0.0354,0.981506,-0.025796,-0.020051,-0.011999,49.718628,35.329239,-140.597382,,,
729862781.814797,-2.391647,-2.350682,-163.773728,0.041519,-0.0354,0.981506,-0.025796,-0.020051,-0.011999,49.718628,35.329239,-140.597382,,,
729862781.817974,-2.399468,-2.356941,-163.777308,0.032608,-0.040848,0.982849,-0.025796,-0.020051,-0.011999,49.718628,35.329239,-140.597382,,,
729862781.821442,-2.406481,-2.362533,-163.779502,0.032608,-0.040848,0.982849,-0.012582,-0.003805,-0.001989,49.718628,35.329239,-140.597382,,,
729862781.82476,-2.406481,-2.362533,-163.779502,0.032608,-0.040848,0.982849,-0.012582,-0.003805,-0.001989,49.718628,35.329239,-140.597382,,,
729862781.82815,-2.411191,-2.365384,-163.780183,0.028015,-0.048965,1.001022,-0.012582,-0.003805,-0.001989,49.718628,35.329239,-140.597382,,,
729862781.831418,-2.413402,-2.368024,-163.779826,0.028015,-0.048965,1.001022,0.005583,0.015567,0.002652,49.718628,35.329239,-140.597382,,,
729862781.834666,-2.413402,-2.368024,-163.779826,0.028015,-0.048965,1.001022,0.005583,0.015567,0.002652,49.718628,35.329239,-140.597382,,,
729862781.838108,-2.412904,-2.365304,-163.778537,0.033478,-0.049072,1.009583,0.005583,0.015567,0.002652,49.718628,35.329239,-140.597382,,,
729862781.8415,-2.409172,-2.363925,-163.777453,0.033478,-0.049072,1.009583,0.010359,0.022305,0.000208,49.718628,35.329239,-140.597382,,,
729862781.844792,-2.409172,-2.363925,-163.777453,0.033478,-0.049072,1.009583,0.010359,0.022305,0.000208,49.718628,35.329239,-140.597382,,,
729862781.848089,-2.405968,-2.35833,-163.776942,0.036438,-0.044174,1.001343,0.010359,0.022305,0.000208,49.718628,35.329239,-140.597382,,,
729862781.851299,-2.399853,-2.356127,-163.776752,0.036438,-0.044174,1.001343,0.013928,0.014141,-0.00074,49.731873,35.338959,-140.7117,,,
729862781.854818,-2.399853,-2.356127,-163.776752,0.036438,-0.044174,1.001343,0.013928,0.014141,-0.00074,49.731873,35.338959,-140.7117,,,
729862781.85807,-2.395708,-2.35281,-163.77639,0.033478,-0.038879,0.987839,0.013928,0.014141,-0.00074,49.731873,35.338959,-140.7117,,,
729862781.861426,-2.390559,-2.352809,-163.776394,0.033478,-0.038879,0.987839,0.006032,-0.00439,-0.004936,49.731873,35.338959,-140.7117,,,
729862781.86479,-2.390559,-2.352809,-163.776394,0.033478,-0.038879,0.987839,0.006032,-0.00439,-0.004936,49.731873,35.338959,-140.7117,,,
729862781.868002,-2.388929,-2.354174,-163.776572,0.03212,-0.039444,0.980209,0.006032,-0.00439,-0.004936,49.731873,35.338959,-140.7117,,,
729862781.871446,-2.386929,-2.358867,-163.777093,0.03212,-0.039444,0.980209,-0.003331,-0.022409,-0.006872,49.731873,35.338959,-140.7117,,,
729862781.874781,-2.386929,-2.358867,-163.777093,0.03212,-0.039444,0.980209,-0.003331,-0.022409,-0.006872,49.731873,35.338959,-140.7117,,,
729862781.878134,-2.387403,-2.365817,-163.778576,0.036102,-0.03772,0.975632,-0.003331,-0.022409,-0.006872,49.731873,35.338959,-140.7117,,,
729862781.881417,-2.38771,-2.3758,-163.781061,0.036102,-0.03772,0.975632,-0.009026,-0.043445,-0.015583,49.731873,35.338959,-140.7117,,,
729862781.884647,-2.38771,-2.3758,-163.781061,0.036102,-0.03772,0.975632,-0.009026,-0.043445,-0.015583,49.731873,35.338959,-140.7117,,,
729862781.888125,-2.390219,-2.388182,-163.784755,0.041702,-0.033783,0.974487,-0.009026,-0.043445,-0.015583,49.731873,35.338959,-140.7117,,,
729862781.89142,-2.393036,-2.401772,-163.789716,0.041702,-0.033783,0.974487,-0.019713,-0.041771,-0.019951,49.698196,35.280472,-140.764862,,,
729862781.894801,-2.393036,-2.401772,-163.789716,0.041702,-0.033783,0.974487,-0.019713,-0.041771,-0.019951,49.698196,35.280472,-140.764862,,,
729862781.898096,-2.398811,-2.415002,-163.795229,0.046188,-0.033875,0.971863,-0.019713,-0.041771,-0.019951,49.698196,35.280472,-140.764862,,,
729862781.901295,-2.407228,-2.423701,-163.800295,0.046188,-0.033875,0.971863,-0.03321,-0.027131,-0.016124,49.698196,35.280472,-140.764862,,,
729862781.904782,-2.407228,-2.423701,-163.800295,0.046188,-0.033875,0.971863,-0.03321,-0.027131,-0.016124,49.698196,35.280472,-140.764862,,,
729862781.90809,-2.416659,-2.433005,-163.805112,0.043289,-0.03894,0.975693,-0.03321,-0.027131,-0.016124,49.698196,35.280472,-140.764862,,,
729862781.91142,-2.427876,-2.435828,-163.809218,0.043289,-0.03894,0.975693,-0.039413,-0.002672,-0.011672,49.698196,35.280472,-140.764862,,,
729862781.914832,-2.427876,-2.435828,-163.809218,0.043289,-0.03894,0.975693,-0.039413,-0.002672,-0.011672,49.698196,35.280472,-140.764862,,,
729862781.917978,-2.438605,-2.437902,-163.812781,0.03949,-0.043961,0.987259,-0.039413,-0.002672,-0.011672,49.698196,35.280472,-140.764862,,,
729862781.921439,-2.45066,-2.435983,-163.815565,0.03949,-0.043961,0.987259,-0.036469,0.01443,-0.004413,49.698196,35.280472,-140.764862,,,
729862781.924776,-2.45066,-2.435983,-163.815565,0.03949,-0.043961,0.987259,-0.036469,0.01443,-0.004413,49.698196,35.280472,-140.764862,,,
729862781.92816,-2.461581,-2.433069,-163.817312,0.041199,-0.049957,0.993423,-0.036469,0.01443,-0.004413,49.698196,35.280472,-140.764862,,,
729862781.931413,-2.471254,-2.427182,-163.81811,0.041199,-0.049957,0.993423,-0.026401,0.019692,-0.001936,49.698196,35.280472,-140.764862,,,
729862781.934627,-2.471254,-2.427182,-163.81811,0.041199,-0.049957,0.993423,-0.026401,0.019692,-0.001936,49.696655,35.425568,-140.472015,,,
729862781.938121,-2.478761,-2.422119,-163.818586,0.040955,-0.051056,0.99855,-0.026401,0.019692,-0.001936,49.696655,35.425568,-140.472015,,,
729862781.941419,-2.483258,-2.415541,-163.819425,0.040955,-0.051056,0.99855,-0.004953,0.017439,-0.003148,49.696655,35.425568,-140.472015,,,
729862781.944778,-2.483258,-2.415541,-163.819425,0.040955,-0.051056,0.99855,-0.004953,0.017439,-0.003148,49.696655,35.425568,-140.472015,,,
729862781.948114,-2.48567,-2.411718,-163.820422,0.038605,-0.050461,1.007675,-0.004953,0.017439,-0.003148,49.696655,35.425568,-140.472015,,,
729862781.951293,-2.485755,-2.406739,-163.820933,0.038605,-0.050461,1.007675,0.004602,0.004626,0.001119,49.696655,35.425568,-140.472015,,,
729862781.954857,-2.485755,-2.406739,-163.820933,0.038605,-0.050461,1.007675,0.004602,0.004626,0.001119,49.696655,35.425568,-140.472015,,,
729862781.958095,-2.485569,-2.405318,-163.821007,0.035431,-0.049149,1.006302,0.004602,0.004626,0.001119,49.696655,35.425568,-140.472015,,,
729862781.961422,-2.483492,-2.405314,-163.820298,0.035431,-0.049149,1.006302,0.007534,-0.009233,0.004144,49.696655,35.425568,-140.472015,,,
729862781.964774,-2.483492,-2.405314,-163.820298,0.035431,-0.049149,1.006302,0.007534,-0.009233,0.004144,49.696655,35.425568,-140.472015,,,
729862781.968043,-2.48202,-2.408147,-163.819112,0.033493,-0.049377,1.001419,0.007534,-0.009233,0.004144,49.696655,35.425568,-140.472015,,,
729862781.971428,-2.478997,-2.412898,-163.817126,0.033493,-0.049377,1.001419,-0.002734,-0.018369,0.008502,49.696655,35.425568,-140.472015,,,
729862781.97475,-2.478997,-2.412898,-163.817126,0.033493,-0.049377,1.001419,-0.002734,-0.018369,0.008502,49.463272,35.43605,-140.45784,,,
729862781.978106,-2.479343,-2.417999,-163.814365,0.03685,-0.045029,0.993759,-0.002734,-0.018369,0.008502,49.463272,35.43605,-140.45784,,,
729862781.981418,-2.481204,-2.425418,-163.812204,0.03685,-0.045029,0.993759,-0.025751,-0.023977,0.004727,49.463272,35.43605,-140.45784,,,
729862781.984674,-2.481204,-2.425418,-163.812204,0.03685,-0.045029,0.993759,-0.025751,-0.023977,0.004727,49.463272,35.43605,-140.45784,,,
729862781.988121,-2.488167,-2.432544,-163.811027,0.045166,-0.037186,0.982239,-0.025751,-0.023977,0.004727,49.463272,35.43605,-140.45784,,,
729862781.991418,-2.497951,-2.440514,-163.810504,0.045166,-0.037186,0.982239,-0.046817,-0.022045,-3.1e-05,49.463272,35.43605,-140.45784,,,
729862781.994837,-2.497951,-2.440514,-163.810504,0.045166,-0.037186,0.982239,-0.046817,-0.022045,-3.1e-05,49.463272,35.43605,-140.45784,,,
729862781.998108,-2.51074,-2.447947,-163.81041,0.053329,-0.03389,0.982956,-0.046817,-0.022045,-3.1e-05,49.463272,35.43605,-140.45784,,,
729862782.001308,-2.525749,-2.45314,-163.810401,0.053329,-0.03389,0.982956,-0.055616,-0.009044,-6.2e-05,49.463272,35.43605,-140.45784,,,
729862782.004788,-2.525749,-2.45314,-163.810401,0.053329,-0.03389,0.982956,-0.055616,-0.009044,-6.2e-05,49.463272,35.43605,-140.45784,,,
729862782.008151,-2.541639,-2.457317,-163.810105,0.052673,-0.040451,0.993332,-0.055616,-0.009044,-6.2e-05,49.463272,35.43605,-140.45784,,,
729862782.011418,-2.558938,-2.459364,-163.809714,0.052673,-0.040451,0.993332,-0.048248,-0.005095,0.003333,49.463272,35.43605,-140.45784,,,
729862782.014748,-2.558938,-2.459364,-163.809714,0.052673,-0.040451,0.993332,-0.048248,-0.005095,0.003333,49.325409,35.502991,-140.324814,,,
729862782.017973,-2.573234,-2.461046,-163.809241,0.05246,-0.045578,1.004639,-0.048248,-0.005095,0.003333,49.325409,35.502991,-140.324814,,,
729862782.021436,-2.585537,-2.461022,-163.808419,0.05246,-0.045578,1.004639,-0.019586,0.004655,0.004539,49.325409,35.502991,-140.324814,,,
729862782.024777,-2.585537,-2.461022,-163.808419,0.05246,-0.045578,1.004639,-0.019586,0.004655,0.004539,49.325409,35.502991,-140.324814,,,
729862782.027857,-2.592574,-2.460637,-163.807326,0.054993,-0.0513,1.01593,-0.019586,0.004655,0.004539,49.325409,35.502991,-140.324814,,,
729862782.031449,-2.596732,-2.458863,-163.80657,0.054993,-0.0513,1.01593,-0.001136,-0.001912,-0.003997,49.325409,35.502991,-140.324814,,,
729862782.03469,-2.596732,-2.458863,-163.80657,0.054993,-0.0513,1.01593,-0.001136,-0.001912,-0.003997,49.325409,35.502991,-140.324814,,,
729862782.038102,-2.597835,-2.459485,-163.807214,0.055939,-0.050446,1.014008,-0.001136,-0.001912,-0.003997,49.325409,35.502991,-140.324814,,,
729862782.041425,-2.598438,-2.460549,-163.809547,0.055939,-0.050446,1.014008,0.008216,-0.019054,-0.018809,49.325409,35.502991,-140.324814,,,
729862782.044761,-2.598438,-2.460549,-163.809547,0.055939,-0.050446,1.014008,0.008216,-0.019054,-0.018809,49.325409,35.502991,-140.324814,,,
729862782.048171,-2.596898,-2.466109,-163.814021,0.058334,-0.041519,1.002167,0.008216,-0.019054,-0.018809,49.325409,35.502991,-140.324814,,,
729862782.051293,-2.595984,-2.471496,-163.819704,0.058334,-0.041519,1.002167,0.0012,-0.028812,-0.019192,49.325409,35.502991,-140.324814,,,
729862782.054781,-2.595984,-2.471496,-163.819704,0.058334,-0.041519,1.002167,0.0012,-0.028812,-0.019192,49.325409,35.502991,-140.324814,,,
729862782.058095,-2.595065,-2.480282,-163.825038,0.053116,-0.044189,0.9944,0.0012,-0.028812,-0.019192,49.507736,35.406158,-140.334457,,,
729862782.061419,-2.595325,-2.487469,-163.828918,0.053116,-0.044189,0.9944,-0.005338,-0.021218,-0.009701,49.507736,35.406158,-140.334457,,,
729862782.064772,-2.595325,-2.487469,-163.828918,0.053116,-0.044189,0.9944,-0.005338,-0.021218,-0.009701,49.507736,35.406158,-140.334457,,,
729862782.06797,-2.597854,-2.494893,-163.831843,0.04744,-0.044662,0.99559,-0.005338,-0.021218,-0.009701,49.507736,35.406158,-140.334457,,,
729862782.071437,-2.599113,-2.503047,-163.835059,0.04744,-0.044662,0.99559,-0.014329,-0.021091,-0.017899,49.507736,35.406158,-140.334457,,,
729862782.074813,-2.599113,-2.503047,-163.835059,0.04744,-0.044662,0.99559,-0.014329,-0.021091,-0.017899,49.507736,35.406158,-140.334457,,,
729862782.078094,-2.603196,-2.509932,-163.840131,0.052322,-0.041138,0.997147,-0.014329,-0.021091,-0.017899,49.507736,35.406158,-140.334457,,,
729862782.081425,-2.606142,-2.519577,-163.846352,0.052322,-0.041138,0.997147,-0.021089,-0.017465,-0.022603,49.507736,35.406158,-140.334457,,,
729862782.084641,-2.606142,-2.519577,-163.846352,0.052322,-0.041138,0.997147,-0.021089,-0.017465,-0.022603,49.507736,35.406158,-140.334457,,,
729862782.088176,-2.611762,-2.525714,-163.852296,0.054352,-0.040985,0.996765,-0.021089,-0.017465,-0.022603,49.507736,35.406158,-140.334457,,,
729862782.091414,-2.617526,-2.530322,-163.857928,0.054352,-0.040985,0.996765,-0.025123,0.012469,-0.014283,49.507736,35.406158,-140.334457,,,
729862782.094772,-2.617526,-2.530322,-163.857928,0.054352,-0.040985,0.996765,-0.025123,0.012469,-0.014283,49.507736,35.406158,-140.334457,,,
729862782.098098,-2.624394,-2.529188,-163.862299,0.049271,-0.045685,1.00354,-0.025123,0.012469,-0.014283,49.363434,35.574097,-140.644653,,,
729862782.101291,-2.631403,-2.527018,-163.865621,0.049271,-0.045685,1.00354,-0.018628,0.029404,-0.007615,49.363434,35.574097,-140.644653,,,
729862782.10483,-2.631403,-2.527018,-163.865621,0.049271,-0.045685,1.00354,-0.018628,0.029404,-0.007615,49.363434,35.574097,-140.644653,,,
729862782.108087,-2.637217,-2.520409,-163.867805,0.046616,-0.048767,1.008209,-0.018628,0.029404,-0.007615,49.363434,35.574097,-140.644653,,,
729862782.111423,-2.642332,-2.514577,-163.869497,0.046616,-0.048767,1.008209,-0.005873,0.033413,-0.007071,49.363434,35.574097,-140.644653,,,
729862782.114844,-2.642332,-2.514577,-163.869497,0.046616,-0.048767,1.008209,-0.005873,0.033413,-0.007071,49.363434,35.574097,-140.644653,,,
729862782.11797,-2.644326,-2.506035,-163.87126,0.043594,-0.049866,1.011871,-0.005873,0.033413,-0.007071,49.363434,35.574097,-140.644653,,,
729862782.121437,-2.644599,-2.50096,-163.873759,0.043594,-0.049866,1.011871,0.007595,0.028209,-0.008982,49.363434,35.574097,-140.644653,,,
729862782.124764,-2.644599,-2.50096,-163.873759,0.043594,-0.049866,1.011871,0.007595,0.028209,-0.008982,49.363434,35.574097,-140.644653,,,
729862782.128181,-2.64279,-2.493672,-163.875965,0.040817,-0.049805,1.009003,0.007595,0.028209,-0.008982,49.363434,35.574097,-140.644653,,,
729862782.131419,-2.638393,-2.491134,-163.877612,0.040817,-0.049805,1.009003,0.018088,0.017375,-0.00633,49.363434,35.574097,-140.644653,,,
729862782.134662,-2.638393,-2.491134,-163.877612,0.040817,-0.049805,1.009003,0.018088,0.017375,-0.00633,49.363434,35.574097,-140.644653,,,
729862782.138123,-2.633905,-2.486611,-163.878802,0.035355,-0.049057,1.00679,0.018088,0.017375,-0.00633,49.291702,35.635086,-140.382767,,,
729862782.141421,-2.627731,-2.48531,-163.879867,0.035355,-0.049057,1.00679,0.030059,0.001774,-0.006162,49.291702,35.635086,-140.382767,,,
729862782.144764,-2.627731,-2.48531,-163.879867,0.035355,-0.049057,1.00679,0.030059,0.001774,-0.006162,49.291702,35.635086,-140.382767,,,
729862782.148091,-2.619882,-2.48475,-163.880699,0.034515,-0.047272,1.005859,0.030059,0.001774,-0.006162,49.291702,35.635086,-140.382767,,,
729862782.151296,-2.611151,-2.488521,-163.882296,0.034515,-0.047272,1.005859,0.030894,-0.018322,-0.010636,49.291702,35.635086,-140.382767,,,
729862782.154772,-2.611151,-2.488521,-163.882296,0.034515,-0.047272,1.005859,0.030894,-0.018322,-0.010636,49.291702,35.635086,-140.382767,,,
729862782.158095,-2.602416,-2.493682,-163.884528,0.03717,-0.042511,0.997192,0.030894,-0.018322,-0.010636,49.291702,35.635086,-140.382767,,,
729862782.161421,-2.593738,-2.502797,-163.887365,0.03717,-0.042511,0.997192,0.014945,-0.024016,-0.013767,49.291702,35.635086,-140.382767,,,
729862782.16484,-2.593738,-2.502797,-163.887365,0.03717,-0.042511,0.997192,0.014945,-0.024016,-0.013767,49.291702,35.635086,-140.382767,,,
729862782.16797,-2.588646,-2.509959,-163.890964,0.042435,-0.036438,0.987869,0.014945,-0.024016,-0.013767,49.291702,35.635086,-140.382767,,,
729862782.171436,-2.585347,-2.519125,-163.894726,0.042435,-0.036438,0.987869,-0.003515,-0.019065,-0.011809,49.291702,35.635086,-140.382767,,,
729862782.174756,-2.585347,-2.519125,-163.894726,0.042435,-0.036438,0.987869,-0.003515,-0.019065,-0.011809,49.291702,35.635086,-140.382767,,,
729862782.178086,-2.585412,-2.525418,-163.897737,0.041794,-0.038147,0.986298,-0.003515,-0.019065,-0.011809,49.340881,35.588318,-140.46904,,,
729862782.181428,-2.587611,-2.531522,-163.900287,0.041794,-0.038147,0.986298,-0.01058,-0.007312,-0.008114,49.340881,35.588318,-140.46904,,,
729862782.184643,-2.587611,-2.531522,-163.900287,0.041794,-0.038147,0.986298,-0.01058,-0.007312,-0.008114,49.340881,35.588318,-140.46904,,,
729862782.188118,-2.589866,-2.534981,-163.902211,0.041534,-0.041489,0.99054,-0.01058,-0.007312,-0.008114,49.340881,35.588318,-140.46904,,,
729862782.191417,-2.591559,-2.536268,-163.903825,0.041534,-0.041489,0.99054,0.008722,0.012524,-0.003034,49.340881,35.588318,-140.46904,,,
729862782.194762,-2.591559,-2.536268,-163.903825,0.041534,-0.041489,0.99054,0.008722,0.012524,-0.003034,49.340881,35.588318,-140.46904,,,
729862782.198105,-2.590154,-2.533922,-163.905169,0.04126,-0.046371,1.008286,0.008722,0.012524,-0.003034,49.340881,35.588318,-140.46904,,,
729862782.20129,-2.586744,-2.52836,-163.905306,0.04126,-0.046371,1.008286,0.024969,0.025832,0.001285,49.340881,35.588318,-140.46904,,,
729862782.204827,-2.586744,-2.52836,-163.905306,0.04126,-0.046371,1.008286,0.024969,0.025832,0.001285,49.340881,35.588318,-140.46904,,,
729862782.208089,-2.580482,-2.52081,-163.903777,0.039139,-0.050339,1.015717,0.024969,0.025832,0.001285,49.340881,35.588318,-140.46904,,,
729862782.21142,-2.572815,-2.511743,-163.900576,0.039139,-0.050339,1.015717,0.038621,0.021221,0.008099,49.340881,35.588318,-140.46904,,,
729862782.214771,-2.572815,-2.511743,-163.900576,0.039139,-0.050339,1.015717,0.038621,0.021221,0.008099,49.340881,35.588318,-140.46904,,,
729862782.218002,-2.562563,-2.505676,-163.897054,0.036087,-0.050018,1.001999,0.038621,0.021221,0.008099,49.340881,35.588318,-140.46904,,,
729862782.221445,-2.552057,-2.500464,-163.89396,0.036087,-0.050018,1.001999,0.036715,0.001372,0.005616,49.276138,35.365433,-140.307388,,,
729862782.224769,-2.552057,-2.500464,-163.89396,0.036087,-0.050018,1.001999,0.036715,0.001372,0.005616,49.276138,35.365433,-140.307388,,,
729862782.228111,-2.541698,-2.500659,-163.891425,0.035522,-0.0392,0.983322,0.036715,0.001372,0.005616,49.276138,35.365433,-140.307388,,,
729862782.231427,-2.533756,-2.500911,-163.889177,0.035522,-0.0392,0.983322,0.015952,-0.011567,0.004845,49.276138,35.365433,-140.307388,,,
