Time (sec),Pitch (deg),Roll (deg),Yaw(deg),X-Acceleration (g),Y-Acceleration (g),Z-Acceleration (g),Pitch Rate (deg/sec),Roll Rate (deg/sec),Yaw Rate (deg/sec),Magnetic Field in X direction (uT),Magnetic Field in Y direction (uT),Magnetic Field in Z Direction (uT),Latitude (deg),Longitude (deg),Altitude (m)
729860609.602834,-0.190297,-4.552383,-28.929305,0.064499,-0.016312,1.013962,0.021914,-0.030845,0.014143,77.709946,3.942383,-147.966919,,,
729860609.606176,-0.190297,-4.552383,-28.929305,0.064499,-0.016312,1.013962,0.021914,-0.030845,0.014143,77.709946,3.942383,-147.966919,,,
729860609.609527,-0.184996,-4.556695,-28.923708,0.064499,-0.016312,1.013962,0.021914,-0.030845,0.014143,77.709946,3.942383,-147.966919,,,
729860609.612832,-0.180754,-4.560034,-28.917007,0.067657,-0.013,1.010498,0.017453,-0.005424,0.017738,77.709946,3.942383,-147.966919,,,
729860609.616187,-0.180754,-4.560034,-28.917007,0.067657,-0.013,1.010498,0.017453,-0.005424,0.017738,77.709946,3.942383,-147.966919,,,
729860609.619512,-0.179562,-4.556843,-28.909472,0.067657,-0.013,1.010498,0.017453,-0.005424,0.017738,77.709946,3.942383,-147.966919,,,
729860609.622833,-0.179759,-4.553388,-28.900498,0.067703,-0.010529,1.003906,-0.00105,0.016367,0.028988,77.709946,3.942383,-147.966919,,,
729860609.626244,-0.179759,-4.553388,-28.900498,0.067703,-0.010529,1.003906,-0.00105,0.016367,0.028988,77.709946,3.942383,-147.966919,,,
729860609.629516,-0.183662,-4.544345,-28.889925,0.067703,-0.010529,1.003906,-0.00105,0.016367,0.028988,77.709946,3.942383,-147.966919,,,
729860609.632828,-0.188642,-4.539129,-28.878193,0.064194,-0.010223,0.993073,-0.015259,0.020576,0.042509,77.709946,3.942383,-147.966919,,,
729860609.636197,-0.188642,-4.539129,-28.878193,0.064194,-0.010223,0.993073,-0.015259,0.020576,0.042509,77.709946,3.942383,-147.966919,,,
729860609.639569,-0.196929,-4.532203,-28.864909,0.064194,-0.010223,0.993073,-0.015259,0.020576,0.042509,77.644547,4.235107,-148.027328,,,
729860609.642821,-0.204929,-4.532088,-28.849777,0.062759,-0.009354,0.986389,-0.021514,-0.002674,0.051819,77.644547,4.235107,-148.027328,,,
729860609.646179,-0.204929,-4.532088,-28.849777,0.062759,-0.009354,0.986389,-0.021514,-0.002674,0.051819,77.644547,4.235107,-148.027328,,,
729860609.649529,-0.214182,-4.534197,-28.833872,0.062759,-0.009354,0.986389,-0.021514,-0.002674,0.051819,77.644547,4.235107,-148.027328,,,
729860609.652831,-0.221445,-4.546015,-28.818182,0.067078,-0.006256,0.980225,-0.017459,-0.045915,0.053389,77.644547,4.235107,-148.027328,,,
729860609.656182,-0.221445,-4.546015,-28.818182,0.067078,-0.006256,0.980225,-0.017459,-0.045915,0.053389,77.644547,4.235107,-148.027328,,,
729860609.659511,-0.228326,-4.560454,-28.803039,0.067078,-0.006256,0.980225,-0.017459,-0.045915,0.053389,77.644547,4.235107,-148.027328,,,
729860609.662824,-0.230988,-4.583764,-28.78908,0.078262,-0.00264,0.97821,-0.002996,-0.080376,0.047295,77.644547,4.235107,-148.027328,,,
729860609.666247,-0.230988,-4.583764,-28.78908,0.078262,-0.00264,0.97821,-0.002996,-0.080376,0.047295,77.644547,4.235107,-148.027328,,,
729860609.669485,-0.233366,-4.605565,-28.777147,0.078262,-0.00264,0.97821,-0.002996,-0.080376,0.047295,77.644547,4.235107,-148.027328,,,
729860609.672836,-0.233095,-4.631329,-28.768051,0.091827,-0.002396,0.991043,0.002481,-0.086846,0.027731,77.644547,4.235107,-148.027328,,,
729860609.676185,-0.233095,-4.631329,-28.768051,0.091827,-0.002396,0.991043,0.002481,-0.086846,0.027731,77.644547,4.235107,-148.027328,,,
729860609.679578,-0.233245,-4.650188,-28.762019,0.091827,-0.002396,0.991043,0.002481,-0.086846,0.027731,77.238403,4.067017,-147.991257,,,
729860609.682829,-0.233137,-4.667545,-28.759044,0.108673,-0.000198,1.001251,-0.00167,-0.050254,0.005227,77.238403,4.067017,-147.991257,,,
729860609.686167,-0.233137,-4.667545,-28.759044,0.108673,-0.000198,1.001251,-0.00167,-0.050254,0.005227,77.238403,4.067017,-147.991257,,,
729860609.689508,-0.236405,-4.671608,-28.759005,0.108673,-0.000198,1.001251,-0.00167,-0.050254,0.005227,77.238403,4.067017,-147.991257,,,
729860609.692836,-0.240925,-4.668967,-28.761351,0.117767,-0.000473,1.014786,-0.018706,0.023603,-0.01088,77.238403,4.067017,-147.991257,,,
729860609.69618,-0.240925,-4.668967,-28.761351,0.117767,-0.000473,1.014786,-0.018706,0.023603,-0.01088,77.238403,4.067017,-147.991257,,,
729860609.699527,-0.249068,-4.652008,-28.765002,0.117767,-0.000473,1.014786,-0.018706,0.023603,-0.01088,77.238403,4.067017,-147.991257,,,
729860609.702863,-0.258138,-4.629652,-28.767731,0.110855,-0.003952,1.028198,-0.032975,0.088964,-0.004849,77.238403,4.067017,-147.991257,,,
729860609.706163,-0.258138,-4.629652,-28.767731,0.110855,-0.003952,1.028198,-0.032975,0.088964,-0.004849,77.238403,4.067017,-147.991257,,,
729860609.709508,-0.267422,-4.598371,-28.76817,0.110855,-0.003952,1.028198,-0.032975,0.088964,-0.004849,77.238403,4.067017,-147.991257,,,
729860609.712838,-0.274605,-4.570538,-28.76613,0.093079,-0.011108,1.030197,-0.02338,0.101662,0.008874,77.238403,4.067017,-147.991257,,,
729860609.716191,-0.274605,-4.570538,-28.76613,0.093079,-0.011108,1.030197,-0.02338,0.101662,0.008874,77.238403,4.067017,-147.991257,,,
729860609.719529,-0.279547,-4.542709,-28.761277,0.093079,-0.011108,1.030197,-0.02338,0.101662,0.008874,77.603409,3.913696,-147.909622,,,
729860609.722832,-0.279816,-4.52534,-28.754206,0.077881,-0.016907,1.020477,0.006256,0.059101,0.024108,77.603409,3.913696,-147.909622,,,
729860609.726176,-0.279816,-4.52534,-28.754206,0.077881,-0.016907,1.020477,0.006256,0.059101,0.024108,77.603409,3.913696,-147.909622,,,
729860609.72952,-0.275347,-4.512829,-28.745114,0.077881,-0.016907,1.020477,0.006256,0.059101,0.024108,77.603409,3.913696,-147.909622,,,
729860609.732833,-0.264354,-4.513078,-28.734957,0.071106,-0.01358,1.012604,0.04579,-0.005636,0.030507,77.603409,3.913696,-147.909622,,,
729860609.736164,-0.264354,-4.513078,-28.734957,0.071106,-0.01358,1.012604,0.04579,-0.005636,0.030507,77.603409,3.913696,-147.909622,,,
729860609.739511,-0.247776,-4.521532,-28.725467,0.071106,-0.01358,1.012604,0.04579,-0.005636,0.030507,77.603409,3.913696,-147.909622,,,
729860609.742833,-0.227331,-4.53899,-28.717358,0.072113,-0.006989,1.009003,0.078303,-0.061022,0.021677,77.603409,3.913696,-147.909622,,,
729860609.746243,-0.227331,-4.53899,-28.717358,0.072113,-0.006989,1.009003,0.078303,-0.061022,0.021677,77.603409,3.913696,-147.909622,,,
729860609.749504,-0.204251,-4.56395,-28.71015,0.072113,-0.006989,1.009003,0.078303,-0.061022,0.021677,77.603409,3.913696,-147.909622,,,
729860609.752835,-0.180492,-4.588547,-28.703999,0.083511,-0.001282,0.999481,0.087997,-0.084434,0.012382,77.603409,3.913696,-147.909622,,,
729860609.756179,-0.180492,-4.588547,-28.703999,0.083511,-0.001282,0.999481,0.087997,-0.084434,0.012382,77.603409,3.913696,-147.909622,,,
729860609.759497,-0.156573,-4.617833,-28.698403,0.083511,-0.001282,0.999481,0.087997,-0.084434,0.012382,77.491501,3.838394,-148.047134,,,
729860609.762845,-0.13317,-4.638696,-28.692571,0.090958,0.00116,0.992752,0.084677,-0.066047,0.01188,77.491501,3.838394,-148.047134,,,
729860609.766193,-0.13317,-4.638696,-28.692571,0.090958,0.00116,0.992752,0.084677,-0.066047,0.01188,77.491501,3.838394,-148.047134,,,
729860609.769528,-0.11139,-4.662699,-28.686831,0.090958,0.00116,0.992752,0.084677,-0.066047,0.01188,77.491501,3.838394,-148.047134,,,
729860609.772839,-0.093114,-4.672185,-28.680851,0.094284,0.000519,0.987061,0.063794,-0.02598,0.015715,77.491501,3.838394,-148.047134,,,
729860609.776183,-0.093114,-4.672185,-28.680851,0.094284,0.000519,0.987061,0.063794,-0.02598,0.015715,77.491501,3.838394,-148.047134,,,
729860609.779518,-0.07894,-4.683759,-28.675031,0.094284,0.000519,0.987061,0.063794,-0.02598,0.015715,77.491501,3.838394,-148.047134,,,
729860609.782833,-0.069752,-4.682362,-28.669842,0.097672,0.004974,0.971558,0.028075,0.011975,0.013387,77.491501,3.838394,-148.047134,,,
729860609.786168,-0.069752,-4.682362,-28.669842,0.097672,0.004974,0.971558,0.028075,0.011975,0.013387,77.491501,3.838394,-148.047134,,,
729860609.789509,-0.066912,-4.680245,-28.665995,0.097672,0.004974,0.971558,0.028075,0.011975,0.013387,77.491501,3.838394,-148.047134,,,
729860609.792834,-0.068845,-4.669942,-28.663906,0.099823,0.010574,0.957352,-0.011061,0.041977,0.004712,77.491501,3.838394,-148.047134,,,
729860609.796192,-0.068845,-4.669942,-28.663906,0.099823,0.010574,0.957352,-0.011061,0.041977,0.004712,77.491501,3.838394,-148.047134,,,
729860609.799547,-0.07665,-4.655881,-28.662864,0.099823,0.010574,0.957352,-0.011061,0.041977,0.004712,77.491501,3.838394,-148.047134,,,
729860609.80285,-0.085586,-4.641686,-28.663201,0.097076,0.012634,0.955811,-0.033743,0.053912,-0.002899,77.486252,3.867813,-147.979477,,,
729860609.806192,-0.085586,-4.641686,-28.663201,0.097076,0.012634,0.955811,-0.033743,0.053912,-0.002899,77.486252,3.867813,-147.979477,,,
729860609.80951,-0.096949,-4.627069,-28.664392,0.097076,0.012634,0.955811,-0.033743,0.053912,-0.002899,77.486252,3.867813,-147.979477,,,
729860609.812839,-0.106887,-4.617075,-28.666089,0.092072,0.009247,0.962067,-0.032071,0.034185,-0.005203,77.486252,3.867813,-147.979477,,,
729860609.816194,-0.106887,-4.617075,-28.666089,0.092072,0.009247,0.962067,-0.032071,0.034185,-0.005203,77.486252,3.867813,-147.979477,,,
729860609.8195,-0.115494,-4.610678,-28.668984,0.092072,0.009247,0.962067,-0.032071,0.034185,-0.005203,77.486252,3.867813,-147.979477,,,
729860609.822832,-0.119863,-4.613032,-28.6729,0.082672,0.003799,0.971405,-0.01451,-0.01064,-0.016085,77.486252,3.867813,-147.979477,,,
729860609.826233,-0.119863,-4.613032,-28.6729,0.082672,0.003799,0.971405,-0.01451,-0.01064,-0.016085,77.486252,3.867813,-147.979477,,,
729860609.8295,-0.119762,-4.62137,-28.677616,0.082672,0.003799,0.971405,-0.01451,-0.01064,-0.016085,77.486252,3.867813,-147.979477,,,
729860609.832833,-0.113935,-4.634788,-28.683806,0.08548,0.000122,0.982925,0.025049,-0.045901,-0.026455,77.486252,3.867813,-147.979477,,,
729860609.836186,-0.113935,-4.634788,-28.683806,0.08548,0.000122,0.982925,0.025049,-0.045901,-0.026455,77.486252,3.867813,-147.979477,,,
729860609.839498,-0.103027,-4.652462,-28.691457,0.08548,0.000122,0.982925,0.025049,-0.045901,-0.026455,77.486252,3.867813,-147.979477,,,
729860609.84284,-0.090059,-4.669591,-28.699299,0.082764,-0.000519,0.996902,0.045656,-0.059914,-0.030334,77.415024,3.844406,-148.205658,,,
729860609.846185,-0.090059,-4.669591,-28.699299,0.082764,-0.000519,0.996902,0.045656,-0.059914,-0.030334,77.415024,3.844406,-148.205658,,,
729860609.849586,-0.076966,-4.688126,-28.706809,0.082764,-0.000519,0.996902,0.045656,-0.059914,-0.030334,77.415024,3.844406,-148.205658,,,
729860609.852824,-0.06628,-4.702976,-28.713645,0.080734,0.00177,0.983215,0.032788,-0.048092,-0.030282,77.415024,3.844406,-148.205658,,,
729860609.856177,-0.06628,-4.702976,-28.713645,0.080734,0.00177,0.983215,0.032788,-0.048092,-0.030282,77.415024,3.844406,-148.205658,,,
729860609.85951,-0.060454,-4.716927,-28.720134,0.080734,0.00177,0.983215,0.032788,-0.048092,-0.030282,77.415024,3.844406,-148.205658,,,
729860609.862836,-0.062454,-4.720487,-28.726439,0.080383,0.003632,0.96965,-0.016433,-0.003548,-0.021251,77.415024,3.844406,-148.205658,,,
729860609.86618,-0.062454,-4.720487,-28.726439,0.080383,0.003632,0.96965,-0.016433,-0.003548,-0.021251,77.415024,3.844406,-148.205658,,,
729860609.869502,-0.071273,-4.720367,-28.732393,0.080383,0.003632,0.96965,-0.016433,-0.003548,-0.021251,77.415024,3.844406,-148.205658,,,
729860609.872834,-0.088893,-4.707112,-28.738273,0.081467,0.007507,0.966614,-0.067476,0.057385,-0.018483,77.415024,3.844406,-148.205658,,,
729860609.876234,-0.088893,-4.707112,-28.738273,0.081467,0.007507,0.966614,-0.067476,0.057385,-0.018483,77.415024,3.844406,-148.205658,,,
729860609.879513,-0.112491,-4.690399,-28.743211,0.081467,0.007507,0.966614,-0.067476,0.057385,-0.018483,77.415024,3.844406,-148.205658,,,
729860609.88283,-0.14331,-4.665484,-28.746809,0.076035,0.005341,0.972473,-0.111854,0.093465,-0.00394,77.337845,4.109146,-148.152161,,,
729860609.886166,-0.14331,-4.665484,-28.746809,0.076035,0.005341,0.972473,-0.111854,0.093465,-0.00394,77.337845,4.109146,-148.152161,,,
729860609.8895,-0.176934,-4.641012,-28.749108,0.076035,0.005341,0.972473,-0.111854,0.093465,-0.00394,77.337845,4.109146,-148.152161,,,
729860609.892824,-0.212479,-4.615991,-28.749494,0.064438,-0.000916,0.98317,-0.120645,0.085484,0.007169,77.337845,4.109146,-148.152161,,,
729860609.896176,-0.212479,-4.615991,-28.749494,0.064438,-0.000916,0.98317,-0.120645,0.085484,0.007169,77.337845,4.109146,-148.152161,,,
729860609.899561,-0.245191,-4.598003,-28.74849,0.064438,-0.000916,0.98317,-0.120645,0.085484,0.007169,77.337845,4.109146,-148.152161,,,
729860609.90288,-0.273604,-4.587993,-28.74634,0.056839,-0.009537,0.995117,-0.09129,0.031275,0.013959,77.337845,4.109146,-148.152161,,,
729860609.906195,-0.273604,-4.587993,-28.74634,0.056839,-0.009537,0.995117,-0.09129,0.031275,0.013959,77.337845,4.109146,-148.152161,,,
729860609.909517,-0.295192,-4.588234,-28.743835,0.056839,-0.009537,0.995117,-0.09129,0.031275,0.013959,77.337845,4.109146,-148.152161,,,
729860609.912852,-0.295192,-4.588234,-28.743835,0.061401,-0.015579,1.013779,-0.039994,-0.035147,0.005791,77.337845,4.109146,-148.152161,,,
729860609.916182,-0.309445,-4.596894,-28.742637,0.061401,-0.015579,1.013779,-0.039994,-0.035147,0.005791,77.337845,4.109146,-148.152161,,,
729860609.91951,-0.315615,-4.613014,-28.742602,0.061401,-0.015579,1.013779,-0.039994,-0.035147,0.005791,77.337845,4.109146,-148.152161,,,
729860609.922866,-0.315615,-4.633605,-28.743451,0.069321,-0.015427,1.030777,0.011169,-0.073142,-0.006615,77.551132,4.364395,-148.154663,,,
729860609.926249,-0.314389,-4.633605,-28.743451,0.069321,-0.015427,1.030777,0.011169,-0.073142,-0.006615,77.551132,4.364395,-148.154663,,,
729860609.929501,-0.306763,-4.657228,-28.74524,0.069321,-0.015427,1.030777,0.011169,-0.073142,-0.006615,77.551132,4.364395,-148.154663,,,
729860609.93284,-0.306763,-4.657228,-28.74524,0.069321,-0.015427,1.032898,0.040555,-0.076362,-0.013349,77.551132,4.364395,-148.154663,,,
729860609.936243,-0.2962,-4.680173,-28.747331,0.075806,-0.015945,1.032898,0.040555,-0.076362,-0.013349,77.551132,4.364395,-148.154663,,,
729860609.9395,-0.282752,-4.700828,-28.749264,0.075806,-0.015945,1.032898,0.040555,-0.076362,-0.013349,77.551132,4.364395,-148.154663,,,
729860609.942921,-0.269052,-4.716469,-28.750837,0.079666,-0.014801,1.027756,0.048922,-0.047365,-0.013734,77.551132,4.364395,-148.154663,,,
729860609.946176,-0.269052,-4.716469,-28.750837,0.079666,-0.014801,1.027756,0.048922,-0.047365,-0.013734,77.551132,4.364395,-148.154663,,,
729860609.949504,-0.255159,-4.725826,-28.751674,0.079666,-0.014801,1.027756,0.048922,-0.047365,-0.013734,77.551132,4.364395,-148.154663,,,
729860609.952891,-0.255159,-4.728789,-28.751397,0.078461,-0.01207,1.022446,0.039286,-0.003466,-0.00217,77.551132,4.364395,-148.154663,,,
729860609.956188,-0.243493,-4.728789,-28.751397,0.078461,-0.01207,1.022446,0.039286,-0.003466,-0.00217,77.551132,4.364395,-148.154663,,,
729860609.959367,-0.232817,-4.726486,-28.749647,0.078461,-0.01207,1.022446,0.039286,-0.003466,-0.00217,77.551132,4.364395,-148.154663,,,
729860609.962901,-0.232817,-4.726486,-28.749647,0.078949,-0.008057,1.008759,0.025817,0.026166,0.010154,77.551132,4.364395,-148.154663,,,
729860609.966241,-0.225247,-4.720646,-28.746372,0.078949,-0.008057,1.008759,0.025817,0.026166,0.010154,77.342255,4.071808,-147.996292,,,
729860609.969512,-0.220322,-4.710236,-28.742249,0.078949,-0.008057,1.008759,0.025817,0.026166,0.010154,77.342255,4.071808,-147.996292,,,
729860609.97284,-0.220322,-4.710236,-28.742249,0.078949,-0.008057,1.008759,0.004588,0.033015,0.016074,77.342255,4.071808,-147.996292,,,
729860609.976187,-0.218835,-4.701761,-28.73763,0.075958,-0.004761,0.991562,0.004588,0.033015,0.016074,77.342255,4.071808,-147.996292,,,
729860609.979505,-0.220291,-4.689537,-28.732559,0.075958,-0.004761,0.991562,0.004588,0.033015,0.016074,77.342255,4.071808,-147.996292,,,
729860609.98286,-0.220291,-4.689537,-28.732559,0.075958,-0.004761,0.991562,-0.009801,0.014322,0.018587,77.342255,4.071808,-147.996292,,,
729860609.986172,-0.223601,-4.68582,-28.726903,0.074585,-0.003052,0.980591,-0.009801,0.014322,0.018587,77.342255,4.071808,-147.996292,,,
729860609.989506,-0.228681,-4.681379,-28.721257,0.074585,-0.003052,0.980591,-0.009801,0.014322,0.018587,77.342255,4.071808,-147.996292,,,
729860609.992929,-0.228681,-4.681379,-28.721257,0.074982,-0.001144,0.973038,-0.016023,-0.020253,0.018203,77.342255,4.071808,-147.996292,,,
729860609.996171,-0.233487,-4.686898,-28.7163,0.074982,-0.001144,0.973038,-0.016023,-0.020253,0.018203,77.342255,4.071808,-147.996292,,,
729860609.999508,-0.239369,-4.693856,-28.711686,0.074982,-0.001144,0.973038,-0.016023,-0.020253,0.018203,77.342255,4.071808,-147.996292,,,
729860610.002857,-0.239369,-4.693856,-28.711686,0.074982,-0.001144,0.973038,-0.016023,-0.020253,0.018203,77.342255,4.071808,-147.996292,,,
729860610.00618,-0.242485,-4.707702,-28.707644,0.077591,-0.004471,0.974396,-0.008367,-0.047432,0.014418,77.405991,4.251251,-148.368362,,,
729860610.009543,-0.243416,-4.720905,-28.703394,0.077591,-0.004471,0.974396,-0.008367,-0.047432,0.014418,77.405991,4.251251,-148.368362,,,
729860610.012902,-0.243416,-4.720905,-28.703394,0.077591,-0.004471,0.974396,-0.008367,-0.047432,0.014418,77.405991,4.251251,-148.368362,,,
729860610.016228,-0.239789,-4.736497,-28.698811,0.07692,-0.007706,0.991028,0.01769,-0.05216,0.013585,77.405991,4.251251,-148.368362,,,
729860610.0195,-0.233989,-4.750514,-28.693717,0.07692,-0.007706,0.991028,0.01769,-0.05216,0.013585,77.405991,4.251251,-148.368362,,,
729860610.022894,-0.233989,-4.750514,-28.693717,0.07692,-0.007706,0.991028,0.01769,-0.05216,0.013585,77.405991,4.251251,-148.368362,,,
729860610.026183,-0.224595,-4.764744,-28.687588,0.080093,-0.012451,1.003082,0.037641,-0.045659,0.016964,77.405991,4.251251,-148.368362,,,
729860610.02951,-0.213612,-4.77489,-28.680904,0.080093,-0.012451,1.003082,0.037641,-0.045659,0.016964,77.405991,4.251251,-148.368362,,,
729860610.032872,-0.213612,-4.77489,-28.680904,0.080093,-0.012451,1.003082,0.037641,-0.045659,0.016964,77.405991,4.251251,-148.368362,,,
729860610.036168,-0.19987,-4.783469,-28.673961,0.087601,-0.013596,1.004944,0.050808,-0.023648,0.01725,77.405991,4.251251,-148.368362,,,
729860610.03951,-0.186844,-4.786729,-28.667486,0.087601,-0.013596,1.004944,0.050808,-0.023648,0.01725,77.405991,4.251251,-148.368362,,,
729860610.042928,-0.186844,-4.786729,-28.667486,0.087601,-0.013596,1.004944,0.050808,-0.023648,0.01725,77.405991,4.251251,-148.368362,,,
729860610.04616,-0.173956,-4.787153,-28.662468,0.09314,-0.005615,1.000778,0.044626,0.006719,0.012215,77.276505,4.255417,-147.933975,,,
729860610.049502,-0.164081,-4.782098,-28.659115,0.09314,-0.005615,1.000778,0.044626,0.006719,0.012215,77.276505,4.255417,-147.933975,,,
729860610.052849,-0.164081,-4.782098,-28.659115,0.09314,-0.005615,1.000778,0.044626,0.006719,0.012215,77.276505,4.255417,-147.933975,,,
729860610.056276,-0.158389,-4.775564,-28.656993,0.097168,0.002243,0.986633,0.014068,0.026389,0.003186,77.276505,4.255417,-147.933975,,,
729860610.0595,-0.157965,-4.765672,-28.656423,0.097168,0.002243,0.986633,0.014068,0.026389,0.003186,77.276505,4.255417,-147.933975,,,
729860610.062912,-0.157965,-4.765672,-28.656423,0.097168,0.002243,0.986633,0.014068,0.026389,0.003186,77.276505,4.255417,-147.933975,,,
729860610.066172,-0.1627,-4.757345,-28.657461,0.092545,0.004745,0.967789,-0.021849,0.032777,-0.003376,77.276505,4.255417,-147.933975,,,
729860610.069513,-0.171992,-4.74848,-28.659143,0.092545,0.004745,0.967789,-0.021849,0.032777,-0.003376,77.276505,4.255417,-147.933975,,,
729860610.072906,-0.171992,-4.74848,-28.659143,0.092545,0.004745,0.967789,-0.021849,0.032777,-0.003376,77.276505,4.255417,-147.933975,,,
729860610.076175,-0.185267,-4.742704,-28.661461,0.087616,0.001999,0.959137,-0.049045,0.021028,-0.00479,77.276505,4.255417,-147.933975,,,
729860610.079513,-0.200732,-4.737998,-28.664473,0.087616,0.001999,0.959137,-0.049045,0.021028,-0.00479,77.276505,4.255417,-147.933975,,,
729860610.082963,-0.200732,-4.737998,-28.664473,0.087616,0.001999,0.959137,-0.049045,0.021028,-0.00479,77.276505,4.255417,-147.933975,,,
729860610.086165,-0.21632,-4.735465,-28.667195,0.080795,-0.003922,0.968842,-0.053484,0.010714,-0.004229,77.276505,4.255417,-147.933975,,,
729860610.089514,-0.230634,-4.7331,-28.668955,0.080795,-0.003922,0.968842,-0.053484,0.010714,-0.004229,77.31134,4.187973,-148.145905,,,
729860610.092891,-0.230634,-4.7331,-28.668955,0.080795,-0.003922,0.968842,-0.053484,0.010714,-0.004229,77.31134,4.187973,-148.145905,,,
729860610.096227,-0.240832,-4.733811,-28.669236,0.073624,-0.010941,0.995132,-0.032708,-8.8e-05,0.000749,77.31134,4.187973,-148.145905,,,
729860610.09951,-0.245626,-4.735521,-28.667264,0.073624,-0.010941,0.995132,-0.032708,-8.8e-05,0.000749,77.31134,4.187973,-148.145905,,,
729860610.102968,-0.245626,-4.735521,-28.667264,0.073624,-0.010941,0.995132,-0.032708,-8.8e-05,0.000749,77.31134,4.187973,-148.145905,,,
729860610.106155,-0.242662,-4.740433,-28.663302,0.070496,-0.017212,1.019745,0.018713,-0.017031,0.011702,77.31134,4.187973,-148.145905,,,
729860610.10951,-0.233948,-4.74686,-28.658105,0.070496,-0.017212,1.019745,0.018713,-0.017031,0.011702,77.31134,4.187973,-148.145905,,,
729860610.112882,-0.233948,-4.74686,-28.658105,0.070496,-0.017212,1.019745,0.018713,-0.017031,0.011702,77.31134,4.187973,-148.145905,,,
729860610.116183,-0.217905,-4.753611,-28.652027,0.072647,-0.019882,1.03363,0.062409,-0.022592,0.014411,77.31134,4.187973,-148.145905,,,
729860610.119512,-0.198163,-4.762652,-28.646009,0.072647,-0.019882,1.03363,0.062409,-0.022592,0.014411,77.31134,4.187973,-148.145905,,,
729860610.12295,-0.198163,-4.762652,-28.646009,0.072647,-0.019882,1.03363,0.062409,-0.022592,0.014411,77.31134,4.187973,-148.145905,,,
729860610.126174,-0.176234,-4.769009,-28.640675,0.078583,-0.013,1.026199,0.078859,-0.016449,0.011123,77.31134,4.187973,-148.145905,,,
729860610.129511,-0.154108,-4.777564,-28.635907,0.078583,-0.013,1.026199,0.078859,-0.016449,0.011123,77.547226,3.836639,-147.892258,,,
729860610.132849,-0.154108,-4.777564,-28.635907,0.078583,-0.013,1.026199,0.078859,-0.016449,0.011123,77.547226,3.836639,-147.892258,,,
729860610.136191,-0.134801,-4.781941,-28.632397,0.084122,-0.003571,1.004974,0.065711,-0.009702,0.004206,77.547226,3.836639,-147.892258,,,
729860610.139602,-0.119072,-4.788366,-28.630277,0.084122,-0.003571,1.004974,0.065711,-0.009702,0.004206,77.547226,3.836639,-147.892258,,,
729860610.142832,-0.119072,-4.788366,-28.630277,0.084122,-0.003571,1.004974,0.065711,-0.009702,0.004206,77.547226,3.836639,-147.892258,,,
729860610.146171,-0.109702,-4.791345,-28.629233,0.084457,0.00296,0.980179,0.026109,-0.007421,-0.001614,77.547226,3.836639,-147.892258,,,
729860610.14951,-0.106253,-4.796287,-28.629302,0.084457,0.00296,0.980179,0.026109,-0.007421,-0.001614,77.547226,3.836639,-147.892258,,,
729860610.152849,-0.106253,-4.796287,-28.629302,0.084457,0.00296,0.980179,0.026109,-0.007421,-0.001614,77.547226,3.836639,-147.892258,,,
729860610.15625,-0.109187,-4.799339,-28.630282,0.081757,0.008713,0.959473,-0.01782,-0.00556,-0.006267,77.547226,3.836639,-147.892258,,,
729860610.159524,-0.117682,-4.802906,-28.63182,0.081757,0.008713,0.959473,-0.01782,-0.00556,-0.006267,77.547226,3.836639,-147.892258,,,
729860610.162953,-0.117682,-4.802906,-28.63182,0.081757,0.008713,0.959473,-0.01782,-0.00556,-0.006267,77.547226,3.836639,-147.892258,,,
729860610.166199,-0.130228,-4.805708,-28.633485,0.078217,0.005951,0.961624,-0.045178,-0.005121,-0.001664,77.547226,3.836639,-147.892258,,,
729860610.169519,-0.145249,-4.80666,-28.634274,0.078217,0.005951,0.961624,-0.045178,-0.005121,-0.001664,77.309814,3.901703,-147.792145,,,
729860610.172862,-0.145249,-4.80666,-28.634274,0.078217,0.005951,0.961624,-0.045178,-0.005121,-0.001664,77.309814,3.901703,-147.792145,,,
729860610.176255,-0.159503,-4.808563,-28.632682,0.070831,-0.001953,0.982513,-0.048949,-0.003045,0.01042,77.309814,3.901703,-147.792145,,,
729860610.179508,-0.173471,-4.808176,-28.62856,0.070831,-0.001953,0.982513,-0.048949,-0.003045,0.01042,77.309814,3.901703,-147.792145,,,
729860610.182856,-0.173471,-4.808176,-28.62856,0.070831,-0.001953,0.982513,-0.048949,-0.003045,0.01042,77.309814,3.901703,-147.792145,,,
729860610.186182,-0.184369,-4.81257,-28.622058,0.067627,-0.009308,1.001968,-0.03153,-0.01213,0.028066,77.309814,3.901703,-147.792145,,,
729860610.189503,-0.192963,-4.816362,-28.613441,0.067627,-0.009308,1.001968,-0.03153,-0.01213,0.028066,77.309814,3.901703,-147.792145,,,
729860610.19284,-0.192963,-4.816362,-28.613441,0.067627,-0.009308,1.001968,-0.03153,-0.01213,0.028066,77.309814,3.901703,-147.792145,,,
729860610.196213,-0.195883,-4.824526,-28.604143,0.073914,-0.013107,1.008133,-0.004523,-0.024801,0.032428,77.309814,3.901703,-147.792145,,,
729860610.199547,-0.195429,-4.831455,-28.595734,0.073914,-0.013107,1.008133,-0.004523,-0.024801,0.032428,77.309814,3.901703,-147.792145,,,
729860610.202851,-0.195429,-4.831455,-28.595734,0.073914,-0.013107,1.008133,-0.004523,-0.024801,0.032428,77.309814,3.901703,-147.792145,,,
729860610.206194,-0.189966,-4.839876,-28.589577,0.088104,-0.006317,1.015137,0.02495,-0.025988,0.017476,77.309814,3.901703,-147.792145,,,
729860610.209507,-0.182339,-4.846364,-28.585959,0.088104,-0.006317,1.015137,0.02495,-0.025988,0.017476,77.483047,4.075043,-148.105652,,,
729860610.212858,-0.182339,-4.846364,-28.585959,0.088104,-0.006317,1.015137,0.02495,-0.025988,0.017476,77.483047,4.075043,-148.105652,,,
729860610.216231,-0.172982,-4.851764,-28.584511,0.09462,-0.001114,1.011978,0.035437,-0.015803,-0.000566,77.483047,4.075043,-148.105652,,,
729860610.219609,-0.163915,-4.855286,-28.584676,0.09462,-0.001114,1.011978,0.035437,-0.015803,-0.000566,77.483047,4.075043,-148.105652,,,
729860610.222949,-0.163915,-4.855286,-28.584676,0.09462,-0.001114,1.011978,0.035437,-0.015803,-0.000566,77.483047,4.075043,-148.105652,,,
729860610.226204,-0.157839,-4.856787,-28.585841,0.094376,0.002579,0.996628,0.018285,-0.000699,-0.008664,77.483047,4.075043,-148.105652,,,
729860610.229518,-0.154357,-4.856676,-28.587339,0.094376,0.002579,0.996628,0.018285,-0.000699,-0.008664,77.483047,4.075043,-148.105652,,,
729860610.232839,-0.154357,-4.856676,-28.587339,0.094376,0.002579,0.996628,0.018285,-0.000699,-0.008664,77.483047,4.075043,-148.105652,,,
729860610.236176,-0.156119,-4.854842,-28.58852,0.08902,0.002029,0.982819,-0.009536,0.009466,-0.000993,77.483047,4.075043,-148.105652,,,
729860610.239508,-0.160546,-4.852,-28.588424,0.08902,0.002029,0.982819,-0.009536,0.009466,-0.000993,77.483047,4.075043,-148.105652,,,
729860610.242957,-0.160546,-4.852,-28.588424,0.08902,0.002029,0.982819,-0.009536,0.009466,-0.000993,77.483047,4.075043,-148.105652,,,
729860610.246191,-0.168487,-4.850175,-28.586837,0.080383,-0.001419,0.977264,-0.031623,0.010931,0.004408,77.483047,4.075043,-148.105652,,,
729860610.249517,-0.177964,-4.84828,-28.584197,0.080383,-0.001419,0.977264,-0.031623,0.010931,0.004408,77.483047,4.075043,-148.105652,,,
729860610.252859,-0.177964,-4.84828,-28.584197,0.080383,-0.001419,0.977264,-0.031623,0.010931,0.004408,77.281387,4.093292,-147.689331,,,
729860610.256234,-0.189203,-4.850835,-28.580338,0.073959,-0.004059,0.97612,-0.039795,-0.005212,0.014615,77.281387,4.093292,-147.689331,,,
729860610.259508,-0.201152,-4.852858,-28.575814,0.073959,-0.004059,0.97612,-0.039795,-0.005212,0.014615,77.281387,4.093292,-147.689331,,,
729860610.262914,-0.201152,-4.852858,-28.575814,0.073959,-0.004059,0.97612,-0.039795,-0.005212,0.014615,77.281387,4.093292,-147.689331,,,
729860610.266198,-0.211625,-4.861968,-28.571048,0.074112,-0.005905,0.983688,-0.03196,-0.033793,0.017778,77.281387,4.093292,-147.689331,,,
729860610.269512,-0.220889,-4.870279,-28.56601,0.074112,-0.005905,0.983688,-0.03196,-0.033793,0.017778,77.281387,4.093292,-147.689331,,,
729860610.272856,-0.220889,-4.870279,-28.56601,0.074112,-0.005905,0.983688,-0.03196,-0.033793,0.017778,77.281387,4.093292,-147.689331,,,
729860610.276196,-0.225778,-4.885012,-28.561172,0.078934,-0.006805,0.997437,-0.01088,-0.051359,0.017313,77.281387,4.093292,-147.689331,,,
729860610.279501,-0.227337,-4.900347,-28.556925,0.078934,-0.006805,0.997437,-0.01088,-0.051359,0.017313,77.281387,4.093292,-147.689331,,,
729860610.282843,-0.227337,-4.900347,-28.556925,0.078934,-0.006805,0.997437,-0.01088,-0.051359,0.017313,77.281387,4.093292,-147.689331,,,
729860610.286194,-0.223727,-4.916826,-28.553493,0.086899,-0.007339,1.011566,0.020156,-0.052726,0.010134,77.281387,4.093292,-147.689331,,,
729860610.289513,-0.214846,-4.933759,-28.550898,0.086899,-0.007339,1.011566,0.020156,-0.052726,0.010134,77.281387,4.093292,-147.689331,,,
729860610.29284,-0.214846,-4.933759,-28.550898,0.086899,-0.007339,1.011566,0.020156,-0.052726,0.010134,77.093872,4.020386,-147.856644,,,
729860610.296192,-0.203335,-4.946603,-28.549519,0.097046,-0.005173,1.023407,0.041462,-0.038762,-0.000206,77.093872,4.020386,-147.856644,,,
729860610.299511,-0.190447,-4.957284,-28.549302,0.097046,-0.005173,1.023407,0.041462,-0.038762,-0.000206,77.093872,4.020386,-147.856644,,,
729860610.302929,-0.190447,-4.957284,-28.549302,0.097046,-0.005173,1.023407,0.041462,-0.038762,-0.000206,77.093872,4.020386,-147.856644,,,
729860610.306267,-0.178858,-4.960125,-28.550263,0.101395,-0.001541,1.019775,0.041307,-0.000447,-0.010244,77.093872,4.020386,-147.856644,,,
729860610.309507,-0.169199,-4.95808,-28.552482,0.101395,-0.001541,1.019775,0.041307,-0.000447,-0.010244,77.093872,4.020386,-147.856644,,,
729860610.312861,-0.169199,-4.95808,-28.552482,0.101395,-0.001541,1.019775,0.041307,-0.000447,-0.010244,77.093872,4.020386,-147.856644,,,
729860610.3162,-0.163918,-4.949758,-28.554983,0.09848,0.002197,1.00531,0.01619,0.03781,-0.009788,77.093872,4.020386,-147.856644,,,
729860610.319515,-0.163384,-4.937826,-28.557101,0.09848,0.002197,1.00531,0.01619,0.03781,-0.009788,77.093872,4.020386,-147.856644,,,
729860610.322863,-0.163384,-4.937826,-28.557101,0.09848,0.002197,1.00531,0.01619,0.03781,-0.009788,77.093872,4.020386,-147.856644,,,
729860610.326194,-0.168787,-4.924395,-28.558905,0.092026,0.00296,0.983124,-0.024042,0.048196,-0.005179,77.093872,4.020386,-147.856644,,,
729860610.329514,-0.178534,-4.909438,-28.560477,0.092026,0.00296,0.983124,-0.024042,0.048196,-0.005179,77.093872,4.020386,-147.856644,,,
729860610.332845,-0.178534,-4.909438,-28.560477,0.092026,0.00296,0.983124,-0.024042,0.048196,-0.005179,77.244415,3.840454,-147.756134,,,
729860610.336276,-0.190897,-4.899217,-28.561808,0.083542,-0.000641,0.971573,-0.044076,0.033708,0.00013,77.244415,3.840454,-147.756134,,,
729860610.339504,-0.205192,-4.88961,-28.562902,0.083542,-0.000641,0.971573,-0.044076,0.033708,0.00013,77.244415,3.840454,-147.756134,,,
729860610.34294,-0.205192,-4.88961,-28.562902,0.083542,-0.000641,0.971573,-0.044076,0.033708,0.00013,77.244415,3.840454,-147.756134,,,
729860610.346188,-0.219401,-4.887708,-28.563427,0.076736,-0.003372,0.975418,-0.046422,0.006988,0.003062,77.244415,3.840454,-147.756134,,,
729860610.349523,-0.232511,-4.890067,-28.562824,0.076736,-0.003372,0.975418,-0.046422,0.006988,0.003062,77.244415,3.840454,-147.756134,,,
729860610.352843,-0.232511,-4.890067,-28.562824,0.076736,-0.003372,0.975418,-0.046422,0.006988,0.003062,77.244415,3.840454,-147.756134,,,
729860610.356257,-0.242906,-4.899897,-28.5616,0.072052,-0.004745,0.983765,-0.035412,-0.034241,0.00426,77.244415,3.840454,-147.756134,,,
729860610.359508,-0.250246,-4.913231,-28.56039,0.072052,-0.004745,0.983765,-0.035412,-0.034241,0.00426,77.244415,3.840454,-147.756134,,,
729860610.362862,-0.250246,-4.913231,-28.56039,0.072052,-0.004745,0.983765,-0.035412,-0.034241,0.00426,77.244415,3.840454,-147.756134,,,
729860610.366193,-0.253576,-4.930674,-28.559182,0.079071,-0.006409,0.994873,-0.008553,-0.061399,0.005948,77.244415,3.840454,-147.756134,,,
729860610.369516,-0.253527,-4.950908,-28.558294,0.079071,-0.006409,0.994873,-0.008553,-0.061399,0.005948,77.244415,3.840454,-147.756134,,,
729860610.372847,-0.253527,-4.950908,-28.558294,0.079071,-0.006409,0.994873,-0.008553,-0.061399,0.005948,77.169479,4.04686,-148.01033,,,
729860610.376197,-0.249114,-4.968921,-28.557929,0.086563,-0.004486,1.004608,0.019307,-0.060306,-0.001985,77.169479,4.04686,-148.01033,,,
729860610.379515,-0.240998,-4.98797,-28.557721,0.086563,-0.004486,1.004608,0.019307,-0.060306,-0.001985,77.169479,4.04686,-148.01033,,,
729860610.382909,-0.240998,-4.98797,-28.557721,0.086563,-0.004486,1.004608,0.019307,-0.060306,-0.001985,77.169479,4.04686,-148.01033,,,
729860610.386256,-0.230729,-5.001614,-28.55755,0.088989,-0.003906,1.007416,0.03891,-0.042367,-0.00243,77.169479,4.04686,-148.01033,,,
729860610.389501,-0.217494,-5.014677,-28.556974,0.088989,-0.003906,1.007416,0.03891,-0.042367,-0.00243,77.169479,4.04686,-148.01033,,,
729860610.392856,-0.217494,-5.014677,-28.556974,0.088989,-0.003906,1.007416,0.03891,-0.042367,-0.00243,77.169479,4.04686,-148.01033,,,
729860610.396256,-0.203159,-5.02024,-28.555918,0.094009,-0.003418,1.001816,0.052017,-0.01059,-0.000903,77.169479,4.04686,-148.01033,,,
729860610.39951,-0.188352,-5.021584,-28.554843,0.094009,-0.003418,1.001816,0.052017,-0.01059,-0.000903,77.169479,4.04686,-148.01033,,,
729860610.402877,-0.188352,-5.021584,-28.554843,0.094009,-0.003418,1.001816,0.052017,-0.01059,-0.000903,77.169479,4.04686,-148.01033,,,
729860610.406243,-0.176035,-5.014726,-28.55379,0.0961,-0.003067,1.001877,0.040923,0.031983,-0.002776,77.169479,4.04686,-148.01033,,,
729860610.409541,-0.166555,-5.002051,-28.552845,0.0961,-0.003067,1.001877,0.040923,0.031983,-0.002776,77.169479,4.04686,-148.01033,,,
729860610.412904,-0.166555,-5.002051,-28.552845,0.0961,-0.003067,1.001877,0.040923,0.031983,-0.002776,77.169479,4.04686,-148.01033,,,
729860610.416207,-0.162139,-4.984027,-28.551384,0.092896,-0.000916,0.992218,0.012884,0.068426,0.002386,76.972244,3.824982,-147.940216,,,
729860610.419524,-0.163338,-4.962254,-28.549005,0.092896,-0.000916,0.992218,0.012884,0.068426,0.002386,76.972244,3.824982,-147.940216,,,
729860610.42285,-0.163338,-4.962254,-28.549005,0.092896,-0.000916,0.992218,0.012884,0.068426,0.002386,76.972244,3.824982,-147.940216,,,
729860610.426204,-0.169351,-4.943115,-28.546195,0.085785,-0.001343,0.974335,-0.021481,0.069257,0.010582,76.972244,3.824982,-147.940216,,,
729860610.429519,-0.179482,-4.924385,-28.543195,0.085785,-0.001343,0.974335,-0.021481,0.069257,0.010582,76.972244,3.824982,-147.940216,,,
729860610.432842,-0.179482,-4.924385,-28.543195,0.085785,-0.001343,0.974335,-0.021481,0.069257,0.010582,76.972244,3.824982,-147.940216,,,
729860610.436188,-0.192607,-4.914282,-28.539577,0.077515,-0.000412,0.964386,-0.045644,0.033281,0.017124,76.972244,3.824982,-147.940216,,,
729860610.439541,-0.207775,-4.909573,-28.536039,0.077515,-0.000412,0.964386,-0.045644,0.033281,0.017124,76.972244,3.824982,-147.940216,,,
729860610.442861,-0.207775,-4.909573,-28.536039,0.077515,-0.000412,0.964386,-0.045644,0.033281,0.017124,76.972244,3.824982,-147.940216,,,
729860610.446281,-0.223561,-4.916049,-28.533607,0.076248,-0.000107,0.962067,-0.05358,-0.027603,0.00979,76.972244,3.824982,-147.940216,,,
729860610.449508,-0.239067,-4.93072,-28.532429,0.076248,-0.000107,0.962067,-0.05358,-0.027603,0.00979,76.972244,3.824982,-147.940216,,,
729860610.452888,-0.239067,-4.93072,-28.532429,0.076248,-0.000107,0.962067,-0.05358,-0.027603,0.00979,76.972244,3.824982,-147.940216,,,
729860610.456199,-0.252672,-4.953244,-28.532982,0.078552,-0.000854,0.968246,-0.044228,-0.081807,-0.001369,76.893768,3.956482,-147.602554,,,
729860610.459517,-0.263415,-4.981301,-28.535861,0.078552,-0.000854,0.968246,-0.044228,-0.081807,-0.001369,76.893768,3.956482,-147.602554,,,
729860610.462859,-0.263415,-4.981301,-28.535861,0.078552,-0.000854,0.968246,-0.044228,-0.081807,-0.001369,76.893768,3.956482,-147.602554,,,
729860610.466209,-0.269803,-5.012122,-28.540258,0.086426,-0.003571,0.987839,-0.01721,-0.108149,-0.014641,76.893768,3.956482,-147.602554,,,
729860610.469511,-0.271075,-5.044323,-28.545096,0.086426,-0.003571,0.987839,-0.01721,-0.108149,-0.014641,76.893768,3.956482,-147.602554,,,
729860610.472846,-0.271075,-5.044323,-28.545096,0.086426,-0.003571,0.987839,-0.01721,-0.108149,-0.014641,76.893768,3.956482,-147.602554,,,
729860610.476197,-0.266105,-5.073737,-28.550046,0.090836,-0.010117,1.02005,0.023545,-0.096361,-0.022791,76.893768,3.956482,-147.602554,,,
729860610.479511,-0.253604,-5.101141,-28.554321,0.090836,-0.010117,1.02005,0.023545,-0.096361,-0.022791,76.893768,3.956482,-147.602554,,,
729860610.482913,-0.253604,-5.101141,-28.554321,0.090836,-0.010117,1.02005,0.023545,-0.096361,-0.022791,76.893768,3.956482,-147.602554,,,
729860610.486174,-0.234845,-5.121311,-28.557006,0.093231,-0.017563,1.041763,0.071008,-0.059066,-0.015248,76.893768,3.956482,-147.602554,,,
729860610.489513,-0.211218,-5.136972,-28.558028,0.093231,-0.017563,1.041763,0.071008,-0.059066,-0.015248,76.893768,3.956482,-147.602554,,,
729860610.492863,-0.211218,-5.136972,-28.558028,0.093231,-0.017563,1.041763,0.071008,-0.059066,-0.015248,76.893768,3.956482,-147.602554,,,
729860610.496179,-0.184216,-5.14554,-28.557791,0.093811,-0.017654,1.044388,0.096909,-0.023347,-0.006767,76.755707,4.089966,-147.968063,,,
729860610.499514,-0.154715,-5.148876,-28.556038,0.093811,-0.017654,1.044388,0.096909,-0.023347,-0.006767,76.755707,4.089966,-147.968063,,,
729860610.502845,-0.154715,-5.148876,-28.556038,0.093811,-0.017654,1.044388,0.096909,-0.023347,-0.006767,76.755707,4.089966,-147.968063,,,
729860610.506183,-0.124085,-5.147875,-28.552872,0.09285,-0.013641,1.029846,0.108328,0.009536,-0.000486,76.755707,4.089966,-147.968063,,,
729860610.509514,-0.092439,-5.143176,-28.549369,0.09285,-0.013641,1.029846,0.108328,0.009536,-0.000486,76.755707,4.089966,-147.968063,,,
729860610.512847,-0.092439,-5.143176,-28.549369,0.09285,-0.013641,1.029846,0.108328,0.009536,-0.000486,76.755707,4.089966,-147.968063,,,
729860610.516205,-0.059284,-5.14009,-28.545884,0.09166,-0.007751,1.014374,0.120184,0.013116,0.000556,76.755707,4.089966,-147.968063,,,
729860610.519543,-0.023527,-5.138532,-28.542417,0.09166,-0.007751,1.014374,0.120184,0.013116,0.000556,76.755707,4.089966,-147.968063,,,
729860610.522915,-0.023527,-5.138532,-28.542417,0.09166,-0.007751,1.014374,0.120184,0.013116,0.000556,76.755707,4.089966,-147.968063,,,
729860610.526202,0.013465,-5.14388,-28.539435,0.088593,-0.005707,1.006561,0.130307,-0.019004,-0.004435,76.755707,4.089966,-147.968063,,,
729860610.529538,0.050568,-5.153192,-28.53725,0.088593,-0.005707,1.006561,0.130307,-0.019004,-0.004435,76.755707,4.089966,-147.968063,,,
729860610.532866,0.050568,-5.153192,-28.53725,0.088593,-0.005707,1.006561,0.130307,-0.019004,-0.004435,76.755707,4.089966,-147.968063,,,
729860610.536184,0.086319,-5.170454,-28.535539,0.084717,0.000809,0.990524,0.123496,-0.06155,-0.006425,77.019836,3.568604,-147.717468,,,
729860610.539513,0.118159,-5.192343,-28.534172,0.084717,0.000809,0.990524,0.123496,-0.06155,-0.006425,77.019836,3.568604,-147.717468,,,
729860610.54286,0.118159,-5.192343,-28.534172,0.084717,0.000809,0.990524,0.123496,-0.06155,-0.006425,77.019836,3.568604,-147.717468,,,
729860610.546193,0.145424,-5.21876,-28.533384,0.084778,0.005844,0.970261,0.09282,-0.091874,-0.003925,77.019836,3.568604,-147.717468,,,
729860610.549545,0.165818,-5.247193,-28.53334,0.084778,0.005844,0.970261,0.09282,-0.091874,-0.003925,77.019836,3.568604,-147.717468,,,
729860610.552845,0.165818,-5.247193,-28.53334,0.084778,0.005844,0.970261,0.09282,-0.091874,-0.003925,77.019836,3.568604,-147.717468,,,
729860610.55618,0.181258,-5.277104,-28.534096,0.0896,0.011795,0.956833,0.049625,-0.100281,-0.01098,77.019836,3.568604,-147.717468,,,
729860610.559544,0.191771,-5.305475,-28.535799,0.0896,0.011795,0.956833,0.049625,-0.100281,-0.01098,77.019836,3.568604,-147.717468,,,
729860610.562921,0.191771,-5.305475,-28.535799,0.0896,0.011795,0.956833,0.049625,-0.100281,-0.01098,77.019836,3.568604,-147.717468,,,
729860610.566172,0.201267,-5.33094,-28.538676,0.098648,0.012054,0.964905,0.032123,-0.085163,-0.016192,77.019836,3.568604,-147.717468,,,
729860610.569524,0.210879,-5.351828,-28.542155,0.098648,0.012054,0.964905,0.032123,-0.085163,-0.016192,77.019836,3.568604,-147.717468,,,
729860610.572858,0.210879,-5.351828,-28.542155,0.098648,0.012054,0.964905,0.032123,-0.085163,-0.016192,77.019836,3.568604,-147.717468,,,
729860610.576248,0.225773,-5.368318,-28.545977,0.103119,0.007004,0.997696,0.055399,-0.053693,-0.019681,77.019836,3.568604,-147.717468,,,
729860610.579524,0.245069,-5.380241,-28.549687,0.103119,0.007004,0.997696,0.055399,-0.053693,-0.019681,76.63179,3.560242,-147.942596,,,
729860610.582847,0.245069,-5.380241,-28.549687,0.103119,0.007004,0.997696,0.055399,-0.053693,-0.019681,76.63179,3.560242,-147.942596,,,
729860610.586181,0.270682,-5.388692,-28.551952,0.103882,-0.001007,1.02504,0.096365,-0.022688,-0.012557,76.63179,3.560242,-147.942596,,,
729860610.589561,0.300083,-5.392368,-28.552451,0.103882,-0.001007,1.02504,0.096365,-0.022688,-0.012557,76.63179,3.560242,-147.942596,,,
729860610.592862,0.300083,-5.392368,-28.552451,0.103882,-0.001007,1.02504,0.096365,-0.022688,-0.012557,76.63179,3.560242,-147.942596,,,
729860610.596207,0.333334,-5.393195,-28.550881,0.099533,-0.002487,1.032715,0.116629,0.003829,-0.005369,76.63179,3.560242,-147.942596,,,
729860610.599522,0.367448,-5.391326,-28.547681,0.099533,-0.002487,1.032715,0.116629,0.003829,-0.005369,76.63179,3.560242,-147.942596,,,
729860610.602917,0.367448,-5.391326,-28.547681,0.099533,-0.002487,1.032715,0.116629,0.003829,-0.005369,76.63179,3.560242,-147.942596,,,
729860610.606184,0.403181,-5.390151,-28.543734,0.099075,0.000732,1.015396,0.127774,0.008463,0.001078,76.63179,3.560242,-147.942596,,,
729860610.609557,0.439091,-5.389181,-28.539902,0.099075,0.000732,1.015396,0.127774,0.008463,0.001078,76.63179,3.560242,-147.942596,,,
729860610.61286,0.439091,-5.389181,-28.539902,0.099075,0.000732,1.015396,0.127774,0.008463,0.001078,76.63179,3.560242,-147.942596,,,
729860610.616182,0.476726,-5.391961,-28.536884,0.09729,0.008499,0.997696,0.13427,-0.008488,-0.003466,76.63179,3.560242,-147.942596,,,
729860610.619547,0.514925,-5.397133,-28.535106,0.09729,0.008499,0.997696,0.13427,-0.008488,-0.003466,76.736252,3.361191,-147.564087,,,
729860610.622848,0.514925,-5.397133,-28.535106,0.09729,0.008499,0.997696,0.13427,-0.008488,-0.003466,76.736252,3.361191,-147.564087,,,
729860610.626274,0.554701,-5.407558,-28.534445,0.093704,0.01355,0.991898,0.140182,-0.038214,-0.01455,76.736252,3.361191,-147.564087,,,
729860610.629526,0.596474,-5.422037,-28.53446,0.093704,0.01355,0.991898,0.140182,-0.038214,-0.01455,76.736252,3.361191,-147.564087,,,
729860610.632857,0.596474,-5.422037,-28.53446,0.093704,0.01355,0.991898,0.140182,-0.038214,-0.01455,76.736252,3.361191,-147.564087,,,
729860610.63619,0.639622,-5.442234,-28.535081,0.088989,0.013306,0.99176,0.151036,-0.070701,-0.015395,76.736252,3.361191,-147.564087,,,
729860610.639596,0.685061,-5.467783,-28.535505,0.088989,0.013306,0.99176,0.151036,-0.070701,-0.015395,76.736252,3.361191,-147.564087,,,
729860610.642876,0.685061,-5.467783,-28.535505,0.088989,0.013306,0.99176,0.151036,-0.070701,-0.015395,76.736252,3.361191,-147.564087,,,
729860610.646202,0.734593,-5.496541,-28.535065,0.088181,0.011139,0.998001,0.174525,-0.100233,-0.015374,76.736252,3.361191,-147.564087,,,
729860610.649517,0.788107,-5.529268,-28.534356,0.088181,0.011139,0.998001,0.174525,-0.100233,-0.015374,76.736252,3.361191,-147.564087,,,
729860610.652862,0.788107,-5.529268,-28.534356,0.088181,0.011139,0.998001,0.174525,-0.100233,-0.015374,76.736252,3.361191,-147.564087,,,
729860610.656191,0.844953,-5.561376,-28.533196,0.090347,0.007217,1.016724,0.205046,-0.108967,-0.015488,76.736252,3.361191,-147.564087,,,
729860610.659561,0.903311,-5.59421,-28.530533,0.090347,0.007217,1.016724,0.205046,-0.108967,-0.015488,76.384781,3.161972,-147.488342,,,
729860610.662854,0.903311,-5.59421,-28.530533,0.090347,0.007217,1.016724,0.205046,-0.108967,-0.015488,76.384781,3.161972,-147.488342,,,
729860610.666251,0.963399,-5.624034,-28.52649,0.090775,0.010483,1.01767,0.208731,-0.097918,-0.006861,76.384781,3.161972,-147.488342,,,
729860610.66955,1.018714,-5.650849,-28.520869,0.090775,0.010483,1.01767,0.208731,-0.097918,-0.006861,76.384781,3.161972,-147.488342,,,
729860610.672855,1.018714,-5.650849,-28.520869,0.090775,0.010483,1.01767,0.208731,-0.097918,-0.006861,76.384781,3.161972,-147.488342,,,
729860610.676193,1.072532,-5.674021,-28.513583,0.090317,0.016953,1.002136,0.189859,-0.072364,0.007482,76.384781,3.161972,-147.488342,,,
729860610.679571,1.072532,-5.674021,-28.513583,0.090317,0.016953,1.002136,0.189859,-0.072364,0.007482,76.384781,3.161972,-147.488342,,,
729860610.682843,1.119866,-5.692721,-28.504617,0.090317,0.016953,1.002136,0.189859,-0.072364,0.007482,76.384781,3.161972,-147.488342,,,
729860610.68619,1.164479,-5.707999,-28.494969,0.090714,0.024139,0.9841,0.153701,-0.045517,0.01717,76.384781,3.161972,-147.488342,,,
729860610.689555,1.203029,-5.719179,-28.486587,0.090714,0.024139,0.9841,0.153701,-0.045517,0.01717,76.384781,3.161972,-147.488342,,,
729860610.692894,1.203029,-5.719179,-28.486587,0.090714,0.024139,0.9841,0.153701,-0.045517,0.01717,76.384781,3.161972,-147.488342,,,
729860610.696187,1.240626,-5.728528,-28.480778,0.105118,0.029999,0.979767,0.12989,-0.02609,0.002986,76.384781,3.161972,-147.488342,,,
729860610.699528,1.240626,-5.728528,-28.480778,0.105118,0.029999,0.979767,0.12989,-0.02609,0.002986,76.384781,3.161972,-147.488342,,,
729860610.702853,1.278081,-5.734899,-28.478309,0.105118,0.029999,0.979767,0.12989,-0.02609,0.002986,76.409103,2.68306,-147.365448,,,
729860610.706184,1.323379,-5.741642,-28.478905,0.11293,0.028976,0.99881,0.166019,-0.023243,-0.022325,76.409103,2.68306,-147.365448,,,
729860610.709576,1.380485,-5.749179,-28.482009,0.11293,0.028976,0.99881,0.166019,-0.023243,-0.022325,76.409103,2.68306,-147.365448,,,
729860610.712848,1.380485,-5.749179,-28.482009,0.11293,0.028976,0.99881,0.166019,-0.023243,-0.022325,76.409103,2.68306,-147.365448,,,
729860610.71619,1.4546,-5.765227,-28.486789,0.112839,0.015915,1.047638,0.273684,-0.057809,-0.047504,76.409103,2.68306,-147.365448,,,
729860610.719516,1.4546,-5.765227,-28.486789,0.112839,0.015915,1.047638,0.273684,-0.057809,-0.047504,76.409103,2.68306,-147.365448,,,
729860610.72285,1.544299,-5.786451,-28.492212,0.112839,0.015915,1.047638,0.273684,-0.057809,-0.047504,76.409103,2.68306,-147.365448,,,
729860610.726193,1.650849,-5.818215,-28.497096,0.11087,0.00029,1.085739,0.381568,-0.116272,-0.057035,76.409103,2.68306,-147.365448,,,
729860610.729522,1.650849,-5.818215,-28.497096,0.11087,0.00029,1.085739,0.381568,-0.116272,-0.057035,76.409103,2.68306,-147.365448,,,
729860610.732929,1.76977,-5.856032,-28.501073,0.11087,0.00029,1.085739,0.381568,-0.116272,-0.057035,76.409103,2.68306,-147.365448,,,
729860610.736179,1.900288,-5.900064,-28.503839,0.106827,0.00264,1.084076,0.462501,-0.156529,-0.056773,76.409103,2.68306,-147.365448,,,
729860610.739524,1.900288,-5.900064,-28.503839,0.106827,0.00264,1.084076,0.462501,-0.156529,-0.056773,76.409103,2.68306,-147.365448,,,
729860610.742874,2.036867,-5.94519,-28.505446,0.106827,0.00264,1.084076,0.462501,-0.156529,-0.056773,76.083252,1.954712,-146.89566,,,
729860610.746249,2.176975,-5.990931,-28.506674,0.10965,0.015549,1.060562,0.487423,-0.155288,-0.057477,76.083252,1.954712,-146.89566,,,
729860610.749532,2.176975,-5.990931,-28.506674,0.10965,0.015549,1.060562,0.487423,-0.155288,-0.057477,76.083252,1.954712,-146.89566,,,
729860610.752855,2.315852,-6.031614,-28.508272,0.10965,0.015549,1.060562,0.487423,-0.155288,-0.057477,76.083252,1.954712,-146.89566,,,
729860610.756187,2.452798,-6.068565,-28.510314,0.114029,0.030685,1.032608,0.471669,-0.123133,-0.058318,76.083252,1.954712,-146.89566,,,
729860610.759578,2.452798,-6.068565,-28.510314,0.114029,0.030685,1.032608,0.471669,-0.123133,-0.058318,76.083252,1.954712,-146.89566,,,
729860610.762863,2.583388,-6.097811,-28.513114,0.114029,0.030685,1.032608,0.471669,-0.123133,-0.058318,76.083252,1.954712,-146.89566,,,
729860610.766221,2.708444,-6.121726,-28.516389,0.111282,0.044495,1.005142,0.427126,-0.075329,-0.058708,76.083252,1.954712,-146.89566,,,
729860610.769516,2.708444,-6.121726,-28.516389,0.111282,0.044495,1.005142,0.427126,-0.075329,-0.058708,76.083252,1.954712,-146.89566,,,
729860610.77294,2.827091,-6.138959,-28.519895,0.111282,0.044495,1.005142,0.427126,-0.075329,-0.058708,76.083252,1.954712,-146.89566,,,
729860610.776207,2.939909,-6.149156,-28.523316,0.108246,0.047745,0.990952,0.38376,-0.027699,-0.054447,76.083252,1.954712,-146.89566,,,
729860610.77961,2.939909,-6.149156,-28.523316,0.108246,0.047745,0.990952,0.38376,-0.027699,-0.054447,76.083252,1.954712,-146.89566,,,
729860610.782901,3.046785,-6.1543,-28.525829,0.108246,0.047745,0.990952,0.38376,-0.027699,-0.054447,76.124496,1.426773,-147.209549,,,
729860610.786187,3.14636,-6.156076,-28.526748,0.098358,0.050262,0.985687,0.339007,0.00058,-0.038067,76.124496,1.426773,-147.209549,,,
729860610.789553,3.14636,-6.156076,-28.526748,0.098358,0.050262,0.985687,0.339007,0.00058,-0.038067,76.124496,1.426773,-147.209549,,,
729860610.79286,3.238443,-6.155303,-28.525982,0.098358,0.050262,0.985687,0.339007,0.00058,-0.038067,76.124496,1.426773,-147.209549,,,
729860610.796198,3.323382,-6.153255,-28.523465,0.094406,0.054276,0.968414,0.28859,0.01157,-0.021528,76.124496,1.426773,-147.209549,,,
729860610.799617,3.323382,-6.153255,-28.523465,0.094406,0.054276,0.968414,0.28859,0.01157,-0.021528,76.124496,1.426773,-147.209549,,,
729860610.802873,3.400817,-6.150928,-28.519074,0.094406,0.054276,0.968414,0.28859,0.01157,-0.021528,76.124496,1.426773,-147.209549,,,
729860610.806195,3.470581,-6.148701,-28.513197,0.091873,0.059967,0.956436,0.23854,0.010387,-0.00541,76.124496,1.426773,-147.209549,,,
729860610.809539,3.470581,-6.148701,-28.513197,0.091873,0.059967,0.956436,0.23854,0.010387,-0.00541,76.124496,1.426773,-147.209549,,,
729860610.812934,3.533485,-6.148343,-28.506456,0.091873,0.059967,0.956436,0.23854,0.010387,-0.00541,76.124496,1.426773,-147.209549,,,
729860610.81618,3.590949,-6.151553,-28.49979,0.093292,0.064423,0.949005,0.19688,-0.007786,0.000269,76.124496,1.426773,-147.209549,,,
729860610.81954,3.590949,-6.151553,-28.49979,0.093292,0.064423,0.949005,0.19688,-0.007786,0.000269,76.124496,1.426773,-147.209549,,,
729860610.82285,3.645131,-6.159208,-28.493625,0.093292,0.064423,0.949005,0.19688,-0.007786,0.000269,76.149628,0.977722,-146.745804,,,
729860610.826184,3.698327,-6.171824,-28.4883,0.097992,0.066299,0.947449,0.187941,-0.041936,-0.003073,76.149628,0.977722,-146.745804,,,
729860610.829566,3.698327,-6.171824,-28.4883,0.097992,0.066299,0.947449,0.187941,-0.041936,-0.003073,76.149628,0.977722,-146.745804,,,
729860610.832859,3.753097,-6.188682,-28.484315,0.097992,0.066299,0.947449,0.187941,-0.041936,-0.003073,76.149628,0.977722,-146.745804,,,
729860610.836186,3.811406,-6.208631,-28.482249,0.106689,0.064377,0.967819,0.205595,-0.070473,-0.021726,76.149628,0.977722,-146.745804,,,
729860610.839606,3.811406,-6.208631,-28.482249,0.106689,0.064377,0.967819,0.205595,-0.070473,-0.021726,76.149628,0.977722,-146.745804,,,
729860610.842869,3.874182,-6.230243,-28.482761,0.106689,0.064377,0.967819,0.205595,-0.070473,-0.021726,76.149628,0.977722,-146.745804,,,
729860610.846193,3.942421,-6.2506,-28.485256,0.113342,0.061035,0.998474,0.240622,-0.066338,-0.037302,76.149628,0.977722,-146.745804,,,
729860610.849552,3.942421,-6.2506,-28.485256,0.113342,0.061035,0.998474,0.240622,-0.066338,-0.037302,76.149628,0.977722,-146.745804,,,
729860610.852921,4.015968,-6.267599,-28.488368,0.113342,0.061035,0.998474,0.240622,-0.066338,-0.037302,76.149628,0.977722,-146.745804,,,
729860610.856176,4.094332,-6.280338,-28.490117,0.116364,0.0569,1.027298,0.275103,-0.039616,-0.037822,76.149628,0.977722,-146.745804,,,
729860610.859518,4.094332,-6.280338,-28.490117,0.116364,0.0569,1.027298,0.275103,-0.039616,-0.037822,76.149628,0.977722,-146.745804,,,
729860610.862882,4.178326,-6.288264,-28.489264,0.116364,0.0569,1.027298,0.275103,-0.039616,-0.037822,76.149628,0.977722,-146.745804,,,
729860610.866184,4.267326,-6.291346,-28.485676,0.109283,0.051514,1.040649,0.316212,-0.001378,-0.020352,76.063629,0.094131,-145.887924,,,
729860610.869548,4.267326,-6.291346,-28.485676,0.109283,0.051514,1.040649,0.316212,-0.001378,-0.020352,76.063629,0.094131,-145.887924,,,
729860610.872855,4.359211,-6.289835,-28.479008,0.109283,0.051514,1.040649,0.316212,-0.001378,-0.020352,76.063629,0.094131,-145.887924,,,
729860610.876187,4.45207,-6.283674,-28.4689,0.101486,0.052994,1.0345,0.327305,0.030415,0.006157,76.063629,0.094131,-145.887924,,,
729860610.879591,4.45207,-6.283674,-28.4689,0.101486,0.052994,1.0345,0.327305,0.030415,0.006157,76.063629,0.094131,-145.887924,,,
729860610.882856,4.543893,-6.273424,-28.455542,0.101486,0.052994,1.0345,0.327305,0.030415,0.006157,76.063629,0.094131,-145.887924,,,
729860610.88619,4.632216,-6.259711,-28.43997,0.096909,0.064194,1.007019,0.307383,0.059806,0.019835,76.063629,0.094131,-145.887924,,,
729860610.889531,4.632216,-6.259711,-28.43997,0.096909,0.064194,1.007019,0.307383,0.059806,0.019835,76.063629,0.094131,-145.887924,,,
729860610.892922,4.71602,-6.244368,-28.423052,0.096909,0.064194,1.007019,0.307383,0.059806,0.019835,76.063629,0.094131,-145.887924,,,
729860610.896181,4.793782,-6.228694,-28.405562,0.09761,0.077637,0.975479,0.270631,0.064206,0.02945,76.063629,0.094131,-145.887924,,,
729860610.899533,4.793782,-6.228694,-28.405562,0.09761,0.077637,0.975479,0.270631,0.064206,0.02945,76.063629,0.094131,-145.887924,,,
729860610.902869,4.863712,-6.214159,-28.388424,0.09761,0.077637,0.975479,0.270631,0.064206,0.02945,76.063629,0.094131,-145.887924,,,
729860610.90619,4.925778,-6.202901,-28.372155,0.097336,0.089127,0.944443,0.212987,0.041993,0.031209,76.447495,-0.476791,-146.003601,,,
729860610.909514,4.925778,-6.202901,-28.372155,0.097336,0.089127,0.944443,0.212987,0.041993,0.031209,76.447495,-0.476791,-146.003601,,,
729860610.912864,4.980734,-6.197103,-28.357732,0.097336,0.089127,0.944443,0.212987,0.041993,0.031209,76.447495,-0.476791,-146.003601,,,
729860610.916192,5.031023,-6.197727,-28.345967,0.101837,0.095383,0.926086,0.17625,-0.00129,0.015678,76.447495,-0.476791,-146.003601,,,
729860610.919585,5.031023,-6.197727,-28.345967,0.101837,0.095383,0.926086,0.17625,-0.00129,0.015678,76.447495,-0.476791,-146.003601,,,
729860610.922866,5.080494,-6.205043,-28.337175,0.101837,0.095383,0.926086,0.17625,-0.00129,0.015678,76.447495,-0.476791,-146.003601,,,
729860610.926192,5.133022,-6.218315,-28.33159,0.107178,0.093292,0.940079,0.185413,-0.046627,-0.005344,76.447495,-0.476791,-146.003601,,,
729860610.929541,5.133022,-6.218315,-28.33159,0.107178,0.093292,0.940079,0.185413,-0.046627,-0.005344,76.447495,-0.476791,-146.003601,,,
729860610.932894,5.192545,-6.237001,-28.32836,0.107178,0.093292,0.940079,0.185413,-0.046627,-0.005344,76.447495,-0.476791,-146.003601,,,
729860610.936183,5.26279,-6.260055,-28.325599,0.1091,0.082138,0.987839,0.255789,-0.080215,-0.017798,76.447495,-0.476791,-146.003601,,,
729860610.939517,5.26279,-6.260055,-28.325599,0.1091,0.082138,0.987839,0.255789,-0.080215,-0.017798,76.447495,-0.476791,-146.003601,,,
729860610.942857,5.346335,-6.28655,-28.321221,0.1091,0.082138,0.987839,0.255789,-0.080215,-0.017798,76.447495,-0.476791,-146.003601,,,
729860610.946186,5.448911,-6.316983,-28.313334,0.105576,0.065536,1.041931,0.373265,-0.104554,-0.012515,76.047791,-1.007339,-145.604477,,,
729860610.94952,5.448911,-6.316983,-28.313334,0.105576,0.065536,1.041931,0.373265,-0.104554,-0.012515,76.047791,-1.007339,-145.604477,,,
729860610.952861,5.569148,-6.349892,-28.301377,0.105576,0.065536,1.041931,0.373265,-0.104554,-0.012515,76.047791,-1.007339,-145.604477,,,
729860610.956185,5.709823,-6.38472,-28.285216,0.105148,0.055878,1.08429,0.512512,-0.114486,0.002901,76.047791,-1.007339,-145.604477,,,
729860610.959643,5.709823,-6.38472,-28.285216,0.105148,0.055878,1.08429,0.512512,-0.114486,0.002901,76.047791,-1.007339,-145.604477,,,
729860610.962875,5.867453,-6.419358,-28.264886,0.105148,0.055878,1.08429,0.512512,-0.114486,0.002901,76.047791,-1.007339,-145.604477,,,
729860610.966193,6.038299,-6.452434,-28.240972,0.103928,0.058792,1.096146,0.611945,-0.10291,0.018282,76.047791,-1.007339,-145.604477,,,
729860610.969534,6.038299,-6.452434,-28.240972,0.103928,0.058792,1.096146,0.611945,-0.10291,0.018282,76.047791,-1.007339,-145.604477,,,
729860610.972914,6.217644,-6.48331,-28.214462,0.103928,0.058792,1.096146,0.611945,-0.10291,0.018282,76.047791,-1.007339,-145.604477,,,
729860610.976181,6.40042,-6.512065,-28.187095,0.109253,0.076263,1.063583,0.643583,-0.086,0.019202,76.047791,-1.007339,-145.604477,,,
729860610.979549,6.40042,-6.512065,-28.187095,0.109253,0.076263,1.063583,0.643583,-0.086,0.019202,76.047791,-1.007339,-145.604477,,,
729860610.982851,6.581903,-6.538601,-28.161185,0.109253,0.076263,1.063583,0.643583,-0.086,0.019202,76.047791,-1.007339,-145.604477,,,
729860610.986191,6.757545,-6.56241,-28.138841,0.12149,0.104065,1.005112,0.610964,-0.068477,0.004708,76.047791,-1.007339,-145.604477,,,
729860610.989532,6.757545,-6.56241,-28.138841,0.12149,0.104065,1.005112,0.610964,-0.068477,0.004708,76.073822,-2.28775,-145.247925,,,
729860610.992867,6.922803,-6.583162,-28.121037,0.12149,0.104065,1.005112,0.610964,-0.068477,0.004708,76.073822,-2.28775,-145.247925,,,
729860610.996191,7.0739,-6.59888,-28.1085,0.130051,0.131165,0.953262,0.513885,-0.042542,-0.022983,76.073822,-2.28775,-145.247925,,,
729860610.999619,7.0739,-6.59888,-28.1085,0.130051,0.131165,0.953262,0.513885,-0.042542,-0.022983,76.073822,-2.28775,-145.247925,,,
729860611.002891,7.208324,-6.609175,-28.10193,0.130051,0.131165,0.953262,0.513885,-0.042542,-0.022983,76.073822,-2.28775,-145.247925,,,
729860611.006208,7.32329,-6.614942,-28.100687,0.128342,0.150299,0.91156,0.380975,-0.012974,-0.046368,76.073822,-2.28775,-145.247925,,,
729860611.009613,7.32329,-6.614942,-28.100687,0.128342,0.150299,0.91156,0.380975,-0.012974,-0.046368,76.073822,-2.28775,-145.247925,,,
729860611.012876,7.418215,-6.617186,-28.103687,0.128342,0.150299,0.91156,0.380975,-0.012974,-0.046368,76.073822,-2.28775,-145.247925,,,
729860611.01619,7.495943,-6.615983,-28.109541,0.118271,0.157867,0.887421,0.251371,0.007304,-0.051951,76.073822,-2.28775,-145.247925,,,
729860611.019539,7.495943,-6.615983,-28.109541,0.118271,0.157867,0.887421,0.251371,0.007304,-0.051951,76.073822,-2.28775,-145.247925,,,
729860611.022944,7.560203,-6.611483,-28.115687,0.118271,0.157867,0.887421,0.251371,0.007304,-0.051951,76.073822,-2.28775,-145.247925,,,
729860611.026188,7.615641,-6.604569,-28.119742,0.104752,0.146637,0.907608,0.185346,0.028779,-0.03606,76.073822,-2.28775,-145.247925,,,
729860611.029524,7.615641,-6.604569,-28.119742,0.104752,0.146637,0.907608,0.185346,0.028779,-0.03606,75.953537,-2.743851,-144.964386,,,
729860611.032865,7.666939,-6.59731,-28.119974,0.104752,0.146637,0.907608,0.185346,0.028779,-0.03606,75.953537,-2.743851,-144.964386,,,
729860611.036191,7.717793,-6.592749,-28.114276,0.088364,0.12767,0.949768,0.180128,0.018936,0.006592,75.953537,-2.743851,-144.964386,,,
729860611.039533,7.717793,-6.592749,-28.114276,0.088364,0.12767,0.949768,0.180128,0.018936,0.006592,75.953537,-2.743851,-144.964386,,,
729860611.04287,7.771626,-6.593713,-28.101785,0.088364,0.12767,0.949768,0.180128,0.018936,0.006592,75.953537,-2.743851,-144.964386,,,
729860611.046191,7.830133,-6.60198,-28.083853,0.082718,0.114777,0.975006,0.214247,-0.021422,0.041568,75.953537,-2.743851,-144.964386,,,
729860611.049593,7.830133,-6.60198,-28.083853,0.082718,0.114777,0.975006,0.214247,-0.021422,0.041568,75.953537,-2.743851,-144.964386,,,
729860611.052928,7.89425,-6.618561,-28.061659,0.082718,0.114777,0.975006,0.214247,-0.021422,0.041568,75.953537,-2.743851,-144.964386,,,
729860611.056187,7.963994,-6.642687,-28.037567,0.092209,0.116608,0.980774,0.256624,-0.07493,0.054492,75.953537,-2.743851,-144.964386,,,
