Time (sec),Pitch (deg),Roll (deg),Yaw(deg),X-Acceleration (g),Y-Acceleration (g),Z-Acceleration (g),Pitch Rate (deg/sec),Roll Rate (deg/sec),Yaw Rate (deg/sec),Magnetic Field in X direction (uT),Magnetic Field in Y direction (uT),Magnetic Field in Z Direction (uT),Latitude (deg),Longitude (deg),Altitude (m)
729863149.623058,-0.068721,4.547734,49.243901,-0.087402,-0.003281,0.998596,0.027519,-0.019017,0.00074,57.638046,3.934921,-150.14061,,,
729863149.626394,-0.068721,4.547734,49.243901,-0.087402,-0.003281,0.998596,0.027519,-0.019017,0.00074,57.638046,3.934921,-150.14061,,,
729863149.629746,-0.060186,4.541139,49.243059,-0.07579,-0.001801,1.003174,0.027519,-0.019017,0.00074,57.638046,3.934921,-150.14061,,,
729863149.63313,-0.054093,4.540202,49.242146,-0.07579,-0.001801,1.003174,0.013382,0.012318,-0.007697,57.638046,3.934921,-150.14061,,,
729863149.636449,-0.054093,4.540202,49.242146,-0.07579,-0.001801,1.003174,0.013382,0.012318,-0.007697,57.638046,3.934921,-150.14061,,,
729863149.639709,-0.049619,4.541443,49.24061,-0.069427,0.002365,1.001511,0.013382,0.012318,-0.007697,57.638046,3.934921,-150.14061,,,
729863149.643049,-0.049619,4.541443,49.24061,-0.069427,0.002365,1.001511,-0.002917,0.027025,-0.013105,57.638046,3.934921,-150.14061,,,
729863149.646382,-0.048782,4.549441,49.238369,-0.069427,0.002365,1.001511,-0.002917,0.027025,-0.013105,57.638046,3.934921,-150.14061,,,
729863149.64976,-0.049778,4.556175,49.235454,-0.069275,0.001694,0.997833,-0.002917,0.027025,-0.013105,57.638046,3.934921,-150.14061,,,
729863149.653103,-0.049778,4.556175,49.235454,-0.069275,0.001694,0.997833,-0.010959,0.031299,-0.016041,57.441544,3.783966,-150.72139,,,
729863149.65639,-0.053068,4.569612,49.231956,-0.069275,0.001694,0.997833,-0.010959,0.031299,-0.016041,57.441544,3.783966,-150.72139,,,
729863149.659714,-0.056438,4.577866,49.2281,-0.081497,0.001389,0.998734,-0.010959,0.031299,-0.016041,57.441544,3.783966,-150.72139,,,
729863149.663153,-0.056438,4.577866,49.2281,-0.081497,0.001389,0.998734,-0.016098,0.014506,-0.003692,57.441544,3.783966,-150.72139,,,
729863149.666384,-0.061434,4.59326,49.225369,-0.081497,0.001389,0.998734,-0.016098,0.014506,-0.003692,57.441544,3.783966,-150.72139,,,
729863149.669719,-0.066225,4.59779,49.224903,-0.092651,0.001572,0.995819,-0.016098,0.014506,-0.003692,57.441544,3.783966,-150.72139,,,
729863149.673064,-0.066225,4.59779,49.224903,-0.092651,0.001572,0.995819,-0.00713,-0.008385,0.005181,57.441544,3.783966,-150.72139,,,
729863149.676451,-0.071092,4.606539,49.225937,-0.092651,0.001572,0.995819,-0.00713,-0.008385,0.005181,57.441544,3.783966,-150.72139,,,
729863149.679709,-0.073974,4.603774,49.228052,-0.088608,0.003387,0.990585,-0.00713,-0.008385,0.005181,57.441544,3.783966,-150.72139,,,
729863149.683066,-0.073974,4.603774,49.228052,-0.088608,0.003387,0.990585,-0.00713,-0.008385,0.005181,57.441544,3.783966,-150.72139,,,
729863149.686375,-0.074844,4.60456,49.230487,-0.088608,0.003387,0.990585,0.001821,-0.020366,0.00354,57.441544,3.783966,-150.72139,,,
729863149.68982,-0.074547,4.598808,49.232152,-0.081512,0.002701,0.99585,0.001821,-0.020366,0.00354,57.441544,3.783966,-150.72139,,,
729863149.693096,-0.074547,4.598808,49.232152,-0.081512,0.002701,0.99585,0.008476,-0.023511,-0.000769,57.441544,3.783966,-150.72139,,,
729863149.696446,-0.072402,4.595785,49.233108,-0.081512,0.002701,0.99585,0.008476,-0.023511,-0.000769,57.839417,3.846649,-150.230438,,,
729863149.699748,-0.069315,4.588297,49.233314,-0.071762,0.001556,0.994507,0.008476,-0.023511,-0.000769,57.839417,3.846649,-150.230438,,,
729863149.70318,-0.069315,4.588297,49.233314,-0.071762,0.001556,0.994507,0.008476,-0.023511,-0.000769,57.839417,3.846649,-150.230438,,,
729863149.706402,-0.066398,4.583928,49.232163,-0.071762,0.001556,0.994507,0.015695,-0.005455,-0.006927,57.839417,3.846649,-150.230438,,,
729863149.709723,-0.06251,4.581589,49.230106,-0.064728,0.000885,0.999786,0.015695,-0.005455,-0.006927,57.839417,3.846649,-150.230438,,,
729863149.713167,-0.06251,4.581589,49.230106,-0.064728,0.000885,0.999786,0.015695,-0.005455,-0.006927,57.839417,3.846649,-150.230438,,,
729863149.716456,-0.057632,4.58125,49.227897,-0.064728,0.000885,0.999786,0.025684,0.028361,-0.006992,57.839417,3.846649,-150.230438,,,
729863149.719813,-0.050816,4.587685,49.225402,-0.072113,-0.00354,1.013535,0.025684,0.028361,-0.006992,57.839417,3.846649,-150.230438,,,
729863149.723105,-0.050816,4.587685,49.225402,-0.072113,-0.00354,1.013535,0.025684,0.028361,-0.006992,57.839417,3.846649,-150.230438,,,
729863149.726401,-0.041288,4.59372,49.223273,-0.072113,-0.00354,1.013535,0.030046,0.042341,0.003309,57.839417,3.846649,-150.230438,,,
729863149.729726,-0.032353,4.604241,49.222711,-0.075928,-0.006256,1.012543,0.030046,0.042341,0.003309,57.839417,3.846649,-150.230438,,,
729863149.733103,-0.032353,4.604241,49.222711,-0.075928,-0.006256,1.012543,0.030046,0.042341,0.003309,57.839417,3.846649,-150.230438,,,
729863149.736471,-0.023192,4.611869,49.222356,-0.075928,-0.006256,1.012543,0.031043,0.033926,-0.004698,57.394485,3.973297,-150.439056,,,
729863149.739726,-0.014734,4.621449,49.220977,-0.077744,-0.001083,1.001526,0.031043,0.033926,-0.004698,57.394485,3.973297,-150.439056,,,
729863149.743139,-0.014734,4.621449,49.220977,-0.077744,-0.001083,1.001526,0.031043,0.033926,-0.004698,57.394485,3.973297,-150.439056,,,
729863149.746386,-0.006659,4.630804,49.218421,-0.077744,-0.001083,1.001526,0.025071,0.012065,-0.015374,57.394485,3.973297,-150.439056,,,
729863149.749724,-0.000183,4.635054,49.214179,-0.080811,0.001328,0.990463,0.025071,0.012065,-0.015374,57.394485,3.973297,-150.439056,,,
729863149.753101,-0.000183,4.635054,49.214179,-0.080811,0.001328,0.990463,0.025071,0.012065,-0.015374,57.394485,3.973297,-150.439056,,,
729863149.756443,0.006007,4.638036,49.209219,-0.080811,0.001328,0.990463,0.021309,-0.020791,-0.017602,57.394485,3.973297,-150.439056,,,
729863149.759738,0.011429,4.632225,49.204283,-0.08815,0.001068,0.986969,0.021309,-0.020791,-0.017602,57.394485,3.973297,-150.439056,,,
729863149.763128,0.011429,4.632225,49.204283,-0.08815,0.001068,0.986969,0.021309,-0.020791,-0.017602,57.394485,3.973297,-150.439056,,,
729863149.766407,0.017406,4.624378,49.19971,-0.08815,0.001068,0.986969,0.017467,-0.042426,-0.009922,57.394485,3.973297,-150.439056,,,
729863149.769717,0.022484,4.612184,49.196083,-0.090637,-0.000427,0.988358,0.017467,-0.042426,-0.009922,57.394485,3.973297,-150.439056,,,
729863149.773095,0.022484,4.612184,49.196083,-0.090637,-0.000427,0.988358,0.017467,-0.042426,-0.009922,57.394485,3.973297,-150.439056,,,
729863149.77644,0.027789,4.599068,49.194318,-0.090637,-0.000427,0.988358,0.01156,-0.039685,0.000507,57.574112,3.786057,-150.223846,,,
729863149.779773,0.031911,4.586895,49.194663,-0.088318,-0.002701,0.982895,0.01156,-0.039685,0.000507,57.574112,3.786057,-150.223846,,,
729863149.783042,0.031911,4.586895,49.194663,-0.088318,-0.002701,0.982895,0.01156,-0.039685,0.000507,57.574112,3.786057,-150.223846,,,
729863149.786399,0.035461,4.573148,49.196689,-0.088318,-0.002701,0.982895,0.004008,-0.024197,0.011059,57.574112,3.786057,-150.223846,,,
729863149.789729,0.037322,4.565095,49.199618,-0.078873,0.000305,0.980804,0.004008,-0.024197,0.011059,57.574112,3.786057,-150.223846,,,
729863149.793202,0.037322,4.565095,49.199618,-0.078873,0.000305,0.980804,0.004008,-0.024197,0.011059,57.574112,3.786057,-150.223846,,,
729863149.796396,0.037466,4.553723,49.202506,-0.078873,0.000305,0.980804,0.00136,-0.020169,0.006524,57.574112,3.786057,-150.223846,,,
729863149.799737,0.037367,4.547498,49.204534,-0.066696,0.002487,0.976791,0.00136,-0.020169,0.006524,57.574112,3.786057,-150.223846,,,
729863149.803078,0.037367,4.547498,49.204534,-0.066696,0.002487,0.976791,0.00136,-0.020169,0.006524,57.574112,3.786057,-150.223846,,,
729863149.806488,0.036319,4.5392,49.204786,-0.066696,0.002487,0.976791,0.000693,-0.018615,-0.007682,57.574112,3.786057,-150.223846,,,
729863149.809721,0.036116,4.53338,49.202978,-0.062744,-0.00174,0.979904,0.000693,-0.018615,-0.007682,57.574112,3.786057,-150.223846,,,
729863149.813078,0.036116,4.53338,49.202978,-0.062744,-0.00174,0.979904,0.000693,-0.018615,-0.007682,57.574112,3.786057,-150.223846,,,
729863149.816396,0.034042,4.527821,49.200028,-0.062744,-0.00174,0.979904,-0.000462,-0.012193,-0.01296,57.574112,3.786057,-150.223846,,,
729863149.819718,0.033399,4.523838,49.19669,-0.066147,-0.000992,0.981308,-0.000462,-0.012193,-0.01296,57.441696,3.731628,-150.297195,,,
729863149.823046,0.033399,4.523838,49.19669,-0.066147,-0.000992,0.981308,-0.000462,-0.012193,-0.01296,57.441696,3.731628,-150.297195,,,
729863149.826495,0.033168,4.519819,49.193138,-0.066147,-0.000992,0.981308,0.003532,-0.007526,-0.012618,57.441696,3.731628,-150.297195,,,
729863149.829715,0.03359,4.517661,49.189524,-0.064514,-0.004959,0.984695,0.003532,-0.007526,-0.012618,57.441696,3.731628,-150.297195,,,
729863149.833185,0.03359,4.517661,49.189524,-0.064514,-0.004959,0.984695,0.003532,-0.007526,-0.012618,57.441696,3.731628,-150.297195,,,
729863149.836447,0.034286,4.518618,49.186197,-0.064514,-0.004959,0.984695,-0.001,0.011641,-0.011733,57.441696,3.731628,-150.297195,,,
729863149.839789,0.034157,4.520541,49.18352,-0.066299,-0.005295,0.990005,-0.001,0.011641,-0.011733,57.441696,3.731628,-150.297195,,,
729863149.843067,0.034157,4.520541,49.18352,-0.066299,-0.005295,0.990005,-0.001,0.011641,-0.011733,57.441696,3.731628,-150.297195,,,
729863149.846482,0.033112,4.528889,49.18069,-0.066299,-0.005295,0.990005,-0.001173,0.024578,-0.012989,57.441696,3.731628,-150.297195,,,
729863149.849719,0.03182,4.535165,49.177375,-0.06456,-0.000992,0.988617,-0.001173,0.024578,-0.012989,57.441696,3.731628,-150.297195,,,
729863149.853078,0.03182,4.535165,49.177375,-0.06456,-0.000992,0.988617,-0.001173,0.024578,-0.012989,57.441696,3.731628,-150.297195,,,
729863149.856402,0.030892,4.545277,49.17315,-0.06456,-0.000992,0.988617,0.002678,0.017464,-0.02367,57.441696,3.731628,-150.297195,,,
729863149.859723,0.030803,4.549975,49.167116,-0.065018,0.000458,0.988968,0.002678,0.017464,-0.02367,57.567078,3.721466,-150.036072,,,
729863149.863074,0.030803,4.549975,49.167116,-0.065018,0.000458,0.988968,0.002678,0.017464,-0.02367,57.567078,3.721466,-150.036072,,,
729863149.866392,0.029995,4.554367,49.159022,-0.065018,0.000458,0.988968,-0.001926,-0.005289,-0.039705,57.567078,3.721466,-150.036072,,,
729863149.869719,0.029476,4.552982,49.149245,-0.070831,0.0009,0.984741,-0.001926,-0.005289,-0.039705,57.567078,3.721466,-150.036072,,,
729863149.873134,0.029476,4.552982,49.149245,-0.070831,0.0009,0.984741,-0.001926,-0.005289,-0.039705,57.567078,3.721466,-150.036072,,,
729863149.876375,0.029035,4.548283,49.138471,-0.070831,0.0009,0.984741,-0.000873,-0.017268,-0.040383,57.567078,3.721466,-150.036072,,,
729863149.879727,0.028375,4.542804,49.127524,-0.076706,0.000992,0.988022,-0.000873,-0.017268,-0.040383,57.567078,3.721466,-150.036072,,,
729863149.883081,0.028375,4.542804,49.127524,-0.076706,0.000992,0.988022,-0.000873,-0.017268,-0.040383,57.567078,3.721466,-150.036072,,,
729863149.886442,0.028494,4.532534,49.117859,-0.076706,0.000992,0.988022,0.003756,-0.022461,-0.028924,57.567078,3.721466,-150.036072,,,
729863149.88972,0.028439,4.526192,49.11,-0.085983,-0.000839,0.992279,0.003756,-0.022461,-0.028924,57.567078,3.721466,-150.036072,,,
729863149.893062,0.028439,4.526192,49.11,-0.085983,-0.000839,0.992279,0.003756,-0.022461,-0.028924,57.567078,3.721466,-150.036072,,,
729863149.896399,0.027641,4.516238,49.103652,-0.085983,-0.000839,0.992279,0.000779,-0.008794,-0.014792,57.567078,3.721466,-150.036072,,,
729863149.899724,0.027316,4.512242,49.09882,-0.08934,0.000641,0.992661,0.000779,-0.008794,-0.014792,57.705704,3.851334,-149.832733,,,
729863149.903068,0.027316,4.512242,49.09882,-0.08934,0.000641,0.992661,0.000779,-0.008794,-0.014792,57.705704,3.851334,-149.832733,,,
729863149.906401,0.025814,4.506784,49.095444,-0.08934,0.000641,0.992661,-0.008576,0.005647,-0.008621,57.705704,3.851334,-149.832733,,,
729863149.909724,0.02362,4.507147,49.093497,-0.089859,0.003906,0.992859,-0.008576,0.005647,-0.008621,57.705704,3.851334,-149.832733,,,
729863149.913133,0.02362,4.507147,49.093497,-0.089859,0.003906,0.992859,-0.008576,0.005647,-0.008621,57.705704,3.851334,-149.832733,,,
729863149.916396,0.019174,4.505045,49.092511,-0.089859,0.003906,0.992859,-0.016667,0.010984,-0.000823,57.705704,3.851334,-149.832733,,,
729863149.919721,0.015129,4.50754,49.092513,-0.089294,0.001892,0.988403,-0.016667,0.010984,-0.000823,57.705704,3.851334,-149.832733,,,
729863149.923062,0.015129,4.50754,49.092513,-0.089294,0.001892,0.988403,-0.016667,0.010984,-0.000823,57.705704,3.851334,-149.832733,,,
729863149.926456,0.008689,4.506516,49.093519,-0.089294,0.001892,0.988403,-0.015907,0.009044,0.003455,57.705704,3.851334,-149.832733,,,
729863149.929737,0.003711,4.50803,49.094875,-0.089081,0.002136,0.992355,-0.015907,0.009044,0.003455,57.705704,3.851334,-149.832733,,,
729863149.933057,0.003711,4.50803,49.094875,-0.089081,0.002136,0.992355,-0.015907,0.009044,0.003455,57.705704,3.851334,-149.832733,,,
729863149.936392,0.000292,4.503455,49.09638,-0.089081,0.002136,0.992355,-0.002759,-0.012631,0.005147,57.705704,3.851334,-149.832733,,,
729863149.939716,-0.001664,4.499967,49.09772,-0.088882,-0.000488,1.002869,-0.002759,-0.012631,0.005147,57.556961,3.724335,-150.094513,,,
729863149.943067,-0.001664,4.499967,49.09772,-0.088882,-0.000488,1.002869,-0.002759,-0.012631,0.005147,57.556961,3.724335,-150.094513,,,
729863149.946386,-0.002783,4.489768,49.098729,-0.088882,-0.000488,1.002869,0.000671,-0.029821,2e-05,57.556961,3.724335,-150.094513,,,
729863149.949712,-0.00329,4.481317,49.099407,-0.086151,-0.00206,1.001663,0.000671,-0.029821,2e-05,57.556961,3.724335,-150.094513,,,
729863149.953086,-0.00329,4.481317,49.099407,-0.086151,-0.00206,1.001663,0.000671,-0.029821,2e-05,57.556961,3.724335,-150.094513,,,
729863149.956392,-0.004242,4.470537,49.100014,-0.086151,-0.00206,1.001663,-0.00719,-0.023936,0.000125,57.556961,3.724335,-150.094513,,,
729863149.959721,-0.006861,4.461465,49.101443,-0.081848,0.001953,0.999756,-0.00719,-0.023936,0.000125,57.556961,3.724335,-150.094513,,,
729863149.963061,-0.006861,4.461465,49.101443,-0.081848,0.001953,0.999756,-0.00719,-0.023936,0.000125,57.556961,3.724335,-150.094513,,,
729863149.966465,-0.009568,4.454274,49.103738,-0.081848,0.001953,0.999756,-0.007919,-0.01722,0.010785,57.556961,3.724335,-150.094513,,,
729863149.969714,-0.012192,4.448968,49.106978,-0.079758,0.000244,1.010559,-0.007919,-0.01722,0.010785,57.556961,3.724335,-150.094513,,,
729863149.973063,-0.012192,4.448968,49.106978,-0.079758,0.000244,1.010559,-0.007919,-0.01722,0.010785,57.556961,3.724335,-150.094513,,,
729863149.976398,-0.014098,4.450364,49.111844,-0.079758,0.000244,1.010559,-0.007501,0.011454,0.023383,57.556961,3.724335,-150.094513,,,
729863149.979724,-0.015482,4.451577,49.118349,-0.084229,-0.002533,1.013428,-0.007501,0.011454,0.023383,57.556961,3.724335,-150.094513,,,
729863149.983059,-0.015482,4.451577,49.118349,-0.084229,-0.002533,1.013428,-0.007501,0.011454,0.023383,57.53476,3.798752,-150.268051,,,
729863149.986385,-0.016261,4.459118,49.126155,-0.084229,-0.002533,1.013428,-0.001033,0.017952,0.027083,57.53476,3.798752,-150.268051,,,
729863149.989728,-0.016192,4.463255,49.134273,-0.078506,-0.002502,1.010635,-0.001033,0.017952,0.027083,57.53476,3.798752,-150.268051,,,
729863149.9931,-0.016192,4.463255,49.134273,-0.078506,-0.002502,1.010635,-0.001033,0.017952,0.027083,57.53476,3.798752,-150.268051,,,
729863149.996393,-0.013379,4.469958,49.141165,-0.078506,-0.002502,1.010635,0.016547,0.002692,0.016394,57.53476,3.798752,-150.268051,,,
729863149.999733,-0.009534,4.470772,49.146484,-0.071686,-0.002579,1.011368,0.016547,0.002692,0.016394,57.53476,3.798752,-150.268051,,,
729863150.003074,-0.009534,4.470772,49.146484,-0.071686,-0.002579,1.011368,0.016547,0.002692,0.016394,57.53476,3.798752,-150.268051,,,
729863150.006462,-0.003212,4.472637,49.15,-0.071686,-0.002579,1.011368,0.031673,-0.018711,0.004515,57.53476,3.798752,-150.268051,,,
729863150.009715,0.00461,4.467713,49.151648,-0.071091,-0.003586,1.009811,0.031673,-0.018711,0.004515,57.53476,3.798752,-150.268051,,,
729863150.013076,0.00461,4.467713,49.151648,-0.071091,-0.003586,1.009811,0.031673,-0.018711,0.004515,57.53476,3.798752,-150.268051,,,
729863150.016411,0.014449,4.462679,49.152487,-0.071091,-0.003586,1.009811,0.034562,-0.036676,0.004459,57.53476,3.798752,-150.268051,,,
729863150.01972,0.024034,4.451832,49.153095,-0.068848,-0.002487,0.999268,0.034562,-0.036676,0.004459,57.53476,3.798752,-150.268051,,,
729863150.023054,0.024034,4.451832,49.153095,-0.068848,-0.002487,0.999268,0.034562,-0.036676,0.004459,57.49469,3.82518,-149.932602,,,
729863150.026402,0.031516,4.443623,49.153307,-0.068848,-0.002487,0.999268,0.018141,-0.03749,0.00294,57.49469,3.82518,-149.932602,,,
729863150.029509,0.036638,4.43272,49.15345,-0.063141,0.002487,0.989822,0.018141,-0.03749,0.00294,57.49469,3.82518,-149.932602,,,
729863150.033138,0.036638,4.43272,49.15345,-0.063141,0.002487,0.989822,0.018141,-0.03749,0.00294,57.49469,3.82518,-149.932602,,,
729863150.03639,0.038222,4.427126,49.153843,-0.063141,0.002487,0.989822,-0.010911,-0.005432,-0.00269,57.49469,3.82518,-149.932602,,,
729863150.03972,0.036684,4.423404,49.153706,-0.057816,0.00737,0.987366,-0.010911,-0.005432,-0.00269,57.49469,3.82518,-149.932602,,,
729863150.043064,0.036684,4.423404,49.153706,-0.057816,0.00737,0.987366,-0.010911,-0.005432,-0.00269,57.49469,3.82518,-149.932602,,,
729863150.046477,0.033227,4.425797,49.153437,-0.057816,0.00737,0.987366,-0.023172,0.031229,-0.003288,57.49469,3.82518,-149.932602,,,
729863150.049708,0.027453,4.432451,49.15326,-0.059616,0.006775,0.993011,-0.023172,0.031229,-0.003288,57.49469,3.82518,-149.932602,,,
729863150.053069,0.027453,4.432451,49.15326,-0.059616,0.006775,0.993011,-0.023172,0.031229,-0.003288,57.49469,3.82518,-149.932602,,,
729863150.056393,0.0195,4.444007,49.152658,-0.059616,0.006775,0.993011,-0.025779,0.050125,-0.00541,57.49469,3.82518,-149.932602,,,
729863150.05974,0.011965,4.457927,49.151507,-0.0634,0.003067,0.997284,-0.025779,0.050125,-0.00541,57.49469,3.82518,-149.932602,,,
729863150.063049,0.011965,4.457927,49.151507,-0.0634,0.003067,0.997284,-0.025779,0.050125,-0.00541,57.483124,3.98317,-150.161301,,,
729863150.066397,0.00514,4.473702,49.149891,-0.0634,0.003067,0.997284,-0.012807,0.04433,-0.005438,57.483124,3.98317,-150.161301,,,
729863150.069758,0.000583,4.486394,49.148023,-0.072968,0.000443,0.996811,-0.012807,0.04433,-0.005438,57.483124,3.98317,-150.161301,,,
729863150.073105,0.000583,4.486394,49.148023,-0.072968,0.000443,0.996811,-0.012807,0.04433,-0.005438,57.483124,3.98317,-150.161301,,,
729863150.076415,-0.002355,4.494317,49.145586,-0.072968,0.000443,0.996811,0.010213,0.008257,-0.008976,57.483124,3.98317,-150.161301,,,
729863150.079779,-0.001465,4.49741,49.142838,-0.083359,-0.000961,0.992584,0.010213,0.008257,-0.008976,57.483124,3.98317,-150.161301,,,
729863150.083101,-0.001465,4.49741,49.142838,-0.083359,-0.000961,0.992584,0.010213,0.008257,-0.008976,57.483124,3.98317,-150.161301,,,
729863150.08648,0.002469,4.492061,49.140231,-0.083359,-0.000961,0.992584,0.028759,-0.02296,-0.010803,57.483124,3.98317,-150.161301,,,
729863150.089713,0.009906,4.485748,49.137494,-0.085571,-0.006271,0.995758,0.028759,-0.02296,-0.010803,57.483124,3.98317,-150.161301,,,
729863150.092961,0.009906,4.485748,49.137494,-0.085571,-0.006271,0.995758,0.028759,-0.02296,-0.010803,57.483124,3.98317,-150.161301,,,
729863150.096406,0.017741,4.475106,49.135324,-0.085571,-0.006271,0.995758,0.028686,-0.023956,-0.002537,57.483124,3.98317,-150.161301,,,
729863150.099725,0.026162,4.467441,49.134183,-0.084259,-0.005386,0.991592,0.028686,-0.023956,-0.002537,57.483124,3.98317,-150.161301,,,
729863150.103106,0.026162,4.467441,49.134183,-0.084259,-0.005386,0.991592,0.028686,-0.023956,-0.002537,57.483124,3.98317,-150.161301,,,
729863150.106469,0.03227,4.458681,49.134127,-0.084259,-0.005386,0.991592,0.015879,-0.006484,0.002229,57.473434,3.725555,-149.936371,,,
729863150.109721,0.036902,4.455318,49.134755,-0.07962,0.002441,0.98941,0.015879,-0.006484,0.002229,57.473434,3.725555,-149.936371,,,
729863150.113074,0.036902,4.455318,49.134755,-0.07962,0.002441,0.98941,0.015879,-0.006484,0.002229,57.473434,3.725555,-149.936371,,,
729863150.116411,0.041001,4.448457,49.135662,-0.07962,0.002441,0.98941,0.005443,0.003067,0.001497,57.473434,3.725555,-149.936371,,,
729863150.119732,0.043049,4.448157,49.13668,-0.076355,0.002762,0.991776,0.005443,0.003067,0.001497,57.473434,3.725555,-149.936371,,,
729863150.123074,0.043049,4.448157,49.13668,-0.076355,0.002762,0.991776,0.005443,0.003067,0.001497,57.473434,3.725555,-149.936371,,,
729863150.126398,0.045793,4.443824,49.136701,-0.076355,0.002762,0.991776,-0.002922,0.013378,-0.010061,57.473434,3.725555,-149.936371,,,
729863150.129755,0.045268,4.446267,49.135459,-0.071136,0.005341,0.990921,-0.002922,0.013378,-0.010061,57.473434,3.725555,-149.936371,,,
729863150.133161,0.045268,4.446267,49.135459,-0.071136,0.005341,0.990921,-0.002922,0.013378,-0.010061,57.473434,3.725555,-149.936371,,,
729863150.136404,0.043715,4.44349,49.13283,-0.071136,0.005341,0.990921,-0.013623,0.01084,-0.016258,57.473434,3.725555,-149.936371,,,
729863150.139723,0.039078,4.4459,49.128933,-0.069611,0.002625,0.986343,-0.013623,0.01084,-0.016258,57.473434,3.725555,-149.936371,,,
729863150.143067,0.039078,4.4459,49.128933,-0.069611,0.002625,0.986343,-0.013623,0.01084,-0.016258,57.473434,3.725555,-149.936371,,,
729863150.146454,0.034403,4.443534,49.124327,-0.069611,0.002625,0.986343,-0.015815,0.004933,-0.020151,57.267029,3.796463,-150.077484,,,
729863150.149723,0.029224,4.44459,49.119477,-0.072845,0.003326,0.992096,-0.015815,0.004933,-0.020151,57.267029,3.796463,-150.077484,,,
729863150.153067,0.029224,4.44459,49.119477,-0.072845,0.003326,0.992096,-0.015815,0.004933,-0.020151,57.267029,3.796463,-150.077484,,,
729863150.156395,0.023185,4.444636,49.115044,-0.072845,0.003326,0.992096,-0.022109,0.000235,-0.016247,57.267029,3.796463,-150.077484,,,
729863150.159718,0.016499,4.444482,49.111122,-0.078171,0.000259,0.99231,-0.022109,0.000235,-0.016247,57.267029,3.796463,-150.077484,,,
729863150.163063,0.016499,4.444482,49.111122,-0.078171,0.000259,0.99231,-0.022109,0.000235,-0.016247,57.267029,3.796463,-150.077484,,,
729863150.166391,0.008377,4.446709,49.107192,-0.078171,0.000259,0.99231,-0.0228,0.005879,-0.016228,57.267029,3.796463,-150.077484,,,
729863150.169717,0.001062,4.447659,49.103152,-0.079254,0.001068,0.994095,-0.0228,0.005879,-0.016228,57.267029,3.796463,-150.077484,,,
729863150.173117,0.001062,4.447659,49.103152,-0.079254,0.001068,0.994095,-0.0228,0.005879,-0.016228,57.267029,3.796463,-150.077484,,,
729863150.176387,-0.006457,4.452971,49.099311,-0.079254,0.001068,0.994095,-0.004843,0.018631,-0.013738,57.267029,3.796463,-150.077484,,,
729863150.179722,-0.009492,4.457141,49.09547,-0.079422,-0.001068,1.011246,-0.004843,0.018631,-0.013738,57.267029,3.796463,-150.077484,,,
729863150.18305,-0.009492,4.457141,49.09547,-0.079422,-0.001068,1.011246,-0.004843,0.018631,-0.013738,57.267029,3.796463,-150.077484,,,
729863150.186399,-0.009389,4.464845,49.091734,-0.079422,-0.001068,1.011246,0.017923,0.023405,-0.014586,57.264145,3.840683,-150.27652,,,
729863150.189726,-0.005195,4.471241,49.087887,-0.081787,-0.003372,1.020676,0.017923,0.023405,-0.014586,57.264145,3.840683,-150.27652,,,
729863150.193067,-0.005195,4.471241,49.087887,-0.081787,-0.003372,1.020676,0.017923,0.023405,-0.014586,57.264145,3.840683,-150.27652,,,
729863150.196471,0.002592,4.477159,49.083653,-0.081787,-0.003372,1.020676,0.035739,0.016711,-0.01861,57.264145,3.840683,-150.27652,,,
729863150.199718,0.011792,4.481589,49.078417,-0.080215,-0.003967,1.017502,0.035739,0.016711,-0.01861,57.264145,3.840683,-150.27652,,,
729863150.203072,0.011792,4.481589,49.078417,-0.080215,-0.003967,1.017502,0.035739,0.016711,-0.01861,57.264145,3.840683,-150.27652,,,
729863150.206409,0.023138,4.484031,49.072129,-0.080215,-0.003967,1.017502,0.042321,0.006316,-0.01977,57.264145,3.840683,-150.27652,,,
729863150.209725,0.034253,4.48588,49.065572,-0.084366,-0.003326,1.009338,0.042321,0.006316,-0.01977,57.264145,3.840683,-150.27652,,,
729863150.213075,0.034253,4.48588,49.065572,-0.084366,-0.003326,1.009338,0.042321,0.006316,-0.01977,57.264145,3.840683,-150.27652,,,
729863150.216392,0.045934,4.483547,49.05943,-0.084366,-0.003326,1.009338,0.031504,-0.000758,-0.013379,57.264145,3.840683,-150.27652,,,
729863150.219725,0.055073,4.48246,49.054872,-0.092621,-0.001419,0.997574,0.031504,-0.000758,-0.013379,57.264145,3.840683,-150.27652,,,
729863150.223123,0.055073,4.48246,49.054872,-0.092621,-0.001419,0.997574,0.031504,-0.000758,-0.013379,57.264145,3.840683,-150.27652,,,
729863150.226378,0.063301,4.478051,49.052372,-0.092621,-0.001419,0.997574,0.020029,-0.004748,-0.000469,57.453735,3.85849,-150.262329,,,
729863150.22972,0.069916,4.476172,49.051664,-0.095856,0.001755,0.99263,0.020029,-0.004748,-0.000469,57.453735,3.85849,-150.262329,,,
729863150.233063,0.069916,4.476172,49.051664,-0.095856,0.001755,0.99263,0.020029,-0.004748,-0.000469,57.453735,3.85849,-150.262329,,,
729863150.236479,0.075003,4.473877,49.052841,-0.095856,0.001755,0.99263,0.012284,0.003597,0.008413,57.453735,3.85849,-150.262329,,,
729863150.239717,0.078352,4.47322,49.05524,-0.091278,0.001419,0.995605,0.012284,0.003597,0.008413,57.453735,3.85849,-150.262329,,,
729863150.243068,0.078352,4.47322,49.05524,-0.091278,0.001419,0.995605,0.012284,0.003597,0.008413,57.453735,3.85849,-150.262329,,,
729863150.246414,0.080486,4.47325,49.058323,-0.091278,0.001419,0.995605,0.005591,0.00092,0.012454,57.453735,3.85849,-150.262329,,,
729863150.249722,0.082779,4.472667,49.062291,-0.084335,0.002365,0.990616,0.005591,0.00092,0.012454,57.453735,3.85849,-150.262329,,,
729863150.253063,0.082779,4.472667,49.062291,-0.084335,0.002365,0.990616,0.005591,0.00092,0.012454,57.453735,3.85849,-150.262329,,,
729863150.25639,0.084272,4.472795,49.066259,-0.084335,0.002365,0.990616,0.00462,0.005455,0.010238,57.453735,3.85849,-150.262329,,,
729863150.259726,0.085393,4.473521,49.069892,-0.081299,0.004959,0.98996,0.00462,0.005455,0.010238,57.453735,3.85849,-150.262329,,,
729863150.263135,0.085393,4.473521,49.069892,-0.081299,0.004959,0.98996,0.00462,0.005455,0.010238,57.453735,3.85849,-150.262329,,,
729863150.266386,0.085671,4.475328,49.073063,-0.081299,0.004959,0.98996,0.001154,0.013159,0.009885,57.453735,3.85849,-150.262329,,,
729863150.269719,0.086353,4.478052,49.07633,-0.079117,0.003967,0.990509,0.001154,0.013159,0.009885,57.187607,4.073288,-149.993607,,,
729863150.273063,0.086353,4.478052,49.07633,-0.079117,0.003967,0.990509,0.001154,0.013159,0.009885,57.187607,4.073288,-149.993607,,,
729863150.276465,0.086028,4.481332,49.079822,-0.079117,0.003967,0.990509,0.006127,0.014061,0.011656,57.187607,4.073288,-149.993607,,,
729863150.279717,0.087594,4.484124,49.082696,-0.077454,0.003677,0.992065,0.006127,0.014061,0.011656,57.187607,4.073288,-149.993607,,,
729863150.283064,0.087594,4.484124,49.082696,-0.077454,0.003677,0.992065,0.006127,0.014061,0.011656,57.187607,4.073288,-149.993607,,,
729863150.286393,0.088781,4.486766,49.084616,-0.077454,0.003677,0.992065,0.008263,0.00751,-0.000612,57.187607,4.073288,-149.993607,,,
729863150.289726,0.091765,4.488047,49.085038,-0.072617,0.006699,0.98999,0.008263,0.00751,-0.000612,57.187607,4.073288,-149.993607,,,
729863150.293084,0.091765,4.488047,49.085038,-0.072617,0.006699,0.98999,0.008263,0.00751,-0.000612,57.187607,4.073288,-149.993607,,,
729863150.296399,0.093896,4.490648,49.083973,-0.072617,0.006699,0.98999,0.011043,0.000569,-0.008042,57.187607,4.073288,-149.993607,,,
729863150.299771,0.096827,4.490316,49.081939,-0.074509,0.003479,0.985138,0.011043,0.000569,-0.008042,57.187607,4.073288,-149.993607,,,
729863150.303126,0.096827,4.490316,49.081939,-0.074509,0.003479,0.985138,0.011043,0.000569,-0.008042,57.187607,4.073288,-149.993607,,,
729863150.306399,0.098624,4.493821,49.079689,-0.074509,0.003479,0.985138,0.0098,-0.004592,-0.003386,57.187607,4.073288,-149.993607,,,
729863150.309723,0.100849,4.491945,49.078427,-0.078033,0.001862,0.983063,0.0098,-0.004592,-0.003386,57.511139,3.9776,-149.888687,,,
729863150.313056,0.100849,4.491945,49.078427,-0.078033,0.001862,0.983063,0.0098,-0.004592,-0.003386,57.511139,3.9776,-149.888687,,,
729863150.316434,0.102851,4.497083,49.078366,-0.078033,0.001862,0.983063,0.000777,0.010042,-0.00074,57.511139,3.9776,-149.888687,,,
729863150.319707,0.103673,4.499412,49.078591,-0.073166,0.005051,0.987411,0.000777,0.010042,-0.00074,57.511139,3.9776,-149.888687,,,
729863150.323064,0.103673,4.499412,49.078591,-0.073166,0.005051,0.987411,0.000777,0.010042,-0.00074,57.511139,3.9776,-149.888687,,,
729863150.326389,0.10207,4.506746,49.078324,-0.073166,0.005051,0.987411,-0.013113,0.023089,-0.008135,57.511139,3.9776,-149.888687,,,
729863150.329724,0.098691,4.511868,49.077194,-0.071259,0.008072,0.984512,-0.013113,0.023089,-0.008135,57.511139,3.9776,-149.888687,,,
729863150.333074,0.098691,4.511868,49.077194,-0.071259,0.008072,0.984512,-0.013113,0.023089,-0.008135,57.511139,3.9776,-149.888687,,,
729863150.336436,0.093189,4.519902,49.075667,-0.071259,0.008072,0.984512,-0.031255,0.021039,-0.007435,57.511139,3.9776,-149.888687,,,
729863150.339721,0.084445,4.525887,49.074746,-0.078079,0.007339,0.97525,-0.031255,0.021039,-0.007435,57.511139,3.9776,-149.888687,,,
729863150.34315,0.084445,4.525887,49.074746,-0.078079,0.007339,0.97525,-0.031255,0.021039,-0.007435,57.511139,3.9776,-149.888687,,,
729863150.346395,0.073542,4.530312,49.075136,-0.078079,0.007339,0.97525,-0.055513,0.009296,-0.001797,57.511139,3.9776,-149.888687,,,
729863150.349751,0.058516,4.532188,49.076388,-0.079788,0.010284,0.966949,-0.055513,0.009296,-0.001797,57.583221,3.845917,-150.238129,,,
729863150.353086,0.058516,4.532188,49.076388,-0.079788,0.010284,0.966949,-0.055513,0.009296,-0.001797,57.583221,3.845917,-150.238129,,,
729863150.356486,0.041888,4.532541,49.077394,-0.079788,0.010284,0.966949,-0.065231,-0.003371,-0.00084,57.583221,3.845917,-150.238129,,,
729863150.359454,0.041888,4.532541,49.077394,-0.079788,0.010284,0.966949,-0.065231,-0.003371,-0.00084,57.583221,3.845917,-150.238129,,,
729863150.363142,0.023841,4.531211,49.078537,-0.074509,0.008835,0.972397,-0.065231,-0.003371,-0.00084,57.583221,3.845917,-150.238129,,,
729863150.366428,0.006579,4.528831,49.079748,-0.074509,0.008835,0.972397,-0.065038,-0.00399,-0.007698,57.583221,3.845917,-150.238129,,,
729863150.369741,-0.011924,4.527168,49.079838,-0.070465,0.003052,0.981506,-0.065038,-0.00399,-0.007698,57.583221,3.845917,-150.238129,,,
729863150.37308,-0.011924,4.527168,49.079838,-0.070465,0.003052,0.981506,-0.065038,-0.00399,-0.007698,57.583221,3.845917,-150.238129,,,
729863150.376401,-0.027763,4.524512,49.07895,-0.070465,0.003052,0.981506,-0.047558,-6.9e-05,-0.009008,57.583221,3.845917,-150.238129,,,
729863150.379726,-0.042335,4.523891,49.077374,-0.063339,-0.000809,0.994324,-0.047558,-6.9e-05,-0.009008,57.583221,3.845917,-150.238129,,,
729863150.383096,-0.042335,4.523891,49.077374,-0.063339,-0.000809,0.994324,-0.047558,-6.9e-05,-0.009008,57.583221,3.845917,-150.238129,,,
729863150.386383,-0.052388,4.523346,49.074788,-0.063339,-0.000809,0.994324,-0.017351,0.008932,-0.016193,57.583221,3.845917,-150.238129,,,
729863150.389716,-0.059101,4.524665,49.070752,-0.061829,-0.007996,1.013977,-0.017351,0.008932,-0.016193,57.583221,3.845917,-150.238129,,,
729863150.393161,-0.059101,4.524665,49.070752,-0.061829,-0.007996,1.013977,-0.017351,0.008932,-0.016193,57.513321,3.991013,-150.3293,,,
729863150.396397,-0.061281,4.526978,49.065061,-0.061829,-0.007996,1.013977,0.007787,0.018314,-0.021879,57.513321,3.991013,-150.3293,,,
729863150.399751,-0.060263,4.530645,49.058912,-0.069702,-0.011307,1.02388,0.007787,0.018314,-0.021879,57.513321,3.991013,-150.3293,,,
729863150.403068,-0.060263,4.530645,49.058912,-0.069702,-0.011307,1.02388,0.007787,0.018314,-0.021879,57.513321,3.991013,-150.3293,,,
729863150.406466,-0.054043,4.534247,49.053809,-0.069702,-0.011307,1.02388,0.027501,0.021973,-0.013468,57.513321,3.991013,-150.3293,,,
729863150.409735,-0.047198,4.540152,49.049611,-0.077896,-0.010361,1.018311,0.027501,0.021973,-0.013468,57.513321,3.991013,-150.3293,,,
729863150.413063,-0.047198,4.540152,49.049611,-0.077896,-0.010361,1.018311,0.027501,0.021973,-0.013468,57.513321,3.991013,-150.3293,,,
729863150.416391,-0.038143,4.543806,49.04601,-0.077896,-0.010361,1.018311,0.020356,0.014533,-0.012705,57.513321,3.991013,-150.3293,,,
729863150.419726,-0.032643,4.548057,49.042019,-0.077896,-0.002335,1.002731,0.020356,0.014533,-0.012705,57.513321,3.991013,-150.3293,,,
729863150.423062,-0.032643,4.548057,49.042019,-0.077896,-0.002335,1.002731,0.020356,0.014533,-0.012705,57.513321,3.991013,-150.3293,,,
729863150.426382,-0.027599,4.550801,49.036581,-0.077896,-0.002335,1.002731,-9.9e-05,-0.002063,-0.023833,57.513321,3.991013,-150.3293,,,
729863150.42978,-0.027761,4.549743,49.030155,-0.075516,0.00441,0.983261,-9.9e-05,-0.002063,-0.023833,57.513321,3.991013,-150.3293,,,
729863150.43308,-0.027761,4.549743,49.030155,-0.075516,0.00441,0.983261,-9.9e-05,-0.002063,-0.023833,57.448441,3.955872,-150.278198,,,
729863150.43639,-0.029097,4.546966,49.023516,-0.075516,0.00441,0.983261,-0.03155,-0.013831,-0.027902,57.448441,3.955872,-150.278198,,,
729863150.439736,-0.037679,4.542858,49.016793,-0.078461,0.006195,0.975342,-0.03155,-0.013831,-0.027902,57.448441,3.955872,-150.278198,,,
729863150.443061,-0.037679,4.542858,49.016793,-0.078461,0.006195,0.975342,-0.03155,-0.013831,-0.027902,57.448441,3.955872,-150.278198,,,
729863150.446392,-0.047877,4.537202,49.011027,-0.078461,0.006195,0.975342,-0.051486,-0.015795,-0.014162,57.448441,3.955872,-150.278198,,,
729863150.449794,-0.062559,4.532403,49.007823,-0.084549,0.003983,0.9814,-0.051486,-0.015795,-0.014162,57.448441,3.955872,-150.278198,,,
729863150.453107,-0.062559,4.532403,49.007823,-0.084549,0.003983,0.9814,-0.051486,-0.015795,-0.014162,57.448441,3.955872,-150.278198,,,
729863150.45639,-0.077444,4.524305,49.006928,-0.084549,0.003983,0.9814,-0.050147,-0.017649,-1.8e-05,57.448441,3.955872,-150.278198,,,
729863150.459813,-0.0924,4.518313,49.007991,-0.08577,0.001801,0.990097,-0.050147,-0.017649,-1.8e-05,57.448441,3.955872,-150.278198,,,
729863150.463062,-0.0924,4.518313,49.007991,-0.08577,0.001801,0.990097,-0.050147,-0.017649,-1.8e-05,57.448441,3.955872,-150.278198,,,
729863150.466409,-0.106266,4.50758,49.010169,-0.08577,0.001801,0.990097,-0.042329,-0.006457,0.005136,57.448441,3.955872,-150.278198,,,
729863150.469792,-0.118649,4.50452,49.012522,-0.081848,-0.00174,1.005981,-0.042329,-0.006457,0.005136,57.448441,3.955872,-150.278198,,,
729863150.473118,-0.118649,4.50452,49.012522,-0.081848,-0.00174,1.005981,-0.042329,-0.006457,0.005136,57.420944,3.997971,-150.397507,,,
729863150.476398,-0.131251,4.499387,49.01421,-0.081848,-0.00174,1.005981,-0.025686,0.015733,-0.001526,57.420944,3.997971,-150.397507,,,
729863150.479736,-0.131251,4.499387,49.01421,-0.081848,-0.00174,1.005981,-0.025686,0.015733,-0.001526,57.420944,3.997971,-150.397507,,,
729863150.483083,-0.139458,4.502126,49.01468,-0.074936,-0.005722,1.015839,-0.025686,0.015733,-0.001526,57.420944,3.997971,-150.397507,,,
729863150.486529,-0.145567,4.504774,49.013736,-0.074936,-0.005722,1.015839,0.003373,0.022234,-0.007438,57.420944,3.997971,-150.397507,,,
729863150.489726,-0.145567,4.504774,49.013736,-0.074936,-0.005722,1.015839,0.003373,0.022234,-0.007438,57.420944,3.997971,-150.397507,,,
729863150.493066,-0.145886,4.510803,49.011703,-0.07402,-0.008026,1.026794,0.003373,0.022234,-0.007438,57.420944,3.997971,-150.397507,,,
729863150.496409,-0.144516,4.516185,49.009039,-0.07402,-0.008026,1.026794,0.025633,0.021261,-0.003898,57.420944,3.997971,-150.397507,,,
729863150.499773,-0.144516,4.516185,49.009039,-0.07402,-0.008026,1.026794,0.025633,0.021261,-0.003898,57.420944,3.997971,-150.397507,,,
729863150.503069,-0.138433,4.521665,49.00695,-0.087296,-0.00972,1.021744,0.025633,0.021261,-0.003898,57.420944,3.997971,-150.397507,,,
729863150.506402,-0.129843,4.525998,49.006564,-0.087296,-0.00972,1.021744,0.036641,0.018083,0.005526,57.420944,3.997971,-150.397507,,,
729863150.50983,-0.129843,4.530302,49.006964,-0.087296,-0.00972,1.021744,0.036641,0.018083,0.005526,57.420944,3.997971,-150.397507,,,
729863150.513049,-0.120445,4.530302,49.006964,-0.091217,-0.009613,1.010605,0.036641,0.018083,0.005526,57.25618,4.002457,-150.314072,,,
729863150.516392,-0.108296,4.533205,49.008159,-0.091217,-0.009613,1.010605,0.044364,0.003557,0.014046,57.25618,4.002457,-150.314072,,,
729863150.519722,-0.108296,4.533205,49.008159,-0.091217,-0.009613,1.010605,0.044364,0.003557,0.014046,57.25618,4.002457,-150.314072,,,
729863150.523064,-0.096689,4.533978,49.011025,-0.095871,-0.006424,1.004303,0.044364,0.003557,0.014046,57.25618,4.002457,-150.314072,,,
729863150.526462,-0.082899,4.5321,49.014898,-0.095871,-0.006424,1.004303,0.035877,-0.017824,0.015507,57.25618,4.002457,-150.314072,,,
729863150.529769,-0.082899,4.5321,49.014898,-0.095871,-0.006424,1.004303,0.035877,-0.017824,0.015507,57.25618,4.002457,-150.314072,,,
729863150.533058,-0.071787,4.527207,49.018685,-0.090424,-0.005356,0.996613,0.035877,-0.017824,0.015507,57.25618,4.002457,-150.314072,,,
729863150.536413,-0.061507,4.524095,49.0224,-0.090424,-0.005356,0.996613,0.019458,-0.017466,0.012452,57.25618,4.002457,-150.314072,,,
729863150.539818,-0.061507,4.524095,49.0224,-0.090424,-0.005356,0.996613,0.019458,-0.017466,0.012452,57.25618,4.002457,-150.314072,,,
729863150.543054,-0.055214,4.518571,49.025859,-0.07988,-0.000412,0.989548,0.019458,-0.017466,0.012452,57.25618,4.002457,-150.314072,,,
729863150.546412,-0.051929,4.516147,49.028821,-0.07988,-0.000412,0.989548,-0.005229,-0.007674,0.011933,57.25618,4.002457,-150.314072,,,
729863150.549765,-0.051929,4.516147,49.028821,-0.07988,-0.000412,0.989548,-0.005229,-0.007674,0.011933,57.25618,4.002457,-150.314072,,,
729863150.553082,-0.05252,4.51273,49.032214,-0.074142,0.004776,0.982208,-0.005229,-0.007674,0.011933,57.25618,4.002457,-150.314072,,,
729863150.55641,-0.056588,4.509963,49.036692,-0.074142,0.004776,0.982208,-0.025571,-0.005155,0.009666,57.340317,3.92868,-150.032486,,,
729863150.559764,-0.056588,4.509963,49.036692,-0.074142,0.004776,0.982208,-0.025571,-0.005155,0.009666,57.340317,3.92868,-150.032486,,,
729863150.563142,-0.062708,4.507391,49.041124,-0.072571,0.003571,0.981171,-0.025571,-0.005155,0.009666,57.340317,3.92868,-150.032486,,,
729863150.566381,-0.072724,4.503061,49.045243,-0.072571,0.003571,0.981171,-0.038843,-0.007275,0.011053,57.340317,3.92868,-150.032486,,,
729863150.569759,-0.072724,4.503061,49.045243,-0.072571,0.003571,0.981171,-0.038843,-0.007275,0.011053,57.340317,3.92868,-150.032486,,,
729863150.573048,-0.083479,4.500509,49.04948,-0.075073,0.001083,0.98143,-0.038843,-0.007275,0.011053,57.340317,3.92868,-150.032486,,,
729863150.576423,-0.096224,4.496537,49.053505,-0.075073,0.001083,0.98143,-0.038266,-0.005014,0.004047,57.340317,3.92868,-150.032486,,,
729863150.579719,-0.096224,4.496537,49.053505,-0.075073,0.001083,0.98143,-0.038266,-0.005014,0.004047,57.340317,3.92868,-150.032486,,,
729863150.583066,-0.107147,4.494345,49.056555,-0.069077,0.000229,0.989868,-0.038266,-0.005014,0.004047,57.340317,3.92868,-150.032486,,,
729863150.586397,-0.118478,4.49704,49.057565,-0.069077,0.000229,0.989868,-0.020126,0.014172,-0.008599,57.340317,3.92868,-150.032486,,,
729863150.589802,-0.118478,4.49704,49.057565,-0.069077,0.000229,0.989868,-0.020126,0.014172,-0.008599,57.340317,3.92868,-150.032486,,,
729863150.59307,-0.126035,4.499947,49.05635,-0.061462,-0.004684,1.011398,-0.020126,0.014172,-0.008599,57.340317,3.92868,-150.032486,,,
729863150.596388,-0.13239,4.509213,49.053023,-0.061462,-0.004684,1.011398,-0.005049,0.030393,-0.02322,57.326492,3.973877,-150.404755,,,
729863150.59974,-0.13239,4.509213,49.053023,-0.061462,-0.004684,1.011398,-0.005049,0.030393,-0.02322,57.326492,3.973877,-150.404755,,,
729863150.603023,-0.135239,4.516777,49.048052,-0.065643,-0.007248,1.01683,-0.005049,0.030393,-0.02322,57.326492,3.973877,-150.404755,,,
729863150.606396,-0.136905,4.530396,49.042449,-0.065643,-0.007248,1.01683,0.010423,0.030566,-0.01932,57.326492,3.973877,-150.404755,,,
729863150.609725,-0.136905,4.530396,49.042449,-0.065643,-0.007248,1.01683,0.010423,0.030566,-0.01932,57.326492,3.973877,-150.404755,,,
729863150.613162,-0.134943,4.538407,49.037273,-0.078369,-0.007446,1.012238,0.010423,0.030566,-0.01932,57.326492,3.973877,-150.404755,,,
729863150.616391,-0.131571,4.548455,49.03278,-0.078369,-0.007446,1.012238,0.017052,0.024091,-0.012796,57.326492,3.973877,-150.404755,,,
729863150.619726,-0.131571,4.548455,49.03278,-0.078369,-0.007446,1.012238,0.017052,0.024091,-0.012796,57.326492,3.973877,-150.404755,,,
729863150.623074,-0.126962,4.554398,49.029164,-0.089371,-0.004715,1.003632,0.017052,0.024091,-0.012796,57.326492,3.973877,-150.404755,,,
729863150.626387,-0.122138,4.558073,49.026744,-0.089371,-0.004715,1.003632,0.012527,0.002609,-0.003828,57.326492,3.973877,-150.404755,,,
729863150.629737,-0.122138,4.558073,49.026744,-0.089371,-0.004715,1.003632,0.012527,0.002609,-0.003828,57.326492,3.973877,-150.404755,,,
729863150.633064,-0.119222,4.558901,49.025498,-0.092209,-0.001251,0.992264,0.012527,0.002609,-0.003828,57.326492,3.973877,-150.404755,,,
729863150.636478,-0.115032,4.555267,49.025281,-0.092209,-0.001251,0.992264,0.003188,-0.013464,-0.002141,57.429291,3.989456,-150.375748,,,
729863150.639782,-0.115032,4.555267,49.025281,-0.092209,-0.001251,0.992264,0.003188,-0.013464,-0.002141,57.429291,3.989456,-150.375748,,,
729863150.64306,-0.114204,4.550832,49.024889,-0.085846,0.004852,0.985641,0.003188,-0.013464,-0.002141,57.429291,3.989456,-150.375748,,,
729863150.646388,-0.114706,4.543847,49.024321,-0.085846,0.004852,0.985641,-0.014402,-0.017163,-0.004323,57.429291,3.989456,-150.375748,,,
729863150.649733,-0.114706,4.543847,49.024321,-0.085846,0.004852,0.985641,-0.014402,-0.017163,-0.004323,57.429291,3.989456,-150.375748,,,
729863150.653138,-0.11848,4.537925,49.023692,-0.078461,0.005951,0.98053,-0.014402,-0.017163,-0.004323,57.429291,3.989456,-150.375748,,,
729863150.656388,-0.124528,4.53224,49.022696,-0.078461,0.005951,0.98053,-0.033958,-0.000926,-0.006728,57.429291,3.989456,-150.375748,,,
729863150.65955,-0.124528,4.53224,49.022696,-0.078461,0.005951,0.98053,-0.033958,-0.000926,-0.006728,57.429291,3.989456,-150.375748,,,
729863150.663133,-0.133805,4.530126,49.021757,-0.078018,0.007111,0.980164,-0.033958,-0.000926,-0.006728,57.429291,3.989456,-150.375748,,,
729863150.66639,-0.144085,4.526184,49.021147,-0.078018,0.007111,0.980164,-0.043195,0.011665,-0.002373,57.429291,3.989456,-150.375748,,,
729863150.669743,-0.144085,4.526184,49.021147,-0.078018,0.007111,0.980164,-0.043195,0.011665,-0.002373,57.429291,3.989456,-150.375748,,,
729863150.673055,-0.155608,4.527785,49.021319,-0.077087,0.003464,0.9897,-0.043195,0.011665,-0.002373,57.429291,3.989456,-150.375748,,,
729863150.676393,-0.166974,4.52572,49.022063,-0.077087,0.003464,0.9897,-0.02603,0.023565,-0.000205,57.321793,3.963425,-150.728699,,,
729863150.679781,-0.166974,4.52572,49.022063,-0.077087,0.003464,0.9897,-0.02603,0.023565,-0.000205,57.321793,3.963425,-150.728699,,,
729863150.683044,-0.175472,4.53128,49.023075,-0.072098,-0.004288,1.00206,-0.02603,0.023565,-0.000205,57.321793,3.963425,-150.728699,,,
729863150.686394,-0.182114,4.534829,49.024814,-0.072098,-0.004288,1.00206,-0.008708,0.03206,0.001792,57.321793,3.963425,-150.728699,,,
729863150.689742,-0.182114,4.534829,49.024814,-0.072098,-0.004288,1.00206,-0.008708,0.03206,0.001792,57.321793,3.963425,-150.728699,,,
729863150.693104,-0.184954,4.542648,49.026386,-0.073318,-0.009384,1.01033,-0.008708,0.03206,0.001792,57.321793,3.963425,-150.728699,,,
729863150.696425,-0.186397,4.550454,49.027317,-0.073318,-0.009384,1.01033,0.006862,0.024038,0.001786,57.321793,3.963425,-150.728699,,,
729863150.699749,-0.186397,4.550454,49.027317,-0.073318,-0.009384,1.01033,0.006862,0.024038,0.001786,57.321793,3.963425,-150.728699,,,
729863150.703073,-0.185022,4.556787,49.027808,-0.071976,-0.006516,0.999557,0.006862,0.024038,0.001786,57.321793,3.963425,-150.728699,,,
729863150.706396,-0.182063,4.565471,49.02759,-0.071976,-0.006516,0.999557,0.017851,0.017851,-0.004913,57.321793,3.963425,-150.728699,,,
729863150.70973,-0.182063,4.565471,49.02759,-0.071976,-0.006516,0.999557,0.017851,0.017851,-0.004913,57.321793,3.963425,-150.728699,,,
729863150.713079,-0.178063,4.570835,49.026622,-0.069672,-0.006973,1.001389,0.017851,0.017851,-0.004913,57.321793,3.963425,-150.728699,,,
729863150.716394,-0.172219,4.57894,49.025014,-0.069672,-0.006973,1.001389,0.018208,0.011563,-0.006453,57.321793,3.963425,-150.728699,,,
729863150.719801,-0.172219,4.57894,49.025014,-0.069672,-0.006973,1.001389,0.018208,0.011563,-0.006453,57.40744,4.119278,-150.434296,,,
729863150.723055,-0.166898,4.581999,49.022537,-0.072586,-0.009216,0.9991,0.018208,0.011563,-0.006453,57.40744,4.119278,-150.434296,,,
729863150.72639,-0.160262,4.584531,49.020043,-0.072586,-0.009216,0.9991,0.016746,-0.007867,-0.001962,57.40744,4.119278,-150.434296,,,
729863150.729745,-0.160262,4.584531,49.020043,-0.072586,-0.009216,0.9991,0.016746,-0.007867,-0.001962,57.40744,4.119278,-150.434296,,,
729863150.733107,-0.155677,4.58234,49.018943,-0.076233,-0.008469,0.993088,0.016746,-0.007867,-0.001962,57.40744,4.119278,-150.434296,,,
729863150.736394,-0.14895,4.576933,49.018606,-0.076233,-0.008469,0.993088,0.013686,-0.021752,-0.003518,57.40744,4.119278,-150.434296,,,
729863150.739757,-0.14895,4.576933,49.018606,-0.076233,-0.008469,0.993088,0.013686,-0.021752,-0.003518,57.40744,4.119278,-150.434296,,,
729863150.743079,-0.145193,4.57021,49.017949,-0.075745,-0.004608,0.990707,0.013686,-0.021752,-0.003518,57.40744,4.119278,-150.434296,,,
729863150.746388,-0.140439,4.562919,49.01643,-0.075745,-0.004608,0.990707,0.009314,-0.018376,-0.009163,57.40744,4.119278,-150.434296,,,
729863150.749743,-0.140439,4.562919,49.01643,-0.075745,-0.004608,0.990707,0.009314,-0.018376,-0.009163,57.40744,4.119278,-150.434296,,,
729863150.753078,-0.138068,4.55594,49.014209,-0.069733,-0.003845,0.992432,0.009314,-0.018376,-0.009163,57.40744,4.119278,-150.434296,,,
729863150.756386,-0.135349,4.549346,49.011031,-0.069733,-0.003845,0.992432,0.006503,-0.004186,-0.013456,57.40744,4.119278,-150.434296,,,
729863150.759718,-0.135349,4.549346,49.011031,-0.069733,-0.003845,0.992432,0.006503,-0.004186,-0.013456,57.479431,3.790894,-150.404007,,,
729863150.763067,-0.134422,4.545905,49.006931,-0.065613,-0.003998,0.995819,0.006503,-0.004186,-0.013456,57.479431,3.790894,-150.404007,,,
729863150.766388,-0.134676,4.542165,49.002132,-0.065613,-0.003998,0.995819,0.010116,0.00679,-0.018747,57.479431,3.790894,-150.404007,,,
729863150.769788,-0.134676,4.542165,49.002132,-0.065613,-0.003998,0.995819,0.010116,0.00679,-0.018747,57.479431,3.790894,-150.404007,,,
729863150.773046,-0.133096,4.542989,48.997236,-0.067566,-0.002655,0.996262,0.010116,0.00679,-0.018747,57.479431,3.790894,-150.404007,,,
729863150.776385,-0.131213,4.543177,48.991932,-0.067566,-0.002655,0.996262,0.024878,0.010902,-0.019579,57.479431,3.790894,-150.404007,,,
729863150.779719,-0.131213,4.543177,48.991932,-0.067566,-0.002655,0.996262,0.024878,0.010902,-0.019579,57.479431,3.790894,-150.404007,,,
729863150.783127,-0.125506,4.545266,48.985985,-0.075409,-0.005753,1.002411,0.024878,0.010902,-0.019579,57.479431,3.790894,-150.404007,,,
729863150.786383,-0.11723,4.544439,48.980068,-0.075409,-0.005753,1.002411,0.043378,0.001939,-0.017545,57.479431,3.790894,-150.404007,,,
729863150.789773,-0.11723,4.544439,48.980068,-0.075409,-0.005753,1.002411,0.043378,0.001939,-0.017545,57.479431,3.790894,-150.404007,,,
729863150.793068,-0.105512,4.544652,48.974457,-0.086426,-0.007645,1.002701,0.043378,0.001939,-0.017545,57.479431,3.790894,-150.404007,,,
729863150.796391,-0.093462,4.540005,48.969415,-0.086426,-0.007645,1.002701,0.050795,-0.006006,-0.010039,57.479431,3.790894,-150.404007,,,
729863150.799753,-0.093462,4.540005,48.969415,-0.086426,-0.007645,1.002701,0.050795,-0.006006,-0.010039,57.434937,3.804688,-150.404099,,,
729863150.803091,-0.079169,4.537615,48.965266,-0.0914,-0.006302,0.997299,0.050795,-0.006006,-0.010039,57.434937,3.804688,-150.404099,,,
729863150.806388,-0.067194,4.532672,48.962302,-0.0914,-0.006302,0.997299,0.041207,-0.01259,-0.00176,57.434937,3.804688,-150.404099,,,
729863150.809724,-0.067194,4.532672,48.962302,-0.0914,-0.006302,0.997299,0.041207,-0.01259,-0.00176,57.434937,3.804688,-150.404099,,,
729863150.81307,-0.055496,4.528792,48.960352,-0.092941,-9.2e-05,0.983902,0.041207,-0.01259,-0.00176,57.434937,3.804688,-150.404099,,,
729863150.816386,-0.048637,4.524464,48.959468,-0.092941,-9.2e-05,0.983902,0.010218,-0.007883,-0.00138,57.434937,3.804688,-150.404099,,,
729863150.819786,-0.048637,4.524464,48.959468,-0.092941,-9.2e-05,0.983902,0.010218,-0.007883,-0.00138,57.434937,3.804688,-150.404099,,,
729863150.823056,-0.044647,4.521232,48.95919,-0.092041,0.006271,0.9702,0.010218,-0.007883,-0.00138,57.434937,3.804688,-150.404099,,,
729863150.826388,-0.046403,4.517122,48.959299,-0.092041,0.006271,0.9702,-0.02528,-0.003767,-0.003955,57.434937,3.804688,-150.404099,,,
729863150.829742,-0.046403,4.517122,48.959299,-0.092041,0.006271,0.9702,-0.02528,-0.003767,-0.003955,57.434937,3.804688,-150.404099,,,
729863150.833102,-0.052283,4.515167,48.959534,-0.087021,0.008011,0.964767,-0.02528,-0.003767,-0.003955,57.434937,3.804688,-150.404099,,,
729863150.836395,-0.062368,4.510997,48.959744,-0.087021,0.008011,0.964767,-0.040409,-0.00124,9.1e-05,57.434937,3.804688,-150.404099,,,
729863150.839718,-0.062368,4.510997,48.959744,-0.087021,0.008011,0.964767,-0.040409,-0.00124,9.1e-05,57.44339,3.83963,-150.373917,,,
729863150.843067,-0.073983,4.510129,48.960814,-0.087357,0.005905,0.970901,-0.040409,-0.00124,9.1e-05,57.44339,3.83963,-150.373917,,,
729863150.846386,-0.087456,4.505504,48.962909,-0.087357,0.005905,0.970901,-0.042268,0.002754,0.003693,57.44339,3.83963,-150.373917,,,
729863150.849751,-0.087456,4.505504,48.962909,-0.087357,0.005905,0.970901,-0.042268,0.002754,0.003693,57.44339,3.83963,-150.373917,,,
729863150.853059,-0.100095,4.505535,48.965183,-0.087936,0.00293,0.983673,-0.042268,0.002754,0.003693,57.44339,3.83963,-150.373917,,,
729863150.856388,-0.112252,4.503894,48.96758,-0.087936,0.00293,0.983673,-0.036853,0.010149,0.005689,57.44339,3.83963,-150.373917,,,
729863150.859827,-0.112252,4.503894,48.96758,-0.087936,0.00293,0.983673,-0.036853,0.010149,0.005689,57.44339,3.83963,-150.373917,,,
729863150.863081,-0.123008,4.505998,48.970078,-0.082031,-0.002838,0.997421,-0.036853,0.010149,0.005689,57.44339,3.83963,-150.373917,,,
729863150.8664,-0.133271,4.507496,48.972424,-0.082031,-0.002838,0.997421,-0.027062,0.006333,0.004139,57.44339,3.83963,-150.373917,,,
729863150.86974,-0.133271,4.507496,48.972424,-0.082031,-0.002838,0.997421,-0.027062,0.006333,0.004139,57.44339,3.83963,-150.373917,,,
729863150.873132,-0.141246,4.508553,48.974244,-0.075684,-0.006775,0.99675,-0.027062,0.006333,0.004139,57.44339,3.83963,-150.373917,,,
729863150.876238,-0.148925,4.511703,48.974704,-0.075684,-0.006775,0.99675,-0.010541,0.003903,-0.005704,57.44339,3.83963,-150.373917,,,
729863150.879639,-0.148925,4.511703,48.974704,-0.075684,-0.006775,0.99675,-0.010541,0.003903,-0.005704,57.44339,3.83963,-150.373917,,,
729863150.883099,-0.153386,4.512056,48.973712,-0.066437,-0.005615,0.999634,-0.010541,0.003903,-0.005704,57.263718,3.747803,-150.476349,,,
729863150.886396,-0.157189,4.517353,48.971145,-0.066437,-0.005615,0.999634,-0.007175,0.013735,-0.017523,57.263718,3.747803,-150.476349,,,
729863150.889742,-0.157189,4.517353,48.971145,-0.066437,-0.005615,0.999634,-0.007175,0.013735,-0.017523,57.263718,3.747803,-150.476349,,,
729863150.893082,-0.160136,4.520288,48.967122,-0.065552,-0.008118,1.006592,-0.007175,0.013735,-0.017523,57.263718,3.747803,-150.476349,,,
729863150.896393,-0.161306,4.530184,48.962289,-0.065552,-0.008118,1.006592,-0.002076,0.027485,-0.020651,57.263718,3.747803,-150.476349,,,
729863150.899796,-0.161306,4.530184,48.962289,-0.065552,-0.008118,1.006592,-0.002076,0.027485,-0.020651,57.263718,3.747803,-150.476349,,,
729863150.903099,-0.162612,4.536231,48.957012,-0.07077,-0.007858,1.011124,-0.002076,0.027485,-0.020651,57.263718,3.747803,-150.476349,,,
729863150.906396,-0.161341,4.54755,48.951766,-0.07077,-0.007858,1.011124,-0.001135,0.027806,-0.019966,57.263718,3.747803,-150.476349,,,
729863150.909747,-0.161341,4.54755,48.951766,-0.07077,-0.007858,1.011124,-0.001135,0.027806,-0.019966,57.263718,3.747803,-150.476349,,,
729863150.913148,-0.162451,4.555075,48.946643,-0.078918,-0.007309,1.012283,-0.001135,0.027806,-0.019966,57.263718,3.747803,-150.476349,,,
729863150.916381,-0.160336,4.564527,48.942405,-0.078918,-0.007309,1.012283,0.000994,0.018123,-0.009966,57.263718,3.747803,-150.476349,,,
729863150.919731,-0.160336,4.564527,48.942405,-0.078918,-0.007309,1.012283,0.000994,0.018123,-0.009966,57.263718,3.747803,-150.476349,,,
729863150.923064,-0.159983,4.569486,48.94016,-0.090302,-0.005463,1.007217,0.000994,0.018123,-0.009966,57.506607,3.96373,-150.270416,,,
729863150.926387,-0.158897,4.576129,48.939392,-0.090302,-0.005463,1.007217,-0.009962,0.004277,-0.002651,57.506607,3.96373,-150.270416,,,
729863150.929722,-0.158897,4.576129,48.939392,-0.090302,-0.005463,1.007217,-0.009962,0.004277,-0.002651,57.506607,3.96373,-150.270416,,,
729863150.933056,-0.161047,4.577533,48.939226,-0.089752,-0.002502,0.995224,-0.009962,0.004277,-0.002651,57.506607,3.96373,-150.270416,,,
729863150.936388,-0.163971,4.578811,48.93971,-0.089752,-0.002502,0.995224,-0.021624,-0.007338,-0.002729,57.506607,3.96373,-150.270416,,,
729863150.939782,-0.163971,4.578811,48.93971,-0.089752,-0.002502,0.995224,-0.021624,-0.007338,-0.002729,57.506607,3.96373,-150.270416,,,
729863150.943062,-0.170377,4.57566,48.940018,-0.083511,0.001862,0.986755,-0.021624,-0.007338,-0.002729,57.506607,3.96373,-150.270416,,,
729863150.946394,-0.178618,4.571091,48.939295,-0.083511,0.001862,0.986755,-0.034847,-0.019769,-0.007596,57.506607,3.96373,-150.270416,,,
729863150.949727,-0.178618,4.571091,48.939295,-0.083511,0.001862,0.986755,-0.034847,-0.019769,-0.007596,57.506607,3.96373,-150.270416,,,
729863150.953099,-0.188271,4.565182,48.938056,-0.081573,0.00264,0.986221,-0.034847,-0.019769,-0.007596,57.506607,3.96373,-150.270416,,,
729863150.956387,-0.199531,4.55666,48.937118,-0.081573,0.00264,0.986221,-0.031656,-0.018564,-0.007166,57.506607,3.96373,-150.270416,,,
729863150.959724,-0.199531,4.55666,48.937118,-0.081573,0.00264,0.986221,-0.031656,-0.018564,-0.007166,57.506607,3.96373,-150.270416,,,
729863150.963058,-0.209326,4.550417,48.936187,-0.08075,-7.6e-05,0.996323,-0.031656,-0.018564,-0.007166,57.340973,4.115875,-150.459488,,,
729863150.966385,-0.21795,4.541119,48.934886,-0.08075,-7.6e-05,0.996323,-0.01365,-0.005258,-0.003703,57.340973,4.115875,-150.459488,,,
729863150.969737,-0.21795,4.541119,48.934886,-0.08075,-7.6e-05,0.996323,-0.01365,-0.005258,-0.003703,57.340973,4.115875,-150.459488,,,
729863150.973063,-0.223214,4.538133,48.934224,-0.076492,-0.006622,1.015167,-0.01365,-0.005258,-0.003703,57.340973,4.115875,-150.459488,,,
729863150.976394,-0.225525,4.533398,48.934738,-0.076492,-0.006622,1.015167,0.014413,0.014036,0.003467,57.340973,4.115875,-150.459488,,,
729863150.979805,-0.225525,4.533398,48.934738,-0.076492,-0.006622,1.015167,0.014413,0.014036,0.003467,57.340973,4.115875,-150.459488,,,
729863150.983059,-0.22248,4.53572,48.935861,-0.07869,-0.011703,1.025711,0.014413,0.014036,0.003467,57.340973,4.115875,-150.459488,,,
729863150.986397,-0.216647,4.537691,48.937678,-0.07869,-0.011703,1.025711,0.033447,0.027657,0.009029,57.340973,4.115875,-150.459488,,,
729863150.989734,-0.216647,4.537691,48.937678,-0.07869,-0.011703,1.025711,0.033447,0.027657,0.009029,57.340973,4.115875,-150.459488,,,
729863150.993121,-0.207217,4.543988,48.940323,-0.080658,-0.01033,1.01889,0.033447,0.027657,0.009029,57.340973,4.115875,-150.459488,,,
729863150.996389,-0.196764,4.5516,48.943279,-0.080658,-0.01033,1.01889,0.039662,0.028193,0.009184,57.340973,4.115875,-150.459488,,,
729863150.999548,-0.196764,4.5516,48.943279,-0.080658,-0.01033,1.01889,0.039662,0.028193,0.009184,57.340973,4.115875,-150.459488,,,
729863151.003086,-0.185362,4.558928,48.945803,-0.078735,-0.003632,1.002426,0.039662,0.028193,0.009184,57.483368,4.189514,-150.722046,,,
729863151.006393,-0.175129,4.568772,48.947081,-0.078735,-0.003632,1.002426,0.027191,0.018503,-0.001713,57.483368,4.189514,-150.722046,,,
729863151.009725,-0.175129,4.568772,48.947081,-0.078735,-0.003632,1.002426,0.027191,0.018503,-0.001713,57.483368,4.189514,-150.722046,,,
729863151.013072,-0.166848,4.573683,48.947018,-0.071564,0.00267,0.986908,0.027191,0.018503,-0.001713,57.483368,4.189514,-150.722046,,,
729863151.016392,-0.160334,4.580614,48.945817,-0.071564,0.00267,0.986908,0.015637,0.015451,-0.008961,57.483368,4.189514,-150.722046,,,
729863151.01979,-0.160334,4.580614,48.945817,-0.071564,0.00267,0.986908,0.015637,0.015451,-0.008961,57.483368,4.189514,-150.722046,,,
729863151.023074,-0.155905,4.584829,48.943793,-0.075256,0.003067,0.979645,0.015637,0.015451,-0.008961,57.483368,4.189514,-150.722046,,,
729863151.026395,-0.152285,4.590446,48.940972,-0.075256,0.003067,0.979645,0.006903,0.016605,-0.008413,57.483368,4.189514,-150.722046,,,
729863151.029723,-0.152285,4.590446,48.940972,-0.075256,0.003067,0.979645,0.006903,0.016605,-0.008413,57.483368,4.189514,-150.722046,,,
729863151.033125,-0.151235,4.595034,48.938386,-0.0802,0.00386,0.983749,0.006903,0.016605,-0.008413,57.483368,4.189514,-150.722046,,,
729863151.036386,-0.149987,4.599084,48.937231,-0.0802,0.00386,0.983749,0.001124,0.005864,0.001763,57.483368,4.189514,-150.722046,,,
729863151.039745,-0.149987,4.599084,48.937231,-0.0802,0.00386,0.983749,0.001124,0.005864,0.001763,57.483368,4.189514,-150.722046,,,
729863151.04307,-0.149915,4.600211,48.937554,-0.08815,0.001328,0.979965,0.001124,0.005864,0.001763,57.483368,4.189514,-150.722046,,,
729863151.046393,-0.149335,4.599995,48.939191,-0.08815,0.001328,0.979965,0.000342,2.1e-05,0.004505,57.426483,4.260529,-150.362259,,,
729863151.049733,-0.149335,4.599995,48.939191,-0.08815,0.001328,0.979965,0.000342,2.1e-05,0.004505,57.426483,4.260529,-150.362259,,,
729863151.053067,-0.149498,4.599592,48.941393,-0.084305,0.000168,0.98645,0.000342,2.1e-05,0.004505,57.426483,4.260529,-150.362259,,,
729863151.056395,-0.151015,4.597055,48.94322,-0.084305,0.000168,0.98645,0.001075,-0.004453,0.001114,57.426483,4.260529,-150.362259,,,
729863151.059812,-0.151015,4.597055,48.94322,-0.084305,0.000168,0.98645,0.001075,-0.004453,0.001114,57.426483,4.260529,-150.362259,,,
729863151.063069,-0.151478,4.595376,48.943982,-0.071442,0.000168,0.987732,0.001075,-0.004453,0.001114,57.426483,4.260529,-150.362259,,,
729863151.06639,-0.154981,4.591859,48.943687,-0.071442,0.000168,0.987732,-0.007441,-0.010131,-0.007526,57.426483,4.260529,-150.362259,,,
729863151.069747,-0.154981,4.591859,48.943687,-0.071442,0.000168,0.987732,-0.007441,-0.010131,-0.007526,57.426483,4.260529,-150.362259,,,
729863151.073132,-0.157563,4.588224,48.94241,-0.065109,-0.001587,0.98111,-0.007441,-0.010131,-0.007526,57.426483,4.260529,-150.362259,,,
729863151.076386,-0.162688,4.585019,48.940166,-0.065109,-0.001587,0.98111,-0.011672,-0.006302,-0.015968,57.426483,4.260529,-150.362259,,,
729863151.079744,-0.162688,4.585019,48.940166,-0.065109,-0.001587,0.98111,-0.011672,-0.006302,-0.015968,57.426483,4.260529,-150.362259,,,
729863151.083062,-0.16674,4.582435,48.936962,-0.064117,-0.001251,0.989288,-0.011672,-0.006302,-0.015968,57.426483,4.260529,-150.362259,,,
729863151.086424,-0.170679,4.579213,48.932738,-0.064117,-0.001251,0.989288,-0.011918,0.002838,-0.01573,57.447083,3.96814,-150.463882,,,
729863151.089745,-0.170679,4.579213,48.932738,-0.064117,-0.001251,0.989288,-0.011918,0.002838,-0.01573,57.447083,3.96814,-150.463882,,,
729863151.093098,-0.174738,4.578531,48.928072,-0.066238,-0.004852,0.998184,-0.011918,0.002838,-0.01573,57.447083,3.96814,-150.463882,,,
