Time (sec),Pitch (deg),Roll (deg),Yaw(deg),X-Acceleration (g),Y-Acceleration (g),Z-Acceleration (g),Pitch Rate (deg/sec),Roll Rate (deg/sec),Yaw Rate (deg/sec),Magnetic Field in X direction (uT),Magnetic Field in Y direction (uT),Magnetic Field in Z Direction (uT),Latitude (deg),Longitude (deg),Altitude (m)
729862165.972537,-0.615578,4.750432,46.728515,-0.085617,-0.007935,0.983566,-0.032369,-0.019854,0.006137,59.659454,12.199127,-148.957779,,,
729862165.976174,-0.62593,4.749069,46.732111,-0.085358,-0.010315,0.989319,-0.033777,-0.011653,0.008399,59.659454,12.199127,-148.957779,,,
729862165.979414,-0.635196,4.746354,46.736068,-0.085358,-0.010315,0.989319,-0.033777,-0.011653,0.008399,59.659454,12.199127,-148.957779,,,
729862165.982791,-0.635196,4.746354,46.736068,-0.085358,-0.010315,0.989319,-0.033777,-0.011653,0.008399,59.875793,11.920929,-149.578079,,,
729862165.985898,-0.645015,4.746949,46.739746,-0.081375,-0.00943,0.995743,-0.026905,0.006093,0.007017,59.875793,11.920929,-149.578079,,,
729862165.989441,-0.651314,4.749238,46.743114,-0.081375,-0.00943,0.995743,-0.026905,0.006093,0.007017,59.875793,11.920929,-149.578079,,,
729862165.992898,-0.651314,4.749238,46.743114,-0.081375,-0.00943,0.995743,-0.026905,0.006093,0.007017,59.875793,11.920929,-149.578079,,,
729862165.996088,-0.656779,4.755331,46.74696,-0.083511,-0.014175,1.008133,-0.008507,0.022354,0.011808,59.875793,11.920929,-149.578079,,,
729862165.999489,-0.656513,4.761351,46.749844,-0.083511,-0.014175,1.008133,-0.008507,0.022354,0.011808,59.875793,11.920929,-149.578079,,,
729862166.00284,-0.656513,4.761351,46.749844,-0.083511,-0.014175,1.008133,-0.008507,0.022354,0.011808,59.875793,11.920929,-149.578079,,,
729862166.006148,-0.652522,4.770923,46.751937,-0.08522,-0.015457,1.016663,0.026057,0.021611,0.008872,59.875793,11.920929,-149.578079,,,
729862166.009416,-0.642281,4.775003,46.753687,-0.08522,-0.015457,1.016663,0.026057,0.021611,0.008872,59.875793,11.920929,-149.578079,,,
729862166.01279,-0.642281,4.775003,46.753687,-0.08522,-0.015457,1.016663,0.026057,0.021611,0.008872,59.875793,11.920929,-149.578079,,,
729862166.016075,-0.628055,4.782194,46.754249,-0.087723,-0.02124,1.016083,0.056417,0.000748,0.002666,59.875793,11.920929,-149.578079,,,
729862166.019441,-0.611645,4.780383,46.754073,-0.087723,-0.02124,1.016083,0.056417,0.000748,0.002666,59.875793,11.920929,-149.578079,,,
729862166.022792,-0.611645,4.780383,46.754073,-0.087723,-0.02124,1.016083,0.056417,0.000748,0.002666,58.123947,12.345535,-145.951736,,,
729862166.026096,-0.595169,4.784177,46.753936,-0.084686,-0.011078,0.99968,0.05338,-0.011057,0.002238,58.123947,12.345535,-145.951736,,,
729862166.02945,-0.582063,4.780454,46.753769,-0.084686,-0.011078,0.99968,0.05338,-0.011057,0.002238,58.123947,12.345535,-145.951736,,,
729862166.032854,-0.582063,4.780454,46.753769,-0.084686,-0.011078,0.99968,0.05338,-0.011057,0.002238,58.123947,12.345535,-145.951736,,,
729862166.03615,-0.57196,4.784338,46.75401,-0.079559,-0.00148,0.984375,0.024836,0.001212,0.002286,58.123947,12.345535,-145.951736,,,
729862166.039425,-0.567556,4.785658,46.754462,-0.079559,-0.00148,0.984375,0.024836,0.001212,0.002286,58.123947,12.345535,-145.951736,,,
729862166.04281,-0.567556,4.785658,46.754462,-0.079559,-0.00148,0.984375,0.024836,0.001212,0.002286,58.123947,12.345535,-145.951736,,,
729862166.046149,-0.567733,4.791944,46.755104,-0.07782,0.00145,0.985123,-0.011787,0.02285,0.000382,58.123947,12.345535,-145.951736,,,
729862166.049407,-0.572837,4.798379,46.75592,-0.07782,0.00145,0.985123,-0.011787,0.02285,0.000382,58.123947,12.345535,-145.951736,,,
729862166.052753,-0.572837,4.798379,46.75592,-0.07782,0.00145,0.985123,-0.011787,0.02285,0.000382,58.123947,12.345535,-145.951736,,,
729862166.056082,-0.580544,4.806254,46.756218,-0.079712,0.002487,0.984589,-0.029313,0.02392,-0.004781,58.123947,12.345535,-145.951736,,,
729862166.059421,-0.590969,4.812023,46.755662,-0.079712,0.002487,0.984589,-0.029313,0.02392,-0.004781,58.123947,12.345535,-145.951736,,,
729862166.062761,-0.590969,4.812023,46.755662,-0.079712,0.002487,0.984589,-0.029313,0.02392,-0.004781,58.123947,12.345535,-145.951736,,,
729862166.066079,-0.602425,4.81619,46.754499,-0.083069,-3.1e-05,0.983047,-0.03904,0.015336,-0.009813,59.328918,12.223618,-148.118637,,,
729862166.069414,-0.614427,4.818587,46.75284,-0.083069,-3.1e-05,0.983047,-0.03904,0.015336,-0.009813,59.328918,12.223618,-148.118637,,,
729862166.072863,-0.614427,4.818587,46.75284,-0.083069,-3.1e-05,0.983047,-0.03904,0.015336,-0.009813,59.328918,12.223618,-148.118637,,,
729862166.076094,-0.626757,4.81803,46.750844,-0.081375,-0.004868,0.993729,-0.036647,-0.00013,-0.011913,59.328918,12.223618,-148.118637,,,
729862166.079413,-0.637012,4.816288,46.748849,-0.081375,-0.004868,0.993729,-0.036647,-0.00013,-0.011913,59.328918,12.223618,-148.118637,,,
729862166.082765,-0.637012,4.816288,46.748849,-0.081375,-0.004868,0.993729,-0.036647,-0.00013,-0.011913,59.328918,12.223618,-148.118637,,,
729862166.086085,-0.645947,4.813171,46.747653,-0.088303,-0.007843,1.004807,-0.023636,-0.008409,-0.005222,59.328918,12.223618,-148.118637,,,
729862166.089418,-0.651453,4.810417,46.747244,-0.088303,-0.007843,1.004807,-0.023636,-0.008409,-0.005222,59.328918,12.223618,-148.118637,,,
729862166.092768,-0.651453,4.810417,46.747244,-0.088303,-0.007843,1.004807,-0.023636,-0.008409,-0.005222,59.328918,12.223618,-148.118637,,,
729862166.096166,-0.654575,4.809251,46.747518,-0.089355,-0.016144,1.016602,0.007992,-0.002513,0.002172,59.328918,12.223618,-148.118637,,,
729862166.099416,-0.649971,4.80917,46.748454,-0.089355,-0.016144,1.016602,0.007992,-0.002513,0.002172,59.328918,12.223618,-148.118637,,,
729862166.102762,-0.649971,4.80917,46.748454,-0.089355,-0.016144,1.016602,0.007992,-0.002513,0.002172,59.328918,12.223618,-148.118637,,,
729862166.10609,-0.641162,4.812567,46.749197,-0.082275,-0.022629,1.032364,0.041702,0.017202,0.003639,58.379166,12.413773,-145.914291,,,
729862166.109424,-0.626888,4.817307,46.748841,-0.082275,-0.022629,1.032364,0.041702,0.017202,0.003639,58.379166,12.413773,-145.914291,,,
729862166.112754,-0.626888,4.817307,46.748841,-0.082275,-0.022629,1.032364,0.041702,0.017202,0.003639,58.379166,12.413773,-145.914291,,,
729862166.116098,-0.606131,4.822313,46.747472,-0.076355,-0.022888,1.034653,0.074436,0.02732,-0.000628,58.379166,12.413773,-145.914291,,,
729862166.119414,-0.583687,4.829607,46.745873,-0.076355,-0.022888,1.034653,0.074436,0.02732,-0.000628,58.379166,12.413773,-145.914291,,,
729862166.122831,-0.583687,4.829607,46.745873,-0.076355,-0.022888,1.034653,0.074436,0.02732,-0.000628,58.379166,12.413773,-145.914291,,,
729862166.126086,-0.556486,4.835273,46.74504,-0.085175,-0.017822,1.022141,0.087009,0.034387,0.005995,58.379166,12.413773,-145.914291,,,
729862166.129455,-0.532749,4.843903,46.746298,-0.085175,-0.017822,1.022141,0.087009,0.034387,0.005995,58.379166,12.413773,-145.914291,,,
729862166.13275,-0.532749,4.843903,46.746298,-0.085175,-0.017822,1.022141,0.087009,0.034387,0.005995,58.379166,12.413773,-145.914291,,,
729862166.13616,-0.509626,4.849636,46.749185,-0.084717,-0.009644,0.992996,0.062451,0.026994,0.015417,58.379166,12.413773,-145.914291,,,
729862166.139409,-0.494817,4.85522,46.75249,-0.084717,-0.009644,0.992996,0.062451,0.026994,0.015417,58.379166,12.413773,-145.914291,,,
729862166.142772,-0.494817,4.85522,46.75249,-0.084717,-0.009644,0.992996,0.062451,0.026994,0.015417,58.379166,12.413773,-145.914291,,,
729862166.146118,-0.484182,4.857723,46.754983,-0.078323,0.001907,0.965988,0.016756,0.007789,0.00589,59.160721,12.066193,-147.430634,,,
729862166.149504,-0.482785,4.856878,46.756184,-0.078323,0.001907,0.965988,0.016756,0.007789,0.00589,59.160721,12.066193,-147.430634,,,
729862166.152759,-0.482785,4.856878,46.756184,-0.078323,0.001907,0.965988,0.016756,0.007789,0.00589,59.160721,12.066193,-147.430634,,,
729862166.156108,-0.486543,4.850683,46.75633,-0.075668,0.005997,0.952393,-0.02446,-0.021994,-0.004988,59.160721,12.066193,-147.430634,,,
729862166.159424,-0.495796,4.84163,46.755042,-0.075668,0.005997,0.952393,-0.02446,-0.021994,-0.004988,59.160721,12.066193,-147.430634,,,
729862166.162816,-0.495796,4.84163,46.755042,-0.075668,0.005997,0.952393,-0.02446,-0.021994,-0.004988,59.160721,12.066193,-147.430634,,,
729862166.166084,-0.508131,4.830959,46.752972,-0.077988,0.002289,0.960953,-0.047154,-0.038054,-0.012402,59.160721,12.066193,-147.430634,,,
729862166.169416,-0.522258,4.819748,46.75068,-0.077988,0.002289,0.960953,-0.047154,-0.038054,-0.012402,59.160721,12.066193,-147.430634,,,
729862166.172779,-0.522258,4.819748,46.75068,-0.077988,0.002289,0.960953,-0.047154,-0.038054,-0.012402,59.160721,12.066193,-147.430634,,,
729862166.176182,-0.536181,4.812618,46.748341,-0.077789,-0.005997,0.990143,-0.040789,-0.020414,-0.012231,59.160721,12.066193,-147.430634,,,
729862166.179413,-0.547538,4.809164,46.746142,-0.077789,-0.005997,0.990143,-0.040789,-0.020414,-0.012231,59.160721,12.066193,-147.430634,,,
729862166.182748,-0.547538,4.809164,46.746142,-0.077789,-0.005997,0.990143,-0.040789,-0.020414,-0.012231,59.160721,12.066193,-147.430634,,,
729862166.186088,-0.558396,4.811373,46.744226,-0.081009,-0.012665,1.015839,-0.023207,0.022807,-0.008776,57.665588,12.514633,-144.344772,,,
729862166.189424,-0.56264,4.819082,46.742898,-0.081009,-0.012665,1.015839,-0.023207,0.022807,-0.008776,57.665588,12.514633,-144.344772,,,
729862166.192769,-0.56264,4.819082,46.742898,-0.081009,-0.012665,1.015839,-0.023207,0.022807,-0.008776,57.665588,12.514633,-144.344772,,,
729862166.196095,-0.563989,4.827698,46.741764,-0.087097,-0.017471,1.022964,0.010975,0.050564,-0.004371,57.665588,12.514633,-144.344772,,,
729862166.199416,-0.558898,4.842816,46.740994,-0.087097,-0.017471,1.022964,0.010975,0.050564,-0.004371,57.665588,12.514633,-144.344772,,,
729862166.202744,-0.558898,4.842816,46.740994,-0.087097,-0.017471,1.022964,0.010975,0.050564,-0.004371,57.665588,12.514633,-144.344772,,,
729862166.206097,-0.551044,4.857468,46.740984,-0.090515,-0.020874,1.014816,0.039541,0.057322,0.003453,57.665588,12.514633,-144.344772,,,
729862166.209414,-0.538051,4.872142,46.741918,-0.090515,-0.020874,1.014816,0.039541,0.057322,0.003453,57.665588,12.514633,-144.344772,,,
729862166.212742,-0.538051,4.872142,46.741918,-0.090515,-0.020874,1.014816,0.039541,0.057322,0.003453,57.665588,12.514633,-144.344772,,,
729862166.216107,-0.522597,4.88385,46.743847,-0.094696,-0.019211,0.998917,0.058299,0.03354,0.011914,57.665588,12.514633,-144.344772,,,
729862166.219413,-0.50529,4.889595,46.746545,-0.094696,-0.019211,0.998917,0.058299,0.03354,0.011914,57.665588,12.514633,-144.344772,,,
729862166.222761,-0.50529,4.889595,46.746545,-0.094696,-0.019211,0.998917,0.058299,0.03354,0.011914,57.665588,12.514633,-144.344772,,,
729862166.226156,-0.487516,4.88771,46.749698,-0.095474,-0.013092,0.972443,0.052866,-0.011109,0.014722,57.665588,12.514633,-144.344772,,,
729862166.229439,-0.474152,4.882197,46.75247,-0.095474,-0.013092,0.972443,0.052866,-0.011109,0.014722,56.929291,12.506531,-141.927414,,,
729862166.232793,-0.474152,4.882197,46.75247,-0.095474,-0.013092,0.972443,0.052866,-0.011109,0.014722,56.929291,12.506531,-141.927414,,,
729862166.236082,-0.46309,4.87242,46.754616,-0.081787,-0.004562,0.954865,0.023572,-0.029627,0.007959,56.929291,12.506531,-141.927414,,,
729862166.23941,-0.45893,4.862448,46.756239,-0.081787,-0.004562,0.954865,0.023572,-0.029627,0.007959,56.929291,12.506531,-141.927414,,,
729862166.242742,-0.45893,4.862448,46.756239,-0.081787,-0.004562,0.954865,0.023572,-0.029627,0.007959,56.929291,12.506531,-141.927414,,,
729862166.246097,-0.45827,4.850791,46.757046,-0.069199,-0.003159,0.954117,-0.009999,-0.035012,-0.000542,56.929291,12.506531,-141.927414,,,
729862166.249409,-0.463929,4.839974,46.756945,-0.069199,-0.003159,0.954117,-0.009999,-0.035012,-0.000542,56.929291,12.506531,-141.927414,,,
729862166.252809,-0.463929,4.839974,46.756945,-0.069199,-0.003159,0.954117,-0.009999,-0.035012,-0.000542,56.929291,12.506531,-141.927414,,,
729862166.256085,-0.473067,4.829285,46.755733,-0.066254,-0.000717,0.962906,-0.036719,-0.026041,-0.010496,56.929291,12.506531,-141.927414,,,
729862166.259416,-0.484596,4.822748,46.753631,-0.066254,-0.000717,0.962906,-0.036719,-0.026041,-0.010496,56.929291,12.506531,-141.927414,,,
729862166.262765,-0.484596,4.822748,46.753631,-0.066254,-0.000717,0.962906,-0.036719,-0.026041,-0.010496,56.929291,12.506531,-141.927414,,,
729862166.266166,-0.496789,4.819254,46.75063,-0.067505,-0.006317,0.987061,-0.038369,0.004207,-0.016839,56.929291,12.506531,-141.927414,,,
729862166.269405,-0.507528,4.821656,46.74711,-0.067505,-0.006317,0.987061,-0.038369,0.004207,-0.016839,57.589767,12.49559,-143.405716,,,
729862166.272769,-0.507528,4.821656,46.74711,-0.067505,-0.006317,0.987061,-0.038369,0.004207,-0.016839,57.589767,12.49559,-143.405716,,,
729862166.276096,-0.517412,4.827175,46.743726,-0.07074,-0.013367,1.001511,-0.025191,0.027897,-0.014819,57.589767,12.49559,-143.405716,,,
729862166.279415,-0.523935,4.834905,46.740942,-0.07074,-0.013367,1.001511,-0.025191,0.027897,-0.014819,57.589767,12.49559,-143.405716,,,
729862166.282738,-0.523935,4.834905,46.740942,-0.07074,-0.013367,1.001511,-0.025191,0.027897,-0.014819,57.589767,12.49559,-143.405716,,,
729862166.286101,-0.529833,4.843796,46.738144,-0.076187,-0.014175,0.998642,-0.008298,0.025396,-0.013555,57.589767,12.49559,-143.405716,,,
729862166.289408,-0.532369,4.849687,46.734624,-0.076187,-0.014175,0.998642,-0.008298,0.025396,-0.013555,57.589767,12.49559,-143.405716,,,
729862166.292821,-0.532369,4.849687,46.734624,-0.076187,-0.014175,0.998642,-0.008298,0.025396,-0.013555,57.589767,12.49559,-143.405716,,,
729862166.296094,-0.535859,4.857165,46.730312,-0.079056,-0.015396,0.994278,8.5e-05,0.017822,-0.018563,57.589767,12.49559,-143.405716,,,
729862166.299407,-0.535399,4.860974,46.725283,-0.079056,-0.015396,0.994278,8.5e-05,0.017822,-0.018563,57.589767,12.49559,-143.405716,,,
729862166.302754,-0.535399,4.860974,46.725283,-0.079056,-0.015396,0.994278,8.5e-05,0.017822,-0.018563,57.589767,12.49559,-143.405716,,,
729862166.306145,-0.53468,4.868333,46.719763,-0.083328,-0.017914,0.994492,0.009345,0.009259,-0.021586,57.589767,12.49559,-143.405716,,,
729862166.309409,-0.532096,4.868821,46.713904,-0.083328,-0.017914,0.994492,0.009345,0.009259,-0.021586,57.567688,12.552887,-143.678436,,,
729862166.312757,-0.532096,4.868821,46.713904,-0.083328,-0.017914,0.994492,0.009345,0.009259,-0.021586,57.567688,12.552887,-143.678436,,,
729862166.316102,-0.528238,4.869957,46.708092,-0.082275,-0.015717,0.992676,0.013867,-0.000682,-0.021046,57.567688,12.552887,-143.678436,,,
729862166.319404,-0.525172,4.869685,46.701598,-0.082275,-0.015717,0.992676,0.013867,-0.000682,-0.021046,57.567688,12.552887,-143.678436,,,
729862166.322759,-0.525172,4.869685,46.701598,-0.082275,-0.015717,0.992676,0.013867,-0.000682,-0.021046,57.567688,12.552887,-143.678436,,,
729862166.326095,-0.521255,4.866215,46.695085,-0.083191,-0.013992,0.995377,0.008671,0.010091,-0.0213,57.567688,12.552887,-143.678436,,,
729862166.329412,-0.520195,4.868878,46.689182,-0.083191,-0.013992,0.995377,0.008671,0.010091,-0.0213,57.567688,12.552887,-143.678436,,,
729862166.332837,-0.520195,4.868878,46.689182,-0.083191,-0.013992,0.995377,0.008671,0.010091,-0.0213,57.567688,12.552887,-143.678436,,,
729862166.336092,-0.519595,4.86676,46.683884,-0.08812,-0.011993,0.993607,-0.007988,0.025367,-0.018044,57.567688,12.552887,-143.678436,,,
729862166.339487,-0.523777,4.874244,46.680125,-0.08812,-0.011993,0.993607,-0.007988,0.025367,-0.018044,57.567688,12.552887,-143.678436,,,
729862166.342765,-0.523777,4.874244,46.680125,-0.08812,-0.011993,0.993607,-0.007988,0.025367,-0.018044,57.567688,12.552887,-143.678436,,,
729862166.346141,-0.529666,4.875619,46.677442,-0.096878,-0.008682,0.987473,-0.028763,0.037052,-0.011835,57.567688,12.552887,-143.678436,,,
729862166.34941,-0.538588,4.88433,46.67605,-0.096878,-0.008682,0.987473,-0.028763,0.037052,-0.011835,57.567688,12.552887,-143.678436,,,
729862166.35276,-0.538588,4.88433,46.67605,-0.096878,-0.008682,0.987473,-0.028763,0.037052,-0.011835,58.674652,12.016937,-146.680023,,,
729862166.356101,-0.548731,4.883839,46.675105,-0.1008,-0.01001,0.982544,-0.033024,0.021775,-0.008635,58.674652,12.016937,-146.680023,,,
729862166.359413,-0.558593,4.887127,46.674801,-0.1008,-0.01001,0.982544,-0.033024,0.021775,-0.008635,58.674652,12.016937,-146.680023,,,
729862166.362762,-0.558593,4.887127,46.674801,-0.1008,-0.01001,0.982544,-0.033024,0.021775,-0.008635,58.674652,12.016937,-146.680023,,,
729862166.366087,-0.569398,4.88199,46.675209,-0.107132,-0.008453,0.9785,-0.033241,-0.009611,-0.00339,58.674652,12.016937,-146.680023,,,
729862166.36941,-0.578722,4.875987,46.675444,-0.107132,-0.008453,0.9785,-0.033241,-0.009611,-0.00339,58.674652,12.016937,-146.680023,,,
729862166.372844,-0.578722,4.875987,46.675444,-0.107132,-0.008453,0.9785,-0.033241,-0.009611,-0.00339,58.674652,12.016937,-146.680023,,,
729862166.376088,-0.586722,4.86402,46.675085,-0.101395,-0.009796,0.983154,-0.017142,-0.035388,-0.006046,58.674652,12.016937,-146.680023,,,
729862166.379417,-0.590074,4.852405,46.673788,-0.101395,-0.009796,0.983154,-0.017142,-0.035388,-0.006046,58.674652,12.016937,-146.680023,,,
729862166.382742,-0.590074,4.852405,46.673788,-0.101395,-0.009796,0.983154,-0.017142,-0.035388,-0.006046,58.674652,12.016937,-146.680023,,,
729862166.386145,-0.591077,4.839871,46.671562,-0.092316,-0.016693,1.003159,0.009917,-0.038495,-0.010239,58.674652,12.016937,-146.680023,,,
729862166.389409,-0.586563,4.829099,46.66953,-0.092316,-0.016693,1.003159,0.009917,-0.038495,-0.010239,58.674652,12.016937,-146.680023,,,
729862166.392765,-0.586563,4.829099,46.66953,-0.092316,-0.016693,1.003159,0.009917,-0.038495,-0.010239,59.297089,11.854675,-147.664474,,,
729862166.39609,-0.580418,4.820839,46.669069,-0.09259,-0.022339,1.015717,0.030546,-0.019043,0.002458,59.297089,11.854675,-147.664474,,,
729862166.39941,-0.571322,4.817059,46.669911,-0.09259,-0.022339,1.015717,0.030546,-0.019043,0.002458,59.297089,11.854675,-147.664474,,,
729862166.402766,-0.571322,4.817059,46.669911,-0.09259,-0.022339,1.015717,0.030546,-0.019043,0.002458,59.297089,11.854675,-147.664474,,,
729862166.406096,-0.562086,4.818124,46.67209,-0.091095,-0.019775,1.015198,0.037726,0.019163,0.012497,59.297089,11.854675,-147.664474,,,
729862166.409407,-0.551915,4.823758,46.675326,-0.091095,-0.019775,1.015198,0.037726,0.019163,0.012497,59.297089,11.854675,-147.664474,,,
729862166.41281,-0.551915,4.823758,46.675326,-0.091095,-0.019775,1.015198,0.037726,0.019163,0.012497,59.297089,11.854675,-147.664474,,,
729862166.41608,-0.54341,4.831414,46.678437,-0.084198,-0.012238,1.005844,0.031141,0.024526,0.011038,59.297089,11.854675,-147.664474,,,
729862166.419413,-0.535257,4.83618,46.681011,-0.084198,-0.012238,1.005844,0.031141,0.024526,0.011038,59.297089,11.854675,-147.664474,,,
729862166.422796,-0.535257,4.83618,46.681011,-0.084198,-0.012238,1.005844,0.031141,0.024526,0.011038,59.297089,11.854675,-147.664474,,,
729862166.426166,-0.529095,4.842934,46.683357,-0.082138,-0.010239,0.985291,0.017106,0.003654,0.00793,59.297089,11.854675,-147.664474,,,
729862166.429408,-0.52581,4.840991,46.685354,-0.082138,-0.010239,0.985291,0.017106,0.003654,0.00793,59.297089,11.854675,-147.664474,,,
729862166.432749,-0.52581,4.840991,46.685354,-0.082138,-0.010239,0.985291,0.017106,0.003654,0.00793,58.497299,12.19931,-146.199295,,,
729862166.436083,-0.526643,4.842367,46.686968,-0.085907,-0.003189,0.971024,-0.00888,-0.025324,0.002622,58.497299,12.19931,-146.199295,,,
729862166.439412,-0.530869,4.833158,46.689023,-0.085907,-0.003189,0.971024,-0.00888,-0.025324,0.002622,58.497299,12.19931,-146.199295,,,
729862166.442755,-0.530869,4.833158,46.689023,-0.085907,-0.003189,0.971024,-0.00888,-0.025324,0.002622,58.497299,12.19931,-146.199295,,,
729862166.446104,-0.538758,4.832646,46.693223,-0.0858,-0.001846,0.964935,-0.035738,-0.036607,0.014694,58.497299,12.19931,-146.199295,,,
729862166.449415,-0.550142,4.821602,46.699125,-0.0858,-0.001846,0.964935,-0.035738,-0.036607,0.014694,58.497299,12.19931,-146.199295,,,
729862166.452831,-0.550142,4.821602,46.699125,-0.0858,-0.001846,0.964935,-0.035738,-0.036607,0.014694,58.497299,12.19931,-146.199295,,,
729862166.456084,-0.564171,4.820692,46.705784,-0.079147,-0.003662,0.969177,-0.055816,-0.031367,0.01767,58.497299,12.19931,-146.199295,,,
729862166.459418,-0.579812,4.811813,46.712112,-0.079147,-0.003662,0.969177,-0.055816,-0.031367,0.01767,58.497299,12.19931,-146.199295,,,
729862166.462754,-0.579812,4.811813,46.712112,-0.079147,-0.003662,0.969177,-0.055816,-0.031367,0.01767,58.497299,12.19931,-146.199295,,,
729862166.466167,-0.596285,4.808638,46.716753,-0.065308,-0.005814,0.983139,-0.052299,-0.021151,0.005849,58.497299,12.19931,-146.199295,,,
729862166.4694,-0.609646,4.803029,46.718462,-0.065308,-0.005814,0.983139,-0.052299,-0.021151,0.005849,58.497299,12.19931,-146.199295,,,
729862166.472745,-0.609646,4.803029,46.718462,-0.065308,-0.005814,0.983139,-0.052299,-0.021151,0.005849,57.368042,12.459625,-144.229858,,,
729862166.476101,-0.622458,4.803089,46.716937,-0.058701,-0.011627,1.007614,-0.029001,-0.00239,-0.014985,57.368042,12.459625,-144.229858,,,
729862166.479408,-0.629458,4.803155,46.71318,-0.058701,-0.011627,1.007614,-0.029001,-0.00239,-0.014985,57.368042,12.459625,-144.229858,,,
729862166.482743,-0.629458,4.803155,46.71318,-0.058701,-0.011627,1.007614,-0.029001,-0.00239,-0.014985,57.368042,12.459625,-144.229858,,,
729862166.486075,-0.635021,4.809319,46.708888,-0.067123,-0.020615,1.018494,-0.002911,0.020032,-0.016775,57.368042,12.459625,-144.229858,,,
729862166.489411,-0.635065,4.815936,46.704542,-0.067123,-0.020615,1.018494,-0.002911,0.020032,-0.016775,57.368042,12.459625,-144.229858,,,
729862166.492828,-0.635065,4.815936,46.704542,-0.067123,-0.020615,1.018494,-0.002911,0.020032,-0.016775,57.368042,12.459625,-144.229858,,,
729862166.496093,-0.633533,4.82587,46.700343,-0.074509,-0.015915,1.017792,0.012032,0.038413,-0.014562,57.368042,12.459625,-144.229858,,,
729862166.499422,-0.629467,4.836165,46.696105,-0.074509,-0.015915,1.017792,0.012032,0.038413,-0.014562,57.368042,12.459625,-144.229858,,,
729862166.502753,-0.629467,4.836165,46.696105,-0.074509,-0.015915,1.017792,0.012032,0.038413,-0.014562,57.368042,12.459625,-144.229858,,,
729862166.506153,-0.623764,4.844838,46.690906,-0.07695,-0.013809,1.008789,0.022926,0.034923,-0.020322,57.368042,12.459625,-144.229858,,,
729862166.509399,-0.617598,4.852717,46.684328,-0.07695,-0.013809,1.008789,0.022926,0.034923,-0.020322,57.368042,12.459625,-144.229858,,,
729862166.512807,-0.617598,4.852717,46.684328,-0.07695,-0.013809,1.008789,0.022926,0.034923,-0.020322,57.368042,12.459625,-144.229858,,,
729862166.516078,-0.610347,4.859254,46.676943,-0.079468,-0.010468,1.002914,0.021707,0.017766,-0.026175,59.401352,11.716232,-148.222366,,,
729862166.51941,-0.604992,4.862892,46.669091,-0.079468,-0.010468,1.002914,0.021707,0.017766,-0.026175,59.401352,11.716232,-148.222366,,,
729862166.522763,-0.604992,4.862892,46.669091,-0.079468,-0.010468,1.002914,0.021707,0.017766,-0.026175,59.401352,11.716232,-148.222366,,,
729862166.52609,-0.597535,4.866847,46.661573,-0.084854,-0.008102,1.001099,0.020206,0.008056,-0.024117,59.401352,11.716232,-148.222366,,,
729862166.529409,-0.593217,4.867526,46.654905,-0.084854,-0.008102,1.001099,0.020206,0.008056,-0.024117,59.401352,11.716232,-148.222366,,,
729862166.532746,-0.593217,4.867526,46.654905,-0.084854,-0.008102,1.001099,0.020206,0.008056,-0.024117,59.401352,11.716232,-148.222366,,,
729862166.536088,-0.587613,4.86674,46.648626,-0.09021,-0.010834,1.004364,0.017115,0.002788,-0.021612,59.401352,11.716232,-148.222366,,,
729862166.53941,-0.582726,4.867791,46.642361,-0.09021,-0.010834,1.004364,0.017115,0.002788,-0.021612,59.401352,11.716232,-148.222366,,,
729862166.542752,-0.582726,4.867791,46.642361,-0.09021,-0.010834,1.004364,0.017115,0.002788,-0.021612,59.401352,11.716232,-148.222366,,,
729862166.54615,-0.576032,4.863955,46.636043,-0.094513,-0.010101,1.011246,0.021468,0.010452,-0.021156,59.401352,11.716232,-148.222366,,,
729862166.549402,-0.571107,4.866319,46.630718,-0.094513,-0.010101,1.011246,0.021468,0.010452,-0.021156,59.401352,11.716232,-148.222366,,,
729862166.552758,-0.571107,4.866319,46.630718,-0.094513,-0.010101,1.011246,0.021468,0.010452,-0.021156,59.401352,11.716232,-148.222366,,,
729862166.556083,-0.566944,4.856695,46.627034,-0.097824,-0.006393,1.001541,0.014087,0.009556,-0.009492,60.117264,11.289001,-150.027527,,,
729862166.559437,-0.563636,4.858876,46.625198,-0.097824,-0.006393,1.001541,0.014087,0.009556,-0.009492,60.117264,11.289001,-150.027527,,,
729862166.562752,-0.563636,4.858876,46.625198,-0.097824,-0.006393,1.001541,0.014087,0.009556,-0.009492,60.117264,11.289001,-150.027527,,,
729862166.566093,-0.56339,4.850769,46.624672,-0.096542,-0.005432,0.993896,0.00681,0.003604,-0.000296,60.117264,11.289001,-150.027527,,,
729862166.569463,-0.562232,4.849322,46.624813,-0.096542,-0.005432,0.993896,0.00681,0.003604,-0.000296,60.117264,11.289001,-150.027527,,,
729862166.572818,-0.562232,4.849322,46.624813,-0.096542,-0.005432,0.993896,0.00681,0.003604,-0.000296,60.117264,11.289001,-150.027527,,,
729862166.576093,-0.563972,4.839818,46.624515,-0.089478,-0.003906,0.985489,-0.00108,-0.011431,-0.003638,60.117264,11.289001,-150.027527,,,
729862166.579434,-0.565252,4.835288,46.623717,-0.089478,-0.003906,0.985489,-0.00108,-0.011431,-0.003638,60.117264,11.289001,-150.027527,,,
729862166.582759,-0.565252,4.835288,46.623717,-0.089478,-0.003906,0.985489,-0.00108,-0.011431,-0.003638,60.117264,11.289001,-150.027527,,,
729862166.586149,-0.56887,4.827149,46.62284,-0.085846,-0.006042,0.982605,-0.010027,-0.012182,-0.004696,60.117264,11.289001,-150.027527,,,
729862166.589451,-0.572168,4.823699,46.621888,-0.085846,-0.006042,0.982605,-0.010027,-0.012182,-0.004696,60.117264,11.289001,-150.027527,,,
729862166.592758,-0.572168,4.823699,46.621888,-0.085846,-0.006042,0.982605,-0.010027,-0.012182,-0.004696,60.117264,11.289001,-150.027527,,,
729862166.596085,-0.576224,4.820378,46.62077,-0.082718,-0.007431,0.992203,-0.012886,0.009816,-0.0059,60.069855,11.590256,-149.626144,,,
729862166.599495,-0.579276,4.824493,46.619565,-0.082718,-0.007431,0.992203,-0.012886,0.009816,-0.0059,60.069855,11.590256,-149.626144,,,
729862166.602759,-0.579276,4.824493,46.619565,-0.082718,-0.007431,0.992203,-0.012886,0.009816,-0.0059,60.069855,11.590256,-149.626144,,,
729862166.606097,-0.579915,4.832685,46.617256,-0.082199,-0.011688,1.01358,0.002217,0.038472,-0.012355,60.069855,11.590256,-149.626144,,,
729862166.609412,-0.578139,4.844247,46.61414,-0.082199,-0.011688,1.01358,0.002217,0.038472,-0.012355,60.069855,11.590256,-149.626144,,,
729862166.612829,-0.578139,4.844247,46.61414,-0.082199,-0.011688,1.01358,0.002217,0.038472,-0.012355,60.069855,11.590256,-149.626144,,,
729862166.616089,-0.572531,4.859705,46.611203,-0.087219,-0.018692,1.028473,0.027935,0.054013,-0.009042,60.069855,11.590256,-149.626144,,,
729862166.619446,-0.563295,4.874327,46.608413,-0.087219,-0.018692,1.028473,0.027935,0.054013,-0.009042,60.069855,11.590256,-149.626144,,,
729862166.622757,-0.563295,4.874327,46.608413,-0.087219,-0.018692,1.028473,0.027935,0.054013,-0.009042,60.069855,11.590256,-149.626144,,,
729862166.626151,-0.552765,4.891584,46.606566,-0.09819,-0.017929,1.022476,0.03875,0.051482,-0.001686,60.069855,11.590256,-149.626144,,,
729862166.629417,-0.542026,4.904188,46.606414,-0.09819,-0.017929,1.022476,0.03875,0.051482,-0.001686,60.069855,11.590256,-149.626144,,,
729862166.632744,-0.542026,4.904188,46.606414,-0.09819,-0.017929,1.022476,0.03875,0.051482,-0.001686,60.069855,11.590256,-149.626144,,,
729862166.636078,-0.532127,4.918672,46.607834,-0.104706,-0.009369,1.001343,0.028347,0.029147,0.008101,58.239334,12.039627,-145.033981,,,
729862166.639477,-0.525467,4.924377,46.610442,-0.104706,-0.009369,1.001343,0.028347,0.029147,0.008101,58.239334,12.039627,-145.033981,,,
729862166.642749,-0.525467,4.924377,46.610442,-0.104706,-0.009369,1.001343,0.028347,0.029147,0.008101,58.239334,12.039627,-145.033981,,,
729862166.646091,-0.521434,4.930598,46.614574,-0.108032,-0.00441,0.978683,0.003112,-0.002897,0.016211,58.239334,12.039627,-145.033981,,,
729862166.649498,-0.521499,4.926124,46.619719,-0.108032,-0.00441,0.978683,0.003112,-0.002897,0.016211,58.239334,12.039627,-145.033981,,,
729862166.652801,-0.521499,4.926124,46.619719,-0.108032,-0.00441,0.978683,0.003112,-0.002897,0.016211,58.239334,12.039627,-145.033981,,,
729862166.656085,-0.522759,4.918761,46.624852,-0.102905,-0.000702,0.968781,-0.012801,-0.041656,0.014594,58.239334,12.039627,-145.033981,,,
729862166.659459,-0.527053,4.904502,46.629,-0.102905,-0.000702,0.968781,-0.012801,-0.041656,0.014594,58.239334,12.039627,-145.033981,,,
729862166.66275,-0.527053,4.904502,46.629,-0.102905,-0.000702,0.968781,-0.012801,-0.041656,0.014594,58.239334,12.039627,-145.033981,,,
729862166.666208,-0.530841,4.889726,46.632345,-0.094269,-0.006256,0.979965,-0.015831,-0.0525,0.008612,58.239334,12.039627,-145.033981,,,
729862166.669411,-0.534263,4.874485,46.636414,-0.094269,-0.006256,0.979965,-0.015831,-0.0525,0.008612,58.239334,12.039627,-145.033981,,,
729862166.672771,-0.534263,4.874485,46.636414,-0.094269,-0.006256,0.979965,-0.015831,-0.0525,0.008612,58.239334,12.039627,-145.033981,,,
729862166.676085,-0.53537,4.861241,46.641831,-0.093964,-0.014679,0.997635,-0.004727,-0.035899,0.019054,58.239334,12.039627,-145.033981,,,
729862166.679504,-0.535137,4.851562,46.649111,-0.093964,-0.014679,0.997635,-0.004727,-0.035899,0.019054,58.821701,11.71524,-146.288727,,,
729862166.682761,-0.535137,4.851562,46.649111,-0.093964,-0.014679,0.997635,-0.004727,-0.035899,0.019054,58.821701,11.71524,-146.288727,,,
729862166.686087,-0.531834,4.843057,46.65794,-0.086945,-0.012894,1.004807,0.017289,-0.016585,0.031882,58.821701,11.71524,-146.288727,,,
729862166.689462,-0.524884,4.839095,46.666384,-0.086945,-0.012894,1.004807,0.017289,-0.016585,0.031882,58.821701,11.71524,-146.288727,,,
729862166.69282,-0.524884,4.839095,46.666384,-0.086945,-0.012894,1.004807,0.017289,-0.016585,0.031882,58.821701,11.71524,-146.288727,,,
729862166.696096,-0.517033,4.837574,46.673048,-0.070038,-0.013763,1.005325,0.036532,0.004346,0.021044,58.821701,11.71524,-146.288727,,,
729862166.699439,-0.506056,4.839817,46.67686,-0.070038,-0.013763,1.005325,0.036532,0.004346,0.021044,58.821701,11.71524,-146.288727,,,
729862166.702761,-0.506056,4.839817,46.67686,-0.070038,-0.013763,1.005325,0.036532,0.004346,0.021044,58.821701,11.71524,-146.288727,,,
729862166.706148,-0.497936,4.849353,46.677554,-0.061523,-0.010529,0.994492,0.033362,0.031121,-0.001229,58.821701,11.71524,-146.288727,,,
729862166.709437,-0.489523,4.858993,46.675467,-0.061523,-0.010529,0.994492,0.033362,0.031121,-0.001229,58.821701,11.71524,-146.288727,,,
729862166.712748,-0.489523,4.858993,46.675467,-0.061523,-0.010529,0.994492,0.033362,0.031121,-0.001229,58.821701,11.71524,-146.288727,,,
729862166.716097,-0.484176,4.87973,46.671181,-0.06456,-0.008774,0.988632,0.018334,0.053257,-0.018273,58.821701,11.71524,-146.288727,,,
729862166.719482,-0.480541,4.894951,46.665494,-0.06456,-0.008774,0.988632,0.018334,0.053257,-0.018273,60.259567,11.174286,-150.741241,,,
729862166.722753,-0.480541,4.894951,46.665494,-0.06456,-0.008774,0.988632,0.018334,0.053257,-0.018273,60.259567,11.174286,-150.741241,,,
729862166.726091,-0.477297,4.920277,46.659998,-0.086685,-0.00975,0.993118,0.011043,0.054642,-0.018124,60.259567,11.174286,-150.741241,,,
729862166.729496,-0.474014,4.9329,46.656415,-0.086685,-0.00975,0.993118,0.011043,0.054642,-0.018124,60.259567,11.174286,-150.741241,,,
729862166.732669,-0.474014,4.9329,46.656415,-0.086685,-0.00975,0.993118,0.011043,0.054642,-0.018124,60.259567,11.174286,-150.741241,,,
729862166.736158,-0.46872,4.95085,46.65569,-0.105347,-0.01387,0.989304,0.012353,0.025204,0.001433,60.259567,11.174286,-150.741241,,,
729862166.739432,-0.46872,4.95085,46.65569,-0.105347,-0.01387,0.989304,0.012353,0.025204,0.001433,60.259567,11.174286,-150.741241,,,
729862166.742854,-0.465344,4.95476,46.657261,-0.105347,-0.01387,0.989304,0.012353,0.025204,0.001433,60.259567,11.174286,-150.741241,,,
729862166.746074,-0.460676,4.958079,46.660006,-0.10701,-0.013733,0.983917,0.01199,-0.011322,0.009409,60.259567,11.174286,-150.741241,,,
729862166.749414,-0.460676,4.958079,46.660006,-0.10701,-0.013733,0.983917,0.01199,-0.011322,0.009409,60.259567,11.174286,-150.741241,,,
729862166.752761,-0.457908,4.951065,46.663131,-0.10701,-0.013733,0.983917,0.01199,-0.011322,0.009409,60.259567,11.174286,-150.741241,,,
729862166.756172,-0.4581,4.94248,46.666465,-0.100647,-0.011292,0.976898,0.001201,-0.04482,0.009673,60.259567,11.174286,-150.741241,,,
729862166.759477,-0.4581,4.94248,46.666465,-0.100647,-0.011292,0.976898,0.001201,-0.04482,0.009673,59.272873,11.557663,-148.002869,,,
729862166.762813,-0.458534,4.928139,46.669133,-0.100647,-0.011292,0.976898,0.001201,-0.04482,0.009673,59.272873,11.557663,-148.002869,,,
729862166.766083,-0.461043,4.914854,46.671702,-0.095261,-0.00676,0.98114,-0.005459,-0.048531,0.008363,59.272873,11.557663,-148.002869,,,
729862166.769564,-0.461043,4.900827,46.675504,-0.095261,-0.00676,0.98114,-0.005459,-0.048531,0.008363,59.272873,11.557663,-148.002869,,,
729862166.772751,-0.461937,4.900827,46.675504,-0.095261,-0.00676,0.98114,-0.005459,-0.048531,0.008363,59.272873,11.557663,-148.002869,,,
729862166.776084,-0.462577,4.883271,46.680896,-0.094437,-0.017242,1.002319,0.004485,-0.035444,0.020683,59.272873,11.557663,-148.002869,,,
729862166.77943,-0.462577,4.883271,46.680896,-0.094437,-0.017242,1.002319,0.004485,-0.035444,0.020683,59.272873,11.557663,-148.002869,,,
729862166.782746,-0.459719,4.8733,46.687701,-0.094437,-0.017242,1.002319,0.004485,-0.035444,0.020683,59.272873,11.557663,-148.002869,,,
729862166.786082,-0.455073,4.85686,46.69528,-0.090637,-0.022293,1.01358,0.022678,-0.017117,0.028106,59.272873,11.557663,-148.002869,,,
729862166.789409,-0.455073,4.85686,46.69528,-0.090637,-0.022293,1.01358,0.022678,-0.017117,0.028106,59.272873,11.557663,-148.002869,,,
729862166.792757,-0.447352,4.85306,46.703053,-0.090637,-0.022293,1.01358,0.022678,-0.017117,0.028106,59.272873,11.557663,-148.002869,,,
729862166.796078,-0.437802,4.84235,46.71075,-0.088165,-0.013596,1.014633,0.037168,0.001851,0.029365,59.272873,11.557663,-148.002869,,,
729862166.7995,-0.437802,4.84235,46.71075,-0.088165,-0.013596,1.014633,0.037168,0.001851,0.029365,60.285431,11.463852,-151.148666,,,
729862166.802748,-0.426001,4.841892,46.719818,-0.088165,-0.013596,1.014633,0.037168,0.001851,0.029365,60.285431,11.463852,-151.148666,,,
729862166.806084,-0.41472,4.838708,46.731031,-0.087875,-0.011154,0.997025,0.035847,-0.007953,0.044326,60.285431,11.463852,-151.148666,,,
729862166.809499,-0.41472,4.838708,46.731031,-0.087875,-0.011154,0.997025,0.035847,-0.007953,0.044326,60.285431,11.463852,-151.148666,,,
729862166.812764,-0.40366,4.834243,46.743592,-0.087875,-0.011154,0.997025,0.035847,-0.007953,0.044326,60.285431,11.463852,-151.148666,,,
729862166.816088,-0.395186,4.834858,46.756115,-0.08136,-0.007278,0.98053,0.027332,-0.027271,0.042971,60.285431,11.463852,-151.148666,,,
729862166.819506,-0.395186,4.834858,46.756115,-0.08136,-0.007278,0.98053,0.027332,-0.027271,0.042971,60.285431,11.463852,-151.148666,,,
729862166.822741,-0.387733,4.824891,46.767471,-0.08136,-0.007278,0.98053,0.027332,-0.027271,0.042971,60.285431,11.463852,-151.148666,,,
729862166.826089,-0.384524,4.823266,46.777557,-0.070343,-0.003464,0.976028,0.011565,-0.043405,0.032312,60.285431,11.463852,-151.148666,,,
729862166.829411,-0.384524,4.823266,46.777557,-0.070343,-0.003464,0.976028,0.011565,-0.043405,0.032312,60.285431,11.463852,-151.148666,,,
729862166.832827,-0.381551,4.810508,46.786284,-0.070343,-0.003464,0.976028,0.011565,-0.043405,0.032312,60.285431,11.463852,-151.148666,,,
729862166.836123,-0.382059,4.8088,46.7938,-0.058594,-0.0065,0.979843,-0.003216,-0.028317,0.02215,60.285431,11.463852,-151.148666,,,
729862166.839452,-0.382059,4.8088,46.7938,-0.058594,-0.0065,0.979843,-0.003216,-0.028317,0.02215,60.285431,11.463852,-151.148666,,,
729862166.842785,-0.384688,4.80214,46.799375,-0.058594,-0.0065,0.979843,-0.003216,-0.028317,0.02215,60.056335,11.450638,-151.304092,,,
729862166.846094,-0.390847,4.805758,46.802534,-0.056503,-0.003723,0.989197,-0.023877,0.001765,0.003303,60.056335,11.450638,-151.304092,,,
729862166.849419,-0.390847,4.805758,46.802534,-0.056503,-0.003723,0.989197,-0.023877,0.001765,0.003303,60.056335,11.450638,-151.304092,,,
729862166.852774,-0.398258,4.806965,46.803855,-0.056503,-0.003723,0.989197,-0.023877,0.001765,0.003303,60.056335,11.450638,-151.304092,,,
729862166.856082,-0.407103,4.81542,46.804766,-0.074036,-0.00705,0.997177,-0.022777,0.020472,0.000254,60.056335,11.450638,-151.304092,,,
729862166.859412,-0.407103,4.81542,46.804766,-0.074036,-0.00705,0.997177,-0.022777,0.020472,0.000254,60.056335,11.450638,-151.304092,,,
729862166.862779,-0.411268,4.821023,46.806368,-0.074036,-0.00705,0.997177,-0.022777,0.020472,0.000254,60.056335,11.450638,-151.304092,,,
729862166.866179,-0.414178,4.82912,46.809509,-0.093491,-0.020233,1.010086,0.009914,0.019097,0.01357,60.056335,11.450638,-151.304092,,,
729862166.869411,-0.414178,4.82912,46.809509,-0.093491,-0.020233,1.010086,0.009914,0.019097,0.01357,60.056335,11.450638,-151.304092,,,
729862166.872856,-0.408928,4.831997,46.814894,-0.093491,-0.020233,1.010086,0.009914,0.019097,0.01357,60.056335,11.450638,-151.304092,,,
729862166.876073,-0.401769,4.831507,46.822609,-0.102859,-0.017502,1.001297,0.034604,-0.014111,0.031868,60.056335,11.450638,-151.304092,,,
729862166.879436,-0.401769,4.831507,46.822609,-0.102859,-0.017502,1.001297,0.034604,-0.014111,0.031868,60.056335,11.450638,-151.304092,,,
729862166.882757,-0.391481,4.823292,46.832519,-0.102859,-0.017502,1.001297,0.034604,-0.014111,0.031868,60.038574,11.429199,-151.010223,,,
729862166.886086,-0.381956,4.810263,46.844928,-0.101273,-0.012726,0.974106,0.035675,-0.058121,0.049206,60.038574,11.429199,-151.010223,,,
729862166.889431,-0.381956,4.810263,46.844928,-0.101273,-0.012726,0.974106,0.035675,-0.058121,0.049206,60.038574,11.429199,-151.010223,,,
729862166.892764,-0.371102,4.790747,46.858824,-0.101273,-0.012726,0.974106,0.035675,-0.058121,0.049206,60.038574,11.429199,-151.010223,,,
729862166.896085,-0.3618,4.768368,46.87285,-0.08432,-0.007523,0.967499,0.028501,-0.081409,0.049492,60.038574,11.429199,-151.010223,,,
729862166.899477,-0.3618,4.768368,46.87285,-0.08432,-0.007523,0.967499,0.028501,-0.081409,0.049492,60.038574,11.429199,-151.010223,,,
729862166.902747,-0.353179,4.744024,46.886006,-0.08432,-0.007523,0.967499,0.028501,-0.081409,0.049492,60.038574,11.429199,-151.010223,,,
729862166.906094,-0.345874,4.717606,46.897039,-0.059631,-0.00206,0.973129,0.017015,-0.07361,0.033838,60.038574,11.429199,-151.010223,,,
729862166.909411,-0.345874,4.717606,46.897039,-0.059631,-0.00206,0.973129,0.017015,-0.07361,0.033838,60.038574,11.429199,-151.010223,,,
729862166.912812,-0.341959,4.698109,46.90511,-0.059631,-0.00206,0.973129,0.017015,-0.07361,0.033838,60.038574,11.429199,-151.010223,,,
729862166.916074,-0.340574,4.675101,46.910582,-0.048264,-0.001511,0.980194,0.000271,-0.038361,0.014713,60.038574,11.429199,-151.010223,,,
729862166.919423,-0.340574,4.675101,46.910582,-0.048264,-0.001511,0.980194,0.000271,-0.038361,0.014713,60.038574,11.429199,-151.010223,,,
729862166.922811,-0.34194,4.665717,46.914346,-0.048264,-0.001511,0.980194,0.000271,-0.038361,0.014713,58.953003,12.019974,-149.797195,,,
729862166.92609,-0.346256,4.650683,46.915974,-0.050842,-0.003296,0.98735,-0.01957,-0.001108,-0.00136,58.953003,12.019974,-149.797195,,,
729862166.929445,-0.346256,4.650683,46.915974,-0.050842,-0.003296,0.98735,-0.01957,-0.001108,-0.00136,58.953003,12.019974,-149.797195,,,
729862166.932759,-0.351925,4.650818,46.915615,-0.050842,-0.003296,0.98735,-0.01957,-0.001108,-0.00136,58.953003,12.019974,-149.797195,,,
729862166.936092,-0.356816,4.648225,46.914475,-0.05864,-0.004745,0.994858,-0.017076,0.016352,-0.006367,58.953003,12.019974,-149.797195,,,
729862166.939407,-0.356816,4.648225,46.914475,-0.05864,-0.004745,0.994858,-0.017076,0.016352,-0.006367,58.953003,12.019974,-149.797195,,,
729862166.942764,-0.361888,4.651425,46.913677,-0.05864,-0.004745,0.994858,-0.017076,0.016352,-0.006367,58.953003,12.019974,-149.797195,,,
729862166.946088,-0.368879,4.655855,46.91321,-0.069977,-0.007126,0.992599,-0.011712,0.003584,-0.003785,58.953003,12.019974,-149.797195,,,
729862166.9495,-0.368879,4.655855,46.91321,-0.069977,-0.007126,0.992599,-0.011712,0.003584,-0.003785,58.953003,12.019974,-149.797195,,,
729862166.952765,-0.37247,4.654433,46.912559,-0.069977,-0.007126,0.992599,-0.011712,0.003584,-0.003785,58.953003,12.019974,-149.797195,,,
729862166.956087,-0.379545,4.657631,46.911199,-0.07045,-0.002777,0.980835,-0.016437,-0.01855,-0.009497,58.953003,12.019974,-149.797195,,,
729862166.959429,-0.379545,4.657631,46.911199,-0.07045,-0.002777,0.980835,-0.016437,-0.01855,-0.009497,58.953003,12.019974,-149.797195,,,
729862166.962878,-0.385202,4.652034,46.908027,-0.07045,-0.002777,0.980835,-0.016437,-0.01855,-0.009497,58.953003,12.019974,-149.797195,,,
729862166.966071,-0.393186,4.656503,46.902859,-0.068741,-0.002365,0.984329,-0.022611,-0.006391,-0.024273,58.472778,12.218613,-148.455734,,,
729862166.969438,-0.393186,4.656503,46.902859,-0.068741,-0.002365,0.984329,-0.022611,-0.006391,-0.024273,58.472778,12.218613,-148.455734,,,
729862166.972754,-0.400965,4.655737,46.896603,-0.068741,-0.002365,0.984329,-0.022611,-0.006391,-0.024273,58.472778,12.218613,-148.455734,,,
729862166.976086,-0.410194,4.664438,46.890687,-0.06897,-0.008301,1.00116,-0.028978,0.026991,-0.022725,58.472778,12.218613,-148.455734,,,
729862166.979428,-0.410194,4.664438,46.890687,-0.06897,-0.008301,1.00116,-0.028978,0.026991,-0.022725,58.472778,12.218613,-148.455734,,,
729862166.982751,-0.41964,4.673626,46.885847,-0.06897,-0.008301,1.00116,-0.028978,0.026991,-0.022725,58.472778,12.218613,-148.455734,,,
729862166.986081,-0.428786,4.680583,46.88225,-0.075668,-0.009048,1.00499,-0.034548,0.055293,-0.014192,58.472778,12.218613,-148.455734,,,
729862166.989494,-0.428786,4.680583,46.88225,-0.075668,-0.009048,1.00499,-0.034548,0.055293,-0.014192,58.472778,12.218613,-148.455734,,,
729862166.992759,-0.439194,4.696742,46.87918,-0.075668,-0.009048,1.00499,-0.034548,0.055293,-0.014192,58.472778,12.218613,-148.455734,,,
729862166.995873,-0.447681,4.700497,46.875277,-0.080322,-0.008423,1.006622,-0.030814,0.062694,-0.019004,58.472778,12.218613,-148.455734,,,
729862166.999441,-0.447681,4.700497,46.875277,-0.080322,-0.008423,1.006622,-0.030814,0.062694,-0.019004,58.472778,12.218613,-148.455734,,,
729862167.002828,-0.456519,4.716282,46.870333,-0.080322,-0.008423,1.006622,-0.030814,0.062694,-0.019004,58.472778,12.218613,-148.455734,,,
729862167.006078,-0.462863,4.71561,46.863779,-0.088211,-0.011734,1.006104,-0.020774,0.042792,-0.028751,59.585297,11.961136,-150.893524,,,
729862167.009415,-0.462863,4.71561,46.863779,-0.088211,-0.011734,1.006104,-0.020774,0.042792,-0.028751,59.585297,11.961136,-150.893524,,,
729862167.012766,-0.469603,4.726392,46.856506,-0.088211,-0.011734,1.006104,-0.020774,0.042792,-0.028751,59.585297,11.961136,-150.893524,,,
729862167.016079,-0.475351,4.723461,46.849529,-0.098114,-0.012772,1.002716,-0.019192,0.028241,-0.025784,59.585297,11.961136,-150.893524,,,
729862167.019436,-0.475351,4.723461,46.849529,-0.098114,-0.012772,1.002716,-0.019192,0.028241,-0.025784,59.585297,11.961136,-150.893524,,,
729862167.022762,-0.481463,4.729038,46.843762,-0.098114,-0.012772,1.002716,-0.019192,0.028241,-0.025784,59.585297,11.961136,-150.893524,,,
729862167.026119,-0.486596,4.726066,46.838865,-0.101257,-0.009933,0.993713,-0.016548,0.010014,-0.019124,59.585297,11.961136,-150.893524,,,
729862167.029466,-0.486596,4.726066,46.838865,-0.101257,-0.009933,0.993713,-0.016548,0.010014,-0.019124,59.585297,11.961136,-150.893524,,,
729862167.03274,-0.491893,4.72736,46.834117,-0.101257,-0.009933,0.993713,-0.016548,0.010014,-0.019124,59.585297,11.961136,-150.893524,,,
729862167.036081,-0.49672,4.72295,46.828887,-0.098694,-0.005951,0.990616,-0.019784,0.002153,-0.022456,59.585297,11.961136,-150.893524,,,
729862167.039415,-0.49672,4.72295,46.828887,-0.098694,-0.005951,0.990616,-0.019784,0.002153,-0.022456,59.585297,11.961136,-150.893524,,,
729862167.042815,-0.503652,4.722678,46.823119,-0.098694,-0.005951,0.990616,-0.019784,0.002153,-0.022456,59.585297,11.961136,-150.893524,,,
729862167.046072,-0.509634,4.716575,46.816988,-0.095642,-0.001221,0.982971,-0.025924,-0.000965,-0.025162,60.117111,11.912872,-151.551208,,,
729862167.049513,-0.509634,4.716575,46.816988,-0.095642,-0.001221,0.982971,-0.025924,-0.000965,-0.025162,60.117111,11.912872,-151.551208,,,
729862167.052789,-0.519057,4.715206,46.81075,-0.095642,-0.001221,0.982971,-0.025924,-0.000965,-0.025162,60.117111,11.912872,-151.551208,,,
729862167.056102,-0.530452,4.708489,46.8043,-0.088303,-0.003082,0.977615,-0.041946,0.005233,-0.027623,60.117111,11.912872,-151.551208,,,
729862167.059444,-0.530452,4.708489,46.8043,-0.088303,-0.003082,0.977615,-0.041946,0.005233,-0.027623,60.117111,11.912872,-151.551208,,,
729862167.06277,-0.545102,4.710683,46.797754,-0.088303,-0.003082,0.977615,-0.041946,0.005233,-0.027623,60.117111,11.912872,-151.551208,,,
729862167.066083,-0.563361,4.712499,46.790529,-0.083603,0.000381,0.97612,-0.066316,0.027928,-0.034093,60.117111,11.912872,-151.551208,,,
729862167.069515,-0.563361,4.712499,46.790529,-0.083603,0.000381,0.97612,-0.066316,0.027928,-0.034093,60.117111,11.912872,-151.551208,,,
729862167.072764,-0.585017,4.721586,46.782564,-0.083603,0.000381,0.97612,-0.066316,0.027928,-0.034093,60.117111,11.912872,-151.551208,,,
729862167.0761,-0.60883,4.732945,46.774829,-0.0849,-0.001221,0.979645,-0.08485,0.05373,-0.033921,60.117111,11.912872,-151.551208,,,
729862167.079411,-0.60883,4.732945,46.774829,-0.0849,-0.001221,0.979645,-0.08485,0.05373,-0.033921,60.117111,11.912872,-151.551208,,,
729862167.082771,-0.634903,4.749342,46.767511,-0.0849,-0.001221,0.979645,-0.08485,0.05373,-0.033921,60.117111,11.912872,-151.551208,,,
729862167.086125,-0.661473,4.770742,46.760439,-0.090485,-0.00386,0.994446,-0.089388,0.081861,-0.032744,60.049835,12.050858,-151.415787,,,
729862167.089433,-0.661473,4.770742,46.760439,-0.090485,-0.00386,0.994446,-0.089388,0.081861,-0.032744,60.049835,12.050858,-151.415787,,,
729862167.092765,-0.686903,4.794601,46.753718,-0.090485,-0.00386,0.994446,-0.089388,0.081861,-0.032744,60.049835,12.050858,-151.415787,,,
729862167.096082,-0.710282,4.824173,46.747617,-0.103165,-0.008057,1.014343,-0.07373,0.088154,-0.027672,60.049835,12.050858,-151.415787,,,
729862167.099428,-0.710282,4.824173,46.747617,-0.103165,-0.008057,1.014343,-0.07373,0.088154,-0.027672,60.049835,12.050858,-151.415787,,,
729862167.102763,-0.730187,4.847695,46.741924,-0.103165,-0.008057,1.014343,-0.07373,0.088154,-0.027672,60.049835,12.050858,-151.415787,,,
729862167.106096,-0.745224,4.87603,46.736719,-0.106628,-0.011627,1.018188,-0.043252,0.072399,-0.022374,60.049835,12.050858,-151.415787,,,
729862167.109441,-0.745224,4.87603,46.736719,-0.106628,-0.011627,1.018188,-0.043252,0.072399,-0.022374,60.049835,12.050858,-151.415787,,,
729862167.112763,-0.755891,4.895543,46.732734,-0.106628,-0.011627,1.018188,-0.043252,0.072399,-0.022374,60.049835,12.050858,-151.415787,,,
729862167.116089,-0.76049,4.920705,46.730418,-0.112961,-0.015778,1.029617,-0.012091,0.066754,-0.008584,60.049835,12.050858,-151.415787,,,
729862167.119519,-0.76049,4.920705,46.730418,-0.112961,-0.015778,1.029617,-0.012091,0.066754,-0.008584,60.049835,12.050858,-151.415787,,,
729862167.122763,-0.762019,4.936582,46.730008,-0.112961,-0.015778,1.029617,-0.012091,0.066754,-0.008584,60.049835,12.050858,-151.415787,,,
729862167.126089,-0.754956,4.951296,46.731893,-0.110748,-0.015472,1.029861,0.027609,0.02398,0.010436,60.049835,12.050858,-151.415787,,,
729862167.129434,-0.754956,4.951296,46.731893,-0.110748,-0.015472,1.029861,0.027609,0.02398,0.010436,59.059235,12.538574,-148.778366,,,
729862167.132814,-0.744351,4.953588,46.735087,-0.110748,-0.015472,1.029861,0.027609,0.02398,0.010436,59.059235,12.538574,-148.778366,,,
729862167.136098,-0.72633,4.951185,46.738811,-0.104523,-0.007736,1.022995,0.062123,-0.025473,0.01691,59.059235,12.538574,-148.778366,,,
729862167.139435,-0.72633,4.951185,46.738811,-0.104523,-0.007736,1.022995,0.062123,-0.025473,0.01691,59.059235,12.538574,-148.778366,,,
729862167.142757,-0.706942,4.940767,46.742564,-0.104523,-0.007736,1.022995,0.062123,-0.025473,0.01691,59.059235,12.538574,-148.778366,,,
729862167.146083,-0.683257,4.927084,46.747038,-0.092651,-0.006729,1.009262,0.073257,-0.047009,0.022976,59.059235,12.538574,-148.778366,,,
729862167.149427,-0.683257,4.927084,46.747038,-0.092651,-0.006729,1.009262,0.073257,-0.047009,0.022976,59.059235,12.538574,-148.778366,,,
729862167.152756,-0.662398,4.912607,46.752916,-0.092651,-0.006729,1.009262,0.073257,-0.047009,0.022976,59.059235,12.538574,-148.778366,,,
729862167.156099,-0.641052,4.89784,46.760085,-0.081787,0.002838,0.995758,0.057963,-0.049267,0.030647,59.059235,12.538574,-148.778366,,,
729862167.159417,-0.641052,4.89784,46.760085,-0.081787,0.002838,0.995758,0.057963,-0.049267,0.030647,59.059235,12.538574,-148.778366,,,
729862167.162744,-0.625372,4.884827,46.768141,-0.081787,0.002838,0.995758,0.057963,-0.049267,0.030647,59.059235,12.538574,-148.778366,,,
729862167.166083,-0.611942,4.877684,46.776411,-0.062469,0.012894,0.985062,0.028816,-0.020373,0.029479,59.059235,12.538574,-148.778366,,,
729862167.169417,-0.611942,4.877684,46.776411,-0.062469,0.012894,0.985062,0.028816,-0.020373,0.029479,59.381287,12.089798,-149.927719,,,
729862167.172827,-0.605816,4.873582,46.783198,-0.062469,0.012894,0.985062,0.028816,-0.020373,0.029479,59.381287,12.089798,-149.927719,,,
729862167.176091,-0.60351,4.87981,46.787227,-0.044159,0.013779,0.98381,-0.001746,0.011227,0.007161,59.381287,12.089798,-149.927719,,,
729862167.179447,-0.60351,4.87981,46.787227,-0.044159,0.013779,0.98381,-0.001746,0.011227,0.007161,59.381287,12.089798,-149.927719,,,
729862167.182847,-0.6063,4.884337,46.787855,-0.044159,0.013779,0.98381,-0.001746,0.011227,0.007161,59.381287,12.089798,-149.927719,,,
729862167.186148,-0.612892,4.900926,46.785527,-0.04361,0.009811,0.987076,-0.027342,0.041302,-0.016239,59.381287,12.089798,-149.927719,,,
729862167.18941,-0.612892,4.900926,46.785527,-0.04361,0.009811,0.987076,-0.027342,0.041302,-0.016239,59.381287,12.089798,-149.927719,,,
729862167.192773,-0.622202,4.913976,46.780739,-0.04361,0.009811,0.987076,-0.027342,0.041302,-0.016239,59.381287,12.089798,-149.927719,,,
729862167.196084,-0.633148,4.939523,46.774366,-0.056992,0.003494,1.002747,-0.032556,0.070465,-0.028423,59.381287,12.089798,-149.927719,,,
729862167.199426,-0.633148,4.939523,46.774366,-0.056992,0.003494,1.002747,-0.032556,0.070465,-0.028423,59.381287,12.089798,-149.927719,,,
729862167.202749,-0.641616,4.95821,46.767521,-0.056992,0.003494,1.002747,-0.032556,0.070465,-0.028423,59.381287,12.089798,-149.927719,,,
729862167.20608,-0.646578,4.982306,46.761518,-0.078323,-0.010132,1.014465,-0.00163,0.049421,-0.020554,59.381287,12.089798,-149.927719,,,
729862167.209415,-0.646578,4.982306,46.761518,-0.078323,-0.010132,1.014465,-0.00163,0.049421,-0.020554,59.392303,12.18306,-150.065826,,,
729862167.212768,-0.645341,4.992399,46.756059,-0.078323,-0.010132,1.014465,-0.00163,0.049421,-0.020554,59.392303,12.18306,-150.065826,,,
729862167.216088,-0.638944,5.003384,46.751364,-0.093719,-0.015503,1.015991,0.030603,0.011375,-0.01292,59.392303,12.18306,-150.065826,,,
729862167.2195,-0.638944,5.003384,46.751364,-0.093719,-0.015503,1.015991,0.030603,0.011375,-0.01292,59.392303,12.18306,-150.065826,,,
729862167.222766,-0.628269,5.004316,46.747933,-0.093719,-0.015503,1.015991,0.030603,0.011375,-0.01292,59.392303,12.18306,-150.065826,,,
729862167.226089,-0.611779,5.004709,46.746033,-0.100327,-0.023834,1.028183,0.06389,-0.011098,0.000513,59.392303,12.18306,-150.065826,,,
729862167.229459,-0.611779,5.004709,46.746033,-0.100327,-0.023834,1.028183,0.06389,-0.011098,0.000513,59.392303,12.18306,-150.065826,,,
729862167.232819,-0.591492,4.998932,46.746677,-0.100327,-0.023834,1.028183,0.06389,-0.011098,0.000513,59.392303,12.18306,-150.065826,,,
729862167.236081,-0.566119,4.989262,46.750659,-0.101349,-0.022964,1.018845,0.084212,-0.031922,0.02566,59.392303,12.18306,-150.065826,,,
729862167.239434,-0.566119,4.989262,46.750659,-0.101349,-0.022964,1.018845,0.084212,-0.031922,0.02566,59.392303,12.18306,-150.065826,,,
729862167.242765,-0.541972,4.978351,46.757019,-0.101349,-0.022964,1.018845,0.084212,-0.031922,0.02566,59.392303,12.18306,-150.065826,,,
729862167.246085,-0.51566,4.960633,46.763378,-0.086792,-0.012894,0.999695,0.075696,-0.041648,0.02518,59.392303,12.18306,-150.065826,,,
729862167.249428,-0.51566,4.960633,46.763378,-0.086792,-0.012894,0.999695,0.075696,-0.041648,0.02518,59.722122,11.735321,-151.549286,,,
729862167.25277,-0.496122,4.947119,46.768213,-0.086792,-0.012894,0.999695,0.075696,-0.041648,0.02518,59.722122,11.735321,-151.549286,,,
729862167.256086,-0.477246,4.920622,46.770366,-0.06691,-0.007965,0.986862,0.042268,-0.039944,0.004295,59.722122,11.735321,-151.549286,,,
729862167.259477,-0.477246,4.920622,46.770366,-0.06691,-0.007965,0.986862,0.042268,-0.039944,0.004295,59.722122,11.735321,-151.549286,,,
729862167.262767,-0.468536,4.909462,46.76938,-0.06691,-0.007965,0.986862,0.042268,-0.039944,0.004295,59.722122,11.735321,-151.549286,,,
729862167.266085,-0.461179,4.885408,46.766106,-0.062653,-0.007294,0.986328,0.008877,-0.023191,-0.013725,59.722122,11.735321,-151.549286,,,
729862167.269439,-0.461179,4.885408,46.766106,-0.062653,-0.007294,0.986328,0.008877,-0.023191,-0.013725,59.722122,11.735321,-151.549286,,,
729862167.272827,-0.460264,4.878613,46.762231,-0.062653,-0.007294,0.986328,0.008877,-0.023191,-0.013725,59.722122,11.735321,-151.549286,,,
729862167.276072,-0.458054,4.860369,46.759034,-0.07373,-0.013641,0.996231,-0.004173,-0.013452,-0.00938,59.722122,11.735321,-151.549286,,,
729862167.27943,-0.458054,4.860369,46.759034,-0.07373,-0.013641,0.996231,-0.004173,-0.013452,-0.00938,59.722122,11.735321,-151.549286,,,
729862167.282758,-0.459624,4.855556,46.757747,-0.07373,-0.013641,0.996231,-0.004173,-0.013452,-0.00938,59.722122,11.735321,-151.549286,,,
729862167.28609,-0.459792,4.844696,46.757835,-0.085281,-0.020523,1.001266,0.001865,-0.017731,0.00105,59.722122,11.735321,-151.549286,,,
729862167.289432,-0.459792,4.844696,46.757835,-0.085281,-0.020523,1.001266,0.001865,-0.017731,0.00105,59.722122,11.735321,-151.549286,,,
729862167.292772,-0.458023,4.838309,46.758658,-0.085281,-0.020523,1.001266,0.001865,-0.017731,0.00105,57.853516,12.240906,-146.870743,,,
729862167.296083,-0.45548,4.834225,46.759722,-0.086212,-0.021729,1.003693,0.017235,-0.018627,0.003832,57.853516,12.240906,-146.870743,,,
729862167.299439,-0.45548,4.834225,46.759722,-0.086212,-0.021729,1.003693,0.017235,-0.018627,0.003832,57.853516,12.240906,-146.870743,,,
729862167.302757,-0.449749,4.828018,46.76023,-0.086212,-0.021729,1.003693,0.017235,-0.018627,0.003832,57.853516,12.240906,-146.870743,,,
729862167.306086,-0.444558,4.828004,46.758896,-0.075943,-0.021362,1.006149,0.035256,-0.011295,-0.007854,57.853516,12.240906,-146.870743,,,
729862167.309497,-0.444558,4.828004,46.758896,-0.075943,-0.021362,1.006149,0.035256,-0.011295,-0.007854,57.853516,12.240906,-146.870743,,,
729862167.31275,-0.432172,4.825346,46.755442,-0.075943,-0.021362,1.006149,0.035256,-0.011295,-0.007854,57.853516,12.240906,-146.870743,,,
729862167.316083,-0.418469,4.831981,46.750231,-0.073578,-0.024231,1.024017,0.071099,0.010219,-0.017429,57.853516,12.240906,-146.870743,,,
729862167.319413,-0.418469,4.831981,46.750231,-0.073578,-0.024231,1.024017,0.071099,0.010219,-0.017429,57.853516,12.240906,-146.870743,,,
729862167.322826,-0.396977,4.836469,46.743801,-0.073578,-0.024231,1.024017,0.071099,0.010219,-0.017429,57.853516,12.240906,-146.870743,,,
729862167.326077,-0.375026,4.84809,46.737671,-0.081055,-0.028687,1.025391,0.085619,0.038946,-0.0142,57.853516,12.240906,-146.870743,,,
729862167.329429,-0.375026,4.84809,46.737671,-0.081055,-0.028687,1.025391,0.085619,0.038946,-0.0142,57.853516,12.240906,-146.870743,,,
729862167.33276,-0.350791,4.859655,46.732174,-0.081055,-0.028687,1.025391,0.085619,0.038946,-0.0142,58.229538,11.874695,-147.025482,,,
729862167.336076,-0.328866,4.867963,46.726877,-0.083984,-0.016937,1.00502,0.074778,0.055927,-0.013515,58.229538,11.874695,-147.025482,,,
729862167.339419,-0.328866,4.867963,46.726877,-0.083984,-0.016937,1.00502,0.074778,0.055927,-0.013515,58.229538,11.874695,-147.025482,,,
729862167.3428,-0.310553,4.883182,46.721146,-0.083984,-0.016937,1.00502,0.074778,0.055927,-0.013515,58.229538,11.874695,-147.025482,,,
729862167.346091,-0.29882,4.888926,46.714319,-0.086884,-0.007172,0.978973,0.033066,0.055842,-0.024393,58.229538,11.874695,-147.025482,,,
729862167.349522,-0.29882,4.888926,46.714319,-0.086884,-0.007172,0.978973,0.033066,0.055842,-0.024393,58.229538,11.874695,-147.025482,,,
729862167.352761,-0.292835,4.9021,46.707462,-0.086884,-0.007172,0.978973,0.033066,0.055842,-0.024393,58.229538,11.874695,-147.025482,,,
729862167.356092,-0.292835,4.90459,46.701155,-0.096542,-0.003143,0.958084,-0.008536,0.028294,-0.023783,58.229538,11.874695,-147.025482,,,
729862167.359429,-0.294221,4.90459,46.701155,-0.096542,-0.003143,0.958084,-0.008536,0.028294,-0.023783,58.229538,11.874695,-147.025482,,,
729862167.362831,-0.299511,4.908771,46.695687,-0.096542,-0.003143,0.958084,-0.008536,0.028294,-0.023783,58.229538,11.874695,-147.025482,,,
729862167.36609,-0.299511,4.908771,46.691109,-0.102463,-0.002792,0.961517,-0.032761,-0.001122,-0.019569,58.229538,11.874695,-147.025482,,,
729862167.369433,-0.311617,4.907618,46.691109,-0.102463,-0.002792,0.961517,-0.032761,-0.001122,-0.019569,58.229538,11.874695,-147.025482,,,
729862167.372755,-0.322436,4.906625,46.687426,-0.102463,-0.002792,0.961517,-0.032761,-0.001122,-0.019569,58.83754,11.395676,-149.086685,,,
729862167.376176,-0.337569,4.90677,46.684863,-0.10437,-0.010376,0.985001,-0.038432,0.004475,-0.012285,58.83754,11.395676,-149.086685,,,
729862167.379429,-0.337569,4.90677,46.684863,-0.10437,-0.010376,0.985001,-0.038432,0.004475,-0.012285,58.83754,11.395676,-149.086685,,,
729862167.382765,-0.348871,4.908359,46.683515,-0.10437,-0.010376,0.985001,-0.038432,0.004475,-0.012285,58.83754,11.395676,-149.086685,,,
729862167.386124,-0.348871,4.908359,46.682857,-0.100479,-0.010544,1.001251,-0.031863,0.025794,-0.006733,58.83754,11.395676,-149.086685,,,
729862167.389485,-0.362768,4.909836,46.682857,-0.100479,-0.010544,1.001251,-0.031863,0.025794,-0.006733,58.83754,11.395676,-149.086685,,,
729862167.392765,-0.371177,4.918702,46.682475,-0.100479,-0.010544,1.001251,-0.031863,0.025794,-0.006733,58.83754,11.395676,-149.086685,,,
729862167.3961,-0.371177,4.918702,46.682475,-0.100479,-0.012283,1.019745,-0.009688,0.059342,-0.004923,58.83754,11.395676,-149.086685,,,
729862167.399426,-0.379999,4.926202,46.682051,-0.091797,-0.012283,1.019745,-0.009688,0.059342,-0.004923,58.83754,11.395676,-149.086685,,,
729862167.402831,-0.38047,4.944577,46.680755,-0.091797,-0.012283,1.019745,-0.009688,0.059342,-0.004923,58.83754,11.395676,-149.086685,,,
729862167.406077,-0.38047,4.944577,46.680755,-0.095093,-0.019897,1.029617,0.019329,0.079905,-0.007877,58.83754,11.395676,-149.086685,,,
729862167.409428,-0.381735,4.962006,46.678652,-0.095093,-0.019897,1.029617,0.019329,0.079905,-0.007877,58.83754,11.395676,-149.086685,,,
729862167.412758,-0.375523,4.983917,46.675802,-0.095093,-0.019897,1.029617,0.019329,0.079905,-0.007877,58.83754,11.395676,-149.086685,,,
729862167.416117,-0.375523,4.983917,46.675802,-0.095093,-0.015488,1.009689,0.030455,0.078053,-0.007215,60.182159,11.183914,-151.748367,,,
729862167.419435,-0.370949,5.003739,46.672879,-0.103577,-0.015488,1.009689,0.030455,0.078053,-0.007215,60.182159,11.183914,-151.748367,,,
