Time (sec),Pitch (deg),Roll (deg),Yaw(deg),X-Acceleration (g),Y-Acceleration (g),Z-Acceleration (g),Pitch Rate (deg/sec),Roll Rate (deg/sec),Yaw Rate (deg/sec),Magnetic Field in X direction (uT),Magnetic Field in Y direction (uT),Magnetic Field in Z Direction (uT),Latitude (deg),Longitude (deg),Altitude (m)
729860858.745369,0.352929,4.1781,52.638382,-0.067657,0.003891,0.998138,-0.027769,0.012852,-0.015175,62.30043,15.956131,-147.173615,,,
729860858.748639,0.345957,4.179587,52.634364,-0.067657,0.003891,0.998138,-0.027769,0.012852,-0.015175,62.30043,15.956131,-147.173615,,,
729860858.752043,0.345957,4.179587,52.634364,-0.067657,0.003891,0.998138,-0.027769,0.012852,-0.015175,62.30043,15.956131,-147.173615,,,
729860858.755297,0.342184,4.179057,52.629409,-0.077072,-0.001343,1.005676,0.000114,-0.005398,-0.019612,62.30043,15.956131,-147.173615,,,
729860858.758371,0.343922,4.174839,52.624034,-0.077072,-0.001343,1.005676,0.000114,-0.005398,-0.019612,62.30043,15.956131,-147.173615,,,
729860858.762023,0.343922,4.174839,52.624034,-0.077072,-0.001343,1.005676,0.000114,-0.005398,-0.020464,62.30043,15.956131,-147.173615,,,
729860858.765292,0.350733,4.169333,52.618199,-0.081161,-0.003113,1.014038,0.032732,-0.017736,-0.020464,62.30043,15.956131,-147.173615,,,
729860858.768679,0.36089,4.163038,52.61215,-0.081161,-0.003113,1.014038,0.032732,-0.017736,-0.020464,62.30043,15.956131,-147.173615,,,
729860858.771944,0.36089,4.163038,52.61215,-0.081161,-0.003113,1.014038,0.032732,-0.017736,-0.020464,62.30043,15.956131,-147.173615,,,
729860858.775301,0.37392,4.158529,52.606494,-0.081604,-0.00621,1.01712,0.045649,-0.016487,-0.016751,62.30043,15.956131,-147.173615,,,
729860858.77864,0.386134,4.153015,52.601801,-0.081604,-0.00621,1.01712,0.045649,-0.016487,-0.016751,62.30043,15.956131,-147.173615,,,
729860858.782035,0.386134,4.153015,52.601801,-0.081604,-0.00621,1.01712,0.045649,-0.016487,-0.016751,62.377548,16.043121,-146.92485,,,
729860858.785296,0.398918,4.149659,52.598507,-0.08342,0.00148,0.99707,0.034944,-0.014055,-0.007663,62.377548,16.043121,-146.92485,,,
729860858.788613,0.40623,4.145333,52.596426,-0.08342,0.00148,0.99707,0.034944,-0.014055,-0.007663,62.377548,16.043121,-146.92485,,,
729860858.791963,0.40623,4.145333,52.596426,-0.08342,0.00148,0.99707,0.034944,-0.014055,-0.007663,62.377548,16.043121,-146.92485,,,
729860858.795333,0.411029,4.144433,52.595386,-0.083588,0.014008,0.981842,0.003157,-0.002765,-0.002692,62.377548,16.043121,-146.92485,,,
729860858.79863,0.410623,4.143075,52.595836,-0.083588,0.014008,0.981842,0.003157,-0.002765,-0.002692,62.377548,16.043121,-146.92485,,,
729860858.801975,0.410623,4.143075,52.595836,-0.083588,0.014008,0.981842,0.003157,-0.002765,-0.002692,62.377548,16.043121,-146.92485,,,
729860858.805275,0.408925,4.143507,52.5981,-0.087158,0.014954,0.978943,-0.01758,-0.002759,0.00864,62.377548,16.043121,-146.92485,,,
729860858.808637,0.402516,4.14153,52.601833,-0.087158,0.014954,0.978943,-0.01758,-0.002759,0.00864,62.377548,16.043121,-146.92485,,,
729860858.812016,0.402516,4.14153,52.601833,-0.087158,0.014954,0.978943,-0.01758,-0.002759,0.00864,62.377548,16.043121,-146.92485,,,
729860858.815303,0.39536,4.139784,52.606598,-0.082687,0.013199,0.979431,-0.032118,-0.003991,0.014843,62.377548,16.043121,-146.92485,,,
729860858.818338,0.385642,4.137297,52.612456,-0.082687,0.013199,0.979431,-0.032118,-0.003991,0.014843,62.377548,16.043121,-146.92485,,,
729860858.822055,0.385642,4.137297,52.612456,-0.082687,0.013199,0.979431,-0.032118,-0.003991,0.014843,62.316574,15.957596,-147.206589,,,
729860858.825285,0.375503,4.133258,52.618544,-0.082977,0.012009,0.988434,-0.034238,-0.007934,0.016298,62.316574,15.957596,-147.206589,,,
729860858.828615,0.366772,4.129797,52.624219,-0.082977,0.012009,0.988434,-0.034238,-0.007934,0.016298,62.316574,15.957596,-147.206589,,,
729860858.831992,0.366772,4.129797,52.624219,-0.082977,0.012009,0.988434,-0.034238,-0.007934,0.016298,62.316574,15.957596,-147.206589,,,
729860858.83528,0.358261,4.126757,52.629497,-0.074219,0.008316,1.001053,-0.024238,-0.006877,0.014303,62.316574,15.957596,-147.206589,,,
729860858.838632,0.352735,4.12486,52.63367,-0.074219,0.008316,1.001053,-0.024238,-0.006877,0.014303,62.316574,15.957596,-147.206589,,,
729860858.842004,0.352735,4.12486,52.63367,-0.074219,0.008316,1.001053,-0.024238,-0.006877,0.014303,62.316574,15.957596,-147.206589,,,
729860858.845344,0.347968,4.125638,52.63573,-0.067596,0.00325,1.008453,-0.007408,0.000732,0.000924,62.316574,15.957596,-147.206589,,,
729860858.848632,0.346461,4.125559,52.636015,-0.067596,0.00325,1.008453,-0.007408,0.000732,0.000924,62.316574,15.957596,-147.206589,,,
729860858.851949,0.346461,4.125559,52.636015,-0.067596,0.00325,1.008453,-0.007408,0.000732,0.000924,62.316574,15.957596,-147.206589,,,
729860858.855294,0.34475,4.127795,52.635028,-0.068573,0.009247,1.010025,0.00583,0.005069,-0.006934,62.316574,15.957596,-147.206589,,,
729860858.858614,0.346557,4.128699,52.633714,-0.068573,0.009247,1.010025,0.00583,0.005069,-0.006934,62.316574,15.957596,-147.206589,,,
729860858.861962,0.346557,4.128699,52.633714,-0.068573,0.009247,1.010025,0.00583,0.005069,-0.006934,62.365967,15.946762,-147.346298,,,
729860858.865271,0.348506,4.133377,52.633208,-0.073471,0.004547,1.010193,0.014921,0.016587,-0.000548,62.365967,15.946762,-147.346298,,,
729860858.868628,0.352347,4.138104,52.63426,-0.073471,0.004547,1.010193,0.014921,0.016587,-0.000548,62.365967,15.946762,-147.346298,,,
729860858.872027,0.352347,4.138104,52.63426,-0.073471,0.004547,1.010193,0.014921,0.016587,-0.000548,62.365967,15.946762,-147.346298,,,
729860858.875278,0.356167,4.146277,52.637248,-0.075714,0.005325,1.002441,0.007297,0.024072,0.012569,62.365967,15.946762,-147.346298,,,
729860858.87862,0.357236,4.15194,52.641495,-0.075714,0.005325,1.002441,0.007297,0.024072,0.012569,62.365967,15.946762,-147.346298,,,
729860858.881955,0.357236,4.15194,52.641495,-0.075714,0.005325,1.002441,0.007297,0.024072,0.012569,62.365967,15.946762,-147.346298,,,
729860858.884976,0.357784,4.160448,52.646576,-0.074997,0.014481,0.987106,-0.009167,0.021681,0.017331,62.365967,15.946762,-147.346298,,,
729860858.888663,0.354168,4.164613,52.651898,-0.074997,0.014481,0.987106,-0.009167,0.021681,0.017331,62.365967,15.946762,-147.346298,,,
729860858.891962,0.354168,4.164613,52.651898,-0.074997,0.014481,0.987106,-0.009167,0.021681,0.017331,62.365967,15.946762,-147.346298,,,
729860858.895353,0.349966,4.168005,52.656372,-0.072433,0.012985,0.977753,-0.021693,-0.001791,0.010589,62.365967,15.946762,-147.346298,,,
729860858.898624,0.343057,4.164815,52.659477,-0.072433,0.012985,0.977753,-0.021693,-0.001791,0.010589,62.365967,15.946762,-147.346298,,,
729860858.901937,0.343057,4.164815,52.659477,-0.072433,0.012985,0.977753,-0.021693,-0.001791,0.010589,62.116714,15.962265,-147.347137,,,
729860858.905304,0.335386,4.160457,52.660991,-0.068924,0.008621,0.970596,-0.034321,-0.025553,-0.001378,62.116714,15.962265,-147.347137,,,
729860858.908682,0.324597,4.151248,52.661583,-0.068924,0.008621,0.970596,-0.034321,-0.025553,-0.001378,62.116714,15.962265,-147.347137,,,
729860858.91194,0.324597,4.151248,52.661583,-0.068924,0.008621,0.970596,-0.034321,-0.025553,-0.001378,62.116714,15.962265,-147.347137,,,
729860858.915296,0.313542,4.141688,52.661822,-0.065506,0.009491,0.975494,-0.042017,-0.034861,-0.004342,62.116714,15.962265,-147.347137,,,
729860858.918641,0.301589,4.131329,52.662506,-0.065506,0.009491,0.975494,-0.042017,-0.034861,-0.004342,62.116714,15.962265,-147.347137,,,
729860858.922062,0.301589,4.131329,52.662506,-0.065506,0.009491,0.975494,-0.042017,-0.034861,-0.004342,62.116714,15.962265,-147.347137,,,
729860858.925282,0.289181,4.121086,52.664366,-0.063705,0.006042,0.985046,-0.043244,-0.027365,0.003683,62.116714,15.962265,-147.347137,,,
729860858.928616,0.276096,4.113428,52.666864,-0.063705,0.006042,0.985046,-0.043244,-0.027365,0.003683,62.116714,15.962265,-147.347137,,,
729860858.931958,0.276096,4.113428,52.666864,-0.063705,0.006042,0.985046,-0.043244,-0.027365,0.003683,62.116714,15.962265,-147.347137,,,
729860858.935145,0.262602,4.107153,52.669702,-0.060669,0.001648,0.985153,-0.049699,-0.01204,0.005556,62.116714,15.962265,-147.347137,,,
729860858.938738,0.248139,4.104295,52.671699,-0.060669,0.001648,0.985153,-0.049699,-0.01204,0.005556,62.116714,15.962265,-147.347137,,,
729860858.942018,0.248139,4.104295,52.671699,-0.060669,0.001648,0.985153,-0.049699,-0.01204,0.005556,62.116714,15.962265,-147.347137,,,
729860858.945299,0.235806,4.102907,52.671775,-0.052124,0.002335,0.9935,-0.035839,9.9e-05,-0.00678,62.156464,16.11702,-147.100281,,,
729860858.948639,0.22838,4.101974,52.670562,-0.052124,0.002335,0.9935,-0.035839,9.9e-05,-0.00678,62.156464,16.11702,-147.100281,,,
729860858.951966,0.22838,4.101974,52.670562,-0.052124,0.002335,0.9935,-0.035839,9.9e-05,-0.00678,62.156464,16.11702,-147.100281,,,
729860858.955286,0.227691,4.102193,52.66805,-0.052567,-0.007858,1.015594,0.011827,0.002137,-0.012435,62.156464,16.11702,-147.100281,,,
729860858.95872,0.232752,4.102391,52.663946,-0.052567,-0.007858,1.015594,0.011827,0.002137,-0.012435,62.156464,16.11702,-147.100281,,,
729860858.961951,0.232752,4.102391,52.663946,-0.052567,-0.007858,1.015594,0.011827,0.002137,-0.012435,62.156464,16.11702,-147.100281,,,
729860858.965318,0.242587,4.103889,52.658133,-0.053955,-0.010742,1.019882,0.034798,0.005298,-0.022604,62.156464,16.11702,-147.100281,,,
729860858.96861,0.252541,4.103887,52.650777,-0.053955,-0.010742,1.019882,0.034798,0.005298,-0.022604,62.156464,16.11702,-147.100281,,,
729860858.972006,0.252541,4.103887,52.650777,-0.053955,-0.010742,1.019882,0.034798,0.005298,-0.022604,62.156464,16.11702,-147.100281,,,
729860858.975275,0.264695,4.102811,52.64224,-0.05484,-0.000427,1.002502,0.039467,-0.007163,-0.030494,62.156464,16.11702,-147.100281,,,
729860858.9786,0.274605,4.099316,52.632539,-0.05484,-0.000427,1.002502,0.039467,-0.007163,-0.030494,62.156464,16.11702,-147.100281,,,
729860858.981951,0.274605,4.099316,52.632539,-0.05484,-0.000427,1.002502,0.039467,-0.007163,-0.030494,62.156464,16.11702,-147.100281,,,
729860858.985377,0.283,4.095261,52.62125,-0.053299,0.004486,0.989182,0.023842,-0.011182,-0.04269,61.917709,16.007767,-147.493256,,,
729860858.988617,0.286752,4.090454,52.608676,-0.053299,0.004486,0.989182,0.023842,-0.011182,-0.04269,61.917709,16.007767,-147.493256,,,
729860858.991944,0.286752,4.090454,52.608676,-0.053299,0.004486,0.989182,0.023842,-0.011182,-0.04269,61.917709,16.007767,-147.493256,,,
729860858.995274,0.287043,4.083919,52.595377,-0.059601,0.00824,0.978867,-0.005189,-0.018759,-0.049867,61.917709,16.007767,-147.493256,,,
729860858.998695,0.281057,4.077697,52.581999,-0.059601,0.00824,0.978867,-0.005189,-0.018759,-0.049867,61.917709,16.007767,-147.493256,,,
729860859.002023,0.281057,4.077697,52.581999,-0.059601,0.00824,0.978867,-0.005189,-0.018759,-0.049867,61.917709,16.007767,-147.493256,,,
729860859.005261,0.270339,4.070397,52.569799,-0.06662,0.012619,0.97258,-0.041425,-0.019086,-0.044257,61.917709,16.007767,-147.493256,,,
729860859.008635,0.255923,4.065114,52.559061,-0.06662,0.012619,0.97258,-0.041425,-0.019086,-0.044257,61.917709,16.007767,-147.493256,,,
729860859.012017,0.255923,4.065114,52.559061,-0.06662,0.012619,0.97258,-0.041425,-0.019086,-0.044257,61.917709,16.007767,-147.493256,,,
729860859.015277,0.238525,4.059905,52.550134,-0.072647,0.009735,0.983566,-0.060344,-0.007041,-0.033017,61.917709,16.007767,-147.493256,,,
729860859.01861,0.219486,4.058485,52.54353,-0.072647,0.009735,0.983566,-0.060344,-0.007041,-0.033017,61.917709,16.007767,-147.493256,,,
729860859.021941,0.219486,4.058485,52.54353,-0.072647,0.009735,0.983566,-0.060344,-0.007041,-0.033017,61.917709,16.007767,-147.493256,,,
729860859.025275,0.198737,4.056065,52.538761,-0.079788,0.00473,0.991348,-0.072498,0.008131,-0.02112,61.974091,16.202164,-147.484314,,,
729860859.028624,0.178061,4.05911,52.535096,-0.079788,0.00473,0.991348,-0.072498,0.008131,-0.02112,61.974091,16.202164,-147.484314,,,
729860859.031939,0.178061,4.05911,52.535096,-0.079788,0.00473,0.991348,-0.072498,0.008131,-0.02112,61.974091,16.202164,-147.484314,,,
729860859.035294,0.157642,4.0614,52.532483,-0.082535,0.003845,1.001999,-0.062681,0.028869,-0.013061,61.974091,16.202164,-147.484314,,,
729860859.03867,0.142208,4.069904,52.530746,-0.082535,0.003845,1.001999,-0.062681,0.028869,-0.013061,61.974091,16.202164,-147.484314,,,
729860859.041936,0.142208,4.069904,52.530746,-0.082535,0.003845,1.001999,-0.062681,0.028869,-0.013061,61.974091,16.202164,-147.484314,,,
729860859.045289,0.130887,4.075908,52.529609,-0.086609,-0.001709,1.022888,-0.017231,0.037529,-0.005752,61.974091,16.202164,-147.484314,,,
729860859.048621,0.128368,4.085157,52.528633,-0.086609,-0.001709,1.022888,-0.017231,0.037529,-0.005752,61.974091,16.202164,-147.484314,,,
729860859.052018,0.128368,4.085157,52.528633,-0.086609,-0.001709,1.022888,-0.017231,0.037529,-0.005752,61.974091,16.202164,-147.484314,,,
729860859.055271,0.130435,4.089222,52.527385,-0.089508,-0.007889,1.027496,0.021031,0.023892,-0.004917,61.974091,16.202164,-147.484314,,,
729860859.058601,0.138269,4.092586,52.525275,-0.089508,-0.007889,1.027496,0.021031,0.023892,-0.004917,61.974091,16.202164,-147.484314,,,
729860859.061952,0.138269,4.092586,52.525275,-0.089508,-0.007889,1.027496,0.021031,0.023892,-0.004917,61.974091,16.202164,-147.484314,,,
729860859.065284,0.150202,4.087631,52.521557,-0.088455,0.001266,1.014511,0.047822,-0.010225,-0.014223,61.974091,16.202164,-147.484314,,,
729860859.068616,0.164027,4.082271,52.516249,-0.088455,0.001266,1.014511,0.047822,-0.010225,-0.014223,61.926651,16.071548,-147.341034,,,
729860859.071938,0.164027,4.082271,52.516249,-0.088455,0.001266,1.014511,0.047822,-0.010225,-0.014223,61.926651,16.071548,-147.341034,,,
729860859.07531,0.179209,4.071387,52.509591,-0.081268,0.001526,1.009644,0.052373,-0.031232,-0.023424,61.926651,16.071548,-147.341034,,,
729860859.078619,0.191992,4.060885,52.50213,-0.081268,0.001526,1.009644,0.052373,-0.031232,-0.023424,61.926651,16.071548,-147.341034,,,
729860859.081944,0.191992,4.060885,52.50213,-0.081268,0.001526,1.009644,0.052373,-0.031232,-0.023424,61.926651,16.071548,-147.341034,,,
729860859.085273,0.202722,4.049358,52.494853,-0.077438,0.003036,0.998474,0.027153,-0.033892,-0.023953,61.926651,16.071548,-147.341034,,,
729860859.08866,0.207632,4.038794,52.488385,-0.077438,0.003036,0.998474,0.027153,-0.033892,-0.023953,61.926651,16.071548,-147.341034,,,
729860859.091936,0.207632,4.038794,52.488385,-0.077438,0.003036,0.998474,0.027153,-0.033892,-0.023953,61.926651,16.071548,-147.341034,,,
729860859.095296,0.209829,4.028813,52.483209,-0.078629,0.008865,0.995697,-0.001786,-0.031997,-0.016961,61.926651,16.071548,-147.341034,,,
729860859.098609,0.208037,4.020041,52.480056,-0.078629,0.008865,0.995697,-0.001786,-0.031997,-0.016961,61.926651,16.071548,-147.341034,,,
729860859.101929,0.208037,4.020041,52.480056,-0.078629,0.008865,0.995697,-0.001786,-0.031997,-0.016961,61.926651,16.071548,-147.341034,,,
729860859.105287,0.20628,4.015861,52.4791,-0.072113,0.005447,1.010742,-0.005268,-0.011264,-0.001839,61.926651,16.071548,-147.341034,,,
729860859.108609,0.205044,4.014452,52.479661,-0.072113,0.005447,1.010742,-0.005268,-0.011264,-0.001839,62.183487,16.024841,-147.589615,,,
729860859.111936,0.205044,4.014452,52.479661,-0.072113,0.005447,1.010742,-0.005268,-0.011264,-0.001839,62.183487,16.024841,-147.589615,,,
729860859.115329,0.204849,4.019583,52.481094,-0.071945,-0.003616,1.024246,0.001043,0.017633,0.004738,62.183487,16.024841,-147.589615,,,
729860859.118584,0.205468,4.024623,52.483161,-0.071945,-0.003616,1.024246,0.001043,0.017633,0.004738,62.183487,16.024841,-147.589615,,,
729860859.121938,0.205468,4.024623,52.483161,-0.071945,-0.003616,1.024246,0.001043,0.017633,0.004738,62.183487,16.024841,-147.589615,,,
729860859.125276,0.206143,4.03307,52.485417,-0.071915,0.001785,1.012466,0.005269,0.022164,0.006404,62.183487,16.024841,-147.589615,,,
729860859.128651,0.207432,4.038068,52.486369,-0.071915,0.001785,1.012466,0.005269,0.022164,0.006404,62.183487,16.024841,-147.589615,,,
729860859.131934,0.207432,4.038068,52.486369,-0.071915,0.001785,1.012466,0.005269,0.022164,0.006404,62.183487,16.024841,-147.589615,,,
729860859.135278,0.207535,4.044922,52.485544,-0.064255,0.006775,1.003799,0.01172,0.014195,-0.005491,62.183487,16.024841,-147.589615,,,
729860859.138606,0.211563,4.048554,52.483258,-0.064255,0.006775,1.003799,0.01172,0.014195,-0.005491,62.183487,16.024841,-147.589615,,,
729860859.141956,0.211563,4.048554,52.483258,-0.064255,0.006775,1.003799,0.01172,0.014195,-0.005491,62.183487,16.024841,-147.589615,,,
729860859.145281,0.217284,4.05581,52.479296,-0.06395,-0.005814,1.018906,0.029146,0.016742,-0.015807,62.183487,16.024841,-147.589615,,,
729860859.1486,0.227627,4.059715,52.474811,-0.06395,-0.005814,1.018906,0.029146,0.016742,-0.015807,62.089005,15.995789,-147.412659,,,
729860859.151963,0.227627,4.059715,52.474811,-0.06395,-0.005814,1.018906,0.029146,0.016742,-0.015807,62.089005,15.995789,-147.412659,,,
729860859.155312,0.242182,4.065108,52.471001,-0.074341,-0.01001,1.02832,0.059914,0.012717,-0.008807,62.089005,15.995789,-147.412659,,,
729860859.158629,0.261149,4.067007,52.468954,-0.074341,-0.01001,1.02832,0.059914,0.012717,-0.008807,62.089005,15.995789,-147.412659,,,
729860859.161934,0.261149,4.067007,52.468954,-0.074341,-0.01001,1.02832,0.059914,0.012717,-0.008807,62.089005,15.995789,-147.412659,,,
729860859.165286,0.28366,4.069231,52.468219,-0.0793,-0.006363,1.024689,0.086842,0.008126,0.002327,62.089005,15.995789,-147.412659,,,
729860859.168614,0.309822,4.07031,52.468085,-0.0793,-0.006363,1.024689,0.086842,0.008126,0.002327,62.089005,15.995789,-147.412659,,,
729860859.171932,0.309822,4.07031,52.468085,-0.0793,-0.006363,1.024689,0.086842,0.008126,0.002327,62.089005,15.995789,-147.412659,,,
729860859.175259,0.338287,4.071598,52.468131,-0.071472,-0.004822,1.023529,0.1008,0.002667,0.004662,62.089005,15.995789,-147.412659,,,
729860859.178594,0.367023,4.070824,52.467183,-0.071472,-0.004822,1.023529,0.1008,0.002667,0.004662,62.089005,15.995789,-147.412659,,,
729860859.181934,0.367023,4.070824,52.467183,-0.071472,-0.004822,1.023529,0.1008,0.002667,0.004662,62.089005,15.995789,-147.412659,,,
729860859.185259,0.395635,4.067665,52.465036,-0.070602,-0.001221,1.010345,0.099762,-0.014951,-0.003766,62.089005,15.995789,-147.412659,,,
729860859.188612,0.423406,4.061012,52.462025,-0.070602,-0.001221,1.010345,0.099762,-0.014951,-0.003766,62.131805,15.669235,-147.17009,,,
729860859.191931,0.423406,4.061012,52.462025,-0.070602,-0.001221,1.010345,0.099762,-0.014951,-0.003766,62.131805,15.669235,-147.17009,,,
729860859.195278,0.449423,4.052151,52.458167,-0.067291,0.003876,0.997528,0.094139,-0.029446,-0.010171,62.131805,15.669235,-147.17009,,,
729860859.198594,0.475943,4.043931,52.45354,-0.067291,0.003876,0.997528,0.094139,-0.029446,-0.010171,62.131805,15.669235,-147.17009,,,
729860859.201931,0.475943,4.043931,52.45354,-0.067291,0.003876,0.997528,0.094139,-0.029446,-0.010171,62.131805,15.669235,-147.17009,,,
729860859.20526,0.501981,4.037984,52.448687,-0.065033,0.004471,1.005951,0.097379,-0.014105,-0.011565,62.131805,15.669235,-147.17009,,,
729860859.208645,0.529419,4.033913,52.443593,-0.065033,0.004471,1.005951,0.097379,-0.014105,-0.011565,62.131805,15.669235,-147.17009,,,
729860859.211981,0.529419,4.033913,52.443593,-0.065033,0.004471,1.005951,0.097379,-0.014105,-0.011565,62.131805,15.669235,-147.17009,,,
729860859.215284,0.556445,4.030517,52.4386,-0.068817,0.006073,1.00412,0.096064,-0.005563,-0.010916,62.131805,15.669235,-147.17009,,,
729860859.218597,0.581474,4.028309,52.434058,-0.068817,0.006073,1.00412,0.096064,-0.005563,-0.010916,62.131805,15.669235,-147.17009,,,
729860859.222036,0.581474,4.028309,52.434058,-0.068817,0.006073,1.00412,0.096064,-0.005563,-0.010916,62.131805,15.669235,-147.17009,,,
729860859.225277,0.60139,4.025368,52.43015,-0.072617,0.01358,0.983017,0.071671,-0.002343,-0.008343,62.131805,15.669235,-147.17009,,,
729860859.22861,0.620004,4.024635,52.427116,-0.072617,0.01358,0.983017,0.071671,-0.002343,-0.008343,62.131805,15.669235,-147.17009,,,
729860859.231587,0.620004,4.024635,52.427116,-0.072617,0.01358,0.983017,0.071671,-0.002343,-0.008343,62.022568,15.476974,-146.808701,,,
729860859.235301,0.631594,4.025926,52.425188,-0.071884,0.018234,0.977585,0.046153,0.013767,-0.002467,62.022568,15.476974,-146.808701,,,
729860859.238598,0.642881,4.030514,52.425327,-0.071884,0.018234,0.977585,0.046153,0.013767,-0.002467,62.022568,15.476974,-146.808701,,,
729860859.241931,0.642881,4.030514,52.425327,-0.071884,0.018234,0.977585,0.046153,0.013767,-0.002467,62.022568,15.476974,-146.808701,,,
729860859.245341,0.647099,4.039488,52.427622,-0.075073,0.012207,0.975693,0.018456,0.034632,0.010662,62.022568,15.476974,-146.808701,,,
729860859.248592,0.650741,4.049456,52.43143,-0.075073,0.012207,0.975693,0.018456,0.034632,0.010662,62.022568,15.476974,-146.808701,,,
729860859.251934,0.650741,4.049456,52.43143,-0.075073,0.012207,0.975693,0.018456,0.034632,0.010662,62.022568,15.476974,-146.808701,,,
729860859.255288,0.649226,4.061149,52.436905,-0.075516,0.014633,0.976593,0.001911,0.046413,0.021115,62.022568,15.476974,-146.808701,,,
729860859.258664,0.651551,4.074066,52.443542,-0.075516,0.014633,0.976593,0.001911,0.046413,0.021115,62.022568,15.476974,-146.808701,,,
729860859.261929,0.651551,4.074066,52.443542,-0.075516,0.014633,0.976593,0.001911,0.046413,0.021115,62.022568,15.476974,-146.808701,,,
729860859.265272,0.65637,4.087536,52.450648,-0.078354,0.001862,1.007935,0.035163,0.053227,0.026711,62.022568,15.476974,-146.808701,,,
729860859.268628,0.671477,4.101967,52.457759,-0.078354,0.001862,1.007935,0.035163,0.053227,0.026711,62.022568,15.476974,-146.808701,,,
729860859.271938,0.671477,4.101967,52.457759,-0.078354,0.001862,1.007935,0.035163,0.053227,0.026711,62.285675,15.335999,-146.835403,,,
729860859.275286,0.696097,4.11457,52.464825,-0.078537,-0.015274,1.040268,0.111711,0.044975,0.031914,62.285675,15.335999,-146.835403,,,
729860859.27861,0.734342,4.125288,52.472367,-0.078537,-0.015274,1.040268,0.111711,0.044975,0.031914,62.285675,15.335999,-146.835403,,,
729860859.281936,0.734342,4.125288,52.472367,-0.078537,-0.015274,1.040268,0.111711,0.044975,0.031914,62.285675,15.335999,-146.835403,,,
729860859.285331,0.78338,4.131459,52.480264,-0.083893,-0.021332,1.053055,0.194701,0.021961,0.040416,62.285675,15.335999,-146.835403,,,
729860859.288593,0.845323,4.135834,52.488507,-0.083893,-0.021332,1.053055,0.194701,0.021961,0.040416,62.285675,15.335999,-146.835403,,,
729860859.291929,0.845323,4.135834,52.488507,-0.083893,-0.021332,1.053055,0.194701,0.021961,0.040416,62.285675,15.335999,-146.835403,,,
729860859.295264,0.914914,4.136008,52.496525,-0.087677,-0.013702,1.045547,0.256855,-0.002091,0.043326,62.285675,15.335999,-146.835403,,,
729860859.298656,0.990587,4.13127,52.503611,-0.087677,-0.013702,1.045547,0.256855,-0.002091,0.043326,62.285675,15.335999,-146.835403,,,
729860859.301919,0.990587,4.13127,52.503611,-0.087677,-0.013702,1.045547,0.256855,-0.002091,0.043326,62.285675,15.335999,-146.835403,,,
729860859.305253,1.068893,4.121823,52.509049,-0.07666,0.003433,1.016098,0.280197,-0.036165,0.033378,62.285675,15.335999,-146.835403,,,
729860859.308594,1.150895,4.109367,52.5121,-0.07666,0.003433,1.016098,0.280197,-0.036165,0.033378,62.285675,15.335999,-146.835403,,,
729860859.311916,1.150895,4.109367,52.5121,-0.07666,0.003433,1.016098,0.280197,-0.036165,0.033378,62.185699,14.979126,-146.999496,,,
729860859.315248,1.233541,4.09692,52.512683,-0.059464,0.010452,1.008682,0.287319,-0.038372,0.01659,62.185699,14.979126,-146.999496,,,
729860859.318609,1.313594,4.086345,52.511095,-0.059464,0.010452,1.008682,0.287319,-0.038372,0.01659,62.185699,14.979126,-146.999496,,,
729860859.322006,1.313594,4.086345,52.511095,-0.059464,0.010452,1.008682,0.287319,-0.038372,0.01659,62.185699,14.979126,-146.999496,,,
729860859.325245,1.386463,4.078889,52.507995,-0.048111,0.019287,0.9897,0.246763,-0.020707,0.003226,62.185699,14.979126,-146.999496,,,
729860859.328662,1.453258,4.073633,52.503961,-0.048111,0.019287,0.9897,0.246763,-0.020707,0.003226,62.185699,14.979126,-146.999496,,,
729860859.331924,1.453258,4.073633,52.503961,-0.048111,0.019287,0.9897,0.246763,-0.020707,0.003226,62.185699,14.979126,-146.999496,,,
729860859.335259,1.511115,4.071543,52.499653,-0.058792,0.036148,0.96994,0.194457,-0.005074,-0.002227,62.185699,14.979126,-146.999496,,,
729860859.338584,1.562427,4.070484,52.496869,-0.058792,0.036148,0.96994,0.194457,-0.005074,-0.002227,62.185699,14.979126,-146.999496,,,
729860859.341931,1.562427,4.070484,52.496869,-0.058792,0.036148,0.96994,0.194457,-0.005074,-0.002227,62.185699,14.979126,-146.999496,,,
729860859.345265,1.603918,4.072856,52.49643,-0.070297,0.041489,0.962738,0.139586,0.013693,0.010356,62.185699,14.979126,-146.999496,,,
729860859.34859,1.640445,4.078388,52.499314,-0.070297,0.041489,0.962738,0.139586,0.013693,0.010356,62.185699,14.979126,-146.999496,,,
729860859.351926,1.640445,4.078388,52.499314,-0.070297,0.041489,0.962738,0.139586,0.013693,0.010356,62.37529,14.723892,-146.67746,,,
729860859.355256,1.667396,4.087936,52.505763,-0.07135,0.03566,0.963837,0.096321,0.039248,0.032281,62.37529,14.723892,-146.67746,,,
729860859.358659,1.694746,4.0972,52.514426,-0.07135,0.03566,0.963837,0.096321,0.039248,0.032281,62.37529,14.723892,-146.67746,,,
729860859.361914,1.694746,4.0972,52.514426,-0.07135,0.03566,0.963837,0.096321,0.039248,0.032281,62.37529,14.723892,-146.67746,,,
729860859.365368,1.717454,4.10562,52.524394,-0.074646,0.032623,0.976578,0.092864,0.029713,0.041284,62.37529,14.723892,-146.67746,,,
729860859.3686,1.746387,4.112463,52.535044,-0.074646,0.032623,0.976578,0.092864,0.029713,0.041284,62.37529,14.723892,-146.67746,,,
729860859.372007,1.746387,4.112463,52.535044,-0.074646,0.032623,0.976578,0.092864,0.029713,0.041284,62.37529,14.723892,-146.67746,,,
729860859.375251,1.774524,4.119685,52.54609,-0.076889,0.025482,0.996307,0.11452,0.024029,0.046008,62.37529,14.723892,-146.67746,,,
729860859.378586,1.811002,4.125271,52.557385,-0.076889,0.025482,0.996307,0.11452,0.024029,0.046008,62.37529,14.723892,-146.67746,,,
729860859.381922,1.811002,4.125271,52.557385,-0.076889,0.025482,0.996307,0.11452,0.024029,0.046008,62.37529,14.723892,-146.67746,,,
729860859.385266,1.850305,4.130677,52.569438,-0.073486,0.021683,1.003387,0.15315,0.018858,0.054241,62.37529,14.723892,-146.67746,,,
729860859.388601,1.89919,4.133882,52.582614,-0.073486,0.021683,1.003387,0.15315,0.018858,0.054241,62.37529,14.723892,-146.67746,,,
729860859.391919,1.89919,4.133882,52.582614,-0.073486,0.021683,1.003387,0.15315,0.018858,0.054241,62.37529,14.723892,-146.67746,,,
729860859.395264,1.953609,4.13522,52.596588,-0.074203,0.02179,1.013275,0.205945,0.012638,0.06342,62.314362,14.398315,-146.705154,,,
729860859.398655,2.016381,4.138826,52.611423,-0.074203,0.02179,1.013275,0.205945,0.012638,0.06342,62.314362,14.398315,-146.705154,,,
729860859.401917,2.016381,4.138826,52.611423,-0.074203,0.02179,1.013275,0.205945,0.012638,0.06342,62.314362,14.398315,-146.705154,,,
729860859.40525,2.080952,4.141728,52.626781,-0.075882,0.021774,1.012665,0.229898,0.024864,0.068169,62.314362,14.398315,-146.705154,,,
729860859.408595,2.149193,4.146703,52.64183,-0.075882,0.021774,1.012665,0.229898,0.024864,0.068169,62.314362,14.398315,-146.705154,,,
729860859.411994,2.149193,4.146703,52.64183,-0.075882,0.021774,1.012665,0.229898,0.024864,0.068169,62.314362,14.398315,-146.705154,,,
729860859.415254,2.218718,4.150206,52.655946,-0.062424,0.034317,0.993805,0.242539,0.027243,0.062136,62.314362,14.398315,-146.705154,,,
729860859.418586,2.28994,4.157424,52.6682,-0.062424,0.034317,0.993805,0.242539,0.027243,0.062136,62.314362,14.398315,-146.705154,,,
729860859.421926,2.28994,4.157424,52.6682,-0.062424,0.034317,0.993805,0.242539,0.027243,0.062136,62.314362,14.398315,-146.705154,,,
729860859.425256,2.362582,4.165045,52.678814,-0.058655,0.035278,0.996643,0.250816,0.031249,0.051253,62.314362,14.398315,-146.705154,,,
729860859.428598,2.43435,4.173477,52.687695,-0.058655,0.035278,0.996643,0.250816,0.031249,0.051253,62.314362,14.398315,-146.705154,,,
729860859.431929,2.43435,4.173477,52.687695,-0.058655,0.035278,0.996643,0.250816,0.031249,0.051253,62.314362,14.398315,-146.705154,,,
729860859.435256,2.502984,4.18167,52.694389,-0.064468,0.040146,0.980301,0.233359,0.027727,0.034839,62.349792,14.244217,-146.667862,,,
729860859.438582,2.567772,4.188211,52.698582,-0.064468,0.040146,0.980301,0.233359,0.027727,0.034839,62.349792,14.244217,-146.667862,,,
729860859.441909,2.567772,4.188211,52.698582,-0.064468,0.040146,0.980301,0.233359,0.027727,0.034839,62.349792,14.244217,-146.667862,,,
729860859.445254,2.625512,4.195282,52.700529,-0.064499,0.054413,0.961594,0.193992,0.02839,0.016462,62.349792,14.244217,-146.667862,,,
729860859.448676,2.677951,4.203582,52.700894,-0.064499,0.054413,0.961594,0.193992,0.02839,0.016462,62.349792,14.244217,-146.667862,,,
729860859.451919,2.677951,4.203582,52.700894,-0.064499,0.054413,0.961594,0.193992,0.02839,0.016462,62.349792,14.244217,-146.667862,,,
729860859.455337,2.720441,4.213888,52.701134,-0.069199,0.059647,0.95639,0.148746,0.035218,0.012747,62.349792,14.244217,-146.667862,,,
729860859.458586,2.75928,4.223239,52.703303,-0.069199,0.059647,0.95639,0.148746,0.035218,0.012747,62.349792,14.244217,-146.667862,,,
729860859.46199,2.75928,4.223239,52.703303,-0.069199,0.059647,0.95639,0.148746,0.035218,0.012747,62.349792,14.244217,-146.667862,,,
729860859.465243,2.787072,4.233212,52.707663,-0.077728,0.060364,0.950027,0.096205,0.039835,0.02414,62.349792,14.244217,-146.667862,,,
729860859.468599,2.813524,4.244792,52.714359,-0.077728,0.060364,0.950027,0.096205,0.039835,0.02414,62.349792,14.244217,-146.667862,,,
729860859.471914,2.813524,4.244792,52.714359,-0.077728,0.060364,0.950027,0.096205,0.039835,0.02414,62.349792,14.244217,-146.667862,,,
729860859.475247,2.834162,4.258338,52.723506,-0.087799,0.057068,0.968414,0.074844,0.055697,0.039631,62.50882,13.940414,-146.51268,,,
729860859.478582,2.855786,4.274086,52.735028,-0.087799,0.057068,0.968414,0.074844,0.055697,0.039631,62.50882,13.940414,-146.51268,,,
729860859.481921,2.855786,4.274086,52.735028,-0.087799,0.057068,0.968414,0.074844,0.055697,0.039631,62.50882,13.940414,-146.51268,,,
729860859.485248,2.872733,4.291363,52.748903,-0.095871,0.050888,0.985779,0.0627,0.066201,0.055172,62.50882,13.940414,-146.51268,,,
729860859.488652,2.891761,4.308669,52.765078,-0.095871,0.050888,0.985779,0.0627,0.066201,0.055172,62.50882,13.940414,-146.51268,,,
729860859.491903,2.891761,4.308669,52.765078,-0.095871,0.050888,0.985779,0.0627,0.066201,0.055172,62.50882,13.940414,-146.51268,,,
729860859.495248,2.90897,4.32282,52.782656,-0.093597,0.053436,0.98436,0.064111,0.052873,0.064742,62.50882,13.940414,-146.51268,,,
729860859.498595,2.929583,4.333831,52.7994,-0.093597,0.053436,0.98436,0.064111,0.052873,0.064742,62.50882,13.940414,-146.51268,,,
729860859.501969,2.929583,4.333831,52.7994,-0.093597,0.053436,0.98436,0.064111,0.052873,0.064742,62.50882,13.940414,-146.51268,,,
729860859.505242,2.950716,4.337914,52.813542,-0.084686,0.05661,0.993149,0.083365,0.021196,0.047154,62.50882,13.940414,-146.51268,,,
729860859.508594,2.976872,4.341675,52.824353,-0.084686,0.05661,0.993149,0.083365,0.021196,0.047154,62.50882,13.940414,-146.51268,,,
729860859.511902,2.976872,4.341675,52.824353,-0.084686,0.05661,0.993149,0.083365,0.021196,0.047154,62.50882,13.940414,-146.51268,,,
729860859.51525,3.004029,4.342638,52.832772,-0.081589,0.047638,1.008911,0.106523,0.01643,0.031485,62.602127,13.769531,-146.384628,,,
729860859.518576,3.036637,4.345681,52.839623,-0.081589,0.047638,1.008911,0.106523,0.01643,0.031485,62.602127,13.769531,-146.384628,,,
729860859.521919,3.036637,4.345681,52.839623,-0.081589,0.047638,1.008911,0.106523,0.01643,0.031485,62.602127,13.769531,-146.384628,,,
729860859.525248,3.07271,4.345906,52.846366,-0.088242,0.045059,1.016357,0.131214,0.009321,0.032006,62.602127,13.769531,-146.384628,,,
729860859.528404,3.07271,4.345906,52.846366,-0.088242,0.045059,1.016357,0.131214,0.009321,0.032006,62.602127,13.769531,-146.384628,,,
729860859.53195,3.112069,4.346112,52.853804,-0.088242,0.045059,1.016357,0.131214,0.009321,0.032006,62.602127,13.769531,-146.384628,,,
729860859.535237,3.154605,4.343249,52.862311,-0.088135,0.052048,1.012436,0.143917,-0.003736,0.039996,62.602127,13.769531,-146.384628,,,
729860859.538582,3.197731,4.341489,52.870435,-0.088135,0.052048,1.012436,0.143917,-0.003736,0.039996,62.602127,13.769531,-146.384628,,,
729860859.541893,3.197731,4.341489,52.870435,-0.088135,0.052048,1.012436,0.143917,-0.003736,0.039996,62.602127,13.769531,-146.384628,,,
729860859.54528,3.243164,4.342926,52.878159,-0.082336,0.048615,1.011642,0.152575,0.014043,0.038125,62.602127,13.769531,-146.384628,,,
729860859.548593,3.286337,4.347433,52.885968,-0.082336,0.048615,1.011642,0.152575,0.014043,0.038125,62.602127,13.769531,-146.384628,,,
729860859.552016,3.286337,4.347433,52.885968,-0.082336,0.048615,1.011642,0.152575,0.014043,0.038125,62.602127,13.769531,-146.384628,,,
729860859.555247,3.327962,4.356338,52.893848,-0.081818,0.052216,1.007645,0.137833,0.028877,0.038472,62.602127,13.769531,-146.384628,,,
729860859.558581,3.327962,4.362763,52.902488,-0.081818,0.052216,1.007645,0.137833,0.028877,0.038472,62.681244,13.628464,-146.160858,,,
729860859.561924,3.366425,4.362763,52.902488,-0.081818,0.052216,1.007645,0.137833,0.028877,0.038472,62.681244,13.628464,-146.160858,,,
729860859.56532,3.400476,4.372139,52.91157,-0.079361,0.065826,0.989563,0.114392,0.021063,0.041503,62.681244,13.628464,-146.160858,,,
729860859.568564,3.400476,4.372139,52.91157,-0.079361,0.065826,0.989563,0.114392,0.021063,0.041503,62.681244,13.628464,-146.160858,,,
729860859.571929,3.431656,4.377291,52.922078,-0.079361,0.065826,0.989563,0.114392,0.021063,0.041503,62.681244,13.628464,-146.160858,,,
729860859.575246,3.456341,4.38742,52.933628,-0.077393,0.068176,0.983215,0.077575,0.029295,0.047628,62.681244,13.628464,-146.160858,,,
729860859.57857,3.456341,4.38742,52.933628,-0.077393,0.068176,0.983215,0.077575,0.029295,0.047628,62.681244,13.628464,-146.160858,,,
729860859.581917,3.4766,4.394268,52.946823,-0.077393,0.068176,0.983215,0.077575,0.029295,0.047628,62.681244,13.628464,-146.160858,,,
729860859.585253,3.490828,4.401227,52.960782,-0.078522,0.070618,0.975693,0.03908,0.014438,0.051071,62.681244,13.628464,-146.160858,,,
729860859.588676,3.490828,4.401249,52.974984,-0.078522,0.070618,0.975693,0.03908,0.014438,0.051071,62.681244,13.628464,-146.160858,,,
729860859.591907,3.501849,4.401249,52.974984,-0.078522,0.070618,0.975693,0.03908,0.014438,0.051071,62.681244,13.628464,-146.160858,,,
729860859.595244,3.509622,4.397044,52.988382,-0.076736,0.072403,0.973389,0.030021,-0.019548,0.045047,62.681244,13.628464,-146.160858,,,
729860859.598575,3.509622,4.397044,52.988382,-0.076736,0.072403,0.973389,0.030021,-0.019548,0.045047,62.559128,13.443604,-146.178406,,,
729860859.601967,3.520097,4.389126,53.000053,-0.076736,0.072403,0.973389,0.030021,-0.019548,0.045047,62.559128,13.443604,-146.178406,,,
729860859.605233,3.531476,4.382106,53.009383,-0.073242,0.059967,1.006149,0.05903,-0.025498,0.031692,62.559128,13.443604,-146.178406,,,
729860859.608584,3.531476,4.382106,53.009383,-0.073242,0.059967,1.006149,0.05903,-0.025498,0.031692,62.559128,13.443604,-146.178406,,,
729860859.611917,3.552664,4.373133,53.017216,-0.073242,0.059967,1.006149,0.05903,-0.025498,0.031692,62.559128,13.443604,-146.178406,,,
729860859.615239,3.579833,4.366717,53.024102,-0.074463,0.044189,1.037369,0.114115,-0.024611,0.030322,62.559128,13.443604,-146.178406,,,
729860859.618573,3.579833,4.366717,53.024102,-0.074463,0.044189,1.037369,0.114115,-0.024611,0.030322,62.559128,13.443604,-146.178406,,,
729860859.621915,3.617259,4.358829,53.031197,-0.074463,0.044189,1.037369,0.114115,-0.024611,0.030322,62.559128,13.443604,-146.178406,,,
729860859.62524,3.65999,4.352912,53.038777,-0.077286,0.0439,1.048431,0.164762,-0.017925,0.038043,62.559128,13.443604,-146.178406,,,
729860859.62857,3.65999,4.352912,53.038777,-0.077286,0.0439,1.048431,0.164762,-0.017925,0.038043,62.559128,13.443604,-146.178406,,,
729860859.631927,3.710793,4.348127,53.046319,-0.077286,0.0439,1.048431,0.164762,-0.017925,0.038043,62.559128,13.443604,-146.178406,,,
729860859.635236,3.765383,4.346242,53.054259,-0.080536,0.04892,1.046494,0.206788,-0.003557,0.044338,62.559128,13.443604,-146.178406,,,
729860859.638569,3.765383,4.346242,53.054259,-0.080536,0.04892,1.046494,0.206788,-0.003557,0.044338,62.557953,13.344635,-145.801834,,,
729860859.641911,3.828463,4.344207,53.062684,-0.080536,0.04892,1.046494,0.206788,-0.003557,0.044338,62.557953,13.344635,-145.801834,,,
729860859.645232,3.897361,4.343453,53.071238,-0.074738,0.048386,1.046219,0.249851,0.000619,0.048794,62.557953,13.344635,-145.801834,,,
729860859.648572,3.897361,4.343453,53.071238,-0.074738,0.048386,1.046219,0.249851,0.000619,0.048794,62.557953,13.344635,-145.801834,,,
729860859.652005,3.972608,4.3419,53.079651,-0.074738,0.048386,1.046219,0.249851,0.000619,0.048794,62.557953,13.344635,-145.801834,,,
729860859.655235,4.052432,4.340244,53.086549,-0.070724,0.054077,1.036896,0.282438,-0.00282,0.040739,62.557953,13.344635,-145.801834,,,
729860859.658566,4.052432,4.340244,53.086549,-0.070724,0.054077,1.036896,0.282438,-0.00282,0.040739,62.557953,13.344635,-145.801834,,,
729860859.661916,4.134314,4.337814,53.091593,-0.070724,0.054077,1.036896,0.282438,-0.00282,0.040739,62.557953,13.344635,-145.801834,,,
729860859.665266,4.216805,4.335533,53.095575,-0.072968,0.062347,1.019623,0.287756,-0.005788,0.033884,62.557953,13.344635,-145.801834,,,
729860859.668578,4.216805,4.335533,53.095575,-0.072968,0.062347,1.019623,0.287756,-0.005788,0.033884,62.557953,13.344635,-145.801834,,,
729860859.671915,4.299921,4.332712,53.099482,-0.072968,0.062347,1.019623,0.287756,-0.005788,0.033884,62.557953,13.344635,-145.801834,,,
729860859.675234,4.383358,4.330108,53.104491,-0.077682,0.069122,1.014877,0.289448,-0.006481,0.041836,62.557953,13.344635,-145.801834,,,
729860859.678664,4.383358,4.330108,53.104491,-0.077682,0.069122,1.014877,0.289448,-0.006481,0.041836,62.557953,13.344635,-145.801834,,,
729860859.681917,4.466265,4.326907,53.111389,-0.077682,0.069122,1.014877,0.289448,-0.006481,0.041836,62.537659,12.780319,-145.464859,,,
729860859.685242,4.548199,4.322041,53.119856,-0.083694,0.073822,1.008255,0.289758,-0.015877,0.052666,62.537659,12.780319,-145.464859,,,
729860859.688582,4.548199,4.322041,53.119856,-0.083694,0.073822,1.008255,0.289758,-0.015877,0.052666,62.537659,12.780319,-145.464859,,,
729860859.691986,4.632299,4.313941,53.129286,-0.083694,0.073822,1.008255,0.289758,-0.015877,0.052666,62.537659,12.780319,-145.464859,,,
729860859.695223,4.714183,4.301317,53.138194,-0.088837,0.080795,1.004761,0.296579,-0.044741,0.04931,62.537659,12.780319,-145.464859,,,
729860859.698576,4.714183,4.301317,53.138194,-0.088837,0.080795,1.004761,0.296579,-0.044741,0.04931,62.537659,12.780319,-145.464859,,,
729860859.701915,4.800106,4.285666,53.145532,-0.088837,0.080795,1.004761,0.296579,-0.044741,0.04931,62.537659,12.780319,-145.464859,,,
729860859.705233,4.882854,4.267933,53.151289,-0.084,0.081863,1.009308,0.302983,-0.058553,0.038549,62.537659,12.780319,-145.464859,,,
729860859.708579,4.882854,4.267933,53.151289,-0.084,0.081863,1.009308,0.302983,-0.058553,0.038549,62.537659,12.780319,-145.464859,,,
729860859.711905,4.971192,4.249893,53.155962,-0.084,0.081863,1.009308,0.302983,-0.058553,0.038549,62.537659,12.780319,-145.464859,,,
729860859.715232,5.057153,4.231647,53.160964,-0.087845,0.078659,1.01358,0.311507,-0.061219,0.0414,62.537659,12.780319,-145.464859,,,
729860859.718561,5.057153,4.231647,53.160964,-0.087845,0.078659,1.01358,0.311507,-0.061219,0.0414,62.537659,12.780319,-145.464859,,,
729860859.72191,5.14739,4.212142,53.167525,-0.087845,0.078659,1.01358,0.311507,-0.061219,0.0414,62.443878,12.284622,-145.277451,,,
729860859.725238,5.23471,4.191876,53.176942,-0.090103,0.085297,1.008759,0.314515,-0.064514,0.061284,62.443878,12.284622,-145.277451,,,
729860859.728585,5.23471,4.191876,53.176942,-0.090103,0.085297,1.008759,0.314515,-0.064514,0.061284,62.443878,12.284622,-145.277451,,,
729860859.731969,5.326509,4.172327,53.188971,-0.090103,0.085297,1.008759,0.314515,-0.064514,0.061284,62.443878,12.284622,-145.277451,,,
729860859.735228,5.416872,4.154327,53.202543,-0.082489,0.089447,1.008896,0.325737,-0.050081,0.072408,62.443878,12.284622,-145.277451,,,
729860859.738581,5.416872,4.154327,53.202543,-0.082489,0.089447,1.008896,0.325737,-0.050081,0.072408,62.443878,12.284622,-145.277451,,,
729860859.741919,5.512458,4.13963,53.217574,-0.082489,0.089447,1.008896,0.325737,-0.050081,0.072408,62.443878,12.284622,-145.277451,,,
729860859.74523,5.607604,4.128106,53.233469,-0.077484,0.088989,1.012695,0.339277,-0.025736,0.079215,62.443878,12.284622,-145.277451,,,
729860859.748576,5.607604,4.128106,53.233469,-0.077484,0.088989,1.012695,0.339277,-0.025736,0.079215,62.443878,12.284622,-145.277451,,,
729860859.751904,5.706987,4.120126,53.249519,-0.077484,0.088989,1.012695,0.339277,-0.025736,0.079215,62.443878,12.284622,-145.277451,,,
729860859.755269,5.80605,4.1162,53.265512,-0.069214,0.098404,1.008194,0.350096,0.001336,0.079727,62.443878,12.284622,-145.277451,,,
729860859.758619,5.80605,4.1162,53.265512,-0.069214,0.098404,1.008194,0.350096,0.001336,0.079727,62.443878,12.284622,-145.277451,,,
729860859.761888,5.909041,4.116023,53.281601,-0.069214,0.098404,1.008194,0.350096,0.001336,0.079727,62.368835,11.646301,-144.928024,,,
729860859.765228,6.0146,4.118314,53.298311,-0.06813,0.099228,1.00827,0.367423,0.019426,0.085246,62.368835,11.646301,-144.928024,,,
729860859.768572,6.0146,4.118314,53.298311,-0.06813,0.099228,1.00827,0.367423,0.019426,0.085246,62.368835,11.646301,-144.928024,,,
729860859.771957,6.121622,4.12114,53.315515,-0.06813,0.099228,1.00827,0.367423,0.019426,0.085246,62.368835,11.646301,-144.928024,,,
729860859.775219,6.227819,4.123489,53.332339,-0.070282,0.104645,0.988831,0.361676,0.016285,0.082147,62.368835,11.646301,-144.928024,,,
729860859.77857,6.227819,4.123489,53.332339,-0.070282,0.104645,0.988831,0.361676,0.016285,0.082147,62.368835,11.646301,-144.928024,,,
729860859.781922,6.332771,4.123859,53.34832,-0.070282,0.104645,0.988831,0.361676,0.016285,0.082147,62.368835,11.646301,-144.928024,,,
729860859.785232,6.436442,4.119962,53.363165,-0.066452,0.117584,0.968369,0.353136,-0.013876,0.073551,62.368835,11.646301,-144.928024,,,
729860859.78856,6.436442,4.119962,53.363165,-0.066452,0.117584,0.968369,0.353136,-0.013876,0.073551,62.368835,11.646301,-144.928024,,,
729860859.791909,6.53854,4.111285,53.375895,-0.066452,0.117584,0.968369,0.353136,-0.013876,0.073551,62.368835,11.646301,-144.928024,,,
729860859.795225,6.638749,4.099259,53.384855,-0.062241,0.123383,0.959274,0.341699,-0.039837,0.046321,62.368835,11.646301,-144.928024,,,
729860859.79866,6.638749,4.099259,53.384855,-0.062241,0.123383,0.959274,0.341699,-0.039837,0.046321,62.368835,11.646301,-144.928024,,,
729860859.80189,6.735204,4.086657,53.390213,-0.062241,0.123383,0.959274,0.341699,-0.039837,0.046321,62.155167,11.254944,-144.800125,,,
729860859.805234,6.827192,4.076175,53.39302,-0.052582,0.129013,0.957504,0.31172,-0.026857,0.026328,62.155167,11.254944,-144.800125,,,
729860859.808582,6.827192,4.076175,53.39302,-0.052582,0.129013,0.957504,0.31172,-0.026857,0.026328,62.155167,11.254944,-144.800125,,,
729860859.811929,6.913905,4.069402,53.394069,-0.052582,0.129013,0.957504,0.31172,-0.026857,0.026328,62.155167,11.254944,-144.800125,,,
729860859.81523,6.995872,4.065469,53.394788,-0.04808,0.128952,0.955826,0.278584,-0.007086,0.021623,62.155167,11.254944,-144.800125,,,
729860859.818558,6.995872,4.065469,53.394788,-0.04808,0.128952,0.955826,0.278584,-0.007086,0.021623,62.155167,11.254944,-144.800125,,,
729860859.821943,7.074652,4.063724,53.396056,-0.04808,0.128952,0.955826,0.278584,-0.007086,0.021623,62.155167,11.254944,-144.800125,,,
729860859.825242,7.152149,4.06395,53.398252,-0.055664,0.127045,0.962936,0.269012,0.007696,0.027358,62.155167,11.254944,-144.800125,,,
729860859.828566,7.152149,4.06395,53.398252,-0.055664,0.127045,0.962936,0.269012,0.007696,0.027358,62.155167,11.254944,-144.800125,,,
729860859.831919,7.22961,4.065861,53.400743,-0.055664,0.127045,0.962936,0.269012,0.007696,0.027358,62.155167,11.254944,-144.800125,,,
729860859.835326,7.307122,4.06873,53.402156,-0.059326,0.125626,0.971848,0.269695,0.013688,0.019921,62.155167,11.254944,-144.800125,,,
729860859.838618,7.307122,4.06873,53.402156,-0.059326,0.125626,0.971848,0.269695,0.013688,0.019921,62.155167,11.254944,-144.800125,,,
729860859.841886,7.384651,4.072086,53.401415,-0.059326,0.125626,0.971848,0.269695,0.013688,0.019921,62.155167,11.254944,-144.800125,,,
729860859.845233,7.461902,4.076685,53.397673,-0.042633,0.126999,0.965851,0.269045,0.019882,-0.000876,62.428879,10.578003,-144.676727,,,
729860859.848555,7.461902,4.076685,53.397673,-0.042633,0.126999,0.965851,0.269045,0.019882,-0.000876,62.428879,10.578003,-144.676727,,,
729860859.851964,7.538354,4.08445,53.390943,-0.042633,0.126999,0.965851,0.269045,0.019882,-0.000876,62.428879,10.578003,-144.676727,,,
729860859.855221,7.613784,4.096174,53.38205,-0.039566,0.127701,0.968292,0.262815,0.045638,-0.016259,62.428879,10.578003,-144.676727,,,
729860859.858571,7.613784,4.096174,53.38205,-0.039566,0.127701,0.968292,0.262815,0.045638,-0.016259,62.428879,10.578003,-144.676727,,,
729860859.861912,7.6882,4.110875,53.371705,-0.039566,0.127701,0.968292,0.262815,0.045638,-0.016259,62.428879,10.578003,-144.676727,,,
729860859.86522,7.761714,4.128488,53.361002,-0.048111,0.130371,0.962433,0.256442,0.065687,-0.019147,62.428879,10.578003,-144.676727,,,
729860859.868565,7.761714,4.128488,53.361002,-0.048111,0.130371,0.962433,0.256442,0.065687,-0.019147,62.428879,10.578003,-144.676727,,,
729860859.871899,7.833786,4.149166,53.350373,-0.048111,0.130371,0.962433,0.256442,0.065687,-0.019147,62.428879,10.578003,-144.676727,,,
729860859.875227,7.903417,4.172808,53.339876,-0.058914,0.131851,0.957169,0.239266,0.086622,-0.019296,62.428879,10.578003,-144.676727,,,
729860859.878643,7.903417,4.172808,53.339876,-0.058914,0.131851,0.957169,0.239266,0.086622,-0.019296,62.428879,10.578003,-144.676727,,,
729860859.881902,7.970679,4.200199,53.33022,-0.058914,0.131851,0.957169,0.239266,0.086622,-0.019296,62.428879,10.578003,-144.676727,,,
729860859.885232,8.036343,4.229846,53.321432,-0.068909,0.130341,0.960876,0.227561,0.103337,-0.013983,62.515656,10.096497,-144.272354,,,
729860859.888564,8.036343,4.229846,53.321432,-0.068909,0.130341,0.960876,0.227561,0.103337,-0.013983,62.515656,10.096497,-144.272354,,,
729860859.891962,8.100288,4.259865,53.31421,-0.068909,0.130341,0.960876,0.227561,0.103337,-0.013983,62.515656,10.096497,-144.272354,,,
729860859.895208,8.163448,4.287843,53.308883,-0.078766,0.132553,0.953369,0.220977,0.091172,-0.001169,62.515656,10.096497,-144.272354,,,
729860859.898563,8.163448,4.287843,53.308883,-0.078766,0.132553,0.953369,0.220977,0.091172,-0.001169,62.515656,10.096497,-144.272354,,,
729860859.901897,8.225246,4.311143,53.304801,-0.078766,0.132553,0.953369,0.220977,0.091172,-0.001169,62.515656,10.096497,-144.272354,,,
729860859.905218,8.284681,4.32857,53.301528,-0.087494,0.135696,0.942749,0.20397,0.051288,0.003308,62.515656,10.096497,-144.272354,,,
729860859.908589,8.284681,4.32857,53.301528,-0.087494,0.135696,0.942749,0.20397,0.051288,0.003308,62.515656,10.096497,-144.272354,,,
729860859.911952,8.341124,4.340164,53.298186,-0.087494,0.135696,0.942749,0.20397,0.051288,0.003308,62.515656,10.096497,-144.272354,,,
729860859.915251,8.393752,4.347242,53.294865,-0.090332,0.144928,0.937531,0.177204,0.020051,0.001504,62.515656,10.096497,-144.272354,,,
729860859.918667,8.393752,4.347242,53.294865,-0.090332,0.144928,0.937531,0.177204,0.020051,0.001504,62.515656,10.096497,-144.272354,,,
729860859.921922,8.44307,4.351415,53.292308,-0.090332,0.144928,0.937531,0.177204,0.020051,0.001504,62.515656,10.096497,-144.272354,,,
729860859.925236,8.490585,4.354082,53.290636,-0.089523,0.145691,0.950546,0.164051,0.010662,0.006609,62.65593,9.682816,-144.181732,,,
729860859.92857,8.490585,4.354082,53.290636,-0.089523,0.145691,0.950546,0.164051,0.010662,0.006609,62.65593,9.682816,-144.181732,,,
729860859.931963,8.537119,4.356068,53.290493,-0.089523,0.145691,0.950546,0.164051,0.010662,0.006609,62.65593,9.682816,-144.181732,,,
729860859.935221,8.584403,4.357292,53.292406,-0.08873,0.138718,0.964767,0.168031,0.007731,0.021218,62.65593,9.682816,-144.181732,,,
729860859.938565,8.584403,4.357292,53.292406,-0.08873,0.138718,0.964767,0.168031,0.007731,0.021218,62.65593,9.682816,-144.181732,,,
729860859.9419,8.634931,4.35766,53.295743,-0.08873,0.138718,0.964767,0.168031,0.007731,0.021218,62.65593,9.682816,-144.181732,,,
729860859.945221,8.689528,4.355266,53.300135,-0.085648,0.137192,0.985779,0.201622,0.000434,0.029343,62.65593,9.682816,-144.181732,,,
729860859.948564,8.689528,4.355266,53.300135,-0.085648,0.137192,0.985779,0.201622,0.000434,0.029343,62.65593,9.682816,-144.181732,,,
729860859.951897,8.75057,4.354892,53.303982,-0.085648,0.137192,0.985779,0.201622,0.000434,0.029343,62.65593,9.682816,-144.181732,,,
729860859.955226,8.816174,4.354362,53.307385,-0.082535,0.132172,1.003799,0.23969,0.006159,0.028018,62.65593,9.682816,-144.181732,,,
729860859.958637,8.816174,4.354362,53.307385,-0.082535,0.132172,1.003799,0.23969,0.006159,0.028018,62.65593,9.682816,-144.181732,,,
729860859.961897,8.887063,4.355284,53.310781,-0.082535,0.132172,1.003799,0.23969,0.006159,0.028018,62.65593,9.682816,-144.181732,,,
729860859.965235,8.960883,4.356989,53.314505,-0.076035,0.136795,1.002258,0.268872,0.015802,0.031988,62.723877,9.44632,-144.343155,,,
729860859.968583,8.960883,4.356989,53.314505,-0.076035,0.136795,1.002258,0.268872,0.015802,0.031988,62.723877,9.44632,-144.343155,,,
729860859.971956,9.040757,4.362472,53.317737,-0.076035,0.136795,1.002258,0.268872,0.015802,0.031988,62.723877,9.44632,-144.343155,,,
729860859.975224,9.122693,4.373134,53.321022,-0.073944,0.143433,1.011597,0.295064,0.049529,0.034752,62.723877,9.44632,-144.343155,,,
729860859.978565,9.122693,4.373134,53.321022,-0.073944,0.143433,1.011597,0.295064,0.049529,0.034752,62.723877,9.44632,-144.343155,,,
729860859.981907,9.207939,4.387736,53.325012,-0.073944,0.143433,1.011597,0.295064,0.049529,0.034752,62.723877,9.44632,-144.343155,,,
729860859.985222,9.290862,4.406348,53.329108,-0.074905,0.149841,1.001862,0.292368,0.067139,0.037172,62.723877,9.44632,-144.343155,,,
729860859.988592,9.290862,4.406348,53.329108,-0.074905,0.149841,1.001862,0.292368,0.067139,0.037172,62.723877,9.44632,-144.343155,,,
729860859.991923,9.373647,4.422932,53.334574,-0.074905,0.149841,1.001862,0.292368,0.067139,0.037172,62.723877,9.44632,-144.343155,,,
729860859.995227,9.452093,4.437692,53.340869,-0.083649,0.165146,0.969559,0.272034,0.039594,0.044015,62.723877,9.44632,-144.343155,,,
729860859.998624,9.452093,4.437692,53.340869,-0.083649,0.165146,0.969559,0.272034,0.039594,0.044015,62.723877,9.44632,-144.343155,,,
729860860.001939,9.530432,4.44355,53.347299,-0.083649,0.165146,0.969559,0.272034,0.039594,0.044015,62.723877,9.44632,-144.343155,,,
729860860.005237,9.605439,4.444509,53.351714,-0.085297,0.173111,0.961533,0.259539,-0.010843,0.031549,62.723877,9.44632,-144.343155,,,
729860860.008556,9.605439,4.444509,53.351714,-0.085297,0.173111,0.961533,0.259539,-0.010843,0.031549,62.630447,9.299728,-144.029572,,,
729860860.011976,9.677331,4.436981,53.354322,-0.085297,0.173111,0.961533,0.259539,-0.010843,0.031549,62.630447,9.299728,-144.029572,,,
729860860.015232,9.739518,4.425487,53.354544,-0.082199,0.179977,0.949585,0.212198,-0.053441,0.013435,62.630447,9.299728,-144.029572,,,
729860860.018576,9.739518,4.425487,53.354544,-0.082199,0.179977,0.949585,0.212198,-0.053441,0.013435,62.630447,9.299728,-144.029572,,,
729860860.021892,9.79692,4.406912,53.353842,-0.082199,0.179977,0.949585,0.212198,-0.053441,0.013435,62.630447,9.299728,-144.029572,,,
729860860.02527,9.84394,4.38519,53.352552,-0.080231,0.188187,0.936508,0.161583,-0.084866,0.006912,62.630447,9.299728,-144.029572,,,
729860860.028588,9.84394,4.38519,53.352552,-0.080231,0.188187,0.936508,0.161583,-0.084866,0.006912,62.630447,9.299728,-144.029572,,,
729860860.031898,9.887565,4.35973,53.352374,-0.080231,0.188187,0.936508,0.161583,-0.084866,0.006912,62.630447,9.299728,-144.029572,,,
729860860.03525,9.92247,4.335808,53.353816,-0.076019,0.185822,0.949341,0.128609,-0.078453,0.01644,62.630447,9.299728,-144.029572,,,
729860860.038623,9.92247,4.335808,53.353816,-0.076019,0.185822,0.949341,0.128609,-0.078453,0.01644,62.630447,9.299728,-144.029572,,,
729860860.041886,9.958675,4.314161,53.357645,-0.076019,0.185822,0.949341,0.128609,-0.078453,0.01644,62.630447,9.299728,-144.029572,,,
729860860.045218,9.989588,4.297462,53.363704,-0.076477,0.179153,0.981644,0.121357,-0.042763,0.031389,62.630447,9.299728,-144.029572,,,
729860860.048547,9.989588,4.297462,53.363704,-0.076477,0.179153,0.981644,0.121357,-0.042763,0.031389,62.657318,8.871475,-143.90976,,,
729860860.051934,10.027086,4.284858,53.371123,-0.076477,0.179153,0.981644,0.121357,-0.042763,0.031389,62.657318,8.871475,-143.90976,,,
729860860.055225,10.066819,4.275379,53.379366,-0.071396,0.172455,1.009521,0.164899,-0.019275,0.040087,62.657318,8.871475,-143.90976,,,
729860860.058579,10.066819,4.275379,53.379366,-0.071396,0.172455,1.009521,0.164899,-0.019275,0.040087,62.657318,8.871475,-143.90976,,,
729860860.0619,10.120342,4.269151,53.387149,-0.071396,0.172455,1.009521,0.164899,-0.019275,0.040087,62.657318,8.871475,-143.90976,,,
729860860.065287,10.182917,4.266618,53.393764,-0.063538,0.157242,1.047012,0.248004,0.00635,0.037981,62.657318,8.871475,-143.90976,,,
729860860.06854,10.182917,4.266618,53.393764,-0.063538,0.157242,1.047012,0.248004,0.00635,0.037981,62.657318,8.871475,-143.90976,,,
729860860.071888,10.259459,4.268859,53.399181,-0.063538,0.157242,1.047012,0.248004,0.00635,0.037981,62.657318,8.871475,-143.90976,,,
729860860.075247,10.344896,4.274677,53.403738,-0.065186,0.152756,1.054672,0.317272,0.025359,0.03812,62.657318,8.871475,-143.90976,,,
729860860.078615,10.344896,4.274677,53.403738,-0.065186,0.152756,1.054672,0.317272,0.025359,0.03812,62.657318,8.871475,-143.90976,,,
729860860.081883,10.439264,4.278819,53.407036,-0.065186,0.152756,1.054672,0.317272,0.025359,0.03812,62.657318,8.871475,-143.90976,,,
729860860.085299,10.538205,4.28061,53.407807,-0.064163,0.170135,1.022263,0.352993,-0.000998,0.024572,62.657318,8.871475,-143.90976,,,
729860860.088606,10.538205,4.28061,53.407807,-0.064163,0.170135,1.022263,0.352993,-0.000998,0.024572,62.742157,8.413467,-143.712082,,,
729860860.091931,10.641138,4.2786,53.406313,-0.064163,0.170135,1.022263,0.352993,-0.000998,0.024572,62.742157,8.413467,-143.712082,,,
729860860.095308,10.745162,4.276788,53.401856,-0.061859,0.184326,1.000137,0.362872,-0.010096,0.006257,62.742157,8.413467,-143.712082,,,
729860860.098556,10.745162,4.276788,53.401856,-0.061859,0.184326,1.000137,0.362872,-0.010096,0.006257,62.742157,8.413467,-143.712082,,,
729860860.101891,10.848814,4.27502,53.395926,-0.061859,0.184326,1.000137,0.362872,-0.010096,0.006257,62.742157,8.413467,-143.712082,,,
729860860.105241,10.950795,4.275091,53.39,-0.064758,0.184204,0.989243,0.348173,-0.003537,0.006347,62.742157,8.413467,-143.712082,,,
729860860.108558,10.950795,4.275091,53.39,-0.064758,0.184204,0.989243,0.348173,-0.003537,0.006347,62.742157,8.413467,-143.712082,,,
729860860.111892,11.048253,4.273869,53.385049,-0.064758,0.184204,0.989243,0.348173,-0.003537,0.006347,62.742157,8.413467,-143.712082,,,
729860860.115221,11.14142,4.271555,53.380832,-0.070435,0.198624,0.968826,0.316609,-0.013629,0.009675,62.742157,8.413467,-143.712082,,,
729860860.118615,11.14142,4.271555,53.380832,-0.070435,0.198624,0.968826,0.316609,-0.013629,0.009675,62.742157,8.413467,-143.712082,,,
729860860.121878,11.229099,4.266403,53.376757,-0.070435,0.198624,0.968826,0.316609,-0.013629,0.009675,62.742157,8.413467,-143.712082,,,
729860860.125304,11.309706,4.258928,53.37111,-0.068634,0.211136,0.952927,0.268028,-0.031741,-0.004853,62.742157,8.413467,-143.712082,,,
729860860.128546,11.309706,4.258928,53.37111,-0.068634,0.211136,0.952927,0.268028,-0.031741,-0.004853,62.742157,8.413467,-143.712082,,,
729860860.131961,11.382718,4.249302,53.363241,-0.068634,0.211136,0.952927,0.268028,-0.031741,-0.004853,62.560898,7.750977,-143.398254,,,
729860860.135207,11.448909,4.237036,53.354294,-0.070816,0.214676,0.940292,0.220936,-0.051443,-0.015918,62.560898,7.750977,-143.398254,,,
729860860.138558,11.448909,4.237036,53.354294,-0.070816,0.214676,0.940292,0.220936,-0.051443,-0.015918,62.560898,7.750977,-143.398254,,,
729860860.141888,11.509835,4.223423,53.345311,-0.070816,0.214676,0.940292,0.220936,-0.051443,-0.015918,62.560898,7.750977,-143.398254,,,
729860860.145242,11.565335,4.210068,53.337972,-0.078766,0.207809,0.959229,0.201953,-0.041989,-0.007319,62.560898,7.750977,-143.398254,,,
729860860.14856,11.565335,4.210068,53.337972,-0.078766,0.207809,0.959229,0.201953,-0.041989,-0.007319,62.560898,7.750977,-143.398254,,,
729860860.151891,11.624051,4.199006,53.334272,-0.078766,0.207809,0.959229,0.201953,-0.041989,-0.007319,62.560898,7.750977,-143.398254,,,
729860860.155227,11.680431,4.187462,53.335068,-0.090057,0.196747,0.986145,0.208304,-0.033631,0.022741,62.560898,7.750977,-143.398254,,,
729860860.158602,11.680431,4.187462,53.335068,-0.090057,0.196747,0.986145,0.208304,-0.033631,0.022741,62.560898,7.750977,-143.398254,,,
729860860.161889,11.740956,4.176861,53.339843,-0.090057,0.196747,0.986145,0.208304,-0.033631,0.022741,62.560898,7.750977,-143.398254,,,
729860860.165332,11.801206,4.165508,53.347769,-0.091949,0.199692,0.985947,0.224759,-0.029653,0.044501,62.560898,7.750977,-143.398254,,,
729860860.168576,11.801206,4.165508,53.347769,-0.091949,0.199692,0.985947,0.224759,-0.029653,0.044501,62.560898,7.750977,-143.398254,,,
729860860.171936,11.869009,4.154403,53.357037,-0.091949,0.199692,0.985947,0.224759,-0.029653,0.044501,62.709702,7.512161,-143.221329,,,
729860860.175222,11.940693,4.142438,53.366983,-0.08252,0.197266,0.998199,0.263052,-0.029442,0.050696,62.709702,7.512161,-143.221329,,,
729860860.17856,11.940693,4.142438,53.366983,-0.08252,0.197266,0.998199,0.263052,-0.029442,0.050696,62.709702,7.512161,-143.221329,,,
729860860.181937,12.020441,4.131403,53.376025,-0.08252,0.197266,0.998199,0.263052,-0.029442,0.050696,62.709702,7.512161,-143.221329,,,
729860860.185213,12.020441,4.131403,53.383761,-0.072983,0.195663,1.006012,0.305987,-0.032899,0.043762,62.709702,7.512161,-143.221329,,,
729860860.188548,12.10433,4.119498,53.383761,-0.072983,0.195663,1.006012,0.305987,-0.032899,0.043762,62.709702,7.512161,-143.221329,,,
729860860.191884,12.194676,4.106388,53.389077,-0.072983,0.195663,1.006012,0.305987,-0.032899,0.043762,62.709702,7.512161,-143.221329,,,
729860860.19522,12.194676,4.106388,53.391405,-0.071381,0.204666,0.991943,0.333329,-0.056837,0.025039,62.709702,7.512161,-143.221329,,,
729860860.198675,12.287366,4.090388,53.391405,-0.071381,0.204666,0.991943,0.333329,-0.056837,0.025039,62.709702,7.512161,-143.221329,,,
729860860.201884,12.384599,4.072456,53.390489,-0.071381,0.204666,0.991943,0.333329,-0.056837,0.025039,62.709702,7.512161,-143.221329,,,
729860860.205202,12.384599,4.072456,53.390489,-0.061218,0.212631,0.98819,0.350661,-0.052202,0.004377,62.709702,7.512161,-143.221329,,,
729860860.208554,12.484149,4.055842,53.386413,-0.061218,0.212631,0.98819,0.350661,-0.052202,0.004377,62.709702,7.512161,-143.221329,,,
729860860.211925,12.585867,4.044555,53.380004,-0.061218,0.212631,0.98819,0.350661,-0.052202,0.004377,62.425568,6.964905,-142.687225,,,
729860860.215229,12.585867,4.044555,53.380004,-0.055298,0.210236,1.000443,0.359874,-0.009709,-0.002203,62.425568,6.964905,-142.687225,,,
729860860.218566,12.688857,4.039574,53.372552,-0.055298,0.210236,1.000443,0.359874,-0.009709,-0.002203,62.425568,6.964905,-142.687225,,,
