Time (sec),Pitch (deg),Roll (deg),Yaw(deg),X-Acceleration (g),Y-Acceleration (g),Z-Acceleration (g),Pitch Rate (deg/sec),Roll Rate (deg/sec),Yaw Rate (deg/sec),Magnetic Field in X direction (uT),Magnetic Field in Y direction (uT),Magnetic Field in Z Direction (uT),Latitude (deg),Longitude (deg),Altitude (m)
729861484.489705,0.378412,2.051747,124.01119,-0.046036,0.018875,0.980484,0.004798,0.005251,-0.029,66.57402,33.352646,-146.301514,,,
729861484.493006,0.379929,2.05398,124.004509,-0.046036,0.018875,0.980484,0.004798,0.005251,-0.029,66.541901,33.237854,-146.225983,,,
729861484.496318,0.381265,2.055986,123.998202,-0.047836,0.015457,0.991806,0.005989,0.013744,-0.022852,66.541901,33.237854,-146.225983,,,
729861484.499647,0.381265,2.055986,123.998202,-0.047836,0.015457,0.991806,0.005989,0.013744,-0.022852,66.541901,33.237854,-146.225983,,,
729861484.503011,0.385825,2.06063,123.992334,-0.047836,0.015457,0.991806,0.005989,0.013744,-0.022852,66.541901,33.237854,-146.225983,,,
729861484.506438,0.391203,2.066751,123.987114,-0.047272,0.013519,1.000595,0.020524,0.022948,-0.018671,66.541901,33.237854,-146.225983,,,
729861484.509735,0.391203,2.066751,123.987114,-0.047272,0.013519,1.000595,0.020524,0.022948,-0.018671,66.541901,33.237854,-146.225983,,,
729861484.513003,0.399133,2.073267,123.982989,-0.047272,0.013519,1.000595,0.020524,0.022948,-0.018671,66.541901,33.237854,-146.225983,,,
729861484.516408,0.408599,2.082845,123.980206,-0.050232,0.011795,1.002167,0.034073,0.031158,-0.012102,66.541901,33.237854,-146.225983,,,
729861484.519702,0.408599,2.082845,123.980206,-0.050232,0.011795,1.002167,0.034073,0.031158,-0.012102,66.541901,33.237854,-146.225983,,,
729861484.523031,0.418902,2.090924,123.97898,-0.050232,0.011795,1.002167,0.034073,0.031158,-0.012102,66.541901,33.237854,-146.225983,,,
729861484.526352,0.431905,2.099945,123.980181,-0.057556,0.009796,0.999634,0.040121,0.030004,0.002559,66.541901,33.237854,-146.225983,,,
729861484.529667,0.431905,2.099945,123.980181,-0.057556,0.009796,0.999634,0.040121,0.030004,0.002559,66.541901,33.237854,-146.225983,,,
729861484.533092,0.444817,2.1063,123.984075,-0.057556,0.009796,0.999634,0.040121,0.030004,0.002559,66.478775,32.950928,-146.685898,,,
729861484.536319,0.461961,2.111718,123.990282,-0.064331,0.004059,0.993942,0.050934,0.018349,0.02021,66.478775,32.950928,-146.685898,,,
729861484.539657,0.461961,2.111718,123.990282,-0.064331,0.004059,0.993942,0.050934,0.018349,0.02021,66.478775,32.950928,-146.685898,,,
729861484.543001,0.477405,2.113414,123.998471,-0.064331,0.004059,0.993942,0.050934,0.018349,0.02021,66.478775,32.950928,-146.685898,,,
729861484.546325,0.496656,2.115152,124.008098,-0.064484,0.00473,0.989578,0.055176,0.001611,0.031699,66.478775,32.950928,-146.685898,,,
729861484.549658,0.496656,2.115152,124.008098,-0.064484,0.00473,0.989578,0.055176,0.001611,0.031699,66.478775,32.950928,-146.685898,,,
729861484.553002,0.512197,2.112083,124.018435,-0.064484,0.00473,0.989578,0.055176,0.001611,0.031699,66.478775,32.950928,-146.685898,,,
729861484.556323,0.529831,2.108384,124.029241,-0.059387,0.011063,0.98613,0.04993,-0.015775,0.039948,66.478775,32.950928,-146.685898,,,
729861484.559718,0.529831,2.108384,124.029241,-0.059387,0.011063,0.98613,0.04993,-0.015775,0.039948,66.478775,32.950928,-146.685898,,,
729861484.562752,0.543462,2.098574,124.040973,-0.059387,0.011063,0.98613,0.04993,-0.015775,0.039948,66.478775,32.950928,-146.685898,,,
729861484.566348,0.557293,2.089802,124.052947,-0.052414,0.018188,0.979813,0.039712,-0.037853,0.043146,66.478775,32.950928,-146.685898,,,
729861484.56966,0.557293,2.089802,124.052947,-0.052414,0.018188,0.979813,0.039712,-0.037853,0.043146,66.478775,32.950928,-146.685898,,,
729861484.572991,0.565515,2.074898,124.064208,-0.052414,0.018188,0.979813,0.039712,-0.037853,0.043146,66.515549,32.873459,-146.437744,,,
729861484.576326,0.571404,2.062817,124.075253,-0.043594,0.023773,0.972855,0.017455,-0.051158,0.03769,66.515549,32.873459,-146.437744,,,
729861484.579671,0.571404,2.062817,124.075253,-0.043594,0.023773,0.972855,0.017455,-0.051158,0.03769,66.515549,32.873459,-146.437744,,,
729861484.582989,0.573381,2.046516,124.085562,-0.043594,0.023773,0.972855,0.017455,-0.051158,0.03769,66.515549,32.873459,-146.437744,,,
729861484.586325,0.573542,2.033965,124.095031,-0.036438,0.024612,0.973953,-0.003879,-0.050747,0.031777,66.515549,32.873459,-146.437744,,,
729861484.589652,0.573542,2.033965,124.095031,-0.036438,0.024612,0.973953,-0.003879,-0.050747,0.031777,66.515549,32.873459,-146.437744,,,
729861484.593001,0.570299,2.019448,124.105106,-0.036438,0.024612,0.973953,-0.003879,-0.050747,0.031777,66.515549,32.873459,-146.437744,,,
729861484.596321,0.564459,2.010712,124.115256,-0.029297,0.023758,0.977661,-0.020793,-0.041105,0.033781,66.515549,32.873459,-146.437744,,,
729861484.599734,0.564459,2.010712,124.115256,-0.029297,0.023758,0.977661,-0.020793,-0.041105,0.033781,66.515549,32.873459,-146.437744,,,
729861484.603001,0.555984,1.999141,124.125477,-0.029297,0.023758,0.977661,-0.020793,-0.041105,0.033781,66.515549,32.873459,-146.437744,,,
729861484.606317,0.545269,1.995883,124.135506,-0.027267,0.021378,0.982025,-0.037681,-0.030561,0.032049,66.515549,32.873459,-146.437744,,,
729861484.609672,0.545269,1.995883,124.135506,-0.027267,0.021378,0.982025,-0.037681,-0.030561,0.032049,66.515549,32.873459,-146.437744,,,
729861484.612979,0.532985,1.988343,124.145506,-0.027267,0.021378,0.982025,-0.037681,-0.030561,0.032049,66.622574,32.865829,-146.359528,,,
729861484.616332,0.518063,1.991103,124.156149,-0.024307,0.014221,0.985596,-0.049814,-0.018831,0.031837,66.622574,32.865829,-146.359528,,,
729861484.619672,0.518063,1.991103,124.156149,-0.024307,0.014221,0.985596,-0.049814,-0.018831,0.031837,66.622574,32.865829,-146.359528,,,
729861484.622982,0.504442,1.988639,124.168116,-0.024307,0.014221,0.985596,-0.049814,-0.018831,0.031837,66.622574,32.865829,-146.359528,,,
729861484.62635,0.492493,1.997575,124.182332,-0.029205,0.006973,0.998474,-0.044867,0.001939,0.04374,66.622574,32.865829,-146.359528,,,
729861484.629706,0.492493,1.997575,124.182332,-0.029205,0.006973,0.998474,-0.044867,0.001939,0.04374,66.622574,32.865829,-146.359528,,,
729861484.633006,0.484855,1.998948,124.199084,-0.029205,0.006973,0.998474,-0.044867,0.001939,0.04374,66.622574,32.865829,-146.359528,,,
729861484.636345,0.484603,2.009182,124.217525,-0.036697,-0.003662,1.018677,-0.014593,0.009572,0.064074,66.622574,32.865829,-146.359528,,,
729861484.639654,0.484603,2.009182,124.217525,-0.036697,-0.003662,1.018677,-0.014593,0.009572,0.064074,66.622574,32.865829,-146.359528,,,
729861484.643008,0.488848,2.011947,124.237004,-0.036697,-0.003662,1.018677,-0.014593,0.009572,0.064074,66.622574,32.865829,-146.359528,,,
729861484.64632,0.501824,2.019307,124.255461,-0.033401,-0.007812,1.035217,0.027818,0.011224,0.065056,66.622574,32.865829,-146.359528,,,
729861484.649752,0.501824,2.019307,124.255461,-0.033401,-0.007812,1.035217,0.027818,0.011224,0.065056,66.622574,32.865829,-146.359528,,,
729861484.653008,0.51562,2.01985,124.271291,-0.033401,-0.007812,1.035217,0.027818,0.011224,0.065056,66.622574,32.865829,-146.359528,,,
729861484.656326,0.536761,2.020258,124.283501,-0.025269,0.000122,1.036545,0.057426,-0.000605,0.045468,66.643265,33.009674,-146.112625,,,
729861484.659673,0.536761,2.020258,124.283501,-0.025269,0.000122,1.036545,0.057426,-0.000605,0.045468,66.643265,33.009674,-146.112625,,,
729861484.663054,0.554041,2.014854,124.292265,-0.025269,0.000122,1.036545,0.057426,-0.000605,0.045468,66.643265,33.009674,-146.112625,,,
729861484.666318,0.57463,2.00425,124.297939,-0.0186,0.010849,1.017746,0.056619,-0.028139,0.022183,66.643265,33.009674,-146.112625,,,
729861484.669672,0.57463,2.00425,124.297939,-0.0186,0.010849,1.017746,0.056619,-0.028139,0.022183,66.643265,33.009674,-146.112625,,,
729861484.67299,0.588988,1.990007,124.300735,-0.0186,0.010849,1.017746,0.056619,-0.028139,0.022183,66.643265,33.009674,-146.112625,,,
729861484.676325,0.605012,1.971748,124.302091,-0.020889,0.015945,1.000748,0.046973,-0.051057,0.004904,66.643265,33.009674,-146.112625,,,
729861484.679665,0.605012,1.971748,124.302091,-0.020889,0.015945,1.000748,0.046973,-0.051057,0.004904,66.643265,33.009674,-146.112625,,,
729861484.682997,0.61631,1.955368,124.302568,-0.020889,0.015945,1.000748,0.046973,-0.051057,0.004904,66.643265,33.009674,-146.112625,,,
729861484.686324,0.628745,1.938154,124.302619,-0.029343,0.01236,1.00032,0.037952,-0.048099,-0.000511,66.643265,33.009674,-146.112625,,,
729861484.689651,0.628745,1.938154,124.302619,-0.029343,0.01236,1.00032,0.037952,-0.048099,-0.000511,66.643265,33.009674,-146.112625,,,
729861484.693005,0.637418,1.926724,124.303552,-0.029343,0.01236,1.00032,0.037952,-0.048099,-0.000511,66.643265,33.009674,-146.112625,,,
729861484.69632,0.646232,1.916137,124.306072,-0.034439,0.00592,1.009979,0.028124,-0.027296,0.00826,66.426819,32.870407,-146.094528,,,
729861484.699711,0.646232,1.916137,124.306072,-0.034439,0.00592,1.009979,0.028124,-0.027296,0.00826,66.426819,32.870407,-146.094528,,,
729861484.702999,0.655781,1.911842,124.310252,-0.034439,0.00592,1.009979,0.028124,-0.027296,0.00826,66.426819,32.870407,-146.094528,,,
729861484.706388,0.664441,1.910381,124.316128,-0.037872,0.000992,1.014023,0.036929,-0.003267,0.019659,66.426819,32.870407,-146.094528,,,
729861484.709654,0.664441,1.910381,124.316128,-0.037872,0.000992,1.014023,0.036929,-0.003267,0.019659,66.426819,32.870407,-146.094528,,,
729861484.71308,0.677104,1.912853,124.322991,-0.037872,0.000992,1.014023,0.036929,-0.003267,0.019659,66.426819,32.870407,-146.094528,,,
729861484.716315,0.686255,1.91904,124.330279,-0.041672,0.002625,1.016525,0.044983,0.022201,0.025279,66.426819,32.870407,-146.094528,,,
729861484.719663,0.686255,1.91904,124.330279,-0.041672,0.002625,1.016525,0.044983,0.022201,0.025279,66.426819,32.870407,-146.094528,,,
729861484.722984,0.702211,1.925502,124.337987,-0.041672,0.002625,1.016525,0.044983,0.022201,0.025279,66.426819,32.870407,-146.094528,,,
729861484.726329,0.714589,1.931894,124.34566,-0.042603,0.005753,1.01207,0.057564,0.031551,0.02611,66.426819,32.870407,-146.094528,,,
729861484.729744,0.714589,1.931894,124.34566,-0.042603,0.005753,1.01207,0.057564,0.031551,0.02611,66.426819,32.870407,-146.094528,,,
729861484.73298,0.733394,1.941053,124.354071,-0.042603,0.005753,1.01207,0.057564,0.031551,0.02611,66.426819,32.870407,-146.094528,,,
729861484.73637,0.752763,1.946843,124.363758,-0.042923,0.007721,1.007538,0.071738,0.036553,0.033784,66.45369,32.977768,-146.085724,,,
729861484.739648,0.752763,1.946843,124.363758,-0.042923,0.007721,1.007538,0.071738,0.036553,0.033784,66.45369,32.977768,-146.085724,,,
729861484.742986,0.778083,1.95684,124.374139,-0.042923,0.007721,1.007538,0.071738,0.036553,0.033784,66.45369,32.977768,-146.085724,,,
729861484.746325,0.808118,1.960755,124.385386,-0.043243,0.004791,1.011566,0.100942,0.037496,0.038603,66.45369,32.977768,-146.085724,,,
729861484.749624,0.808118,1.960755,124.385386,-0.043243,0.004791,1.011566,0.100942,0.037496,0.038603,66.45369,32.977768,-146.085724,,,
729861484.752999,0.841719,1.968232,124.396681,-0.043243,0.004791,1.011566,0.100942,0.037496,0.038603,66.45369,32.977768,-146.085724,,,
729861484.756328,0.87733,1.969126,124.407455,-0.043076,0.005325,1.017288,0.123394,0.020131,0.041499,66.45369,32.977768,-146.085724,,,
729861484.759628,0.87733,1.969126,124.407455,-0.043076,0.005325,1.017288,0.123394,0.020131,0.041499,66.45369,32.977768,-146.085724,,,
729861484.763002,0.9145,1.968487,124.41719,-0.043076,0.005325,1.017288,0.123394,0.020131,0.041499,66.45369,32.977768,-146.085724,,,
729861484.766323,0.950485,1.961572,124.425868,-0.041977,0.008072,1.003372,0.130934,-0.013312,0.037014,66.45369,32.977768,-146.085724,,,
729861484.769652,0.950485,1.961572,124.425868,-0.041977,0.008072,1.003372,0.130934,-0.013312,0.037014,66.45369,32.977768,-146.085724,,,
729861484.773011,0.986237,1.950874,124.433111,-0.041977,0.008072,1.003372,0.130934,-0.013312,0.037014,66.45369,32.977768,-146.085724,,,
729861484.776405,1.017023,1.937743,124.438492,-0.037094,0.014404,0.989136,0.122096,-0.044328,0.024172,66.516327,32.721664,-146.492233,,,
729861484.779645,1.017023,1.937743,124.438492,-0.037094,0.014404,0.989136,0.122096,-0.044328,0.024172,66.516327,32.721664,-146.492233,,,
729861484.782991,1.047487,1.922421,124.443022,-0.037094,0.014404,0.989136,0.122096,-0.044328,0.024172,66.516327,32.721664,-146.492233,,,
729861484.786327,1.069064,1.908315,124.447365,-0.03389,0.020691,0.978439,0.09653,-0.054169,0.018094,66.516327,32.721664,-146.492233,,,
729861484.789651,1.069064,1.908315,124.447365,-0.03389,0.020691,0.978439,0.09653,-0.054169,0.018094,66.516327,32.721664,-146.492233,,,
729861484.792987,1.092063,1.893125,124.453002,-0.03389,0.020691,0.978439,0.09653,-0.054169,0.018094,66.516327,32.721664,-146.492233,,,
729861484.796325,1.108098,1.882592,124.460485,-0.03511,0.020798,0.976974,0.074323,-0.048207,0.025472,66.516327,32.721664,-146.492233,,,
729861484.799692,1.108098,1.882592,124.460485,-0.03511,0.020798,0.976974,0.074323,-0.048207,0.025472,66.516327,32.721664,-146.492233,,,
729861484.803002,1.126776,1.871059,124.469237,-0.03511,0.020798,0.976974,0.074323,-0.048207,0.025472,66.516327,32.721664,-146.492233,,,
729861484.806324,1.141264,1.866584,124.478237,-0.031738,0.020294,0.98381,0.0636,-0.028149,0.031587,66.516327,32.721664,-146.492233,,,
729861484.809668,1.141264,1.866584,124.478237,-0.031738,0.020294,0.98381,0.0636,-0.028149,0.031587,66.516327,32.721664,-146.492233,,,
729861484.813058,1.157831,1.863036,124.486588,-0.031738,0.020294,0.98381,0.0636,-0.028149,0.031587,66.516327,32.721664,-146.492233,,,
729861484.816315,1.16979,1.867084,124.493821,-0.024261,0.021011,0.992599,0.053293,0.001445,0.026386,66.516327,32.721664,-146.492233,,,
729861484.819669,1.16979,1.867084,124.493821,-0.024261,0.021011,0.992599,0.053293,0.001445,0.026386,66.241257,32.60939,-146.461563,,,
729861484.822987,1.184518,1.871233,124.500694,-0.024261,0.021011,0.992599,0.053293,0.001445,0.026386,66.241257,32.60939,-146.461563,,,
729861484.826324,1.1936,1.881346,124.507778,-0.020325,0.022034,0.995712,0.050211,0.024252,0.027294,66.241257,32.60939,-146.461563,,,
729861484.829671,1.1936,1.881346,124.507778,-0.020325,0.022034,0.995712,0.050211,0.024252,0.027294,66.241257,32.60939,-146.461563,,,
729861484.832987,1.206632,1.890678,124.514802,-0.020325,0.022034,0.995712,0.050211,0.024252,0.027294,66.241257,32.60939,-146.461563,,,
729861484.836409,1.215078,1.906299,124.522267,-0.02301,0.022156,0.991959,0.041676,0.044794,0.024931,66.241257,32.60939,-146.461563,,,
729861484.839721,1.215078,1.906299,124.522267,-0.02301,0.022156,0.991959,0.041676,0.044794,0.024931,66.241257,32.60939,-146.461563,,,
729861484.84301,1.226771,1.920832,124.531142,-0.02301,0.022156,0.991959,0.041676,0.044794,0.024931,66.241257,32.60939,-146.461563,,,
729861484.846326,1.234997,1.9388,124.541465,-0.029083,0.019913,0.992722,0.036706,0.06082,0.033274,66.241257,32.60939,-146.461563,,,
729861484.849751,1.234997,1.9388,124.541465,-0.029083,0.019913,0.992722,0.036706,0.06082,0.033274,66.241257,32.60939,-146.461563,,,
729861484.852998,1.24524,1.953823,124.554083,-0.029083,0.019913,0.992722,0.036706,0.06082,0.033274,66.241257,32.60939,-146.461563,,,
729861484.856327,1.253794,1.966694,124.569142,-0.034607,0.016739,0.987503,0.033469,0.051056,0.050043,66.241257,32.60939,-146.461563,,,
729861484.859654,1.253794,1.966694,124.569142,-0.034607,0.016739,0.987503,0.033469,0.051056,0.050043,66.59877,32.643845,-146.26059,,,
729861484.862993,1.263238,1.974282,124.585722,-0.034607,0.016739,0.987503,0.033469,0.051056,0.050043,66.59877,32.643845,-146.26059,,,
729861484.866333,1.272136,1.976431,124.602815,-0.043823,0.017731,0.979996,0.032305,0.013777,0.058496,66.59877,32.643845,-146.26059,,,
729861484.869654,1.272136,1.976431,124.602815,-0.043823,0.017731,0.979996,0.032305,0.013777,0.058496,66.59877,32.643845,-146.26059,,,
729861484.873001,1.28044,1.972243,124.619213,-0.043823,0.017731,0.979996,0.032305,0.013777,0.058496,66.59877,32.643845,-146.26059,,,
729861484.87633,1.286365,1.961585,124.634571,-0.042496,0.020035,0.973389,0.023089,-0.02724,0.054692,66.59877,32.643845,-146.26059,,,
729861484.879674,1.286365,1.961585,124.634571,-0.042496,0.020035,0.973389,0.023089,-0.02724,0.054692,66.59877,32.643845,-146.26059,,,
729861484.883008,1.289843,1.944051,124.649004,-0.042496,0.020035,0.973389,0.023089,-0.02724,0.054692,66.59877,32.643845,-146.26059,,,
729861484.886342,1.290404,1.919445,124.662176,-0.033997,0.021301,0.968582,0.005847,-0.071839,0.043936,66.59877,32.643845,-146.26059,,,
729861484.889686,1.290404,1.919445,124.662176,-0.033997,0.021301,0.968582,0.005847,-0.071839,0.043936,66.59877,32.643845,-146.26059,,,
729861484.893007,1.28895,1.891826,124.673651,-0.033997,0.021301,0.968582,0.005847,-0.071839,0.043936,66.59877,32.643845,-146.26059,,,
729861484.896324,1.28461,1.858092,124.683472,-0.028351,0.02533,0.967072,-0.014858,-0.10015,0.033467,66.59877,32.643845,-146.26059,,,
729861484.899664,1.28461,1.858092,124.683472,-0.028351,0.02533,0.967072,-0.014858,-0.10015,0.033467,66.1362,32.764297,-146.444901,,,
729861484.902982,1.278054,1.827082,124.691539,-0.028351,0.02533,0.967072,-0.014858,-0.10015,0.033467,66.1362,32.764297,-146.444901,,,
729861484.906357,1.269446,1.7946,124.698505,-0.021927,0.024261,0.973709,-0.027023,-0.104492,0.022436,66.1362,32.764297,-146.444901,,,
729861484.909681,1.269446,1.7946,124.698505,-0.021927,0.024261,0.973709,-0.027023,-0.104492,0.022436,66.1362,32.764297,-146.444901,,,
729861484.912994,1.259232,1.768073,124.704572,-0.021927,0.024261,0.973709,-0.027023,-0.104492,0.022436,66.1362,32.764297,-146.444901,,,
729861484.916322,1.2483,1.746165,124.710448,-0.013901,0.025452,0.982971,-0.035569,-0.07462,0.017398,66.1362,32.764297,-146.444901,,,
729861484.919658,1.2483,1.746165,124.710448,-0.013901,0.025452,0.982971,-0.035569,-0.07462,0.017398,66.1362,32.764297,-146.444901,,,
729861484.922992,1.238042,1.732043,124.716375,-0.013901,0.025452,0.982971,-0.035569,-0.07462,0.017398,66.1362,32.764297,-146.444901,,,
729861484.926323,1.228713,1.724914,124.722298,-0.01004,0.019928,0.996567,-0.031926,-0.028771,0.019149,66.1362,32.764297,-146.444901,,,
729861484.929665,1.228713,1.724914,124.722298,-0.01004,0.019928,0.996567,-0.031926,-0.028771,0.019149,66.1362,32.764297,-146.444901,,,
729861484.933004,1.221101,1.724571,124.728156,-0.01004,0.019928,0.996567,-0.031926,-0.028771,0.019149,66.1362,32.764297,-146.444901,,,
729861484.936321,1.214057,1.732542,124.733707,-0.006042,0.016876,1.006775,-0.022824,0.01765,0.015375,66.1362,32.764297,-146.444901,,,
729861484.939661,1.214057,1.732542,124.733707,-0.006042,0.016876,1.006775,-0.022824,0.01765,0.015375,66.1362,32.764297,-146.444901,,,
729861484.942983,1.208403,1.742168,124.738913,-0.006042,0.016876,1.006775,-0.022824,0.01765,0.015375,66.385681,32.664001,-146.296616,,,
729861484.946325,1.202709,1.757268,124.743247,-0.008453,0.021439,1.003098,-0.020551,0.043382,0.015436,66.385681,32.664001,-146.296616,,,
729861484.949726,1.202709,1.757268,124.743247,-0.008453,0.021439,1.003098,-0.020551,0.043382,0.015436,66.385681,32.664001,-146.296616,,,
729861484.952997,1.197014,1.767348,124.747072,-0.008453,0.021439,1.003098,-0.020551,0.043382,0.015436,66.385681,32.664001,-146.296616,,,
729861484.956393,1.189941,1.776731,124.750392,-0.014359,0.022644,0.991653,-0.021625,0.029659,0.010798,66.385681,32.664001,-146.296616,,,
729861484.959659,1.189941,1.776731,124.750392,-0.014359,0.022644,0.991653,-0.021625,0.029659,0.010798,66.385681,32.664001,-146.296616,,,
729861484.963053,1.18188,1.77936,124.753054,-0.014359,0.022644,0.991653,-0.021625,0.029659,0.010798,66.385681,32.664001,-146.296616,,,
729861484.966316,1.173066,1.777877,124.754944,-0.021683,0.024216,0.976929,-0.032817,0.001438,0.003225,66.385681,32.664001,-146.296616,,,
729861484.969666,1.173066,1.777877,124.754944,-0.021683,0.024216,0.976929,-0.032817,0.001438,0.003225,66.385681,32.664001,-146.296616,,,
729861484.973007,1.161735,1.770935,124.756331,-0.021683,0.024216,0.976929,-0.032817,0.001438,0.003225,66.385681,32.664001,-146.296616,,,
729861484.976322,1.148694,1.75775,124.756986,-0.026016,0.028168,0.965347,-0.04096,-0.034672,0.001589,66.385681,32.664001,-146.296616,,,
729861484.979669,1.148694,1.75775,124.756986,-0.026016,0.028168,0.965347,-0.04096,-0.034672,0.001589,66.385681,32.664001,-146.296616,,,
729861484.983007,1.131311,1.740814,124.756528,-0.026016,0.028168,0.965347,-0.04096,-0.034672,0.001589,66.301147,32.468796,-146.045807,,,
729861484.986319,1.111894,1.718544,124.755551,-0.025528,0.030243,0.959763,-0.067579,-0.067179,-0.004056,66.301147,32.468796,-146.045807,,,
729861484.98965,1.111894,1.718544,124.755551,-0.025528,0.030243,0.959763,-0.067579,-0.067179,-0.004056,66.301147,32.468796,-146.045807,,,
729861484.992989,1.090535,1.697158,124.7534,-0.025528,0.030243,0.959763,-0.067579,-0.067179,-0.004056,66.301147,32.468796,-146.045807,,,
729861484.996319,1.071257,1.674756,124.749837,-0.017532,0.029343,0.964844,-0.074389,-0.068801,-0.0159,66.301147,32.468796,-146.045807,,,
729861484.999757,1.071257,1.674756,124.749837,-0.017532,0.029343,0.964844,-0.074389,-0.068801,-0.0159,66.301147,32.468796,-146.045807,,,
729861485.003008,1.054178,1.658302,124.745086,-0.017532,0.029343,0.964844,-0.074389,-0.068801,-0.0159,66.301147,32.468796,-146.045807,,,
729861485.00638,1.039748,1.642492,124.738557,-0.009399,0.02301,0.995453,-0.051805,-0.042051,-0.022829,66.301147,32.468796,-146.045807,,,
729861485.009701,1.039748,1.642492,124.738557,-0.009399,0.02301,0.995453,-0.051805,-0.042051,-0.022829,66.301147,32.468796,-146.045807,,,
729861485.013079,1.028301,1.635717,124.730423,-0.009399,0.02301,0.995453,-0.051805,-0.042051,-0.022829,66.301147,32.468796,-146.045807,,,
729861485.016311,1.019795,1.630679,124.721101,-0.009018,0.021454,1.017014,-0.028771,-0.005869,-0.031748,66.301147,32.468796,-146.045807,,,
729861485.019676,1.019795,1.630679,124.721101,-0.009018,0.021454,1.017014,-0.028771,-0.005869,-0.031748,66.301147,32.468796,-146.045807,,,
729861485.02299,1.01324,1.636572,124.711556,-0.009018,0.021454,1.017014,-0.028771,-0.005869,-0.031748,66.261169,32.533844,-146.262894,,,
729861485.026326,1.009454,1.643222,124.703144,-0.013901,0.018341,1.021301,-0.017812,0.037841,-0.032774,66.261169,32.533844,-146.262894,,,
729861485.029675,1.009454,1.643222,124.703144,-0.013901,0.018341,1.021301,-0.017812,0.037841,-0.032774,66.261169,32.533844,-146.262894,,,
729861485.032991,1.005959,1.659775,124.695751,-0.013901,0.018341,1.021301,-0.017812,0.037841,-0.032774,66.261169,32.533844,-146.262894,,,
729861485.036325,1.005257,1.676165,124.690294,-0.024414,0.01561,1.019302,-0.008848,0.071337,-0.022679,66.261169,32.533844,-146.262894,,,
729861485.03965,1.005257,1.676165,124.690294,-0.024414,0.01561,1.019302,-0.008848,0.071337,-0.022679,66.261169,32.533844,-146.262894,,,
729861485.042992,1.003228,1.697932,124.686478,-0.024414,0.01561,1.019302,-0.008848,0.071337,-0.022679,66.261169,32.533844,-146.262894,,,
729861485.046319,1.003214,1.717919,124.683386,-0.032791,0.014648,1.009827,-0.009887,0.079063,-0.012384,66.261169,32.533844,-146.262894,,,
729861485.049708,1.003214,1.717919,124.683386,-0.032791,0.014648,1.009827,-0.009887,0.079063,-0.012384,66.261169,32.533844,-146.262894,,,
729861485.05299,0.998968,1.738105,124.680336,-0.032791,0.014648,1.009827,-0.009887,0.079063,-0.012384,66.261169,32.533844,-146.262894,,,
729861485.056326,0.99627,1.754814,124.676597,-0.03302,0.016632,0.994705,-0.017082,0.065307,-0.012083,66.261169,32.533844,-146.262894,,,
729861485.059671,0.99627,1.754814,124.676597,-0.03302,0.016632,0.994705,-0.017082,0.065307,-0.012083,66.261169,32.533844,-146.262894,,,
729861485.06299,0.988598,1.767799,124.671423,-0.03302,0.016632,0.994705,-0.017082,0.065307,-0.012083,66.109146,32.752274,-146.424973,,,
729861485.06636,0.988598,1.767799,124.671423,-0.031845,0.021606,0.983521,-0.028076,0.035512,-0.02647,66.109146,32.752274,-146.424973,,,
729861485.069684,0.983473,1.773495,124.664562,-0.031845,0.021606,0.983521,-0.028076,0.035512,-0.02647,66.109146,32.752274,-146.424973,,,
729861485.072981,0.972813,1.777098,124.655777,-0.031845,0.021606,0.983521,-0.028076,0.035512,-0.02647,66.109146,32.752274,-146.424973,,,
729861485.07632,0.972813,1.777098,124.655777,-0.032883,0.02327,0.979141,-0.038365,0.005502,-0.039009,66.109146,32.752274,-146.424973,,,
729861485.079652,0.964698,1.771764,124.645854,-0.032883,0.02327,0.979141,-0.038365,0.005502,-0.039009,66.109146,32.752274,-146.424973,,,
729861485.082983,0.953248,1.77014,124.63542,-0.032883,0.02327,0.979141,-0.038365,0.005502,-0.039009,66.109146,32.752274,-146.424973,,,
729861485.086349,0.953248,1.77014,124.63542,-0.035583,0.021896,0.98732,-0.038516,-0.003857,-0.039838,66.109146,32.752274,-146.424973,,,
729861485.089646,0.943065,1.760525,124.62533,-0.035583,0.021896,0.98732,-0.038516,-0.003857,-0.039838,66.109146,32.752274,-146.424973,,,
729861485.092982,0.932675,1.759786,124.616698,-0.035583,0.021896,0.98732,-0.038516,-0.003857,-0.039838,66.109146,32.752274,-146.424973,,,
729861485.09635,0.932675,1.759786,124.616698,-0.042862,0.01712,0.99881,-0.029961,0.00466,-0.027446,66.109146,32.752274,-146.424973,,,
729861485.099725,0.924567,1.753348,124.610278,-0.042862,0.01712,0.99881,-0.029961,0.00466,-0.027446,66.109146,32.752274,-146.424973,,,
729861485.102995,0.916884,1.755661,124.60623,-0.042862,0.01712,0.99881,-0.029961,0.00466,-0.027446,66.109146,32.752274,-146.424973,,,
729861485.106385,0.916884,1.755661,124.60623,-0.050491,0.00827,1.007858,-0.019805,0.011366,-0.009892,66.291962,32.736328,-145.997726,,,
729861485.109685,0.912035,1.754215,124.605213,-0.050491,0.00827,1.007858,-0.019805,0.011366,-0.009892,66.291962,32.736328,-145.997726,,,
729861485.113061,0.909853,1.758807,124.606013,-0.050491,0.00827,1.007858,-0.019805,0.011366,-0.009892,66.291962,32.736328,-145.997726,,,
729861485.116308,0.909853,1.758807,124.606013,-0.050491,0.00827,1.007858,-0.019805,0.011366,-0.009892,66.291962,32.736328,-145.997726,,,
729861485.119675,0.910202,1.763846,124.60785,-0.047668,0.002548,1.013107,0.002696,0.023607,0.007317,66.291962,32.736328,-145.997726,,,
729861485.123076,0.913862,1.770396,124.610261,-0.047668,0.002548,1.013107,0.002696,0.023607,0.007317,66.291962,32.736328,-145.997726,,,
729861485.126334,0.913862,1.770396,124.610261,-0.047668,0.002548,1.013107,0.019144,0.02462,0.005768,66.291962,32.736328,-145.997726,,,
729861485.129669,0.919733,1.777368,124.612905,-0.043777,0.004211,1.018982,0.019144,0.02462,0.005768,66.291962,32.736328,-145.997726,,,
729861485.132995,0.92719,1.782475,124.615273,-0.043777,0.004211,1.018982,0.019144,0.02462,0.005768,66.291962,32.736328,-145.997726,,,
729861485.13634,0.92719,1.782475,124.615273,-0.037109,0.007065,1.014969,0.026943,0.017148,0.007392,66.291962,32.736328,-145.997726,,,
729861485.139651,0.93567,1.786663,124.616614,-0.037109,0.007065,1.014969,0.026943,0.017148,0.007392,66.291962,32.736328,-145.997726,,,
729861485.143052,0.943298,1.788678,124.616792,-0.037109,0.007065,1.014969,0.026943,0.017148,0.007392,66.291962,32.736328,-145.997726,,,
729861485.146438,0.943298,1.788678,124.616792,-0.029388,0.01355,1.003876,0.024963,0.007017,-0.00177,66.198166,32.780319,-146.537476,,,
729861485.149733,0.951823,1.790346,124.616,-0.029388,0.01355,1.003876,0.024963,0.007017,-0.00177,66.198166,32.780319,-146.537476,,,
729861485.153012,0.957062,1.791559,124.614975,-0.029388,0.01355,1.003876,0.024963,0.007017,-0.00177,66.198166,32.780319,-146.537476,,,
729861485.156387,0.957062,1.791559,124.614975,-0.029388,0.01355,1.003876,0.024963,0.007017,-0.00177,66.198166,32.780319,-146.537476,,,
729861485.159679,0.961925,1.79383,124.614691,-0.027939,0.020462,0.995605,0.011109,0.006246,-0.004063,66.198166,32.780319,-146.537476,,,
729861485.163069,0.96307,1.795495,124.615508,-0.027939,0.020462,0.995605,0.011109,0.006246,-0.004063,66.198166,32.780319,-146.537476,,,
729861485.16635,0.96307,1.795495,124.615508,-0.027939,0.020462,0.995605,-0.002313,0.01022,0.005612,66.198166,32.780319,-146.537476,,,
729861485.169661,0.963545,1.800036,124.617523,-0.02916,0.023224,0.991135,-0.002313,0.01022,0.005612,66.198166,32.780319,-146.537476,,,
729861485.17299,0.961071,1.80328,124.620333,-0.02916,0.023224,0.991135,-0.002313,0.01022,0.005612,66.198166,32.780319,-146.537476,,,
729861485.176365,0.961071,1.80328,124.620333,-0.02916,0.023224,0.991135,-0.013271,0.016298,0.009936,66.198166,32.780319,-146.537476,,,
729861485.179659,0.955878,1.811923,124.623748,-0.029602,0.02356,0.992813,-0.013271,0.016298,0.009936,66.198166,32.780319,-146.537476,,,
729861485.182985,0.950693,1.815092,124.628009,-0.029602,0.02356,0.992813,-0.013271,0.016298,0.009936,66.198166,32.780319,-146.537476,,,
729861485.186319,0.950693,1.815092,124.628009,-0.029602,0.02356,0.992813,-0.019418,0.014007,0.014296,66.252411,32.80603,-146.168716,,,
729861485.189659,0.94175,1.823747,124.632374,-0.027588,0.022675,0.994095,-0.019418,0.014007,0.014296,66.252411,32.80603,-146.168716,,,
729861485.192985,0.935686,1.824806,124.636371,-0.027588,0.022675,0.994095,-0.019418,0.014007,0.014296,66.252411,32.80603,-146.168716,,,
729861485.196386,0.935686,1.824806,124.636371,-0.027588,0.022675,0.994095,-0.019418,0.014007,0.014296,66.252411,32.80603,-146.168716,,,
729861485.199734,0.925832,1.828586,124.639667,-0.025711,0.022675,0.993256,-0.020847,0.002125,0.010523,66.252411,32.80603,-146.168716,,,
729861485.202986,0.919088,1.826483,124.642087,-0.025711,0.022675,0.993256,-0.020847,0.002125,0.010523,66.252411,32.80603,-146.168716,,,
729861485.206348,0.919088,1.826483,124.642087,-0.025711,0.022675,0.993256,-0.020847,0.002125,0.010523,66.252411,32.80603,-146.168716,,,
729861485.209677,0.910009,1.826649,124.642806,-0.019501,0.02121,0.994598,-0.020263,-0.006913,0.000826,66.252411,32.80603,-146.168716,,,
729861485.212984,0.905329,1.823613,124.642365,-0.019501,0.02121,0.994598,-0.020263,-0.006913,0.000826,66.252411,32.80603,-146.168716,,,
729861485.216414,0.905329,1.823613,124.642365,-0.019501,0.02121,0.994598,-0.020263,-0.006913,0.000826,66.252411,32.80603,-146.168716,,,
729861485.219665,0.900119,1.82139,124.640961,-0.018112,0.021255,1.000183,-0.011006,-0.008911,-0.006806,66.252411,32.80603,-146.168716,,,
729861485.223079,0.898008,1.820064,124.638996,-0.018112,0.021255,1.000183,-0.011006,-0.008911,-0.006806,66.252411,32.80603,-146.168716,,,
729861485.226415,0.898008,1.820064,124.638996,-0.018112,0.021255,1.000183,-0.011006,-0.008911,-0.006806,66.456848,32.834808,-146.274902,,,
729861485.229655,0.897456,1.819741,124.636592,-0.018753,0.01767,1.008118,-0.000735,0.003982,-0.010013,66.456848,32.834808,-146.274902,,,
729861485.232984,0.899332,1.823928,124.634195,-0.018753,0.01767,1.008118,-0.000735,0.003982,-0.010013,66.456848,32.834808,-146.274902,,,
729861485.236359,0.899332,1.823928,124.634195,-0.018753,0.01767,1.008118,-0.000735,0.003982,-0.010013,66.456848,32.834808,-146.274902,,,
729861485.239647,0.905673,1.830104,124.632721,-0.022736,0.015503,1.01297,0.013946,0.027419,-0.004336,66.456848,32.834808,-146.274902,,,
729861485.242985,0.911785,1.841038,124.632102,-0.022736,0.015503,1.01297,0.013946,0.027419,-0.004336,66.456848,32.834808,-146.274902,,,
729861485.24639,0.911785,1.841038,124.632102,-0.022736,0.015503,1.01297,0.013946,0.027419,-0.004336,66.456848,32.834808,-146.274902,,,
729861485.249727,0.919851,1.854091,124.631933,-0.027267,0.015137,1.02002,0.022596,0.050626,-0.00173,66.456848,32.834808,-146.274902,,,
729861485.252983,0.924725,1.868968,124.632101,-0.027267,0.015137,1.02002,0.022596,0.050626,-0.00173,66.456848,32.834808,-146.274902,,,
729861485.256416,0.924725,1.868968,124.632101,-0.027267,0.015137,1.02002,0.022596,0.050626,-0.00173,66.456848,32.834808,-146.274902,,,
729861485.259674,0.929125,1.881477,124.632644,-0.032913,0.018494,1.01004,0.011708,0.054159,0.000394,66.456848,32.834808,-146.274902,,,
729861485.262994,0.927807,1.893722,124.633228,-0.032913,0.018494,1.01004,0.011708,0.054159,0.000394,66.456848,32.834808,-146.274902,,,
729861485.266406,0.927807,1.893722,124.633228,-0.032913,0.018494,1.01004,0.011708,0.054159,0.000394,66.456848,32.834808,-146.274902,,,
729861485.269682,0.925043,1.901384,124.633694,-0.037308,0.021286,0.992371,-0.015449,0.039606,0.000893,66.58876,32.760117,-146.238434,,,
729861485.273045,0.917412,1.906443,124.63403,-0.037308,0.021286,0.992371,-0.015449,0.039606,0.000893,66.58876,32.760117,-146.238434,,,
729861485.276425,0.917412,1.906443,124.63403,-0.037308,0.021286,0.992371,-0.015449,0.039606,0.000893,66.58876,32.760117,-146.238434,,,
729861485.279681,0.909683,1.903662,124.634567,-0.039398,0.022278,0.984695,-0.032441,0.00842,-0.001207,66.58876,32.760117,-146.238434,,,
729861485.282999,0.900297,1.9,124.634935,-0.039398,0.022278,0.984695,-0.032441,0.00842,-0.001207,66.58876,32.760117,-146.238434,,,
729861485.286478,0.900297,1.9,124.634935,-0.039398,0.022278,0.984695,-0.032441,0.00842,-0.001207,66.58876,32.760117,-146.238434,,,
729861485.289639,0.893019,1.888497,124.635463,-0.043137,0.017502,0.991943,-0.03059,-0.017712,-0.003306,66.58876,32.760117,-146.238434,,,
729861485.292996,0.886365,1.879142,124.635625,-0.043137,0.017502,0.991943,-0.03059,-0.017712,-0.003306,66.58876,32.760117,-146.238434,,,
729861485.296336,0.886365,1.879142,124.635625,-0.043137,0.017502,0.991943,-0.03059,-0.017712,-0.003306,66.58876,32.760117,-146.238434,,,
729861485.299712,0.883206,1.86278,124.634784,-0.040878,0.011673,1.006424,-0.01476,-0.035714,-0.0017,66.58876,32.760117,-146.238434,,,
729861485.302987,0.880782,1.851875,124.632518,-0.040878,0.011673,1.006424,-0.01476,-0.035714,-0.0017,66.58876,32.760117,-146.238434,,,
729861485.306346,0.880782,1.851875,124.632518,-0.040878,0.011673,1.006424,-0.01476,-0.035714,-0.0017,66.58876,32.760117,-146.238434,,,
729861485.309686,0.881509,1.839266,124.628874,-0.0336,0.0112,1.017075,-7.9e-05,-0.030854,-0.011134,66.480499,32.583054,-146.39296,,,
729861485.312989,0.885039,1.83377,124.623865,-0.0336,0.0112,1.017075,-7.9e-05,-0.030854,-0.011134,66.480499,32.583054,-146.39296,,,
729861485.316333,0.885039,1.83377,124.623865,-0.0336,0.0112,1.017075,-7.9e-05,-0.030854,-0.011134,66.480499,32.583054,-146.39296,,,
729861485.319656,0.891201,1.829293,124.618638,-0.031677,0.013428,1.02037,0.020922,-0.007645,-0.017562,66.480499,32.583054,-146.39296,,,
729861485.322991,0.900346,1.831665,124.614609,-0.031677,0.013428,1.02037,0.020922,-0.007645,-0.017562,66.480499,32.583054,-146.39296,,,
729861485.326437,0.900346,1.831665,124.614609,-0.031677,0.013428,1.02037,0.020922,-0.007645,-0.017562,66.480499,32.583054,-146.39296,,,
729861485.329662,0.912036,1.836779,124.612504,-0.035889,0.009857,1.0233,0.040646,0.020817,-0.009534,66.480499,32.583054,-146.39296,,,
729861485.332995,0.925305,1.846148,124.612699,-0.035889,0.009857,1.0233,0.040646,0.020817,-0.009534,66.480499,32.583054,-146.39296,,,
729861485.336335,0.925305,1.846148,124.612699,-0.035889,0.009857,1.0233,0.040646,0.020817,-0.009534,66.480499,32.583054,-146.39296,,,
729861485.339682,0.941554,1.85928,124.615882,-0.046875,0.006165,1.014465,0.04921,0.044695,0.009307,66.480499,32.583054,-146.39296,,,
729861485.343001,0.958443,1.873616,124.622444,-0.046875,0.006165,1.014465,0.04921,0.044695,0.009307,66.480499,32.583054,-146.39296,,,
729861485.346318,0.958443,1.873616,124.622444,-0.046875,0.006165,1.014465,0.04921,0.044695,0.009307,66.480499,32.583054,-146.39296,,,
729861485.349657,0.977675,1.88936,124.631536,-0.053894,0.004547,1.007416,0.058399,0.053586,0.031137,66.272873,32.832977,-146.319992,,,
729861485.352981,0.996118,1.900188,124.641665,-0.053894,0.004547,1.007416,0.058399,0.053586,0.031137,66.272873,32.832977,-146.319992,,,
729861485.356322,0.996118,1.900188,124.641665,-0.053894,0.004547,1.007416,0.058399,0.053586,0.031137,66.272873,32.832977,-146.319992,,,
729861485.359669,1.01654,1.909738,124.651436,-0.054276,0.005386,1.003616,0.066138,0.03061,0.036193,66.272873,32.832977,-146.319992,,,
729861485.362988,1.036257,1.910875,124.659988,-0.054276,0.005386,1.003616,0.066138,0.03061,0.036193,66.272873,32.832977,-146.319992,,,
729861485.366382,1.036257,1.910875,124.659988,-0.054276,0.005386,1.003616,0.066138,0.03061,0.036193,66.272873,32.832977,-146.319992,,,
729861485.36966,1.055329,1.909467,124.666941,-0.045837,0.01178,0.989517,0.071263,-0.006508,0.026255,66.272873,32.832977,-146.319992,,,
729861485.372981,1.07528,1.89995,124.672292,-0.045837,0.01178,0.989517,0.071263,-0.006508,0.026255,66.272873,32.832977,-146.319992,,,
729861485.376339,1.07528,1.89995,124.672292,-0.045837,0.01178,0.989517,0.071263,-0.006508,0.026255,66.272873,32.832977,-146.319992,,,
729861485.379739,1.092036,1.887759,124.676235,-0.038055,0.020645,0.982925,0.067207,-0.044033,0.018066,66.272873,32.832977,-146.319992,,,
729861485.382985,1.109438,1.871248,124.679435,-0.038055,0.020645,0.982925,0.067207,-0.044033,0.018066,66.272873,32.832977,-146.319992,,,
729861485.38634,1.109438,1.871248,124.679435,-0.038055,0.020645,0.982925,0.067207,-0.044033,0.018066,66.272873,32.832977,-146.319992,,,
729861485.389744,1.122551,1.853611,124.681621,-0.033386,0.024796,0.976532,0.056491,-0.057253,0.010612,66.272873,32.832977,-146.319992,,,
729861485.392984,1.134284,1.838702,124.683214,-0.033386,0.024796,0.976532,0.056491,-0.057253,0.010612,66.393768,32.744232,-146.331223,,,
729861485.396353,1.134284,1.838702,124.683214,-0.033386,0.024796,0.976532,0.056491,-0.057253,0.010612,66.393768,32.744232,-146.331223,,,
729861485.399675,1.141391,1.827332,124.685365,-0.029541,0.028214,0.973679,0.036702,-0.042507,0.007031,66.393768,32.744232,-146.331223,,,
729861485.402991,1.147367,1.82092,124.688144,-0.029541,0.028214,0.973679,0.036702,-0.042507,0.007031,66.393768,32.744232,-146.331223,,,
729861485.406319,1.147367,1.82092,124.688144,-0.029541,0.028214,0.973679,0.036702,-0.042507,0.007031,66.393768,32.744232,-146.331223,,,
729861485.409678,1.147792,1.822317,124.69173,-0.023926,0.02626,0.974396,0.012561,-0.005948,0.013113,66.393768,32.744232,-146.331223,,,
729861485.412985,1.149588,1.826767,124.69587,-0.023926,0.02626,0.974396,0.012561,-0.005948,0.013113,66.393768,32.744232,-146.331223,,,
729861485.416389,1.149588,1.826767,124.69587,-0.023926,0.02626,0.974396,0.012561,-0.005948,0.013113,66.393768,32.744232,-146.331223,,,
729861485.419661,1.145734,1.842368,124.700302,-0.020233,0.0242,0.9823,0.001206,0.031173,0.015309,66.393768,32.744232,-146.331223,,,
729861485.422994,1.145903,1.856678,124.705298,-0.020233,0.0242,0.9823,0.001206,0.031173,0.015309,66.393768,32.744232,-146.331223,,,
729861485.426341,1.145903,1.856678,124.705298,-0.020233,0.0242,0.9823,0.001206,0.031173,0.015309,66.393768,32.744232,-146.331223,,,
729861485.429657,1.14231,1.8823,124.709529,-0.018188,0.022598,0.985413,0.000903,0.061429,0.015701,66.393768,32.744232,-146.331223,,,
729861485.433045,1.144061,1.902779,124.713106,-0.018188,0.022598,0.985413,0.000903,0.061429,0.015701,66.620972,32.551941,-146.398438,,,
729861485.436338,1.144061,1.902779,124.713106,-0.018188,0.022598,0.985413,0.000903,0.061429,0.015701,66.620972,32.551941,-146.398438,,,
729861485.439665,1.143903,1.931034,124.715422,-0.017776,0.020615,0.988998,0.012289,0.078263,0.008883,66.620972,32.551941,-146.398438,,,
729861485.442993,1.147799,1.953316,124.716994,-0.017776,0.020615,0.988998,0.012289,0.078263,0.008883,66.620972,32.551941,-146.398438,,,
729861485.446332,1.147799,1.953316,124.716994,-0.017776,0.020615,0.988998,0.012289,0.078263,0.008883,66.620972,32.551941,-146.398438,,,
729861485.449673,1.151732,1.977589,124.718343,-0.023727,0.019638,0.991516,0.020047,0.076556,0.005734,66.620972,32.551941,-146.398438,,,
729861485.452992,1.157523,1.996473,124.719033,-0.023727,0.019638,0.991516,0.020047,0.076556,0.005734,66.620972,32.551941,-146.398438,,,
729861485.456323,1.157523,1.996473,124.719033,-0.023727,0.019638,0.991516,0.020047,0.076556,0.005734,66.620972,32.551941,-146.398438,,,
729861485.459688,1.164757,2.012398,124.718989,-0.029541,0.02182,0.989258,0.024454,0.058418,-0.000581,66.620972,32.551941,-146.398438,,,
729861485.462991,1.171294,2.023061,124.71872,-0.029541,0.02182,0.989258,0.024454,0.058418,-0.000581,66.620972,32.551941,-146.398438,,,
729861485.46641,1.171294,2.023061,124.71872,-0.029541,0.02182,0.989258,0.024454,0.058418,-0.000581,66.620972,32.551941,-146.398438,,,
729861485.469672,1.178481,2.028705,124.717905,-0.036575,0.022522,0.986053,0.022,0.031702,-0.003736,66.620972,32.551941,-146.398438,,,
729861485.472995,1.182082,2.032,124.716965,-0.036575,0.022522,0.986053,0.022,0.031702,-0.003736,66.668808,32.531494,-146.2444,,,
729861485.476338,1.182082,2.032,124.716965,-0.036575,0.022522,0.986053,0.022,0.031702,-0.003736,66.668808,32.531494,-146.2444,,,
729861485.479736,1.185122,2.030152,124.716589,-0.041336,0.025223,0.977661,0.008093,0.007457,-0.001814,66.668808,32.531494,-146.2444,,,
729861485.482985,1.182841,2.028388,124.716666,-0.041336,0.025223,0.977661,0.008093,0.007457,-0.001814,66.668808,32.531494,-146.2444,,,
729861485.486341,1.182841,2.028388,124.716666,-0.041336,0.025223,0.977661,0.008093,0.007457,-0.001814,66.668808,32.531494,-146.2444,,,
729861485.489659,1.178437,2.02186,124.717413,-0.042542,0.025925,0.974457,-0.013962,-0.006082,-0.00081,66.668808,32.531494,-146.2444,,,
729861485.492993,1.169966,2.017155,124.719051,-0.042542,0.025925,0.974457,-0.013962,-0.006082,-0.00081,66.668808,32.531494,-146.2444,,,
729861485.496339,1.169966,2.017155,124.719051,-0.042542,0.025925,0.974457,-0.013962,-0.006082,-0.00081,66.668808,32.531494,-146.2444,,,
729861485.499669,1.159596,2.008591,124.721334,-0.045135,0.025284,0.974396,-0.035314,-0.015828,0.005529,66.668808,32.531494,-146.2444,,,
729861485.503014,1.14708,2.003295,124.723661,-0.045135,0.025284,0.974396,-0.035314,-0.015828,0.005529,66.668808,32.531494,-146.2444,,,
729861485.506349,1.14708,2.003295,124.723661,-0.045135,0.025284,0.974396,-0.035314,-0.015828,0.005529,66.668808,32.531494,-146.2444,,,
729861485.509681,1.134494,1.995511,124.725803,-0.041245,0.021866,0.980087,-0.04628,-0.015936,0.00332,66.668808,32.531494,-146.2444,,,
729861485.512995,1.120912,1.992178,124.727065,-0.041245,0.021866,0.980087,-0.04628,-0.015936,0.00332,66.807968,32.548294,-146.499832,,,
729861485.516414,1.120912,1.992178,124.727065,-0.041245,0.021866,0.980087,-0.04628,-0.015936,0.00332,66.807968,32.548294,-146.499832,,,
729861485.519659,1.107742,1.987324,124.727874,-0.036758,0.019409,0.993668,-0.046296,-0.006102,0.000609,66.807968,32.548294,-146.499832,,,
729861485.52299,1.095875,1.98712,124.728473,-0.036758,0.019409,0.993668,-0.046296,-0.006102,0.000609,66.807968,32.548294,-146.499832,,,
729861485.52633,1.095875,1.98712,124.728473,-0.036758,0.019409,0.993668,-0.046296,-0.006102,0.000609,66.807968,32.548294,-146.499832,,,
729861485.52971,1.085206,1.987238,124.728389,-0.036087,0.017471,1.004242,-0.038174,0.006768,-0.001269,66.807968,32.548294,-146.499832,,,
729861485.532987,1.07536,1.990748,124.727706,-0.036087,0.017471,1.004242,-0.038174,0.006768,-0.001269,66.807968,32.548294,-146.499832,,,
729861485.536329,1.07536,1.990748,124.727706,-0.036087,0.017471,1.004242,-0.038174,0.006768,-0.001269,66.807968,32.548294,-146.499832,,,
729861485.539661,1.068351,1.995684,124.727276,-0.0354,0.01709,1.01265,-0.026761,0.019337,-0.004303,66.807968,32.548294,-146.499832,,,
729861485.542988,1.062704,2.003364,124.727205,-0.0354,0.01709,1.01265,-0.026761,0.019337,-0.004303,66.807968,32.548294,-146.499832,,,
729861485.54633,1.062704,2.003364,124.727205,-0.0354,0.01709,1.01265,-0.026761,0.019337,-0.004303,66.807968,32.548294,-146.499832,,,
729861485.549666,1.059735,2.014799,124.727352,-0.038116,0.021164,1.0177,-0.01391,0.034767,-0.001827,66.807968,32.548294,-146.499832,,,
729861485.552992,1.056974,2.026497,124.727694,-0.038116,0.021164,1.0177,-0.01391,0.034767,-0.001827,66.807968,32.548294,-146.499832,,,
729861485.556319,1.056974,2.026497,124.727694,-0.038116,0.021164,1.0177,-0.01391,0.034767,-0.001827,66.577057,32.903824,-146.252136,,,
729861485.559676,1.057484,2.041533,124.728403,-0.042145,0.026474,1.015305,-0.006848,0.046917,0.00076,66.577057,32.903824,-146.252136,,,
729861485.56299,1.05663,2.053269,124.730045,-0.042145,0.026474,1.015305,-0.006848,0.046917,0.00076,66.577057,32.903824,-146.252136,,,
729861485.566409,1.05663,2.053269,124.730045,-0.042145,0.026474,1.015305,-0.006848,0.046917,0.00076,66.577057,32.903824,-146.252136,,,
729861485.569669,1.057995,2.065244,124.732939,-0.048752,0.028015,1.003479,-0.004549,0.037931,0.006142,66.577057,32.903824,-146.252136,,,
729861485.572995,1.055916,2.070266,124.737184,-0.048752,0.028015,1.003479,-0.004549,0.037931,0.006142,66.577057,32.903824,-146.252136,,,
729861485.576322,1.055916,2.070266,124.737184,-0.048752,0.028015,1.003479,-0.004549,0.037931,0.006142,66.577057,32.903824,-146.252136,,,
729861485.57974,1.052486,2.073832,124.742629,-0.057404,0.025894,0.98645,-0.01307,0.009492,0.015797,66.577057,32.903824,-146.252136,,,
729861485.582987,1.043716,2.068923,124.749496,-0.057404,0.025894,0.98645,-0.01307,0.009492,0.015797,66.577057,32.903824,-146.252136,,,
729861485.58634,1.043716,2.068923,124.749496,-0.057404,0.025894,0.98645,-0.01307,0.009492,0.015797,66.577057,32.903824,-146.252136,,,
729861485.589684,1.031603,2.060484,124.757092,-0.061127,0.023911,0.971481,-0.042478,-0.024847,0.023171,66.577057,32.903824,-146.252136,,,
729861485.592989,1.01511,2.047618,124.76529,-0.061127,0.023911,0.971481,-0.042478,-0.024847,0.023171,66.577057,32.903824,-146.252136,,,
729861485.596325,1.01511,2.047618,124.76529,-0.061127,0.023911,0.971481,-0.042478,-0.024847,0.023171,66.494049,32.823761,-146.283218,,,
729861485.599658,0.997462,2.032494,124.774198,-0.05983,0.021423,0.975281,-0.062462,-0.048927,0.028955,66.494049,32.823761,-146.283218,,,
729861485.602994,0.980561,2.016571,124.78388,-0.05983,0.021423,0.975281,-0.062462,-0.048927,0.028955,66.494049,32.823761,-146.283218,,,
729861485.606324,0.980561,2.016571,124.78388,-0.05983,0.021423,0.975281,-0.062462,-0.048927,0.028955,66.494049,32.823761,-146.283218,,,
729861485.609659,0.965938,2.000921,124.794403,-0.053467,0.014893,0.993927,-0.052649,-0.051541,0.03332,66.494049,32.823761,-146.283218,,,
729861485.612993,0.95331,1.987265,124.805321,-0.053467,0.014893,0.993927,-0.052649,-0.051541,0.03332,66.494049,32.823761,-146.283218,,,
729861485.616403,0.95331,1.987265,124.805321,-0.053467,0.014893,0.993927,-0.052649,-0.051541,0.03332,66.494049,32.823761,-146.283218,,,
729861485.619656,0.943781,1.977507,124.81653,-0.047195,0.009186,1.014328,-0.038032,-0.037077,0.035676,66.494049,32.823761,-146.283218,,,
729861485.62299,0.93807,1.971668,124.828791,-0.047195,0.009186,1.014328,-0.038032,-0.037077,0.035676,66.494049,32.823761,-146.283218,,,
729861485.62634,0.93807,1.971668,124.828791,-0.047195,0.009186,1.014328,-0.038032,-0.037077,0.035676,66.494049,32.823761,-146.283218,,,
729861485.629739,0.938602,1.971597,124.842744,-0.040146,0.006851,1.02597,-0.008102,-0.003457,0.047443,66.494049,32.823761,-146.283218,,,
729861485.632985,0.94135,1.97399,124.858298,-0.040146,0.006851,1.02597,-0.008102,-0.003457,0.047443,66.494049,32.823761,-146.283218,,,
729861485.636329,0.94135,1.97399,124.858298,-0.040146,0.006851,1.02597,-0.008102,-0.003457,0.047443,66.518066,32.878937,-146.38266,,,
729861485.639676,0.950137,1.98262,124.875383,-0.039551,0.003494,1.028641,0.018934,0.018576,0.056641,66.518066,32.878937,-146.38266,,,
729861485.642993,0.958186,1.989298,124.893897,-0.039551,0.003494,1.028641,0.018934,0.018576,0.056641,66.518066,32.878937,-146.38266,,,
729861485.646336,0.958186,1.989298,124.893897,-0.039551,0.003494,1.028641,0.018934,0.018576,0.056641,66.518066,32.878937,-146.38266,,,
729861485.649671,0.969518,2.000891,124.913244,-0.036575,0.003952,1.016434,0.028602,0.025797,0.068334,66.518066,32.878937,-146.38266,,,
729861485.65299,0.977937,2.003812,124.933279,-0.036575,0.003952,1.016434,0.028602,0.025797,0.068334,66.518066,32.878937,-146.38266,,,
729861485.656325,0.977937,2.003812,124.933279,-0.036575,0.003952,1.016434,0.028602,0.025797,0.068334,66.518066,32.878937,-146.38266,,,
729861485.659723,0.987897,2.011418,124.952433,-0.033005,0.00766,0.997421,0.027285,0.006242,0.068849,66.518066,32.878937,-146.38266,,,
729861485.662989,0.993821,2.006508,124.969908,-0.033005,0.00766,0.997421,0.027285,0.006242,0.068849,66.518066,32.878937,-146.38266,,,
729861485.666375,0.993821,2.006508,124.969908,-0.033005,0.00766,0.997421,0.027285,0.006242,0.068849,66.518066,32.878937,-146.38266,,,
729861485.669674,0.999192,2.007455,124.985023,-0.023682,0.012985,0.98526,0.01357,-0.0237,0.055671,66.518066,32.878937,-146.38266,,,
729861485.672995,1.000304,1.996102,124.997465,-0.023682,0.012985,0.98526,0.01357,-0.0237,0.055671,66.518066,32.878937,-146.38266,,,
729861485.676376,1.000304,1.996102,124.997465,-0.023682,0.012985,0.98526,0.01357,-0.0237,0.055671,66.50325,32.959335,-145.873932,,,
729861485.679727,0.999377,1.99145,125.007188,-0.010956,0.020187,0.977982,-0.002572,-0.041333,0.035283,66.50325,32.959335,-145.873932,,,
729861485.682984,0.995294,1.978374,125.014163,-0.010956,0.020187,0.977982,-0.002572,-0.041333,0.035283,66.50325,32.959335,-145.873932,,,
729861485.686369,0.995294,1.978374,125.014163,-0.010956,0.020187,0.977982,-0.002572,-0.041333,0.035283,66.50325,32.959335,-145.873932,,,
729861485.689654,0.987546,1.971441,125.017738,-0.001465,0.027115,0.981308,-0.020784,-0.042001,0.01441,66.50325,32.959335,-145.873932,,,
729861485.692989,0.980052,1.960425,125.018446,-0.001465,0.027115,0.981308,-0.020784,-0.042001,0.01441,66.50325,32.959335,-145.873932,,,
729861485.696343,0.980052,1.960425,125.018446,-0.001465,0.027115,0.981308,-0.020784,-0.042001,0.01441,66.50325,32.959335,-145.873932,,,
729861485.699666,0.969928,1.955491,125.016474,0.004623,0.027679,0.98793,-0.027453,-0.028966,-0.007658,66.50325,32.959335,-145.873932,,,
729861485.702993,0.962354,1.952254,125.012559,0.004623,0.027679,0.98793,-0.027453,-0.028966,-0.007658,66.50325,32.959335,-145.873932,,,
729861485.706369,0.962354,1.952254,125.012559,0.004623,0.027679,0.98793,-0.027453,-0.028966,-0.007658,66.50325,32.959335,-145.873932,,,
729861485.709647,0.953311,1.95506,125.007826,0.005524,0.023071,0.997894,-0.021343,0.004023,-0.01858,66.50325,32.959335,-145.873932,,,
729861485.712988,0.948912,1.961206,125.003776,0.005524,0.023071,0.997894,-0.021343,0.004023,-0.01858,66.50325,32.959335,-145.873932,,,
729861485.716411,0.948912,1.961206,125.003776,0.005524,0.023071,0.997894,-0.021343,0.004023,-0.01858,66.50325,32.959335,-145.873932,,,
729861485.719676,0.943719,1.972905,125.000463,-0.002991,0.014343,1.010727,-0.008154,0.035678,-0.01687,66.412079,32.922516,-146.12851,,,
729861485.723024,0.942865,1.986698,124.998077,-0.002991,0.014343,1.010727,-0.008154,0.035678,-0.01687,66.412079,32.922516,-146.12851,,,
729861485.726181,0.942865,1.986698,124.998077,-0.002991,0.014343,1.010727,-0.008154,0.035678,-0.01687,66.412079,32.922516,-146.12851,,,
729861485.729806,0.940425,2.002718,124.996771,-0.012772,0.007584,1.013275,0.001716,0.057145,-0.006238,66.412079,32.922516,-146.12851,,,
729861485.733053,0.940908,2.020034,124.996604,-0.012772,0.007584,1.013275,0.001716,0.057145,-0.006238,66.412079,32.922516,-146.12851,,,
729861485.736342,0.940908,2.020034,124.996604,-0.012772,0.007584,1.013275,0.001716,0.057145,-0.006238,66.412079,32.922516,-146.12851,,,
729861485.739661,0.94037,2.034825,124.997712,-0.021805,0.005157,1.008987,0.002641,0.061748,0.002296,66.412079,32.922516,-146.12851,,,
729861485.742996,0.941775,2.048476,124.999477,-0.021805,0.005157,1.008987,0.002641,0.061748,0.002296,66.412079,32.922516,-146.12851,,,
729861485.746335,0.941775,2.048476,124.999477,-0.021805,0.005157,1.008987,0.002641,0.061748,0.002296,66.412079,32.922516,-146.12851,,,
729861485.749673,0.942922,2.052455,125.001174,-0.027756,0.007294,1.00235,0.002551,0.042163,0.007413,66.412079,32.922516,-146.12851,,,
729861485.752993,0.943587,2.05783,125.001993,-0.027756,0.007294,1.00235,0.002551,0.042163,0.007413,66.412079,32.922516,-146.12851,,,
729861485.756356,0.943587,2.05783,125.001993,-0.027756,0.007294,1.00235,0.002551,0.042163,0.007413,66.412079,32.922516,-146.12851,,,
729861485.75966,0.944866,2.050451,125.001085,-0.027115,0.012741,0.992493,-0.002576,0.014099,-0.004246,66.641083,32.809036,-146.142075,,,
729861485.762997,0.942526,2.049947,124.997212,-0.027115,0.012741,0.992493,-0.002576,0.014099,-0.004246,66.641083,32.809036,-146.142075,,,
729861485.766408,0.942526,2.049947,124.997212,-0.027115,0.012741,0.992493,-0.002576,0.014099,-0.004246,66.641083,32.809036,-146.142075,,,
729861485.769679,0.941079,2.034277,124.990974,-0.021591,0.020706,0.990021,-0.010574,-0.008549,-0.022217,66.641083,32.809036,-146.142075,,,
729861485.772987,0.935272,2.028879,124.982613,-0.021591,0.020706,0.990021,-0.010574,-0.008549,-0.022217,66.641083,32.809036,-146.142075,,,
729861485.776347,0.935272,2.028879,124.982613,-0.021591,0.020706,0.990021,-0.010574,-0.008549,-0.022217,66.641083,32.809036,-146.142075,,,
729861485.779717,0.931778,2.009229,124.973064,-0.018143,0.021057,0.985901,-0.021081,-0.018852,-0.035057,66.641083,32.809036,-146.142075,,,
729861485.782981,0.925561,2.004432,124.962515,-0.018143,0.021057,0.985901,-0.021081,-0.018852,-0.035057,66.641083,32.809036,-146.142075,,,
729861485.786335,0.925561,2.004432,124.962515,-0.018143,0.021057,0.985901,-0.021081,-0.018852,-0.035057,66.641083,32.809036,-146.142075,,,
729861485.789656,0.920534,1.989046,124.952663,-0.022491,0.018951,0.995544,-0.017946,-0.009914,-0.036797,66.641083,32.809036,-146.142075,,,
729861485.792988,0.915663,1.988325,124.943252,-0.022491,0.018951,0.995544,-0.017946,-0.009914,-0.036797,66.641083,32.809036,-146.142075,,,
729861485.796332,0.915663,1.988325,124.943252,-0.022491,0.018951,0.995544,-0.017946,-0.009914,-0.036797,66.641083,32.809036,-146.142075,,,
729861485.799661,0.911268,1.980803,124.934762,-0.028702,0.015305,1.0065,-0.011101,0.007627,-0.031199,66.688629,32.855209,-146.117386,,,
729861485.80298,0.909481,1.986062,124.926681,-0.028702,0.015305,1.0065,-0.011101,0.007627,-0.031199,66.688629,32.855209,-146.117386,,,
729861485.806325,0.909481,1.986062,124.926681,-0.028702,0.015305,1.0065,-0.011101,0.007627,-0.031199,66.688629,32.855209,-146.117386,,,
729861485.809659,0.907111,1.987951,124.918886,-0.034805,0.012039,1.013229,0.000236,0.026164,-0.028467,66.688629,32.855209,-146.117386,,,
729861485.812989,0.908956,1.997577,124.911253,-0.034805,0.012039,1.013229,0.000236,0.026164,-0.028467,66.688629,32.855209,-146.117386,,,
729861485.816345,0.908956,1.997577,124.911253,-0.034805,0.012039,1.013229,0.000236,0.026164,-0.028467,66.688629,32.855209,-146.117386,,,
729861485.81975,0.908347,2.004588,124.903686,-0.038437,0.013809,1.014175,0.009922,0.040011,-0.026778,66.688629,32.855209,-146.117386,,,
729861485.823004,0.910278,2.015736,124.896416,-0.038437,0.013809,1.014175,0.009922,0.040011,-0.026778,66.688629,32.855209,-146.117386,,,
729861485.826343,0.910278,2.015736,124.896416,-0.038437,0.013809,1.014175,0.009922,0.040011,-0.026778,66.688629,32.855209,-146.117386,,,
729861485.82973,0.909828,2.024985,124.890178,-0.046402,0.013321,1.006668,0.009214,0.040484,-0.024927,66.688629,32.855209,-146.117386,,,
729861485.833011,0.910634,2.035706,124.885834,-0.046402,0.013321,1.006668,0.009214,0.040484,-0.024927,66.688629,32.855209,-146.117386,,,
729861485.836349,0.910634,2.035706,124.885834,-0.046402,0.013321,1.006668,0.009214,0.040484,-0.024927,66.688629,32.855209,-146.117386,,,
729861485.839698,0.910181,2.042296,124.883718,-0.055862,0.010239,0.998489,-0.001362,0.040616,-0.010539,66.688629,32.855209,-146.117386,,,
729861485.843038,0.908516,2.050431,124.884098,-0.055862,0.010239,0.998489,-0.001362,0.040616,-0.010539,66.637817,32.79039,-146.166504,,,
729861485.846347,0.908516,2.050431,124.884098,-0.055862,0.010239,0.998489,-0.001362,0.040616,-0.010539,66.637817,32.79039,-146.166504,,,
729861485.849674,0.908095,2.049777,124.886694,-0.063583,0.009705,0.993607,-0.007703,0.024967,0.006675,66.637817,32.79039,-146.166504,,,
729861485.853014,0.906985,2.050465,124.890936,-0.063583,0.009705,0.993607,-0.007703,0.024967,0.006675,66.637817,32.79039,-146.166504,,,
729861485.856328,0.906985,2.050465,124.890936,-0.063583,0.009705,0.993607,-0.007703,0.024967,0.006675,66.637817,32.79039,-146.166504,,,
729861485.859661,0.908305,2.041512,124.896488,-0.065948,0.011566,0.991547,-0.002593,-0.005589,0.017555,66.637817,32.79039,-146.166504,,,
729861485.863034,0.909878,2.035048,124.901826,-0.065948,0.011566,0.991547,-0.002593,-0.005589,0.017555,66.637817,32.79039,-146.166504,,,
729861485.866391,0.909878,2.035048,124.901826,-0.065948,0.011566,0.991547,-0.002593,-0.005589,0.017555,66.637817,32.79039,-146.166504,,,
729861485.869664,0.913899,2.021539,124.906117,-0.057373,0.013046,0.998108,0.011063,-0.028354,0.012808,66.637817,32.79039,-146.166504,,,
729861485.873041,0.920776,2.008388,124.908599,-0.057373,0.013046,0.998108,0.011063,-0.028354,0.012808,66.637817,32.79039,-146.166504,,,
729861485.876324,0.920776,2.008388,124.908599,-0.057373,0.013046,0.998108,0.011063,-0.028354,0.012808,66.637817,32.79039,-146.166504,,,
729861485.879719,0.930537,1.991772,124.909473,-0.048157,0.015915,1.007507,0.031871,-0.047936,0.002917,66.637817,32.79039,-146.166504,,,
729861485.882989,0.943592,1.975593,124.908748,-0.048157,0.015915,1.007507,0.031871,-0.047936,0.002917,66.479584,32.844376,-146.229614,,,
729861485.886337,0.943592,1.975593,124.908748,-0.048157,0.015915,1.007507,0.031871,-0.047936,0.002917,66.479584,32.844376,-146.229614,,,
729861485.889657,0.957575,1.959014,124.907428,-0.041992,0.016678,1.010803,0.053142,-0.054725,-0.004381,66.479584,32.844376,-146.229614,,,
729861485.893043,0.9734,1.942555,124.906664,-0.041992,0.016678,1.010803,0.053142,-0.054725,-0.004381,66.479584,32.844376,-146.229614,,,
729861485.896327,0.9734,1.942555,124.906664,-0.041992,0.016678,1.010803,0.053142,-0.054725,-0.004381,66.479584,32.844376,-146.229614,,,
729861485.899669,0.987747,1.929359,124.906907,-0.041183,0.014755,1.005005,0.059076,-0.050502,-0.000748,66.479584,32.844376,-146.229614,,,
729861485.902988,1.001147,1.915734,124.908736,-0.041183,0.014755,1.005005,0.059076,-0.050502,-0.000748,66.479584,32.844376,-146.229614,,,
729861485.906323,1.001147,1.915734,124.908736,-0.041183,0.014755,1.005005,0.059076,-0.050502,-0.000748,66.479584,32.844376,-146.229614,,,
729861485.909656,1.009865,1.910184,124.911988,-0.040787,0.013657,0.99324,0.039928,-0.038005,0.009912,66.479584,32.844376,-146.229614,,,
729861485.913029,1.015088,1.901949,124.916692,-0.040787,0.013657,0.99324,0.039928,-0.038005,0.009912,66.479584,32.844376,-146.229614,,,
729861485.916333,1.015088,1.901949,124.916692,-0.040787,0.013657,0.99324,0.039928,-0.038005,0.009912,66.479584,32.844376,-146.229614,,,
729861485.919657,1.013495,1.90407,124.922162,-0.036285,0.016891,0.978943,0.005129,-0.021878,0.018548,66.479584,32.844376,-146.229614,,,
729861485.923028,1.009095,1.899556,124.928308,-0.036285,0.016891,0.978943,0.005129,-0.021878,0.018548,66.665527,32.716461,-146.488983,,,
729861485.926329,1.009095,1.899556,124.928308,-0.036285,0.016891,0.978943,0.005129,-0.021878,0.018548,66.665527,32.716461,-146.488983,,,
729861485.929726,0.998157,1.907604,124.93464,-0.03215,0.021469,0.969925,-0.028436,-0.009565,0.021444,66.665527,32.716461,-146.488983,,,
729861485.933021,0.985817,1.906468,124.940642,-0.03215,0.021469,0.969925,-0.028436,-0.009565,0.021444,66.665527,32.716461,-146.488983,,,
729861485.936325,0.985817,1.906468,124.940642,-0.03215,0.021469,0.969925,-0.028436,-0.009565,0.021444,66.665527,32.716461,-146.488983,,,
729861485.939663,0.96973,1.916465,124.945461,-0.02507,0.024063,0.972534,-0.048468,0.00127,0.016655,66.665527,32.716461,-146.488983,,,
729861485.943084,0.953826,1.917926,124.949024,-0.02507,0.024063,0.972534,-0.048468,0.00127,0.016655,66.665527,32.716461,-146.488983,,,
729861485.946318,0.953826,1.917926,124.949024,-0.02507,0.024063,0.972534,-0.048468,0.00127,0.016655,66.665527,32.716461,-146.488983,,,
729861485.949662,0.937516,1.927778,124.950849,-0.016464,0.023178,0.982086,-0.054548,0.013706,0.006197,66.665527,32.716461,-146.488983,,,
729861485.952996,0.923184,1.932492,124.950954,-0.016464,0.023178,0.982086,-0.054548,0.013706,0.006197,66.665527,32.716461,-146.488983,,,
