Time (sec),Pitch (deg),Roll (deg),Yaw(deg),X-Acceleration (g),Y-Acceleration (g),Z-Acceleration (g),Pitch Rate (deg/sec),Roll Rate (deg/sec),Yaw Rate (deg/sec),Magnetic Field in X direction (uT),Magnetic Field in Y direction (uT),Magnetic Field in Z Direction (uT),Latitude (deg),Longitude (deg),Altitude (m)
729863129.716297,0.738805,4.316904,51.333654,-0.094589,0.012741,1.038483,0.039438,0.069104,-0.036969,57.85257,5.026901,-149.703995,,,
729863129.719629,0.738805,4.316904,51.333654,-0.094589,0.012741,1.038483,0.039438,0.069104,-0.036969,57.85257,5.026901,-149.703995,,,
729863129.723094,0.751446,4.33493,51.325225,-0.094589,0.012741,1.038483,0.034831,0.081825,-0.012129,57.85257,5.026901,-149.703995,,,
729863129.726295,0.761413,4.357111,51.320534,-0.105713,0.012573,1.015839,0.034831,0.081825,-0.012129,57.85257,5.026901,-149.703995,,,
729863129.729723,0.761413,4.357111,51.320534,-0.105713,0.012573,1.015839,0.034831,0.081825,-0.012129,57.85257,5.026901,-149.703995,,,
729863129.732981,0.774662,4.373169,51.319527,-0.105713,0.012573,1.015839,0.033887,0.066189,0.006215,57.85257,5.026901,-149.703995,,,
729863129.736307,0.784158,4.392541,51.320579,-0.105179,0.017242,0.994125,0.033887,0.066189,0.006215,58.125839,4.707382,-149.413193,,,
729863129.739633,0.784158,4.392541,51.320579,-0.105179,0.017242,0.994125,0.033887,0.066189,0.006215,58.125839,4.707382,-149.413193,,,
729863129.743035,0.797198,4.398553,51.322794,-0.105179,0.017242,0.994125,0.01185,0.022214,0.008795,58.125839,4.707382,-149.413193,,,
729863129.746296,0.801053,4.405671,51.324941,-0.09642,0.023514,0.973129,0.01185,0.022214,0.008795,58.125839,4.707382,-149.413193,,,
729863129.749655,0.801053,4.405671,51.324941,-0.09642,0.023514,0.973129,0.01185,0.022214,0.008795,58.125839,4.707382,-149.413193,,,
729863129.753032,0.806219,4.400377,51.327225,-0.09642,0.023514,0.973129,-0.01122,-0.006739,0.007082,58.125839,4.707382,-149.413193,,,
729863129.756405,0.803705,4.398699,51.329634,-0.082443,0.023544,0.967392,-0.01122,-0.006739,0.007082,58.125839,4.707382,-149.413193,,,
729863129.759625,0.803705,4.398699,51.329634,-0.082443,0.023544,0.967392,-0.01122,-0.006739,0.007082,58.125839,4.707382,-149.413193,,,
729863129.762989,0.801512,4.394437,51.332812,-0.082443,0.023544,0.967392,-0.022056,-0.008589,0.013668,58.125839,4.707382,-149.413193,,,
729863129.766293,0.795857,4.39094,51.337363,-0.078705,0.018097,0.981674,-0.022056,-0.008589,0.013668,58.125839,4.707382,-149.413193,,,
729863129.769452,0.795857,4.39094,51.337363,-0.078705,0.018097,0.981674,-0.022056,-0.008589,0.013668,58.125839,4.707382,-149.413193,,,
729863129.773011,0.7913,4.39273,51.342783,-0.078705,0.018097,0.981674,-0.012524,0.003776,0.018536,58.125839,4.707382,-149.413193,,,
729863129.776291,0.787132,4.392646,51.348568,-0.070557,0.012009,0.997513,-0.012524,0.003776,0.018536,58.199921,4.698669,-149.711075,,,
729863129.779424,0.787132,4.392646,51.348568,-0.070557,0.012009,0.997513,-0.012524,0.003776,0.018536,58.199921,4.698669,-149.711075,,,
729863129.78307,0.784712,4.397965,51.354351,-0.070557,0.012009,0.997513,0.005625,0.008291,0.019258,58.199921,4.698669,-149.711075,,,
729863129.786295,0.785293,4.399713,51.360007,-0.060425,0.007141,1.008652,0.005625,0.008291,0.019258,58.199921,4.698669,-149.711075,,,
729863129.789736,0.785293,4.399713,51.360007,-0.060425,0.007141,1.008652,0.005625,0.008291,0.019258,58.199921,4.698669,-149.711075,,,
729863129.792991,0.788244,4.405709,51.364688,-0.060425,0.007141,1.008652,0.025367,0.021264,0.010571,58.199921,4.698669,-149.711075,,,
729863129.796296,0.793988,4.410521,51.368083,-0.052765,0.003311,1.017151,0.025367,0.021264,0.010571,58.199921,4.698669,-149.711075,,,
729863129.799628,0.793988,4.410521,51.368083,-0.052765,0.003311,1.017151,0.025367,0.021264,0.010571,58.199921,4.698669,-149.711075,,,
729863129.802962,0.801891,4.422677,51.3706,-0.052765,0.003311,1.017151,0.041839,0.028512,0.011352,58.199921,4.698669,-149.711075,,,
729863129.806357,0.812669,4.429934,51.37312,-0.053864,-0.000778,1.018661,0.041839,0.028512,0.011352,58.199921,4.698669,-149.711075,,,
729863129.80968,0.812669,4.429934,51.37312,-0.053864,-0.000778,1.018661,0.041839,0.028512,0.011352,58.199921,4.698669,-149.711075,,,
729863129.813011,0.825527,4.447684,51.37494,-0.053864,-0.000778,1.018661,0.068013,0.044309,0.003288,58.199921,4.698669,-149.711075,,,
729863129.816307,0.843187,4.458515,51.375279,-0.047714,0.000488,1.019745,0.068013,0.044309,0.003288,58.191406,4.775803,-149.63472,,,
729863129.819736,0.843187,4.458515,51.375279,-0.047714,0.000488,1.019745,0.068013,0.044309,0.003288,58.191406,4.775803,-149.63472,,,
729863129.823005,0.867079,4.48087,51.373926,-0.047714,0.000488,1.019745,0.09503,0.047852,-0.00447,58.191406,4.775803,-149.63472,,,
729863129.826316,0.892575,4.494431,51.371278,-0.049072,-0.001511,1.029785,0.09503,0.047852,-0.00447,58.191406,4.775803,-149.63472,,,
729863129.829652,0.892575,4.494431,51.371278,-0.049072,-0.001511,1.029785,0.09503,0.047852,-0.00447,58.191406,4.775803,-149.63472,,,
729863129.83268,0.92174,4.513273,51.36685,-0.049072,-0.001511,1.029785,0.10294,0.048412,-0.014001,58.191406,4.775803,-149.63472,,,
729863129.836341,0.949846,4.526004,51.361416,-0.055908,0.008469,1.000824,0.10294,0.048412,-0.014001,58.191406,4.775803,-149.63472,,,
729863129.83963,0.949846,4.526004,51.361416,-0.055908,0.008469,1.000824,0.10294,0.048412,-0.014001,58.191406,4.775803,-149.63472,,,
729863129.842983,0.98018,4.538761,51.355796,-0.055908,0.008469,1.000824,0.094499,0.029591,-0.015377,58.191406,4.775803,-149.63472,,,
729863129.846296,1.007178,4.546765,51.350023,-0.063171,0.012177,0.990906,0.094499,0.029591,-0.015377,58.191406,4.775803,-149.63472,,,
729863129.849626,1.007178,4.546765,51.350023,-0.063171,0.012177,0.990906,0.094499,0.029591,-0.015377,58.191406,4.775803,-149.63472,,,
729863129.852961,1.031246,4.550517,51.343916,-0.063171,0.012177,0.990906,0.063655,0.010678,-0.017863,58.191406,4.775803,-149.63472,,,
729863129.856426,1.05057,4.552882,51.338074,-0.079285,0.014511,0.964996,0.063655,0.010678,-0.017863,58.191406,4.775803,-149.63472,,,
729863129.859636,1.05057,4.552882,51.338074,-0.079285,0.014511,0.964996,0.063655,0.010678,-0.017863,58.158234,4.496567,-149.284958,,,
729863129.862973,1.062476,4.552212,51.333894,-0.079285,0.014511,0.964996,0.027221,0.001552,-0.005218,58.158234,4.496567,-149.284958,,,
729863129.866302,1.071342,4.552959,51.331904,-0.092545,0.024475,0.962173,0.027221,0.001552,-0.005218,58.158234,4.496567,-149.284958,,,
729863129.869746,1.071342,4.552959,51.331904,-0.092545,0.024475,0.962173,0.027221,0.001552,-0.005218,58.158234,4.496567,-149.284958,,,
729863129.872742,1.074196,4.545587,51.331919,-0.092545,0.024475,0.962173,0.005445,-0.006663,0.000705,58.158234,4.496567,-149.284958,,,
729863129.876334,1.076241,4.544145,51.332818,-0.094727,0.024002,0.966583,0.005445,-0.006663,0.000705,58.158234,4.496567,-149.284958,,,
729863129.879649,1.076241,4.544145,51.332818,-0.094727,0.024002,0.966583,0.005445,-0.006663,0.000705,58.158234,4.496567,-149.284958,,,
729863129.883044,1.070889,4.534421,51.334544,-0.094727,0.024002,0.966583,-0.013793,-0.005387,0.008793,58.158234,4.496567,-149.284958,,,
729863129.886296,1.066939,4.532216,51.337341,-0.092285,0.026596,0.97229,-0.013793,-0.005387,0.008793,58.158234,4.496567,-149.284958,,,
729863129.889634,1.066939,4.532216,51.337341,-0.092285,0.026596,0.97229,-0.013793,-0.005387,0.008793,58.158234,4.496567,-149.284958,,,
729863129.893014,1.056417,4.522396,51.341521,-0.092285,0.026596,0.97229,-0.030452,0.006008,0.015332,58.158234,4.496567,-149.284958,,,
729863129.896296,1.048214,4.523536,51.346432,-0.087296,0.028976,0.967651,-0.030452,0.006008,0.015332,58.158234,4.496567,-149.284958,,,
729863129.899651,1.048214,4.523536,51.346432,-0.087296,0.028976,0.967651,-0.030452,0.006008,0.015332,58.036743,4.66301,-149.370361,,,
729863129.902987,1.034464,4.519757,51.351923,-0.087296,0.028976,0.967651,-0.038932,0.036858,0.018432,58.036743,4.66301,-149.370361,,,
729863129.9063,1.023593,4.529197,51.357963,-0.086868,0.028214,0.979034,-0.038932,0.036858,0.018432,58.036743,4.66301,-149.370361,,,
729863129.909712,1.023593,4.529197,51.357963,-0.086868,0.028214,0.979034,-0.038932,0.036858,0.018432,58.036743,4.66301,-149.370361,,,
729863129.912978,1.008302,4.534117,51.365688,-0.086868,0.028214,0.979034,-0.032295,0.057419,0.027732,58.036743,4.66301,-149.370361,,,
729863129.916312,0.999009,4.549134,51.374995,-0.093857,0.018555,0.979523,-0.032295,0.057419,0.027732,58.036743,4.66301,-149.370361,,,
729863129.919656,0.999009,4.549134,51.374995,-0.093857,0.018555,0.979523,-0.032295,0.057419,0.027732,58.036743,4.66301,-149.370361,,,
729863129.923059,0.992419,4.556457,51.385972,-0.093857,0.018555,0.979523,0.004423,0.050382,0.041342,58.036743,4.66301,-149.370361,,,
729863129.92629,0.993086,4.569238,51.398135,-0.102768,0.011642,1.000885,0.004423,0.050382,0.041342,58.036743,4.66301,-149.370361,,,
729863129.929654,0.993086,4.569238,51.398135,-0.102768,0.011642,1.000885,0.004423,0.050382,0.041342,58.036743,4.66301,-149.370361,,,
729863129.932971,0.996243,4.57784,51.411361,-0.102768,0.011642,1.000885,0.021662,0.048971,0.051125,58.036743,4.66301,-149.370361,,,
729863129.936296,1.002597,4.590862,51.425491,-0.10144,0.012039,1.003113,0.021662,0.048971,0.051125,58.036743,4.66301,-149.370361,,,
729863129.939653,1.002597,4.590862,51.425491,-0.10144,0.012039,1.003113,0.021662,0.048971,0.051125,58.359543,4.375076,-149.054733,,,
729863129.942976,1.011008,4.606033,51.440946,-0.10144,0.012039,1.003113,0.030638,0.043928,0.059048,58.359543,4.375076,-149.054733,,,
729863129.946302,1.020644,4.61768,51.45726,-0.094391,0.012436,0.997345,0.030638,0.043928,0.059048,58.359543,4.375076,-149.054733,,,
729863129.949717,1.020644,4.61768,51.45726,-0.094391,0.012436,0.997345,0.030638,0.043928,0.059048,58.359543,4.375076,-149.054733,,,
729863129.952978,1.031962,4.631452,51.472801,-0.094391,0.012436,0.997345,0.022247,0.016709,0.046022,58.359543,4.375076,-149.054733,,,
729863129.956319,1.039114,4.6365,51.486085,-0.080307,0.0242,0.979416,0.022247,0.016709,0.046022,58.359543,4.375076,-149.054733,,,
729863129.95963,1.039114,4.6365,51.486085,-0.080307,0.0242,0.979416,0.022247,0.016709,0.046022,58.359543,4.375076,-149.054733,,,
729863129.963066,1.044535,4.644135,51.495707,-0.080307,0.0242,0.979416,-0.001494,0.002145,0.01578,58.359543,4.375076,-149.054733,,,
729863129.966291,1.045387,4.644457,51.501615,-0.069092,0.029999,0.971115,-0.001494,0.002145,0.01578,58.359543,4.375076,-149.054733,,,
729863129.969648,1.045387,4.644457,51.501615,-0.069092,0.029999,0.971115,-0.001494,0.002145,0.01578,58.359543,4.375076,-149.054733,,,
729863129.972973,1.045367,4.64807,51.504082,-0.069092,0.029999,0.971115,-0.023245,-0.003339,-0.002024,58.359543,4.375076,-149.054733,,,
729863129.976296,1.038513,4.647176,51.504742,-0.07074,0.02774,0.9758,-0.023245,-0.003339,-0.002024,58.359543,4.375076,-149.054733,,,
729863129.979627,1.038513,4.647176,51.504742,-0.07074,0.02774,0.9758,-0.023245,-0.003339,-0.002024,58.359543,4.375076,-149.054733,,,
729863129.982989,1.030361,4.647096,51.503931,-0.07074,0.02774,0.9758,-0.043556,-0.01283,-0.011332,58.329254,4.469116,-149.208786,,,
729863129.986296,1.017837,4.643581,51.502297,-0.075806,0.029785,0.979691,-0.043556,-0.01283,-0.011332,58.329254,4.469116,-149.208786,,,
729863129.98969,1.017837,4.643581,51.502297,-0.075806,0.029785,0.979691,-0.043556,-0.01283,-0.011332,58.329254,4.469116,-149.208786,,,
729863129.992972,1.006794,4.641656,51.49994,-0.075806,0.029785,0.979691,-0.035352,-0.004819,-0.013146,58.329254,4.469116,-149.208786,,,
729863129.996297,0.995359,4.638891,51.496942,-0.079025,0.018982,0.999985,-0.035352,-0.004819,-0.013146,58.329254,4.469116,-149.208786,,,
729863129.999655,0.995359,4.638891,51.496942,-0.079025,0.018982,0.999985,-0.035352,-0.004819,-0.013146,58.329254,4.469116,-149.208786,,,
729863130.003025,0.985078,4.641081,51.493943,-0.079025,0.018982,0.999985,-0.027926,0.002736,-0.014614,58.329254,4.469116,-149.208786,,,
729863130.006298,0.976047,4.640942,51.490805,-0.080322,0.017273,1.006729,-0.027926,0.002736,-0.014614,58.329254,4.469116,-149.208786,,,
729863130.009643,0.976047,4.640942,51.490805,-0.080322,0.017273,1.006729,-0.027926,0.002736,-0.014614,58.329254,4.469116,-149.208786,,,
729863130.012973,0.966891,4.646276,51.486799,-0.080322,0.017273,1.006729,-0.029848,0.003327,-0.023254,58.329254,4.469116,-149.208786,,,
729863130.016301,0.958425,4.646389,51.481315,-0.071762,0.02327,1.000229,-0.029848,0.003327,-0.023254,58.329254,4.469116,-149.208786,,,
729863130.019642,0.958425,4.646389,51.481315,-0.071762,0.02327,1.000229,-0.029848,0.003327,-0.023254,58.329254,4.469116,-149.208786,,,
729863130.022977,0.947961,4.650702,51.474344,-0.071762,0.02327,1.000229,-0.03331,-0.011612,-0.036898,58.051605,4.635315,-149.267639,,,
729863130.026301,0.937542,4.647077,51.46533,-0.067398,0.022888,0.991089,-0.03331,-0.011612,-0.036898,58.051605,4.635315,-149.267639,,,
729863130.029633,0.937542,4.647077,51.46533,-0.067398,0.022888,0.991089,-0.03331,-0.011612,-0.036898,58.051605,4.635315,-149.267639,,,
729863130.032981,0.924686,4.645133,51.454205,-0.067398,0.022888,0.991089,-0.050002,-0.022024,-0.048501,58.051605,4.635315,-149.267639,,,
729863130.036301,0.910506,4.63819,51.442227,-0.07193,0.020432,0.986664,-0.050002,-0.022024,-0.048501,58.051605,4.635315,-149.267639,,,
729863130.03964,0.910506,4.63819,51.442227,-0.07193,0.020432,0.986664,-0.050002,-0.022024,-0.048501,58.051605,4.635315,-149.267639,,,
729863130.043041,0.89932,4.629318,51.430875,-0.07193,0.020432,0.986664,-0.037584,-0.032063,-0.03403,58.051605,4.635315,-149.267639,,,
729863130.046285,0.887098,4.619573,51.421876,-0.084167,0.012482,1.005081,-0.037584,-0.032063,-0.03403,58.051605,4.635315,-149.267639,,,
729863130.049644,0.887098,4.619573,51.421876,-0.084167,0.012482,1.005081,-0.037584,-0.032063,-0.03403,58.051605,4.635315,-149.267639,,,
729863130.052969,0.882028,4.605103,51.414949,-0.084167,0.012482,1.005081,-0.014888,-0.033304,-0.020165,58.051605,4.635315,-149.267639,,,
729863130.056293,0.876105,4.594713,51.409678,-0.094757,0.008545,1.024155,-0.014888,-0.033304,-0.020165,58.051605,4.635315,-149.267639,,,
729863130.059628,0.876105,4.594713,51.409678,-0.094757,0.008545,1.024155,-0.014888,-0.033304,-0.020165,58.051605,4.635315,-149.267639,,,
729863130.062974,0.876089,4.584506,51.405678,-0.094757,0.008545,1.024155,0.000432,-0.015347,-0.012673,58.063766,4.699921,-149.26413,,,
729863130.066291,0.875032,4.579605,51.402181,-0.085693,0.010178,1.026611,0.000432,-0.015347,-0.012673,58.063766,4.699921,-149.26413,,,
729863130.069699,0.875032,4.579605,51.402181,-0.085693,0.010178,1.026611,0.000432,-0.015347,-0.012673,58.063766,4.699921,-149.26413,,,
729863130.072962,0.879878,4.57739,51.398936,-0.085693,0.010178,1.026611,0.017175,0.017134,-0.013447,58.063766,4.699921,-149.26413,,,
729863130.076297,0.883464,4.580105,51.395397,-0.070755,0.010284,1.029053,0.017175,0.017134,-0.013447,58.063766,4.699921,-149.26413,,,
729863130.079665,0.883464,4.580105,51.395397,-0.070755,0.010284,1.029053,0.017175,0.017134,-0.013447,58.063766,4.699921,-149.26413,,,
729863130.083049,0.889261,4.585091,51.391865,-0.070755,0.010284,1.029053,0.019848,0.022603,-0.017116,58.063766,4.699921,-149.26413,,,
729863130.086295,0.894905,4.591127,51.388066,-0.07222,0.014465,1.013565,0.019848,0.022603,-0.017116,58.063766,4.699921,-149.26413,,,
729863130.08964,0.894905,4.591127,51.388066,-0.07222,0.014465,1.013565,0.019848,0.022603,-0.017116,58.063766,4.699921,-149.26413,,,
729863130.092978,0.900006,4.596436,51.383636,-0.07222,0.014465,1.013565,0.010051,0.016927,-0.017563,58.063766,4.699921,-149.26413,,,
729863130.096298,0.902939,4.60111,51.378941,-0.070724,0.019638,0.9944,0.010051,0.016927,-0.017563,58.063766,4.699921,-149.26413,,,
729863130.099647,0.902939,4.60111,51.378941,-0.070724,0.019638,0.9944,0.010051,0.016927,-0.017563,58.063766,4.699921,-149.26413,,,
729863130.10297,0.90624,4.600385,51.373497,-0.070724,0.019638,0.9944,7.2e-05,-0.000622,-0.025252,58.242828,4.599503,-149.215118,,,
729863130.106319,0.906099,4.600253,51.366893,-0.074249,0.021332,0.986145,7.2e-05,-0.000622,-0.025252,58.242828,4.599503,-149.215118,,,
729863130.109701,0.906099,4.600253,51.366893,-0.074249,0.021332,0.986145,7.2e-05,-0.000622,-0.025252,58.242828,4.599503,-149.215118,,,
729863130.112982,0.907639,4.592398,51.360133,-0.074249,0.021332,0.986145,0.004315,-0.023952,-0.024501,58.242828,4.599503,-149.215118,,,
729863130.116296,0.90864,4.585075,51.353746,-0.080399,0.01738,0.988205,0.004315,-0.023952,-0.024501,58.242828,4.599503,-149.215118,,,
729863130.119648,0.90864,4.585075,51.353746,-0.080399,0.01738,0.988205,0.004315,-0.023952,-0.024501,58.242828,4.599503,-149.215118,,,
729863130.123034,0.912268,4.573152,51.34804,-0.080399,0.01738,0.988205,0.022995,-0.041766,-0.015347,58.242828,4.599503,-149.215118,,,
729863130.126289,0.91679,4.561616,51.343463,-0.08284,0.014145,0.995209,0.022995,-0.041766,-0.015347,58.242828,4.599503,-149.215118,,,
729863130.129675,0.91679,4.561616,51.343463,-0.08284,0.014145,0.995209,0.022995,-0.041766,-0.015347,58.242828,4.599503,-149.215118,,,
729863130.132975,0.921956,4.552671,51.340106,-0.08284,0.014145,0.995209,0.029439,-0.026623,-0.009132,58.242828,4.599503,-149.215118,,,
729863130.136312,0.930069,4.544348,51.337455,-0.079773,0.017258,1.003372,0.029439,-0.026623,-0.009132,58.242828,4.599503,-149.215118,,,
729863130.139644,0.930069,4.544348,51.337455,-0.079773,0.017258,1.003372,0.029439,-0.026623,-0.009132,58.242828,4.599503,-149.215118,,,
729863130.142984,0.936809,4.544433,51.33476,-0.079773,0.017258,1.003372,0.036696,0.014945,-0.010307,58.242828,4.599503,-149.215118,,,
729863130.146314,0.946257,4.546111,51.331618,-0.066025,0.018204,1.004318,0.036696,0.014945,-0.010307,58.063431,4.244919,-149.350403,,,
729863130.149697,0.946257,4.546111,51.331618,-0.066025,0.018204,1.004318,0.036696,0.014945,-0.010307,58.063431,4.244919,-149.350403,,,
729863130.152978,0.953813,4.553996,51.327844,-0.066025,0.018204,1.004318,0.025791,0.053199,-0.01654,58.063431,4.244919,-149.350403,,,
729863130.156369,0.961011,4.567526,51.322846,-0.059952,0.019028,0.996307,0.025791,0.053199,-0.01654,58.063431,4.244919,-149.350403,,,
729863130.15965,0.961011,4.567526,51.322846,-0.059952,0.019028,0.996307,0.025791,0.053199,-0.01654,58.063431,4.244919,-149.350403,,,
729863130.163045,0.963848,4.58179,51.316449,-0.059952,0.019028,0.996307,0.002724,0.078583,-0.026954,58.063431,4.244919,-149.350403,,,
729863130.166383,0.965081,4.602857,51.309401,-0.06488,0.022705,0.978119,0.002724,0.078583,-0.026954,58.063431,4.244919,-149.350403,,,
729863130.169643,0.965081,4.602857,51.309401,-0.06488,0.022705,0.978119,0.002724,0.078583,-0.026954,58.063431,4.244919,-149.350403,,,
729863130.17299,0.962056,4.623581,51.301982,-0.06488,0.022705,0.978119,-0.024413,0.092085,-0.02985,58.063431,4.244919,-149.350403,,,
729863130.176311,0.954924,4.648621,51.294554,-0.07486,0.015808,0.97374,-0.024413,0.092085,-0.02985,58.063431,4.244919,-149.350403,,,
729863130.179634,0.954924,4.648621,51.294554,-0.07486,0.015808,0.97374,-0.024413,0.092085,-0.02985,58.063431,4.244919,-149.350403,,,
729863130.182965,0.946304,4.670183,51.288147,-0.07486,0.015808,0.97374,-0.033152,0.075928,-0.022889,58.063431,4.244919,-149.350403,,,
729863130.186297,0.93616,4.692421,51.282737,-0.089615,0.009216,0.981384,-0.033152,0.075928,-0.022889,58.111084,4.300217,-149.32283,,,
729863130.189714,0.93616,4.692421,51.282737,-0.089615,0.009216,0.981384,-0.033152,0.075928,-0.022889,58.111084,4.300217,-149.32283,,,
729863130.192849,0.928246,4.708288,51.278011,-0.089615,0.009216,0.981384,-0.019082,0.034653,-0.02394,58.111084,4.300217,-149.32283,,,
729863130.196422,0.921075,4.719464,51.272695,-0.09819,0.008377,0.990829,-0.019082,0.034653,-0.02394,58.111084,4.300217,-149.32283,,,
729863130.199635,0.921075,4.719464,51.272695,-0.09819,0.008377,0.990829,-0.019082,0.034653,-0.02394,58.111084,4.300217,-149.32283,,,
729863130.203028,0.917327,4.723621,51.266586,-0.09819,0.008377,0.990829,0.009244,-0.010619,-0.022961,58.111084,4.300217,-149.32283,,,
729863130.206394,0.918313,4.721278,51.260435,-0.09996,0.008865,0.997223,0.009244,-0.010619,-0.022961,58.111084,4.300217,-149.32283,,,
729863130.209637,0.918313,4.721278,51.260435,-0.09996,0.008865,0.997223,0.009244,-0.010619,-0.022961,58.111084,4.300217,-149.32283,,,
729863130.212973,0.92319,4.712991,51.254487,-0.09996,0.008865,0.997223,0.034231,-0.046317,-0.013195,58.111084,4.300217,-149.32283,,,
729863130.216353,0.93197,4.700374,51.249406,-0.098724,0.00293,1.001038,0.034231,-0.046317,-0.013195,58.111084,4.300217,-149.32283,,,
729863130.219663,0.93197,4.700374,51.249406,-0.098724,0.00293,1.001038,0.034231,-0.046317,-0.013195,58.111084,4.300217,-149.32283,,,
729863130.222974,0.943099,4.684232,51.245684,-0.098724,0.00293,1.001038,0.045168,-0.043864,-0.005441,58.111084,4.300217,-149.32283,,,
729863130.226322,0.955194,4.671028,51.242797,-0.096985,0.005951,1.000168,0.045168,-0.043864,-0.005441,58.134094,4.191406,-149.198944,,,
729863130.229718,0.955194,4.671028,51.242797,-0.096985,0.005951,1.000168,0.045168,-0.043864,-0.005441,58.134094,4.191406,-149.198944,,,
729863130.232967,0.968622,4.654107,51.240376,-0.096985,0.005951,1.000168,0.051419,-0.02488,-0.00503,58.134094,4.191406,-149.198944,,,
729863130.236336,0.982122,4.64623,51.237923,-0.084061,0.010773,1.000748,0.051419,-0.02488,-0.00503,58.134094,4.191406,-149.198944,,,
729863130.23966,0.982122,4.64623,51.237923,-0.084061,0.010773,1.000748,0.051419,-0.02488,-0.00503,58.134094,4.191406,-149.198944,,,
729863130.243034,0.996908,4.634206,51.235466,-0.084061,0.010773,1.000748,0.04454,-0.016207,-0.009564,58.134094,4.191406,-149.198944,,,
729863130.246327,1.009859,4.629757,51.232379,-0.084061,0.010773,1.000748,0.04454,-0.016207,-0.009564,58.134094,4.191406,-149.198944,,,
729863130.249632,1.009859,4.629757,51.232379,-0.078186,0.015091,0.988251,0.04454,-0.016207,-0.009564,58.134094,4.191406,-149.198944,,,
729863130.252989,1.021603,4.621103,51.228722,-0.078186,0.015091,0.988251,0.024941,-0.014162,-0.013617,58.134094,4.191406,-149.198944,,,
729863130.256323,1.02876,4.616442,51.224815,-0.079483,0.019196,0.976776,0.024941,-0.014162,-0.013617,58.134094,4.191406,-149.198944,,,
729863130.259638,1.02876,4.616442,51.224815,-0.079483,0.019196,0.976776,0.024941,-0.014162,-0.013617,58.134094,4.191406,-149.198944,,,
729863130.262984,1.030876,4.611827,51.221705,-0.079483,0.019196,0.976776,-0.008492,-0.012666,-0.000921,58.134094,4.191406,-149.198944,,,
729863130.266297,1.030876,4.611827,51.221705,-0.088379,0.0177,0.966156,-0.008492,-0.012666,-0.000921,58.134094,4.191406,-149.198944,,,
729863130.269695,1.029764,4.60738,51.22118,-0.088379,0.0177,0.966156,-0.008492,-0.012666,-0.000921,57.964951,4.331375,-149.516876,,,
729863130.272972,1.020732,4.607637,51.223457,-0.088379,0.0177,0.966156,-0.047492,-0.004922,0.01128,57.964951,4.331375,-149.516876,,,
729863130.276294,1.020732,4.607637,51.223457,-0.084503,0.018188,0.954803,-0.047492,-0.004922,0.01128,57.964951,4.331375,-149.516876,,,
729863130.279645,1.008319,4.604779,51.227659,-0.084503,0.018188,0.954803,-0.047492,-0.004922,0.01128,57.964951,4.331375,-149.516876,,,
729863130.282965,0.988971,4.610233,51.23277,-0.084503,0.018188,0.954803,-0.076017,0.009367,0.007946,57.964951,4.331375,-149.516876,,,
729863130.286339,0.988971,4.610233,51.23277,-0.084503,0.018188,0.954803,-0.076017,0.009367,0.007946,57.964951,4.331375,-149.516876,,,
729863130.289636,0.968337,4.611817,51.237323,-0.071548,0.02269,0.968735,-0.076017,0.009367,0.007946,57.964951,4.331375,-149.516876,,,
729863130.293018,0.942927,4.621076,51.23958,-0.071548,0.02269,0.968735,-0.091214,0.019332,-0.010017,57.964951,4.331375,-149.516876,,,
729863130.296296,0.942927,4.621076,51.23958,-0.071548,0.02269,0.968735,-0.091214,0.019332,-0.010017,57.964951,4.331375,-149.516876,,,
729863130.299658,0.917774,4.625491,51.239426,-0.064545,0.023407,0.978027,-0.091214,0.019332,-0.010017,57.964951,4.331375,-149.516876,,,
729863130.302967,0.888208,4.636707,51.237668,-0.064545,0.023407,0.978027,-0.094817,0.033201,-0.017961,57.964951,4.331375,-149.516876,,,
729863130.30644,0.888208,4.644712,51.235472,-0.064545,0.023407,0.978027,-0.094817,0.033201,-0.017961,57.964951,4.331375,-149.516876,,,
729863130.309644,0.860745,4.644712,51.235472,-0.066223,0.017776,0.985229,-0.094817,0.033201,-0.017961,57.930252,4.637512,-149.778442,,,
729863130.312984,0.834162,4.657499,51.23254,-0.066223,0.017776,0.985229,-0.061937,0.036422,-0.023268,57.930252,4.637512,-149.778442,,,
729863130.316309,0.834162,4.657499,51.23254,-0.066223,0.017776,0.985229,-0.061937,0.036422,-0.023268,57.930252,4.637512,-149.778442,,,
729863130.319693,0.81491,4.667286,51.228217,-0.074448,0.008087,1.011276,-0.061937,0.036422,-0.023268,57.930252,4.637512,-149.778442,,,
729863130.322965,0.801516,4.675857,51.222016,-0.074448,0.008087,1.011276,-0.011413,0.025099,-0.033947,57.930252,4.637512,-149.778442,,,
729863130.32634,0.801516,4.675857,51.222016,-0.074448,0.008087,1.011276,-0.011413,0.025099,-0.033947,57.930252,4.637512,-149.778442,,,
729863130.329643,0.795102,4.683137,51.213955,-0.08197,0.002899,1.03627,-0.011413,0.025099,-0.033947,57.930252,4.637512,-149.778442,,,
729863130.332984,0.793786,4.687796,51.204224,-0.08197,0.002899,1.03627,0.002806,0.014208,-0.036951,57.930252,4.637512,-149.778442,,,
729863130.336345,0.793786,4.687796,51.204224,-0.08197,0.002899,1.03627,0.002806,0.014208,-0.036951,57.930252,4.637512,-149.778442,,,
729863130.339549,0.793039,4.692161,51.193702,-0.083115,0.004791,1.022568,0.002806,0.014208,-0.036951,57.930252,4.637512,-149.778442,,,
729863130.343011,0.79488,4.697133,51.182993,-0.083115,0.004791,1.022568,0.011381,0.027897,-0.032961,57.930252,4.637512,-149.778442,,,
729863130.346317,0.79488,4.697133,51.182993,-0.083115,0.004791,1.022568,0.011381,0.027897,-0.032961,57.930252,4.637512,-149.778442,,,
729863130.349631,0.797109,4.703877,51.172953,-0.092239,0.010559,1.016647,0.011381,0.027897,-0.032961,57.787506,4.509888,-149.361328,,,
729863130.352975,0.799813,4.716874,51.164307,-0.092239,0.010559,1.016647,-0.001656,0.044848,-0.020866,57.787506,4.509888,-149.361328,,,
729863130.356336,0.799813,4.716874,51.164307,-0.092239,0.010559,1.016647,-0.001656,0.044848,-0.020866,57.787506,4.509888,-149.361328,,,
729863130.359663,0.799473,4.728444,51.157942,-0.103546,0.009415,1.008575,-0.001656,0.044848,-0.020866,57.787506,4.509888,-149.361328,,,
729863130.36298,0.797483,4.740859,51.154213,-0.103546,0.009415,1.008575,-0.026662,0.044771,-0.005528,57.787506,4.509888,-149.361328,,,
729863130.366342,0.797483,4.740859,51.154213,-0.103546,0.009415,1.008575,-0.026662,0.044771,-0.005528,57.787506,4.509888,-149.361328,,,
729863130.36963,0.790278,4.752608,51.152685,-0.107895,0.013702,0.990692,-0.026662,0.044771,-0.005528,57.787506,4.509888,-149.361328,,,
729863130.372961,0.782145,4.761136,51.15343,-0.107895,0.013702,0.990692,-0.047615,0.048469,0.008308,57.787506,4.509888,-149.361328,,,
729863130.376333,0.782145,4.761136,51.15343,-0.107895,0.013702,0.990692,-0.047615,0.048469,0.008308,57.787506,4.509888,-149.361328,,,
729863130.379695,0.769111,4.774182,51.156484,-0.108307,0.018509,0.985794,-0.047615,0.048469,0.008308,57.787506,4.509888,-149.361328,,,
729863130.382957,0.755978,4.78107,51.16216,-0.108307,0.018509,0.985794,-0.060364,0.030286,0.02458,57.787506,4.509888,-149.361328,,,
729863130.386321,0.755978,4.78107,51.16216,-0.108307,0.018509,0.985794,-0.060364,0.030286,0.02458,57.787506,4.509888,-149.361328,,,
729863130.389628,0.739302,4.790026,51.170246,-0.109955,0.019592,0.979019,-0.060364,0.030286,0.02458,57.987411,4.751358,-149.628967,,,
729863130.392966,0.722644,4.789461,51.179994,-0.109955,0.019592,0.979019,-0.054823,-0.011556,0.026599,57.987411,4.751358,-149.628967,,,
729863130.396315,0.722644,4.789461,51.179994,-0.109955,0.019592,0.979019,-0.054823,-0.011556,0.026599,57.987411,4.751358,-149.628967,,,
729863130.399669,0.706509,4.787108,51.189815,-0.106277,0.017502,0.979767,-0.054823,-0.011556,0.026599,57.987411,4.751358,-149.628967,,,
729863130.40297,0.692375,4.776359,51.198833,-0.106277,0.017502,0.979767,-0.024297,-0.049736,0.019427,57.987411,4.751358,-149.628967,,,
729863130.406297,0.692375,4.776359,51.198833,-0.106277,0.017502,0.979767,-0.024297,-0.049736,0.019427,57.987411,4.751358,-149.628967,,,
729863130.409653,0.684261,4.763299,51.205998,-0.089127,0.011993,1.002869,-0.024297,-0.049736,0.019427,57.987411,4.751358,-149.628967,,,
729863130.412966,0.678424,4.747616,51.210464,-0.089127,0.011993,1.002869,0.000677,-0.04404,0.003998,57.987411,4.751358,-149.628967,,,
729863130.416325,0.678424,4.747616,51.210464,-0.089127,0.011993,1.002869,0.000677,-0.04404,0.003998,57.987411,4.751358,-149.628967,,,
729863130.41967,0.678486,4.73419,51.212889,-0.077194,0.01001,1.024017,0.000677,-0.04404,0.003998,57.987411,4.751358,-149.628967,,,
729863130.422967,0.681534,4.724554,51.214599,-0.077194,0.01001,1.024017,0.025308,-0.008077,0.009109,57.987411,4.751358,-149.628967,,,
729863130.426318,0.681534,4.724554,51.214599,-0.077194,0.01001,1.024017,0.025308,-0.008077,0.009109,57.987411,4.751358,-149.628967,,,
729863130.429669,0.688069,4.720157,51.216346,-0.074081,0.004272,1.03598,0.025308,-0.008077,0.009109,57.987411,4.751358,-149.628967,,,
729863130.43297,0.695791,4.723738,51.218305,-0.074081,0.004272,1.03598,0.032765,0.023305,0.008642,57.964737,4.729477,-149.490067,,,
729863130.436299,0.695791,4.723738,51.218305,-0.074081,0.004272,1.03598,0.032765,0.023305,0.008642,57.964737,4.729477,-149.490067,,,
729863130.439641,0.704847,4.729191,51.220403,-0.068314,0.006653,1.025803,0.032765,0.023305,0.008642,57.964737,4.729477,-149.490067,,,
729863130.442969,0.713455,4.744869,51.222428,-0.068314,0.006653,1.025803,0.024627,0.045473,0.008203,57.964737,4.729477,-149.490067,,,
729863130.446364,0.713455,4.744869,51.222428,-0.068314,0.006653,1.025803,0.024627,0.045473,0.008203,57.964737,4.729477,-149.490067,,,
729863130.449638,0.721134,4.756083,51.224507,-0.0728,0.013214,1.005936,0.024627,0.045473,0.008203,57.964737,4.729477,-149.490067,,,
729863130.452965,0.726166,4.776496,51.225989,-0.0728,0.013214,1.005936,0.003427,0.038671,0.002408,57.964737,4.729477,-149.490067,,,
729863130.45631,0.726166,4.776496,51.225989,-0.0728,0.013214,1.005936,0.003427,0.038671,0.002408,57.964737,4.729477,-149.490067,,,
729863130.459734,0.727304,4.787221,51.227036,-0.071793,0.017944,0.981979,0.003427,0.038671,0.002408,57.964737,4.729477,-149.490067,,,
729863130.462965,0.726659,4.804254,51.227274,-0.071793,0.017944,0.981979,-0.013864,0.01354,-0.004625,57.964737,4.729477,-149.490067,,,
729863130.466371,0.726659,4.804254,51.227274,-0.071793,0.017944,0.981979,-0.013864,0.01354,-0.004625,57.964737,4.729477,-149.490067,,,
729863130.469741,0.722348,4.808808,51.226514,-0.07312,0.020187,0.96936,-0.013864,0.01354,-0.004625,57.964737,4.729477,-149.490067,,,
729863130.472972,0.719712,4.817715,51.225388,-0.07312,0.020187,0.96936,-0.007343,-0.016125,-0.002972,58.178329,4.7146,-149.587997,,,
729863130.476331,0.719712,4.817715,51.225388,-0.07312,0.020187,0.96936,-0.007343,-0.016125,-0.002972,58.178329,4.7146,-149.587997,,,
729863130.47965,0.717019,4.813915,51.22463,-0.086426,0.015411,0.979355,-0.007343,-0.016125,-0.002972,58.178329,4.7146,-149.587997,,,
729863130.482971,0.717058,4.812261,51.224409,-0.086426,0.015411,0.979355,0.014676,-0.036524,0.00407,58.178329,4.7146,-149.587997,,,
729863130.486404,0.717058,4.812261,51.224409,-0.086426,0.015411,0.979355,0.014676,-0.036524,0.00407,58.178329,4.7146,-149.587997,,,
729863130.489662,0.720173,4.801095,51.225013,-0.087784,0.008118,0.997299,0.014676,-0.036524,0.00407,58.178329,4.7146,-149.587997,,,
729863130.49298,0.728206,4.788895,51.225397,-0.087784,0.008118,0.997299,0.049472,-0.036065,0.003259,58.178329,4.7146,-149.587997,,,
729863130.496322,0.728206,4.788895,51.225397,-0.087784,0.008118,0.997299,0.049472,-0.036065,0.003259,58.178329,4.7146,-149.587997,,,
729863130.49971,0.741485,4.7777,51.225642,-0.082565,0.006958,1.015259,0.049472,-0.036065,0.003259,58.178329,4.7146,-149.587997,,,
729863130.502962,0.758201,4.765532,51.226294,-0.082565,0.006958,1.015259,0.080338,-0.014717,0.006988,58.178329,4.7146,-149.587997,,,
729863130.506309,0.758201,4.765532,51.226294,-0.082565,0.006958,1.015259,0.080338,-0.014717,0.006988,58.178329,4.7146,-149.587997,,,
729863130.509642,0.779955,4.759539,51.227114,-0.078049,0.003052,1.025299,0.080338,-0.014717,0.006988,58.178329,4.7146,-149.587997,,,
729863130.512964,0.800995,4.752926,51.228042,-0.078049,0.003052,1.025299,0.077532,0.01517,0.006895,57.995209,4.524063,-149.510681,,,
729863130.516305,0.800995,4.752926,51.228042,-0.078049,0.003052,1.025299,0.077532,0.01517,0.006895,57.995209,4.524063,-149.510681,,,
729863130.519635,0.823734,4.755438,51.228733,-0.074463,0.010193,1.011734,0.077532,0.01517,0.006895,57.995209,4.524063,-149.510681,,,
729863130.522963,0.842387,4.75771,51.229153,-0.074463,0.010193,1.011734,0.052416,0.042896,0.004619,57.995209,4.524063,-149.510681,,,
729863130.526355,0.842387,4.75771,51.229153,-0.074463,0.010193,1.011734,0.052416,0.042896,0.004619,57.995209,4.524063,-149.510681,,,
729863130.529622,0.858527,4.768455,51.230034,-0.078262,0.019058,0.988144,0.052416,0.042896,0.004619,57.995209,4.524063,-149.510681,,,
729863130.532963,0.86917,4.777079,51.232432,-0.078262,0.019058,0.988144,0.013062,0.039486,0.01076,57.995209,4.524063,-149.510681,,,
729863130.536304,0.86917,4.777079,51.232432,-0.078262,0.019058,0.988144,0.013062,0.039486,0.01076,57.995209,4.524063,-149.510681,,,
729863130.539717,0.874049,4.787788,51.235493,-0.08606,0.022934,0.961136,0.013062,0.039486,0.01076,57.995209,4.524063,-149.510681,,,
729863130.542962,0.873296,4.792555,51.238527,-0.08606,0.022934,0.961136,-0.027252,0.012243,0.004981,57.995209,4.524063,-149.510681,,,
729863130.546306,0.873296,4.792555,51.238527,-0.08606,0.022934,0.961136,-0.027252,0.012243,0.004981,57.995209,4.524063,-149.510681,,,
729863130.549658,0.865928,4.795793,51.241183,-0.087402,0.027924,0.94519,-0.027252,0.012243,0.004981,57.995209,4.524063,-149.510681,,,
729863130.55297,0.855206,4.794403,51.243006,-0.087402,0.027924,0.94519,-0.053753,-0.005749,-0.001588,58.21048,4.442871,-149.493011,,,
729863130.556314,0.855206,4.794403,51.243006,-0.087402,0.027924,0.94519,-0.053753,-0.005749,-0.001588,58.21048,4.442871,-149.493011,,,
729863130.559648,0.840443,4.792055,51.244532,-0.090393,0.027084,0.954514,-0.053753,-0.005749,-0.001588,58.21048,4.442871,-149.493011,,,
729863130.562971,0.823338,4.789338,51.246282,-0.090393,0.027084,0.954514,-0.056084,-0.012768,0.003285,58.21048,4.442871,-149.493011,,,
729863130.566371,0.823338,4.789338,51.246282,-0.090393,0.027084,0.954514,-0.056084,-0.012768,0.003285,58.21048,4.442871,-149.493011,,,
729863130.569641,0.806616,4.784913,51.24843,-0.093277,0.018097,0.977203,-0.056084,-0.012768,0.003285,58.21048,4.442871,-149.493011,,,
729863130.57296,0.79214,4.780667,51.251234,-0.093277,0.018097,0.977203,-0.026657,-0.011029,0.006241,58.21048,4.442871,-149.493011,,,
729863130.576316,0.79214,4.780667,51.251234,-0.093277,0.018097,0.977203,-0.026657,-0.011029,0.006241,58.21048,4.442871,-149.493011,,,
729863130.579694,0.78316,4.776073,51.254414,-0.094849,0.010666,1.004211,-0.026657,-0.011029,0.006241,58.21048,4.442871,-149.493011,,,
729863130.582963,0.778354,4.771513,51.257356,-0.094849,0.010666,1.004211,0.01427,-0.011391,0.008318,58.21048,4.442871,-149.493011,,,
729863130.586314,0.778354,4.771513,51.257356,-0.094849,0.010666,1.004211,0.01427,-0.011391,0.008318,58.21048,4.442871,-149.493011,,,
729863130.589627,0.780866,4.767651,51.259857,-0.098343,0.0056,1.026215,0.01427,-0.011391,0.008318,58.21048,4.442871,-149.493011,,,
729863130.592964,0.788152,4.761318,51.262179,-0.098343,0.0056,1.026215,0.054678,-0.015331,0.013884,58.21048,4.442871,-149.493011,,,
729863130.596328,0.788152,4.761318,51.262179,-0.098343,0.0056,1.026215,0.054678,-0.015331,0.013884,58.151245,4.572266,-149.60495,,,
729863130.599637,0.80287,4.75626,51.264585,-0.095947,0.002029,1.03183,0.054678,-0.015331,0.013884,58.151245,4.572266,-149.60495,,,
729863130.602977,0.820927,4.749922,51.26828,-0.095947,0.002029,1.03183,0.063616,-0.007454,0.021589,58.151245,4.572266,-149.60495,,,
729863130.606383,0.820927,4.749922,51.26828,-0.095947,0.002029,1.03183,0.063616,-0.007454,0.021589,58.151245,4.572266,-149.60495,,,
729863130.609648,0.839962,4.746252,51.273481,-0.093002,0.006424,1.013184,0.063616,-0.007454,0.021589,58.151245,4.572266,-149.60495,,,
729863130.612983,0.857662,4.742934,51.278834,-0.093002,0.006424,1.013184,0.038385,-0.013675,0.024134,58.151245,4.572266,-149.60495,,,
729863130.616311,0.857662,4.742934,51.278834,-0.093002,0.006424,1.013184,0.038385,-0.013675,0.024134,58.151245,4.572266,-149.60495,,,
729863130.619694,0.870071,4.739057,51.284327,-0.085159,0.017273,0.9841,0.038385,-0.013675,0.024134,58.151245,4.572266,-149.60495,,,
729863130.622959,0.878866,4.735908,51.289624,-0.085159,0.017273,0.9841,-0.003462,-0.013653,0.01241,58.151245,4.572266,-149.60495,,,
729863130.626312,0.878866,4.735908,51.289624,-0.085159,0.017273,0.9841,-0.003462,-0.013653,0.01241,58.151245,4.572266,-149.60495,,,
729863130.629656,0.87959,4.731338,51.293592,-0.074448,0.027374,0.964554,-0.003462,-0.013653,0.01241,58.151245,4.572266,-149.60495,,,
729863130.632962,0.875473,4.728729,51.29621,-0.074448,0.027374,0.964554,-0.052053,-0.008444,0.003086,58.151245,4.572266,-149.60495,,,
729863130.636301,0.875473,4.728729,51.29621,-0.074448,0.027374,0.964554,-0.052053,-0.008444,0.003086,58.095337,4.550781,-149.444946,,,
729863130.639647,0.862588,4.725198,51.298297,-0.067062,0.030289,0.958679,-0.052053,-0.008444,0.003086,58.095337,4.550781,-149.444946,,,
729863130.642968,0.845423,4.726505,51.299511,-0.067062,0.030289,0.958679,-0.072527,0.016564,-0.002398,58.095337,4.550781,-149.444946,,,
729863130.646381,0.845423,4.726505,51.299511,-0.067062,0.030289,0.958679,-0.072527,0.016564,-0.002398,58.095337,4.550781,-149.444946,,,
729863130.649629,0.823839,4.729865,51.30058,-0.066254,0.025345,0.975189,-0.072527,0.016564,-0.002398,58.095337,4.550781,-149.444946,,,
729863130.652972,0.802215,4.740181,51.302072,-0.066254,0.025345,0.975189,-0.071832,0.050154,0.002847,58.095337,4.550781,-149.444946,,,
729863130.656295,0.802215,4.740181,51.302072,-0.066254,0.025345,0.975189,-0.071832,0.050154,0.002847,58.095337,4.550781,-149.444946,,,
729863130.659672,0.781541,4.752463,51.304415,-0.0802,0.015244,1.002792,-0.071832,0.050154,0.002847,58.095337,4.550781,-149.444946,,,
729863130.662968,0.762694,4.769135,51.308645,-0.0802,0.015244,1.002792,-0.049574,0.049184,0.015823,58.095337,4.550781,-149.444946,,,
729863130.666346,0.762694,4.769135,51.308645,-0.0802,0.015244,1.002792,-0.049574,0.049184,0.015823,58.095337,4.550781,-149.444946,,,
729863130.669664,0.747847,4.783006,51.314104,-0.094818,0.01033,1.005905,-0.049574,0.049184,0.015823,58.095337,4.550781,-149.444946,,,
729863130.672969,0.735508,4.796342,51.320269,-0.094818,0.01033,1.005905,-0.017442,0.022187,0.017749,58.095337,4.550781,-149.444946,,,
729863130.67641,0.735508,4.796342,51.320269,-0.094818,0.01033,1.005905,-0.017442,0.022187,0.017749,58.09787,4.693207,-149.89325,,,
729863130.679651,0.729356,4.80304,51.326519,-0.095657,0.007675,1.013123,-0.017442,0.022187,0.017749,58.09787,4.693207,-149.89325,,,
729863130.682974,0.726907,4.806683,51.331562,-0.095657,0.007675,1.013123,0.016204,-0.00839,0.013436,58.09787,4.693207,-149.89325,,,
729863130.686373,0.726907,4.806683,51.331562,-0.095657,0.007675,1.013123,0.016204,-0.00839,0.013436,58.09787,4.693207,-149.89325,,,
729863130.689374,0.73048,4.804436,51.335886,-0.092651,0.007111,1.01796,0.016204,-0.00839,0.013436,58.09787,4.693207,-149.89325,,,
729863130.693002,0.736479,4.801036,51.34001,-0.092651,0.007111,1.01796,0.0288,-0.018312,0.009662,58.09787,4.693207,-149.89325,,,
729863130.696313,0.736479,4.801036,51.34001,-0.092651,0.007111,1.01796,0.0288,-0.018312,0.009662,58.09787,4.693207,-149.89325,,,
729863130.699696,0.744045,4.79556,51.343425,-0.083847,0.006256,1.012527,0.0288,-0.018312,0.009662,58.09787,4.693207,-149.89325,,,
729863130.702964,0.752293,4.790859,51.345719,-0.083847,0.006256,1.012527,0.023213,-0.006481,0.005326,58.09787,4.693207,-149.89325,,,
729863130.706312,0.752293,4.790859,51.345719,-0.083847,0.006256,1.012527,0.023213,-0.006481,0.005326,58.09787,4.693207,-149.89325,,,
729863130.709637,0.758398,4.787738,51.347203,-0.074203,0.010788,1.006531,0.023213,-0.006481,0.005326,58.09787,4.693207,-149.89325,,,
729863130.712967,0.766844,4.784944,51.348484,-0.074203,0.010788,1.006531,0.014751,0.010215,0.003768,58.09787,4.693207,-149.89325,,,
729863130.716297,0.766844,4.784944,51.348484,-0.074203,0.010788,1.006531,0.014751,0.010215,0.003768,58.284592,4.647812,-149.603821,,,
729863130.719395,0.77117,4.786319,51.349678,-0.073868,0.012161,1.004333,0.014751,0.010215,0.003768,58.284592,4.647812,-149.603821,,,
729863130.723,0.778777,4.783094,51.351407,-0.073868,0.012161,1.004333,0.001901,0.007609,0.004,58.284592,4.647812,-149.603821,,,
729863130.726378,0.778777,4.783094,51.351407,-0.073868,0.012161,1.004333,0.001901,0.007609,0.004,58.284592,4.647812,-149.603821,,,
729863130.729642,0.780547,4.784546,51.353459,-0.076096,0.01239,0.995346,0.001901,0.007609,0.004,58.284592,4.647812,-149.603821,,,
729863130.732971,0.783034,4.781017,51.355554,-0.076096,0.01239,0.995346,-0.012514,0.004846,0.004116,58.284592,4.647812,-149.603821,,,
729863130.736323,0.783034,4.781017,51.355554,-0.076096,0.01239,0.995346,-0.012514,0.004846,0.004116,58.284592,4.647812,-149.603821,,,
729863130.739704,0.780559,4.78111,51.357622,-0.073822,0.016922,0.985001,-0.012514,0.004846,0.004116,58.284592,4.647812,-149.603821,,,
729863130.742964,0.775881,4.781034,51.359232,-0.073822,0.016922,0.985001,-0.019726,-0.000335,0.002051,58.284592,4.647812,-149.603821,,,
729863130.746316,0.775881,4.781034,51.359232,-0.073822,0.016922,0.985001,-0.019726,-0.000335,0.002051,58.284592,4.647812,-149.603821,,,
729863130.749653,0.770197,4.780808,51.360362,-0.072281,0.021408,0.982758,-0.019726,-0.000335,0.002051,58.284592,4.647812,-149.603821,,,
729863130.752979,0.763188,4.78435,51.361001,-0.072281,0.021408,0.982758,-0.02304,0.004497,-0.003123,58.284592,4.647812,-149.603821,,,
729863130.756301,0.763188,4.78435,51.361001,-0.072281,0.021408,0.982758,-0.02304,0.004497,-0.003123,58.284592,4.647812,-149.603821,,,
729863130.759657,0.756916,4.784603,51.361152,-0.076324,0.017197,0.98999,-0.02304,0.004497,-0.003123,58.152908,4.510941,-149.421585,,,
729863130.762971,0.748668,4.789065,51.360931,-0.076324,0.017197,0.98999,-0.019853,0.01687,-0.004679,58.152908,4.510941,-149.421585,,,
729863130.766328,0.748668,4.789065,51.360931,-0.076324,0.017197,0.98999,-0.019853,0.01687,-0.004679,58.152908,4.510941,-149.421585,,,
729863130.76971,0.742546,4.792409,51.36083,-0.079147,0.013855,1.002167,-0.019853,0.01687,-0.004679,58.152908,4.510941,-149.421585,,,
729863130.773001,0.737296,4.799851,51.360855,-0.079147,0.013855,1.002167,0.000595,0.027437,-0.002286,58.152908,4.510941,-149.421585,,,
729863130.776331,0.737296,4.799851,51.360855,-0.079147,0.013855,1.002167,0.000595,0.027437,-0.002286,58.152908,4.510941,-149.421585,,,
729863130.779633,0.736403,4.80681,51.360551,-0.081375,0.009201,1.016129,0.000595,0.027437,-0.002286,58.152908,4.510941,-149.421585,,,
729863130.782971,0.736116,4.813516,51.35979,-0.081375,0.009201,1.016129,0.018108,0.035789,-0.008819,58.152908,4.510941,-149.421585,,,
729863130.786309,0.736116,4.813516,51.35979,-0.081375,0.009201,1.016129,0.018108,0.035789,-0.008819,58.152908,4.510941,-149.421585,,,
729863130.789632,0.740617,4.822609,51.357635,-0.083099,0.006012,1.02121,0.018108,0.035789,-0.008819,58.152908,4.510941,-149.421585,,,
729863130.792965,0.748595,4.8285,51.354679,-0.083099,0.006012,1.02121,0.042893,0.039554,-0.002104,58.152908,4.510941,-149.421585,,,
729863130.796299,0.748595,4.8285,51.354679,-0.083099,0.006012,1.02121,0.042893,0.039554,-0.002104,58.152908,4.510941,-149.421585,,,
729863130.799648,0.759996,4.839227,51.352362,-0.08844,0.006516,1.027969,0.042893,0.039554,-0.002104,58.045929,4.678818,-149.285477,,,
729863130.802975,0.773347,4.846713,51.351434,-0.08844,0.006516,1.027969,0.053166,0.032328,0.006985,58.045929,4.678818,-149.285477,,,
729863130.8063,0.773347,4.846713,51.351434,-0.08844,0.006516,1.027969,0.053166,0.032328,0.006985,58.045929,4.678818,-149.285477,,,
729863130.809637,0.788257,4.855795,51.352327,-0.098846,0.009064,1.013992,0.053166,0.032328,0.006985,58.045929,4.678818,-149.285477,,,
729863130.812965,0.803377,4.859238,51.354997,-0.098846,0.009064,1.013992,0.050018,0.012472,0.019068,58.045929,4.678818,-149.285477,,,
729863130.81631,0.803377,4.859238,51.354997,-0.098846,0.009064,1.013992,0.050018,0.012472,0.019068,58.045929,4.678818,-149.285477,,,
729863130.819634,0.817802,4.862926,51.358885,-0.098404,0.01326,0.993179,0.050018,0.012472,0.019068,58.045929,4.678818,-149.285477,,,
729863130.822964,0.830929,4.860973,51.364072,-0.098404,0.01326,0.993179,0.02286,-0.002422,0.021671,58.045929,4.678818,-149.285477,,,
729863130.826329,0.830929,4.860973,51.364072,-0.098404,0.01326,0.993179,0.02286,-0.002422,0.021671,58.045929,4.678818,-149.285477,,,
729863130.82964,0.839228,4.860149,51.370331,-0.090332,0.024216,0.970947,0.02286,-0.002422,0.021671,58.045929,4.678818,-149.285477,,,
729863130.832967,0.844318,4.853401,51.376767,-0.090332,0.024216,0.970947,-0.010314,-0.015121,0.020157,58.045929,4.678818,-149.285477,,,
729863130.83631,0.844318,4.853401,51.376767,-0.090332,0.024216,0.970947,-0.010314,-0.015121,0.020157,58.045929,4.678818,-149.285477,,,
729863130.839508,0.842773,4.848657,51.382985,-0.077347,0.030182,0.951874,-0.010314,-0.015121,0.020157,58.073135,4.888138,-148.918488,,,
729863130.843011,0.837354,4.841451,51.389305,-0.077347,0.030182,0.951874,-0.039056,-0.010769,0.016319,58.073135,4.888138,-148.918488,,,
729863130.846402,0.837354,4.841451,51.389305,-0.077347,0.030182,0.951874,-0.039056,-0.010769,0.016319,58.073135,4.888138,-148.918488,,,
729863130.849655,0.827592,4.837877,51.395271,-0.070938,0.02681,0.955231,-0.039056,-0.010769,0.016319,58.073135,4.888138,-148.918488,,,
729863130.852975,0.81394,4.833768,51.400499,-0.070938,0.02681,0.955231,-0.058213,0.000204,0.009153,58.073135,4.888138,-148.918488,,,
729863130.856302,0.81394,4.833768,51.400499,-0.070938,0.02681,0.955231,-0.058213,0.000204,0.009153,58.073135,4.888138,-148.918488,,,
729863130.859642,0.797959,4.832179,51.405345,-0.070099,0.023544,0.962936,-0.058213,0.000204,0.009153,58.073135,4.888138,-148.918488,,,
729863130.862973,0.778474,4.832136,51.409949,-0.070099,0.023544,0.962936,-0.067256,0.022785,0.005591,58.073135,4.888138,-148.918488,,,
729863130.8663,0.778474,4.832136,51.409949,-0.070099,0.023544,0.962936,-0.067256,0.022785,0.005591,58.073135,4.888138,-148.918488,,,
729863130.869665,0.759395,4.836804,51.413879,-0.068222,0.018875,0.973602,-0.067256,0.022785,0.005591,58.073135,4.888138,-148.918488,,,
729863130.873005,0.739051,4.844051,51.416875,-0.068222,0.018875,0.973602,-0.059728,0.03786,-0.001554,58.073135,4.888138,-148.918488,,,
729863130.876307,0.739051,4.844051,51.416875,-0.068222,0.018875,0.973602,-0.059728,0.03786,-0.001554,58.073135,4.888138,-148.918488,,,
729863130.879683,0.721414,4.853783,51.418429,-0.068207,0.010452,0.991119,-0.059728,0.03786,-0.001554,58.073135,4.888138,-148.918488,,,
729863130.883009,0.706308,4.863737,51.418801,-0.068207,0.010452,0.991119,-0.028821,0.022281,-0.013088,58.226273,4.799133,-149.56778,,,
729863130.88631,0.706308,4.863737,51.418801,-0.068207,0.010452,0.991119,-0.028821,0.022281,-0.013088,58.226273,4.799133,-149.56778,,,
729863130.889639,0.697127,4.869981,51.417554,-0.070389,0.002731,1.011703,-0.028821,0.022281,-0.013088,58.226273,4.799133,-149.56778,,,
729863130.892972,0.693518,4.876755,51.414308,-0.070389,0.002731,1.011703,0.022123,0.006611,-0.015185,58.226273,4.799133,-149.56778,,,
729863130.896296,0.693518,4.876755,51.414308,-0.070389,0.002731,1.011703,0.022123,0.006611,-0.015185,58.226273,4.799133,-149.56778,,,
729863130.899644,0.69695,4.878293,51.409711,-0.077454,-0.005188,1.027786,0.022123,0.006611,-0.015185,58.226273,4.799133,-149.56778,,,
729863130.90303,0.707018,4.881682,51.404407,-0.077454,-0.005188,1.027786,0.055089,0.005254,-0.013028,58.226273,4.799133,-149.56778,,,
729863130.906353,0.707018,4.881682,51.404407,-0.077454,-0.005188,1.027786,0.055089,0.005254,-0.013028,58.226273,4.799133,-149.56778,,,
729863130.909647,0.721562,4.881994,51.399592,-0.084946,-0.005341,1.035217,0.055089,0.005254,-0.013028,58.226273,4.799133,-149.56778,,,
729863130.912972,0.741161,4.883349,51.396135,-0.084946,-0.005341,1.035217,0.066003,0.009538,-0.003842,58.226273,4.799133,-149.56778,,,
729863130.91633,0.741161,4.883349,51.396135,-0.084946,-0.005341,1.035217,0.066003,0.009538,-0.003842,58.226273,4.799133,-149.56778,,,
729863130.919662,0.759689,4.884638,51.393399,-0.093933,-0.000992,1.017441,0.066003,0.009538,-0.003842,58.226273,4.799133,-149.56778,,,
729863130.922967,0.78096,4.885626,51.390986,-0.093933,-0.000992,1.017441,0.05732,0.014314,-0.003995,58.134811,4.745773,-149.450851,,,
729863130.926338,0.78096,4.885626,51.390986,-0.093933,-0.000992,1.017441,0.05732,0.014314,-0.003995,58.134811,4.745773,-149.450851,,,
729863130.929652,0.798199,4.888768,51.388658,-0.09346,0.010864,1.002563,0.05732,0.014314,-0.003995,58.134811,4.745773,-149.450851,,,
729863130.932969,0.814494,4.890431,51.386363,-0.09346,0.010864,1.002563,0.029975,0.006906,-0.000939,58.134811,4.745773,-149.450851,,,
729863130.936328,0.814494,4.890431,51.386363,-0.09346,0.010864,1.002563,0.029975,0.006906,-0.000939,58.134811,4.745773,-149.450851,,,
729863130.939637,0.824409,4.892648,51.385326,-0.102921,0.019989,0.982788,0.029975,0.006906,-0.000939,58.134811,4.745773,-149.450851,,,
729863130.94297,0.830776,4.889495,51.386484,-0.102921,0.019989,0.982788,0.002447,-0.01686,0.014585,58.134811,4.745773,-149.450851,,,
729863130.946391,0.830776,4.889495,51.386484,-0.102921,0.019989,0.982788,0.002447,-0.01686,0.014585,58.134811,4.745773,-149.450851,,,
729863130.949643,0.832211,4.885285,51.389802,-0.111938,0.025894,0.962051,0.002447,-0.01686,0.014585,58.134811,4.745773,-149.450851,,,
729863130.952974,0.831205,4.874386,51.395658,-0.111938,0.025894,0.962051,-0.018356,-0.040368,0.024611,58.134811,4.745773,-149.450851,,,
729863130.95631,0.831205,4.874386,51.395658,-0.111938,0.025894,0.962051,-0.018356,-0.040368,0.024611,58.134811,4.745773,-149.450851,,,
729863130.95971,0.827093,4.863383,51.403382,-0.108093,0.02771,0.95488,-0.018356,-0.040368,0.024611,58.134811,4.745773,-149.450851,,,
729863130.962958,0.827093,4.863383,51.412212,-0.108093,0.02771,0.95488,-0.02862,-0.043883,0.03037,58.071976,4.88031,-149.103043,,,
729863130.966315,0.820169,4.847458,51.412212,-0.108093,0.02771,0.95488,-0.02862,-0.043883,0.03037,58.071976,4.88031,-149.103043,,,
729863130.969634,0.813153,4.833902,51.421744,-0.091339,0.030792,0.960571,-0.02862,-0.043883,0.03037,58.071976,4.88031,-149.103043,,,
729863130.972958,0.813153,4.833902,51.421744,-0.091339,0.030792,0.960571,-0.024593,-0.022137,0.02824,58.071976,4.88031,-149.103043,,,
729863130.976327,0.804285,4.819198,51.431407,-0.091339,0.030792,0.960571,-0.024593,-0.022137,0.02824,58.071976,4.88031,-149.103043,,,
729863130.979368,0.797577,4.810791,51.440689,-0.070786,0.02623,0.976746,-0.024593,-0.022137,0.02824,58.071976,4.88031,-149.103043,,,
729863130.983002,0.797577,4.805396,51.448793,-0.070786,0.02623,0.976746,-0.02781,0.011503,0.018927,58.071976,4.88031,-149.103043,,,
729863130.986369,0.78799,4.805396,51.448793,-0.070786,0.02623,0.976746,-0.02781,0.011503,0.018927,58.071976,4.88031,-149.103043,,,
729863130.989626,0.780586,4.806534,51.455151,-0.054993,0.027695,0.981995,-0.02781,0.011503,0.018927,58.071976,4.88031,-149.103043,,,
729863130.992963,0.780586,4.806534,51.455151,-0.054993,0.027695,0.981995,-0.04025,0.059973,-0.002786,58.071976,4.88031,-149.103043,,,
729863130.996316,0.769025,4.814508,51.459645,-0.054993,0.027695,0.981995,-0.04025,0.059973,-0.002786,58.071976,4.88031,-149.103043,,,
729863130.999673,0.757745,4.829422,51.461247,-0.046127,0.025787,0.982269,-0.04025,0.059973,-0.002786,58.071976,4.88031,-149.103043,,,
729863131.002965,0.757745,4.829422,51.461247,-0.046127,0.025787,0.982269,-0.049785,0.082934,-0.018971,58.213165,4.790421,-149.320038,,,
729863131.0063,0.741929,4.851144,51.459788,-0.046127,0.025787,0.982269,-0.049785,0.082934,-0.018971,58.213165,4.790421,-149.320038,,,
729863131.009636,0.72763,4.873155,51.456184,-0.051239,0.017532,0.988907,-0.049785,0.082934,-0.018971,58.213165,4.790421,-149.320038,,,
729863131.012984,0.72763,4.873155,51.456184,-0.051239,0.017532,0.988907,-0.036443,0.060548,-0.031982,58.213165,4.790421,-149.320038,,,
729863131.016327,0.714404,4.896489,51.450481,-0.051239,0.017532,0.988907,-0.036443,0.060548,-0.031982,58.213165,4.790421,-149.320038,,,
729863131.019665,0.70226,4.914642,51.44323,-0.065979,0.007065,0.997833,-0.036443,0.060548,-0.031982,58.213165,4.790421,-149.320038,,,
729863131.022997,0.70226,4.914642,51.44323,-0.065979,0.007065,0.997833,-0.036443,0.060548,-0.031982,58.213165,4.790421,-149.320038,,,
729863131.026356,0.694029,4.933997,51.435063,-0.065979,0.007065,0.997833,-0.020828,0.018681,-0.027934,58.213165,4.790421,-149.320038,,,
729863131.029635,0.686094,4.941097,51.427345,-0.086258,0.002792,1.004639,-0.020828,0.018681,-0.027934,58.213165,4.790421,-149.320038,,,
729863131.032969,0.686094,4.941097,51.427345,-0.086258,0.002792,1.004639,-0.00389,-0.027833,-0.018516,58.213165,4.790421,-149.320038,,,
729863131.036322,0.684083,4.949148,51.420722,-0.086258,0.002792,1.004639,-0.00389,-0.027833,-0.018516,58.213165,4.790421,-149.320038,,,
729863131.039637,0.681607,4.942461,51.415031,-0.095398,0.000961,1.006393,-0.00389,-0.027833,-0.018516,58.213165,4.790421,-149.320038,,,
729863131.042989,0.681607,4.942461,51.415031,-0.095398,0.000961,1.006393,-0.00389,-0.027833,-0.018516,58.213165,4.790421,-149.320038,,,
729863131.046327,0.683862,4.936043,51.410525,-0.095398,0.000961,1.006393,-0.001114,-0.060245,-0.013079,58.226318,4.657547,-149.388107,,,
729863131.049642,0.682849,4.919415,51.40732,-0.090775,0.002747,0.999603,-0.001114,-0.060245,-0.013079,58.226318,4.657547,-149.388107,,,
729863131.053033,0.682849,4.919415,51.40732,-0.090775,0.002747,0.999603,-0.0066,-0.061009,-0.016565,58.226318,4.657547,-149.388107,,,
729863131.056307,0.686354,4.901681,51.40438,-0.090775,0.002747,0.999603,-0.0066,-0.061009,-0.016565,58.226318,4.657547,-149.388107,,,
729863131.059633,0.68436,4.882833,51.400723,-0.079895,0.010376,0.998535,-0.0066,-0.061009,-0.016565,58.226318,4.657547,-149.388107,,,
729863131.062996,0.68436,4.882833,51.400723,-0.079895,0.010376,0.998535,-0.0066,-0.061009,-0.016565,58.226318,4.657547,-149.388107,,,
729863131.066377,0.683511,4.861717,51.396566,-0.079895,0.010376,0.998535,-0.021443,-0.021939,-0.019321,58.226318,4.657547,-149.388107,,,
729863131.069629,0.676468,4.852941,51.392358,-0.067032,0.013763,0.997742,-0.021443,-0.021939,-0.019321,58.226318,4.657547,-149.388107,,,
729863131.073033,0.676468,4.852941,51.392358,-0.067032,0.013763,0.997742,-0.021443,-0.021939,-0.019321,58.226318,4.657547,-149.388107,,,
729863131.076307,0.67139,4.841209,51.388184,-0.067032,0.013763,0.997742,-0.042079,0.029706,-0.017009,58.226318,4.657547,-149.388107,,,
729863131.079633,0.659536,4.847563,51.384514,-0.064941,0.012909,0.99881,-0.042079,0.029706,-0.017009,58.226318,4.657547,-149.388107,,,
729863131.082994,0.659536,4.847563,51.384514,-0.064941,0.012909,0.99881,-0.042079,0.029706,-0.017009,58.226318,4.657547,-149.388107,,,
729863131.086351,0.648923,4.84823,51.381308,-0.064941,0.012909,0.99881,-0.048272,0.070207,-0.017796,58.188904,4.765366,-149.585953,,,
729863131.089729,0.634268,4.866397,51.377354,-0.071442,0.015381,0.997269,-0.048272,0.070207,-0.017796,58.188904,4.765366,-149.585953,,,
729863131.093116,0.634268,4.866397,51.377354,-0.071442,0.015381,0.997269,-0.048272,0.070207,-0.017796,58.188904,4.765366,-149.585953,,,
729863131.096358,0.620843,4.876235,51.372686,-0.071442,0.015381,0.997269,-0.03741,0.060833,-0.027205,58.188904,4.765366,-149.585953,,,
729863131.099647,0.608682,4.894452,51.366049,-0.074814,0.01561,0.992432,-0.03741,0.060833,-0.027205,58.188904,4.765366,-149.585953,,,
729863131.103119,0.608682,4.894452,51.366049,-0.074814,0.01561,0.992432,-0.03741,0.060833,-0.027205,58.188904,4.765366,-149.585953,,,
729863131.10633,0.599627,4.90459,51.357536,-0.074814,0.01561,0.992432,-0.00133,0.038384,-0.038112,58.188904,4.765366,-149.585953,,,
729863131.10965,0.596679,4.916032,51.347416,-0.086227,0.008591,1.007111,-0.00133,0.038384,-0.038112,58.188904,4.765366,-149.585953,,,
729863131.11302,0.596679,4.916032,51.347416,-0.086227,0.008591,1.007111,-0.00133,0.038384,-0.038112,58.188904,4.765366,-149.585953,,,
729863131.116376,0.595976,4.924439,51.335998,-0.086227,0.008591,1.007111,0.020053,0.008359,-0.036616,58.188904,4.765366,-149.585953,,,
729863131.119636,0.600056,4.927813,51.32499,-0.102325,0.002594,1.00856,0.020053,0.008359,-0.036616,58.188904,4.765366,-149.585953,,,
729863131.122991,0.600056,4.927813,51.32499,-0.102325,0.002594,1.00856,0.020053,0.008359,-0.036616,58.188904,4.765366,-149.585953,,,
729863131.126294,0.602166,4.931633,51.315792,-0.102325,0.002594,1.00856,0.019445,-0.001598,-0.021518,58.396652,4.743896,-149.556686,,,
729863131.129633,0.606455,4.931257,51.308508,-0.11319,0.003876,1.001419,0.019445,-0.001598,-0.021518,58.396652,4.743896,-149.556686,,,
729863131.133015,0.606455,4.931257,51.308508,-0.11319,0.003876,1.001419,0.019445,-0.001598,-0.021518,58.396652,4.743896,-149.556686,,,
729863131.136304,0.608036,4.930729,51.302876,-0.11319,0.003876,1.001419,0.003282,0.000973,-0.015244,58.396652,4.743896,-149.556686,,,
729863131.139639,0.608553,4.929645,51.298965,-0.11319,0.008591,0.997742,0.003282,0.000973,-0.015244,58.396652,4.743896,-149.556686,,,
729863131.14305,0.608553,4.929645,51.298965,-0.11319,0.008591,0.997742,0.003282,0.000973,-0.015244,58.396652,4.743896,-149.556686,,,
729863131.146309,0.60642,4.925927,51.296408,-0.11319,0.008591,0.997742,-0.01925,0.001542,-0.007474,58.396652,4.743896,-149.556686,,,
729863131.14964,0.601862,4.925386,51.295227,-0.112885,0.00914,0.993637,-0.01925,0.001542,-0.007474,58.396652,4.743896,-149.556686,,,
729863131.152982,0.601862,4.925386,51.295227,-0.112885,0.00914,0.993637,-0.01925,0.001542,-0.007474,58.396652,4.743896,-149.556686,,,
729863131.156368,0.595969,4.918144,51.295787,-0.112885,0.00914,0.993637,-0.031882,0.00285,0.00421,58.396652,4.743896,-149.556686,,,
729863131.159632,0.587911,4.918277,51.297892,-0.111237,0.009064,0.99205,-0.031882,0.00285,0.00421,58.396652,4.743896,-149.556686,,,
729863131.162981,0.587911,4.918277,51.297892,-0.111237,0.009064,0.99205,-0.031882,0.00285,0.00421,58.396652,4.743896,-149.556686,,,
729863131.166329,0.579394,4.912936,51.301738,-0.111237,0.009064,0.99205,-0.033053,0.014097,0.016628,58.396652,4.743896,-149.556686,,,
729863131.169652,0.569977,4.915967,51.307497,-0.110245,0.008194,0.998337,-0.033053,0.014097,0.016628,58.368057,4.785431,-149.389725,,,
729863131.172989,0.569977,4.915967,51.307497,-0.110245,0.008194,0.998337,-0.033053,0.014097,0.016628,58.368057,4.785431,-149.389725,,,
729863131.176317,0.563354,4.915779,51.315051,-0.110245,0.008194,0.998337,-0.021347,0.016484,0.029987,58.368057,4.785431,-149.389725,,,
729863131.179745,0.557141,4.919477,51.32367,-0.108139,0.007126,1.002151,-0.021347,0.016484,0.029987,58.368057,4.785431,-149.389725,,,
729863131.182961,0.557141,4.919477,51.32367,-0.108139,0.007126,1.002151,-0.021347,0.016484,0.029987,58.368057,4.785431,-149.389725,,,
729863131.186319,0.554284,4.918055,51.332553,-0.108139,0.007126,1.002151,-0.008291,-0.005909,0.02106,58.368057,4.785431,-149.389725,,,
729863131.189639,0.551868,4.916633,51.340039,-0.092133,0.01152,0.992111,-0.008291,-0.005909,0.02106,58.368057,4.785431,-149.389725,,,
729863131.193034,0.551868,4.916633,51.340039,-0.092133,0.01152,0.992111,-0.008291,-0.005909,0.02106,58.368057,4.785431,-149.389725,,,
729863131.196302,0.550213,4.914039,51.344877,-0.092133,0.01152,0.992111,0.010437,-0.017508,-0.000791,58.368057,4.785431,-149.389725,,,
