Time (sec),Pitch (deg),Roll (deg),Yaw(deg),X-Acceleration (g),Y-Acceleration (g),Z-Acceleration (g),Pitch Rate (deg/sec),Roll Rate (deg/sec),Yaw Rate (deg/sec),Magnetic Field in X direction (uT),Magnetic Field in Y direction (uT),Magnetic Field in Z Direction (uT),Latitude (deg),Longitude (deg),Altitude (m)
729862106.39243,0.84004,6.855908,53.238452,-0.138184,0.016098,0.990036,-0.018127,-0.005755,0.002826,59.625656,19.136017,-154.524551,,,
729862106.395759,0.837369,6.847145,53.242374,-0.133148,0.014664,0.99176,-0.010558,-0.02707,0.013001,59.625656,19.136017,-154.524551,,,
729862106.399153,0.835245,6.837458,53.246213,-0.133148,0.014664,0.99176,-0.010558,-0.02707,0.013001,59.625656,19.136017,-154.524551,,,
729862106.402419,0.835245,6.837458,53.246213,-0.133148,0.014664,0.99176,-0.010558,-0.02707,0.013001,59.625656,19.136017,-154.524551,,,
729862106.405756,0.834768,6.825422,53.248975,-0.122238,0.018494,0.994934,-0.005315,-0.035346,0.005983,59.625656,19.136017,-154.524551,,,
729862106.409094,0.832981,6.814883,53.251177,-0.122238,0.018494,0.994934,-0.005315,-0.035346,0.005983,59.625656,19.136017,-154.524551,,,
729862106.412517,0.832981,6.814883,53.251177,-0.122238,0.018494,0.994934,-0.005315,-0.035346,0.005983,59.625656,19.136017,-154.524551,,,
729862106.415819,0.830854,6.802251,53.252519,-0.110825,0.021469,0.990448,-0.014607,-0.023783,-0.001561,59.625656,19.136017,-154.524551,,,
729862106.419129,0.824736,6.796309,53.252435,-0.110825,0.021469,0.990448,-0.014607,-0.023783,-0.001561,59.625656,19.136017,-154.524551,,,
729862106.422443,0.824736,6.796309,53.252435,-0.110825,0.021469,0.990448,-0.014607,-0.023783,-0.001561,59.625656,19.136017,-154.524551,,,
729862106.425809,0.816964,6.789817,53.250665,-0.102219,0.026459,0.990158,-0.027899,0.004169,-0.015405,59.625656,19.136017,-154.524551,,,
729862106.4291,0.807996,6.791811,53.247175,-0.102219,0.026459,0.990158,-0.027899,0.004169,-0.015405,59.513138,19.058121,-154.698792,,,
729862106.432426,0.807996,6.791811,53.247175,-0.102219,0.026459,0.990158,-0.027899,0.004169,-0.015405,59.513138,19.058121,-154.698792,,,
729862106.435779,0.797882,6.793667,53.242967,-0.102295,0.022858,0.996002,-0.033849,0.022079,-0.021495,59.513138,19.058121,-154.698792,,,
729862106.43918,0.788485,6.799427,53.238347,-0.102295,0.022858,0.996002,-0.033849,0.022079,-0.021495,59.513138,19.058121,-154.698792,,,
729862106.442411,0.788485,6.799427,53.238347,-0.102295,0.022858,0.996002,-0.033849,0.022079,-0.021495,59.513138,19.058121,-154.698792,,,
729862106.445786,0.779593,6.806171,53.233175,-0.110168,0.017975,0.998444,-0.027026,0.02351,-0.0245,59.513138,19.058121,-154.698792,,,
729862106.449133,0.771542,6.812232,53.227295,-0.110168,0.017975,0.998444,-0.027026,0.02351,-0.0245,59.513138,19.058121,-154.698792,,,
729862106.452495,0.771542,6.812232,53.227295,-0.110168,0.017975,0.998444,-0.027026,0.02351,-0.0245,59.513138,19.058121,-154.698792,,,
729862106.455767,0.765016,6.822409,53.221285,-0.11647,0.018463,1.002701,-0.018106,0.024866,-0.023959,59.513138,19.058121,-154.698792,,,
729862106.459125,0.759399,6.828404,53.215867,-0.11647,0.018463,1.002701,-0.018106,0.024866,-0.023959,59.513138,19.058121,-154.698792,,,
729862106.462435,0.759399,6.828404,53.215867,-0.11647,0.018463,1.002701,-0.018106,0.024866,-0.023959,59.513138,19.058121,-154.698792,,,
729862106.465831,0.755006,6.841415,53.210882,-0.119751,0.014465,1.00145,-0.013687,0.019669,-0.019661,59.513138,19.058121,-154.698792,,,
729862106.46913,0.750214,6.845784,53.205246,-0.119751,0.014465,1.00145,-0.013687,0.019669,-0.019661,59.513138,19.058121,-154.698792,,,
729862106.472441,0.750214,6.845784,53.205246,-0.119751,0.014465,1.00145,-0.013687,0.019669,-0.019661,59.539154,19.024734,-154.783615,,,
729862106.475774,0.746394,6.855809,53.19826,-0.123123,0.013824,1.000061,-0.008669,0.012167,-0.027879,59.539154,19.024734,-154.783615,,,
729862106.479097,0.746394,6.855809,53.191448,-0.123123,0.013824,1.000061,-0.008669,0.012167,-0.027879,59.539154,19.024734,-154.783615,,,
729862106.482436,0.743406,6.858607,53.191448,-0.123123,0.013824,1.000061,-0.008669,0.012167,-0.027879,59.539154,19.024734,-154.783615,,,
729862106.485776,0.741964,6.864761,53.185506,-0.127472,0.013535,1.006653,-0.005805,0.018961,-0.02121,59.539154,19.024734,-154.783615,,,
729862106.489099,0.741964,6.864761,53.180774,-0.127472,0.013535,1.006653,-0.005805,0.018961,-0.02121,59.539154,19.024734,-154.783615,,,
729862106.492425,0.740146,6.868973,53.180774,-0.127472,0.013535,1.006653,-0.005805,0.018961,-0.02121,59.539154,19.024734,-154.783615,,,
729862106.495864,0.74114,6.870372,53.177939,-0.137177,0.011993,1.004395,0.001014,0.01621,-0.007271,59.539154,19.024734,-154.783615,,,
729862106.499221,0.740794,6.873893,53.177477,-0.137177,0.011993,1.004395,0.001014,0.01621,-0.007271,59.539154,19.024734,-154.783615,,,
729862106.502399,0.740794,6.873893,53.177477,-0.137177,0.011993,1.004395,0.001014,0.01621,-0.007271,59.539154,19.024734,-154.783615,,,
729862106.505817,0.742928,6.870515,53.17931,-0.137772,0.014816,0.997421,-0.003186,0.012154,0.007746,59.539154,19.024734,-154.783615,,,
729862106.509096,0.742928,6.870515,53.17931,-0.137772,0.014816,0.997421,-0.003186,0.012154,0.007746,59.539154,19.024734,-154.783615,,,
729862106.512457,0.741365,6.872659,53.181741,-0.137772,0.014816,0.997421,-0.003186,0.012154,0.007746,59.594681,19.089691,-154.933685,,,
729862106.515858,0.740945,6.866319,53.183967,-0.123672,0.019699,0.990891,-0.013276,0.009868,0.004319,59.594681,19.089691,-154.933685,,,
729862106.519129,0.740945,6.866319,53.183967,-0.123672,0.019699,0.990891,-0.013276,0.009868,0.004319,59.594681,19.089691,-154.933685,,,
729862106.522452,0.737417,6.868342,53.185729,-0.123672,0.019699,0.990891,-0.013276,0.009868,0.004319,59.594681,19.089691,-154.933685,,,
729862106.525773,0.735042,6.864954,53.186921,-0.117874,0.016129,0.992844,-0.011938,0.006182,6e-06,59.594681,19.089691,-154.933685,,,
729862106.529173,0.735042,6.864954,53.186921,-0.117874,0.016129,0.992844,-0.011938,0.006182,6e-06,59.594681,19.089691,-154.933685,,,
729862106.53243,0.73151,6.865787,53.18731,-0.117874,0.016129,0.992844,-0.011938,0.006182,6e-06,59.594681,19.089691,-154.933685,,,
729862106.535771,0.729088,6.864194,53.186917,-0.119232,0.01532,0.991486,-0.012094,0.006083,-0.005687,59.594681,19.089691,-154.933685,,,
729862106.539097,0.729088,6.864194,53.186917,-0.119232,0.01532,0.991486,-0.012094,0.006083,-0.005687,59.594681,19.089691,-154.933685,,,
729862106.54247,0.725422,6.865575,53.185769,-0.119232,0.01532,0.991486,-0.012094,0.006083,-0.005687,59.594681,19.089691,-154.933685,,,
729862106.545764,0.72267,6.867026,53.184516,-0.119781,0.013245,0.996094,-0.010006,0.01217,-0.006209,59.594681,19.089691,-154.933685,,,
729862106.549096,0.72267,6.867026,53.184516,-0.119781,0.013245,0.996094,-0.010006,0.01217,-0.006209,59.594681,19.089691,-154.933685,,,
729862106.552432,0.720153,6.870362,53.183391,-0.119781,0.013245,0.996094,-0.010006,0.01217,-0.006209,59.423218,18.710358,-154.604263,,,
729862106.555762,0.719521,6.875817,53.182779,-0.125153,0.006088,1.005539,0.000742,0.023739,-0.001267,59.423218,18.710358,-154.604263,,,
729862106.559098,0.719521,6.875817,53.182779,-0.125153,0.006088,1.005539,0.000742,0.023739,-0.001267,59.423218,18.710358,-154.604263,,,
729862106.562435,0.720854,6.881709,53.183371,-0.125153,0.006088,1.005539,0.000742,0.023739,-0.001267,59.423218,18.710358,-154.604263,,,
729862106.565764,0.724386,6.888633,53.185189,-0.13443,0.002457,1.005814,0.014163,0.019098,0.009142,59.423218,18.710358,-154.604263,,,
729862106.569165,0.724386,6.888633,53.185189,-0.13443,0.002457,1.005814,0.014163,0.019098,0.009142,59.423218,18.710358,-154.604263,,,
729862106.572423,0.729816,6.891414,53.188554,-0.13443,0.002457,1.005814,0.014163,0.019098,0.009142,59.423218,18.710358,-154.604263,,,
729862106.575766,0.736708,6.896011,53.193094,-0.131638,0.004318,0.998444,0.025804,-0.006526,0.019338,59.423218,18.710358,-154.604263,,,
729862106.579099,0.736708,6.896011,53.193094,-0.131638,0.004318,0.998444,0.025804,-0.006526,0.019338,59.423218,18.710358,-154.604263,,,
729862106.582538,0.745328,6.892379,53.197738,-0.131638,0.004318,0.998444,0.025804,-0.006526,0.019338,59.423218,18.710358,-154.604263,,,
729862106.585759,0.754873,6.894291,53.201124,-0.122757,0.005219,0.993317,0.032481,-0.019918,0.011976,59.423218,18.710358,-154.604263,,,
729862106.589116,0.754873,6.894291,53.201124,-0.122757,0.005219,0.993317,0.032481,-0.019918,0.011976,59.423218,18.710358,-154.604263,,,
729862106.592474,0.764667,6.887447,53.2029,-0.122757,0.005219,0.993317,0.032481,-0.019918,0.011976,59.591187,18.771255,-154.901428,,,
729862106.595762,0.775676,6.883802,53.203197,-0.111816,0.006973,0.991821,0.033711,-0.018102,0.002118,59.591187,18.771255,-154.901428,,,
729862106.59911,0.775676,6.883802,53.203197,-0.111816,0.006973,0.991821,0.033711,-0.018102,0.002118,59.591187,18.771255,-154.901428,,,
729862106.602492,0.784381,6.87846,53.203281,-0.111816,0.006973,0.991821,0.033711,-0.018102,0.002118,59.591187,18.771255,-154.901428,,,
729862106.605758,0.792118,6.874767,53.203547,-0.110291,0.011414,0.986389,0.021576,-0.003597,0.001841,59.591187,18.771255,-154.901428,,,
729862106.609177,0.792118,6.874767,53.203547,-0.110291,0.011414,0.986389,0.021576,-0.003597,0.001841,59.591187,18.771255,-154.901428,,,
729862106.612448,0.797771,6.874765,53.203946,-0.110291,0.011414,0.986389,0.021576,-0.003597,0.001841,59.591187,18.771255,-154.901428,,,
729862106.615763,0.80287,6.877932,53.204688,-0.110321,0.013657,0.989716,0.015351,0.021627,0.003435,59.591187,18.771255,-154.901428,,,
729862106.619137,0.80287,6.877932,53.204688,-0.110321,0.013657,0.989716,0.015351,0.021627,0.003435,59.591187,18.771255,-154.901428,,,
729862106.622487,0.807111,6.883968,53.205096,-0.110321,0.013657,0.989716,0.015351,0.021627,0.003435,59.591187,18.771255,-154.901428,,,
729862106.625763,0.810966,6.891433,53.204913,-0.113647,0.011673,0.989731,0.012919,0.03088,-0.001005,59.591187,18.771255,-154.901428,,,
729862106.629091,0.810966,6.891433,53.204913,-0.113647,0.011673,0.989731,0.012919,0.03088,-0.001005,59.591187,18.771255,-154.901428,,,
729862106.632441,0.813295,6.898765,53.20451,-0.113647,0.011673,0.989731,0.012919,0.03088,-0.001005,59.591187,18.771255,-154.901428,,,
729862106.63577,0.812819,6.905237,53.203924,-0.114685,0.013779,0.978195,0.003321,0.020781,-0.003343,59.551102,18.672989,-154.641769,,,
729862106.639118,0.812819,6.905237,53.203924,-0.114685,0.013779,0.978195,0.003321,0.020781,-0.003343,59.551102,18.672989,-154.641769,,,
729862106.64245,0.812323,6.910085,53.203098,-0.114685,0.013779,0.978195,0.003321,0.020781,-0.003343,59.551102,18.672989,-154.641769,,,
729862106.645805,0.807495,6.917699,53.202326,-0.117294,0.017349,0.969711,-0.009945,0.009337,-0.00417,59.551102,18.672989,-154.641769,,,
729862106.649155,0.807495,6.917699,53.202326,-0.117294,0.017349,0.969711,-0.009945,0.009337,-0.00417,59.551102,18.672989,-154.641769,,,
729862106.652447,0.803797,6.918382,53.201977,-0.117294,0.017349,0.969711,-0.009945,0.009337,-0.00417,59.551102,18.672989,-154.641769,,,
729862106.655763,0.796962,6.921647,53.201651,-0.115448,0.017441,0.970398,-0.016136,-0.006903,-0.004332,59.551102,18.672989,-154.641769,,,
729862106.659108,0.796962,6.921647,53.201651,-0.115448,0.017441,0.970398,-0.016136,-0.006903,-0.004332,59.551102,18.672989,-154.641769,,,
729862106.662508,0.791299,6.918394,53.200872,-0.115448,0.017441,0.970398,-0.016136,-0.006903,-0.004332,59.551102,18.672989,-154.641769,,,
729862106.665779,0.782542,6.916812,53.199051,-0.113647,0.01535,0.974243,-0.024636,-0.009596,-0.012483,59.551102,18.672989,-154.641769,,,
729862106.669109,0.782542,6.916812,53.199051,-0.113647,0.01535,0.974243,-0.024636,-0.009596,-0.012483,59.551102,18.672989,-154.641769,,,
729862106.672448,0.775101,6.913513,53.197002,-0.113647,0.01535,0.974243,-0.024636,-0.009596,-0.012483,59.551102,18.672989,-154.641769,,,
729862106.675765,0.766077,6.90914,53.19453,-0.112259,0.011826,0.983917,-0.023979,0.001826,-0.015644,59.503754,18.797806,-154.837646,,,
729862106.679105,0.766077,6.90914,53.19453,-0.112259,0.011826,0.983917,-0.023979,0.001826,-0.015644,59.503754,18.797806,-154.837646,,,
729862106.68244,0.758954,6.909427,53.190382,-0.112259,0.011826,0.983917,-0.023979,0.001826,-0.015644,59.503754,18.797806,-154.837646,,,
729862106.685766,0.75209,6.907294,53.185103,-0.112427,0.009323,0.996124,-0.016936,0.012305,-0.023073,59.503754,18.797806,-154.837646,,,
729862106.689138,0.75209,6.907294,53.185103,-0.112427,0.009323,0.996124,-0.016936,0.012305,-0.023073,59.503754,18.797806,-154.837646,,,
729862106.692446,0.746803,6.911708,53.179376,-0.112427,0.009323,0.996124,-0.016936,0.012305,-0.023073,59.503754,18.797806,-154.837646,,,
729862106.695763,0.742868,6.913992,53.173861,-0.120804,0.005753,1.00502,-0.008956,0.025824,-0.020988,59.503754,18.797806,-154.837646,,,
729862106.699098,0.742868,6.913992,53.173861,-0.120804,0.005753,1.00502,-0.008956,0.025824,-0.020988,59.503754,18.797806,-154.837646,,,
729862106.702505,0.739302,6.921031,53.169156,-0.120804,0.005753,1.00502,-0.008956,0.025824,-0.020988,59.503754,18.797806,-154.837646,,,
729862106.705757,0.736022,6.925321,53.16512,-0.128479,0.004913,1.003677,-0.007362,0.030534,-0.016435,59.503754,18.797806,-154.837646,,,
729862106.709103,0.736022,6.925321,53.16512,-0.128479,0.004913,1.003677,-0.007362,0.030534,-0.016435,59.503754,18.797806,-154.837646,,,
729862106.71245,0.733822,6.932707,53.161863,-0.128479,0.004913,1.003677,-0.007362,0.030534,-0.016435,59.503754,18.797806,-154.837646,,,
729862106.71577,0.732027,6.936708,53.159524,-0.132507,0.005783,0.998428,-0.00513,0.022371,-0.009869,59.422394,18.550049,-154.561844,,,
729862106.719114,0.732027,6.936708,53.159524,-0.132507,0.005783,0.998428,-0.00513,0.022371,-0.009869,59.422394,18.550049,-154.561844,,,
729862106.722445,0.729913,6.941693,53.158242,-0.132507,0.005783,0.998428,-0.00513,0.022371,-0.009869,59.422394,18.550049,-154.561844,,,
729862106.725766,0.728751,6.944989,53.158587,-0.137192,0.006882,0.992111,-0.00671,0.014301,0.001207,59.422394,18.550049,-154.561844,,,
729862106.729092,0.728751,6.944989,53.158587,-0.137192,0.006882,0.992111,-0.00671,0.014301,0.001207,59.422394,18.550049,-154.561844,,,
729862106.732457,0.72656,6.947331,53.160148,-0.137192,0.006882,0.992111,-0.00671,0.014301,0.001207,59.422394,18.550049,-154.561844,,,
729862106.735766,0.725064,6.947169,53.162464,-0.130676,0.007935,0.986649,-0.009471,0.002875,0.006084,59.422394,18.550049,-154.561844,,,
729862106.739104,0.725064,6.947169,53.162464,-0.130676,0.007935,0.986649,-0.009471,0.002875,0.006084,59.422394,18.550049,-154.561844,,,
729862106.74252,0.72159,6.946594,53.164594,-0.130676,0.007935,0.986649,-0.009471,0.002875,0.006084,59.422394,18.550049,-154.561844,,,
729862106.745752,0.718205,6.942822,53.165645,-0.121475,0.012161,0.98381,-0.013629,-0.004857,-0.002169,59.422394,18.550049,-154.561844,,,
729862106.749098,0.718205,6.942822,53.165645,-0.121475,0.012161,0.98381,-0.013629,-0.004857,-0.002169,59.422394,18.550049,-154.561844,,,
729862106.752455,0.713449,6.940414,53.16536,-0.121475,0.012161,0.98381,-0.013629,-0.004857,-0.002169,59.422394,18.550049,-154.561844,,,
729862106.755797,0.708552,6.934841,53.163907,-0.118591,0.009216,0.987244,-0.014016,-0.007225,-0.010676,59.422394,18.550049,-154.561844,,,
729862106.759101,0.708552,6.934841,53.163907,-0.118591,0.009216,0.987244,-0.014016,-0.007225,-0.010676,59.694946,18.561874,-154.769714,,,
729862106.762432,0.704528,6.932299,53.161802,-0.118591,0.009216,0.987244,-0.014016,-0.007225,-0.010676,59.694946,18.561874,-154.769714,,,
729862106.765835,0.700642,6.927435,53.159446,-0.119965,0.009155,0.99823,-0.009095,0.001238,-0.012158,59.694946,18.561874,-154.769714,,,
729862106.769151,0.700642,6.927435,53.159446,-0.119965,0.009155,0.99823,-0.009095,0.001238,-0.012158,59.694946,18.561874,-154.769714,,,
729862106.772427,0.697558,6.928254,53.156805,-0.119965,0.009155,0.99823,-0.009095,0.001238,-0.012158,59.694946,18.561874,-154.769714,,,
729862106.775768,0.694474,6.928685,53.154216,-0.125397,0.00853,1.000336,-0.000801,0.011799,-0.010962,59.694946,18.561874,-154.769714,,,
729862106.779105,0.694474,6.928685,53.154216,-0.125397,0.00853,1.000336,-0.000801,0.011799,-0.010962,59.694946,18.561874,-154.769714,,,
729862106.782428,0.694762,6.931351,53.151574,-0.125397,0.00853,1.000336,-0.000801,0.011799,-0.010962,59.694946,18.561874,-154.769714,,,
729862106.785764,0.696711,6.935945,53.149154,-0.128815,0.006012,1.006149,0.021084,0.010763,-0.006512,59.694946,18.561874,-154.769714,,,
729862106.789101,0.696711,6.935945,53.149154,-0.128815,0.006012,1.006149,0.021084,0.010763,-0.006512,59.694946,18.561874,-154.769714,,,
729862106.792445,0.703732,6.938245,53.147022,-0.128815,0.006012,1.006149,0.021084,0.010763,-0.006512,59.694946,18.561874,-154.769714,,,
729862106.795762,0.711806,6.944359,53.145357,-0.13176,0.004974,1.008347,0.037666,0.012135,-0.000918,59.694946,18.561874,-154.769714,,,
729862106.799088,0.711806,6.944359,53.145357,-0.13176,0.004974,1.008347,0.037666,0.012135,-0.000918,59.942398,18.728455,-155.011963,,,
729862106.802438,0.723104,6.947229,53.144445,-0.13176,0.004974,1.008347,0.037666,0.012135,-0.000918,59.942398,18.728455,-155.011963,,,
729862106.805764,0.733791,6.95664,53.144515,-0.136581,0.006561,1.003143,0.042259,0.0141,0.00715,59.942398,18.728455,-155.011963,,,
729862106.809161,0.733791,6.95664,53.144515,-0.136581,0.006561,1.003143,0.042259,0.0141,0.00715,59.942398,18.728455,-155.011963,,,
729862106.812468,0.745128,6.95957,53.14659,-0.136581,0.006561,1.003143,0.042259,0.0141,0.00715,59.942398,18.728455,-155.011963,,,
729862106.81577,0.752842,6.967459,53.150075,-0.135178,0.012009,0.985077,0.024982,0.010089,0.015491,59.942398,18.728455,-155.011963,,,
729862106.8192,0.752842,6.967459,53.150075,-0.135178,0.012009,0.985077,0.024982,0.010089,0.015491,59.942398,18.728455,-155.011963,,,
729862106.822456,0.758729,6.968692,53.154715,-0.135178,0.012009,0.985077,0.024982,0.010089,0.015491,59.942398,18.728455,-155.011963,,,
729862106.82577,0.761377,6.9696,53.160019,-0.129532,0.01828,0.970657,0.004834,0.001133,0.017749,59.942398,18.728455,-155.011963,,,
729862106.829121,0.761377,6.9696,53.160019,-0.129532,0.01828,0.970657,0.004834,0.001133,0.017749,59.942398,18.728455,-155.011963,,,
729862106.832552,0.762179,6.968063,53.165164,-0.129532,0.01828,0.970657,0.004834,0.001133,0.017749,59.942398,18.728455,-155.011963,,,
729862106.835758,0.759908,6.96438,53.16971,-0.123489,0.018921,0.975586,-0.010686,-0.008891,0.011527,59.942398,18.728455,-155.011963,,,
729862106.839099,0.759908,6.96438,53.16971,-0.123489,0.018921,0.975586,-0.010686,-0.008891,0.011527,59.508316,18.690918,-154.718369,,,
729862106.842453,0.7565,6.959695,53.173754,-0.123489,0.018921,0.975586,-0.010686,-0.008891,0.011527,59.508316,18.690918,-154.718369,,,
729862106.845763,0.751997,6.951962,53.177585,-0.120285,0.016357,0.981979,-0.011302,-0.02374,0.009873,59.508316,18.690918,-154.718369,,,
729862106.84911,0.751997,6.951962,53.177585,-0.120285,0.016357,0.981979,-0.011302,-0.02374,0.009873,59.508316,18.690918,-154.718369,,,
729862106.852455,0.749396,6.943768,53.18132,-0.120285,0.016357,0.981979,-0.011302,-0.02374,0.009873,59.508316,18.690918,-154.718369,,,
729862106.855764,0.747357,6.936689,53.185116,-0.119659,0.011353,0.994095,-0.001049,-0.023963,0.011569,59.508316,18.690918,-154.718369,,,
729862106.859107,0.747357,6.936689,53.185116,-0.119659,0.011353,0.994095,-0.001049,-0.023963,0.011569,59.508316,18.690918,-154.718369,,,
729862106.862459,0.748157,6.930588,53.188092,-0.119659,0.011353,0.994095,-0.001049,-0.023963,0.011569,59.508316,18.690918,-154.718369,,,
729862106.86578,0.749884,6.929663,53.19063,-0.115097,0.008224,1.011902,0.014835,-0.003214,0.010556,59.508316,18.690918,-154.718369,,,
729862106.869159,0.749884,6.929663,53.19063,-0.115097,0.008224,1.011902,0.014835,-0.003214,0.010556,59.508316,18.690918,-154.718369,,,
729862106.872443,0.755786,6.929924,53.193255,-0.115097,0.008224,1.011902,0.014835,-0.003214,0.010556,59.508316,18.690918,-154.718369,,,
729862106.875764,0.762372,6.937065,53.195416,-0.115875,0.006012,1.018433,0.033541,0.021092,0.009929,59.508316,18.690918,-154.718369,,,
729862106.879098,0.762372,6.937065,53.195416,-0.115875,0.006012,1.018433,0.033541,0.021092,0.009929,59.511353,18.73056,-154.942093,,,
729862106.882492,0.772878,6.942808,53.197577,-0.115875,0.006012,1.018433,0.033541,0.021092,0.009929,59.511353,18.73056,-154.942093,,,
729862106.885753,0.782492,6.955281,53.199439,-0.121094,0.008652,1.005188,0.039089,0.02981,0.009035,59.511353,18.73056,-154.942093,,,
729862106.889124,0.782492,6.955281,53.199439,-0.121094,0.008652,1.005188,0.039089,0.02981,0.009035,59.511353,18.73056,-154.942093,,,
729862106.892445,0.793834,6.962625,53.201803,-0.121094,0.008652,1.005188,0.039089,0.02981,0.009035,59.511353,18.73056,-154.942093,,,
729862106.895762,0.804426,6.974595,53.204967,-0.12262,0.013504,0.990326,0.03841,0.018477,0.015295,59.511353,18.73056,-154.942093,,,
729862106.899101,0.804426,6.974595,53.204967,-0.12262,0.013504,0.990326,0.03841,0.018477,0.015295,59.511353,18.73056,-154.942093,,,
729862106.902443,0.815081,6.977519,53.208097,-0.12262,0.013504,0.990326,0.03841,0.018477,0.015295,59.511353,18.73056,-154.942093,,,
729862106.905757,0.824251,6.981456,53.211194,-0.12323,0.016006,0.974716,0.022236,-0.008015,0.013602,59.511353,18.73056,-154.942093,,,
729862106.909095,0.824251,6.981456,53.211194,-0.12323,0.016006,0.974716,0.022236,-0.008015,0.013602,59.511353,18.73056,-154.942093,,,
729862106.912425,0.829572,6.975728,53.214215,-0.12323,0.016006,0.974716,0.022236,-0.008015,0.013602,59.511353,18.73056,-154.942093,,,
729862106.915761,0.833343,6.968546,53.216558,-0.119736,0.020859,0.967697,0.004915,-0.035784,0.00706,59.511353,18.73056,-154.942093,,,
729862106.919147,0.833343,6.968546,53.216558,-0.119736,0.020859,0.967697,0.004915,-0.035784,0.00706,59.511353,18.73056,-154.942093,,,
729862106.922449,0.833994,6.957074,53.218384,-0.119736,0.020859,0.967697,0.004915,-0.035784,0.00706,59.393387,18.725906,-154.586395,,,
729862106.925766,0.833406,6.945778,53.219296,-0.11467,0.021545,0.976868,-0.008113,-0.036448,-0.00093,59.393387,18.725906,-154.586395,,,
729862106.929105,0.833406,6.945778,53.219296,-0.11467,0.021545,0.976868,-0.008113,-0.036448,-0.00093,59.393387,18.725906,-154.586395,,,
729862106.932526,0.830321,6.936585,53.219293,-0.11467,0.021545,0.976868,-0.008113,-0.036448,-0.00093,59.393387,18.725906,-154.586395,,,
729862106.935757,0.826174,6.931421,53.218878,-0.111771,0.016434,0.990738,-0.012674,-0.008106,-0.004383,59.393387,18.725906,-154.586395,,,
729862106.939116,0.826174,6.931421,53.218878,-0.111771,0.016434,0.990738,-0.012674,-0.008106,-0.004383,59.393387,18.725906,-154.586395,,,
729862106.94248,0.822007,6.930181,53.218923,-0.111771,0.016434,0.990738,-0.012674,-0.008106,-0.004383,59.393387,18.725906,-154.586395,,,
729862106.94576,0.817491,6.93048,53.219561,-0.114594,0.016602,0.998169,-0.00721,0.020984,0.000255,59.393387,18.725906,-154.586395,,,
729862106.94911,0.817491,6.93048,53.219561,-0.114594,0.016602,0.998169,-0.00721,0.020984,0.000255,59.393387,18.725906,-154.586395,,,
729862106.952442,0.816313,6.936892,53.220052,-0.114594,0.016602,0.998169,-0.00721,0.020984,0.000255,59.393387,18.725906,-154.586395,,,
729862106.955766,0.814873,6.943087,53.220008,-0.12001,0.015518,1.007965,0.003498,0.043062,-0.002511,59.393387,18.725906,-154.586395,,,
729862106.959097,0.814873,6.943087,53.220008,-0.12001,0.015518,1.007965,0.003498,0.043062,-0.002511,59.393387,18.725906,-154.586395,,,
729862106.962459,0.816227,6.956664,53.219309,-0.12001,0.015518,1.007965,0.003498,0.043062,-0.002511,59.449005,18.828232,-154.653793,,,
729862106.965764,0.817615,6.971707,53.21778,-0.126312,0.012695,1.012238,0.014926,0.063873,-0.007083,59.449005,18.828232,-154.653793,,,
729862106.969108,0.817615,6.971707,53.21778,-0.126312,0.012695,1.012238,0.014926,0.063873,-0.007083,59.449005,18.828232,-154.653793,,,
729862106.972475,0.821655,6.989006,53.21614,-0.126312,0.012695,1.012238,0.014926,0.063873,-0.007083,59.449005,18.828232,-154.653793,,,
729862106.975764,0.825865,7.004988,53.215601,-0.13324,0.013824,0.996292,0.018676,0.051152,0.001155,59.449005,18.828232,-154.653793,,,
729862106.979117,0.825865,7.004988,53.215601,-0.13324,0.013824,0.996292,0.018676,0.051152,0.001155,59.449005,18.828232,-154.653793,,,
729862106.982445,0.830837,7.016324,53.216311,-0.13324,0.013824,0.996292,0.018676,0.051152,0.001155,59.449005,18.828232,-154.653793,,,
729862106.985765,0.836585,7.023475,53.218335,-0.139633,0.017181,0.98259,0.020138,0.015128,0.01069,59.449005,18.828232,-154.653793,,,
729862106.989105,0.836585,7.023475,53.218335,-0.139633,0.017181,0.98259,0.020138,0.015128,0.01069,59.449005,18.828232,-154.653793,,,
729862106.992453,0.842933,7.024538,53.221318,-0.139633,0.017181,0.98259,0.020138,0.015128,0.01069,59.449005,18.828232,-154.653793,,,
729862106.995762,0.850504,7.021402,53.224646,-0.141815,0.017242,0.977539,0.020095,-0.019401,0.013228,59.449005,18.828232,-154.653793,,,
729862106.99918,0.850504,7.021402,53.224646,-0.141815,0.017242,0.977539,0.020095,-0.019401,0.013228,59.449005,18.828232,-154.653793,,,
729862107.002429,0.856783,7.013392,53.228709,-0.141815,0.017242,0.977539,0.020095,-0.019401,0.013228,59.559494,18.784134,-154.520844,,,
729862107.005759,0.865052,7.001294,53.233558,-0.132584,0.017105,0.977814,0.020956,-0.035331,0.018697,59.559494,18.784134,-154.520844,,,
729862107.009111,0.865052,7.001294,53.233558,-0.132584,0.017105,0.977814,0.020956,-0.035331,0.018697,59.559494,18.784134,-154.520844,,,
729862107.012509,0.871273,6.990357,53.239217,-0.132584,0.017105,0.977814,0.020956,-0.035331,0.018697,59.559494,18.784134,-154.520844,,,
729862107.015761,0.877311,6.976363,53.245423,-0.119339,0.018173,0.98053,0.014911,-0.028677,0.021337,59.559494,18.784134,-154.520844,,,
729862107.019108,0.877311,6.976363,53.245423,-0.119339,0.018173,0.98053,0.014911,-0.028677,0.021337,59.559494,18.784134,-154.520844,,,
729862107.022446,0.881348,6.968263,53.251441,-0.119339,0.018173,0.98053,0.014911,-0.028677,0.021337,59.559494,18.784134,-154.520844,,,
729862107.025764,0.884259,6.958402,53.25632,-0.10434,0.02301,0.978943,0.007016,-0.014382,0.011974,59.559494,18.784134,-154.520844,,,
729862107.029107,0.884259,6.958402,53.25632,-0.10434,0.02301,0.978943,0.007016,-0.014382,0.011974,59.559494,18.784134,-154.520844,,,
729862107.032431,0.885689,6.954634,53.259022,-0.10434,0.02301,0.978943,0.007016,-0.014382,0.011974,59.559494,18.784134,-154.520844,,,
729862107.035769,0.885009,6.95211,53.259858,-0.099655,0.023727,0.976028,-0.006665,0.006223,-0.003003,59.559494,18.784134,-154.520844,,,
729862107.039171,0.885009,6.95211,53.259858,-0.099655,0.023727,0.976028,-0.006665,0.006223,-0.003003,59.559494,18.784134,-154.520844,,,
729862107.042417,0.881731,6.954258,53.25927,-0.099655,0.023727,0.976028,-0.006665,0.006223,-0.003003,59.662292,18.847763,-154.386322,,,
729862107.045766,0.876169,6.959686,53.258225,-0.099609,0.022125,0.977585,-0.018108,0.024066,-0.007562,59.662292,18.847763,-154.386322,,,
729862107.049093,0.876169,6.959686,53.258225,-0.099609,0.022125,0.977585,-0.018108,0.024066,-0.007562,59.662292,18.847763,-154.386322,,,
729862107.052428,0.871029,6.966594,53.256999,-0.099609,0.022125,0.977585,-0.018108,0.024066,-0.007562,59.662292,18.847763,-154.386322,,,
729862107.055765,0.865891,6.978484,53.255607,-0.106506,0.015961,0.986801,-0.014682,0.03262,-0.007912,59.662292,18.847763,-154.386322,,,
729862107.059115,0.865891,6.978484,53.255607,-0.106506,0.015961,0.986801,-0.014682,0.03262,-0.007912,59.662292,18.847763,-154.386322,,,
729862107.062484,0.862044,6.987145,53.254194,-0.106506,0.015961,0.986801,-0.014682,0.03262,-0.007912,59.662292,18.847763,-154.386322,,,
729862107.06578,0.859672,7.002609,53.252431,-0.114456,0.011917,0.995178,-0.007702,0.030743,-0.008833,59.662292,18.847763,-154.386322,,,
729862107.069101,0.859672,7.002609,53.252431,-0.114456,0.011917,0.995178,-0.007702,0.030743,-0.008833,59.662292,18.847763,-154.386322,,,
729862107.072426,0.857409,7.010006,53.251039,-0.114456,0.011917,0.995178,-0.007702,0.030743,-0.008833,59.662292,18.847763,-154.386322,,,
729862107.075778,0.856692,7.025534,53.249728,-0.11821,0.00975,0.995682,-0.001409,0.021738,-0.00651,59.662292,18.847763,-154.386322,,,
729862107.079108,0.856692,7.025534,53.249728,-0.11821,0.00975,0.995682,-0.001409,0.021738,-0.00651,59.662292,18.847763,-154.386322,,,
729862107.082432,0.856802,7.029592,53.248462,-0.11821,0.00975,0.995682,-0.001409,0.021738,-0.00651,59.662292,18.847763,-154.386322,,,
729862107.085769,0.858314,7.037481,53.2471,-0.119476,0.010513,0.994827,0.00514,0.004411,-0.005699,59.735184,18.87381,-155.022797,,,
729862107.089147,0.858314,7.037481,53.2471,-0.119476,0.010513,0.994827,0.00514,0.004411,-0.005699,59.735184,18.87381,-155.022797,,,
729862107.09243,0.859371,7.037206,53.245203,-0.119476,0.010513,0.994827,0.00514,0.004411,-0.005699,59.735184,18.87381,-155.022797,,,
729862107.095764,0.860566,7.035969,53.242542,-0.114349,0.013214,0.985748,0.003242,-0.008672,-0.011295,59.735184,18.87381,-155.022797,,,
729862107.099114,0.860566,7.035969,53.242542,-0.114349,0.013214,0.985748,0.003242,-0.008672,-0.011295,59.735184,18.87381,-155.022797,,,
729862107.102481,0.860337,7.032059,53.23917,-0.114349,0.013214,0.985748,0.003242,-0.008672,-0.011295,59.735184,18.87381,-155.022797,,,
729862107.105751,0.860337,7.032059,53.235269,-0.111938,0.014114,0.978409,-0.008129,-0.019373,-0.016997,59.735184,18.87381,-155.022797,,,
729862107.109184,0.859939,7.021193,53.235269,-0.111938,0.014114,0.978409,-0.008129,-0.019373,-0.016997,59.735184,18.87381,-155.022797,,,
729862107.112436,0.856846,7.014385,53.231175,-0.111938,0.014114,0.978409,-0.008129,-0.019373,-0.016997,59.735184,18.87381,-155.022797,,,
729862107.115762,0.855528,6.999534,53.227445,-0.111069,0.013947,0.981903,-0.009351,-0.020163,-0.015418,59.735184,18.87381,-155.022797,,,
729862107.119106,0.855528,6.999534,53.227445,-0.111069,0.013947,0.981903,-0.009351,-0.020163,-0.015418,59.735184,18.87381,-155.022797,,,
729862107.12244,0.852147,6.99321,53.223565,-0.111069,0.013947,0.981903,-0.009351,-0.020163,-0.015418,59.735184,18.87381,-155.022797,,,
729862107.12581,0.852147,6.99321,53.223565,-0.111145,0.011383,0.987137,-0.010309,-0.010147,-0.017613,59.679825,18.667297,-154.92514,,,
729862107.129096,0.850536,6.979417,53.219515,-0.111145,0.011383,0.987137,-0.010309,-0.010147,-0.017613,59.679825,18.667297,-154.92514,,,
729862107.132431,0.84723,6.976731,53.214608,-0.111145,0.011383,0.987137,-0.010309,-0.010147,-0.017613,59.679825,18.667297,-154.92514,,,
729862107.135762,0.84723,6.976731,53.214608,-0.107101,0.01236,0.989838,-0.010687,0.012577,-0.024562,59.679825,18.667297,-154.92514,,,
729862107.139114,0.844544,6.970599,53.208818,-0.107101,0.01236,0.989838,-0.010687,0.012577,-0.024562,59.679825,18.667297,-154.92514,,,
729862107.142504,0.840634,6.974712,53.202016,-0.107101,0.01236,0.989838,-0.010687,0.012577,-0.024562,59.679825,18.667297,-154.92514,,,
729862107.145756,0.840634,6.974712,53.202016,-0.107101,0.01236,0.989838,-0.006963,0.030248,-0.033339,59.679825,18.667297,-154.92514,,,
729862107.149093,0.836648,6.977984,53.193939,-0.108505,0.012848,0.989838,-0.006963,0.030248,-0.033339,59.679825,18.667297,-154.92514,,,
729862107.152425,0.833075,6.986661,53.184691,-0.108505,0.012848,0.989838,-0.006963,0.030248,-0.033339,59.679825,18.667297,-154.92514,,,
729862107.155765,0.833075,6.986661,53.174863,-0.118057,0.011124,0.985107,-0.012236,0.03161,-0.038199,59.679825,18.667297,-154.92514,,,
729862107.159133,0.827807,6.993806,53.174863,-0.118057,0.011124,0.985107,-0.012236,0.03161,-0.038199,59.679825,18.667297,-154.92514,,,
729862107.162439,0.822897,7.001707,53.164776,-0.118057,0.011124,0.985107,-0.012236,0.03161,-0.038199,59.679825,18.667297,-154.92514,,,
729862107.16577,0.822897,7.001707,53.164776,-0.118057,0.011124,0.985107,-0.012669,0.025407,-0.032495,59.778687,18.553299,-155.031738,,,
729862107.169099,0.816995,7.007759,53.155523,-0.129364,0.015427,0.979614,-0.012669,0.025407,-0.032495,59.778687,18.553299,-155.031738,,,
729862107.172433,0.81256,7.013055,53.147858,-0.129364,0.015427,0.979614,-0.012669,0.025407,-0.032495,59.778687,18.553299,-155.031738,,,
729862107.175809,0.81256,7.013055,53.142193,-0.140701,0.012283,0.981552,-0.00883,0.003886,-0.018289,59.778687,18.553299,-155.031738,,,
729862107.179183,0.808665,7.012574,53.142193,-0.140701,0.012283,0.981552,-0.00883,0.003886,-0.018289,59.778687,18.553299,-155.031738,,,
729862107.18245,0.805646,7.011134,53.138524,-0.140701,0.012283,0.981552,-0.00883,0.003886,-0.018289,59.778687,18.553299,-155.031738,,,
729862107.185765,0.805646,7.011134,53.138524,-0.140701,0.012283,0.981552,-0.012843,-0.020713,-0.005512,59.778687,18.553299,-155.031738,,,
729862107.189116,0.802051,7.00281,53.136786,-0.144592,0.00975,0.97554,-0.012843,-0.020713,-0.005512,59.778687,18.553299,-155.031738,,,
729862107.192503,0.798341,6.995173,53.136881,-0.144592,0.00975,0.97554,-0.012843,-0.020713,-0.005512,59.778687,18.553299,-155.031738,,,
729862107.195755,0.798341,6.995173,53.136881,-0.136612,0.014603,0.977478,-0.012897,-0.03172,-0.000695,59.778687,18.553299,-155.031738,,,
729862107.199107,0.79501,6.982271,53.137724,-0.136612,0.014603,0.977478,-0.012897,-0.03172,-0.000695,59.778687,18.553299,-155.031738,,,
729862107.202427,0.790706,6.972309,53.138467,-0.136612,0.014603,0.977478,-0.012897,-0.03172,-0.000695,59.778687,18.553299,-155.031738,,,
729862107.205836,0.790706,6.972309,53.138467,-0.136612,0.014603,0.977478,-0.01721,-0.023138,-0.007385,59.778687,18.553299,-155.031738,,,
729862107.209114,0.785304,6.960089,53.138381,-0.123871,0.014343,0.987213,-0.01721,-0.023138,-0.007385,59.767731,18.577072,-155.091141,,,
729862107.212445,0.780369,6.95401,53.13674,-0.123871,0.014343,0.987213,-0.01721,-0.023138,-0.007385,59.767731,18.577072,-155.091141,,,
729862107.215837,0.780369,6.95401,53.13674,-0.123871,0.014343,0.987213,-0.014546,-0.001486,-0.009074,59.767731,18.577072,-155.091141,,,
729862107.219167,0.775391,6.945992,53.134875,-0.119965,0.011993,1.00148,-0.014546,-0.001486,-0.009074,59.767731,18.577072,-155.091141,,,
729862107.222445,0.771494,6.946754,53.133663,-0.119965,0.011993,1.00148,-0.014546,-0.001486,-0.009074,59.767731,18.577072,-155.091141,,,
729862107.225828,0.771494,6.946754,53.133663,-0.119965,0.011993,1.00148,-0.008163,0.027492,-0.003022,59.767731,18.577072,-155.091141,,,
729862107.229118,0.768647,6.946004,53.133275,-0.122559,0.008621,1.006775,-0.008163,0.027492,-0.003022,59.767731,18.577072,-155.091141,,,
729862107.232428,0.765589,6.954746,53.133739,-0.122559,0.008621,1.006775,-0.008163,0.027492,-0.003022,59.767731,18.577072,-155.091141,,,
729862107.235761,0.765589,6.954746,53.133739,-0.122559,0.008621,1.006775,-0.008163,0.027492,-0.003022,59.767731,18.577072,-155.091141,,,
729862107.239109,0.761695,6.964379,53.135158,-0.129227,0.007019,1.005478,-0.011445,0.048933,0.003065,59.767731,18.577072,-155.091141,,,
729862107.242508,0.758171,6.977551,53.137498,-0.129227,0.007019,1.005478,-0.011445,0.048933,0.003065,59.767731,18.577072,-155.091141,,,
729862107.245815,0.758171,6.977551,53.137498,-0.129227,0.007019,1.005478,-0.012973,0.038905,0.012203,59.767731,18.577072,-155.091141,,,
729862107.249109,0.754771,6.991727,53.141135,-0.131897,0.008057,0.998825,-0.012973,0.038905,0.012203,59.711945,18.709579,-154.811737,,,
729862107.25245,0.751199,6.999586,53.145996,-0.131897,0.008057,0.998825,-0.012973,0.038905,0.012203,59.711945,18.709579,-154.811737,,,
729862107.255868,0.751199,6.999586,53.145996,-0.131897,0.008057,0.998825,-0.018319,0.00485,0.011455,59.711945,18.709579,-154.811737,,,
729862107.259158,0.746867,7.009791,53.150746,-0.129791,0.008972,0.98761,-0.018319,0.00485,0.011455,59.711945,18.709579,-154.811737,,,
729862107.262431,0.742472,7.007145,53.154715,-0.129791,0.008972,0.98761,-0.018319,0.00485,0.011455,59.711945,18.709579,-154.811737,,,
729862107.265774,0.742472,7.007145,53.154715,-0.129791,0.008972,0.98761,-0.018319,0.00485,0.011455,59.711945,18.709579,-154.811737,,,
729862107.269175,0.73856,7.009622,53.157815,-0.125488,0.009781,0.986053,-0.010583,-0.029777,0.007327,59.711945,18.709579,-154.811737,,,
729862107.272427,0.735671,6.998716,53.160288,-0.125488,0.009781,0.986053,-0.010583,-0.029777,0.007327,59.711945,18.709579,-154.811737,,,
729862107.275866,0.735671,6.998716,53.160288,-0.125488,0.009781,0.986053,-0.010583,-0.029777,0.007327,59.711945,18.709579,-154.811737,,,
729862107.279093,0.733909,6.993174,53.162194,-0.122635,0.008163,0.995667,-0.004993,-0.049469,0.004773,59.711945,18.709579,-154.811737,,,
729862107.282429,0.733633,6.977697,53.163986,-0.122635,0.008163,0.995667,-0.004993,-0.049469,0.004773,59.711945,18.709579,-154.811737,,,
729862107.285859,0.733633,6.977697,53.163986,-0.122635,0.008163,0.995667,-0.004993,-0.049469,0.004773,59.711945,18.709579,-154.811737,,,
729862107.289091,0.736008,6.964657,53.166277,-0.118317,0.005829,1.001526,0.009527,-0.051392,0.010296,59.747803,18.674332,-154.779373,,,
729862107.292437,0.739481,6.950139,53.169108,-0.118317,0.005829,1.001526,0.009527,-0.051392,0.010296,59.747803,18.674332,-154.779373,,,
729862107.295833,0.739481,6.950139,53.169108,-0.118317,0.005829,1.001526,0.009527,-0.051392,0.010296,59.747803,18.674332,-154.779373,,,
729862107.299019,0.743816,6.938026,53.17141,-0.11174,0.007004,1.010452,0.016122,-0.029032,0.007224,59.747803,18.674332,-154.779373,,,
729862107.302449,0.748693,6.932256,53.172842,-0.11174,0.007004,1.010452,0.016122,-0.029032,0.007224,59.747803,18.674332,-154.779373,,,
729862107.305765,0.748693,6.932256,53.172842,-0.11174,0.007004,1.010452,0.016122,-0.029032,0.007224,59.747803,18.674332,-154.779373,,,
729862107.30917,0.752876,6.933182,53.173308,-0.105164,0.009232,1.017746,0.018107,0.017855,0.000741,59.747803,18.674332,-154.779373,,,
729862107.312423,0.757647,6.940758,53.172676,-0.105164,0.009232,1.017746,0.018107,0.017855,0.000741,59.747803,18.674332,-154.779373,,,
729862107.31587,0.757647,6.940758,53.172676,-0.105164,0.009232,1.017746,0.018107,0.017855,0.000741,59.747803,18.674332,-154.779373,,,
729862107.319115,0.760273,6.955425,53.171007,-0.109222,0.010223,1.01178,0.013889,0.054535,-0.006886,59.747803,18.674332,-154.779373,,,
729862107.322432,0.763958,6.970365,53.169088,-0.109222,0.010223,1.01178,0.013889,0.054535,-0.006886,59.747803,18.674332,-154.779373,,,
729862107.32582,0.763958,6.970365,53.169088,-0.109222,0.010223,1.01178,0.013889,0.054535,-0.006886,59.747803,18.674332,-154.779373,,,
729862107.32911,0.765573,6.98859,53.166761,-0.117264,0.015091,0.994629,0.008448,0.049003,-0.010082,59.756012,18.867371,-155.006622,,,
729862107.332436,0.767204,6.999944,53.164006,-0.117264,0.015091,0.994629,0.008448,0.049003,-0.010082,59.756012,18.867371,-155.006622,,,
729862107.335798,0.767204,6.999944,53.164006,-0.117264,0.015091,0.994629,0.008448,0.049003,-0.010082,59.756012,18.867371,-155.006622,,,
729862107.339089,0.767221,7.011407,53.161129,-0.127579,0.015945,0.983795,0.005243,0.024126,-0.011042,59.756012,18.867371,-155.006622,,,
729862107.34243,0.768157,7.015145,53.158097,-0.127579,0.015945,0.983795,0.005243,0.024126,-0.011042,59.756012,18.867371,-155.006622,,,
729862107.345788,0.768157,7.015145,53.158097,-0.127579,0.015945,0.983795,0.005243,0.024126,-0.011042,59.756012,18.867371,-155.006622,,,
729862107.34913,0.768181,7.016254,53.155852,-0.139877,0.009155,0.983368,0.004515,-0.008146,-0.005403,59.756012,18.867371,-155.006622,,,
729862107.35247,0.768941,7.010882,53.155029,-0.139877,0.009155,0.983368,0.004515,-0.008146,-0.005403,59.756012,18.867371,-155.006622,,,
729862107.355806,0.768941,7.010882,53.155029,-0.139877,0.009155,0.983368,0.004515,-0.008146,-0.005403,59.756012,18.867371,-155.006622,,,
729862107.359115,0.768212,7.002733,53.156356,-0.143051,0.013046,0.979614,0.000601,-0.030544,0.009205,59.756012,18.867371,-155.006622,,,
729862107.362431,0.768662,6.992617,53.159902,-0.143051,0.013046,0.979614,0.000601,-0.030544,0.009205,59.756012,18.867371,-155.006622,,,
729862107.365782,0.768662,6.992617,53.159902,-0.143051,0.013046,0.979614,0.000601,-0.030544,0.009205,59.756012,18.867371,-155.006622,,,
729862107.369109,0.767123,6.981214,53.164182,-0.13385,0.016632,0.980972,-0.00401,-0.030567,0.013672,59.756012,18.867371,-155.006622,,,
729862107.372433,0.766011,6.972748,53.168396,-0.13385,0.016632,0.980972,-0.00401,-0.030567,0.013672,59.972702,18.579666,-154.930923,,,
729862107.375901,0.766011,6.972748,53.168396,-0.13385,0.016632,0.980972,-0.00401,-0.030567,0.013672,59.972702,18.579666,-154.930923,,,
729862107.379105,0.762443,6.963476,53.172358,-0.125092,0.017685,0.985291,-0.01061,-0.009221,0.010641,59.972702,18.579666,-154.930923,,,
729862107.382443,0.759527,6.961133,53.175756,-0.125092,0.017685,0.985291,-0.01061,-0.009221,0.010641,59.972702,18.579666,-154.930923,,,
729862107.385768,0.759527,6.961133,53.175756,-0.125092,0.017685,0.985291,-0.01061,-0.009221,0.010641,59.972702,18.579666,-154.930923,,,
729862107.389112,0.755757,6.954481,53.178923,-0.126343,0.015945,0.993118,-0.010669,0.010303,0.008347,59.972702,18.579666,-154.930923,,,
729862107.392122,0.752996,6.957205,53.182427,-0.126343,0.015945,0.993118,-0.010669,0.010303,0.008347,59.972702,18.579666,-154.930923,,,
729862107.395746,0.752996,6.957205,53.182427,-0.126343,0.015945,0.993118,-0.010669,0.010303,0.008347,59.972702,18.579666,-154.930923,,,
729862107.399149,0.750168,6.954224,53.186815,-0.129669,0.013092,0.99736,-0.005411,0.015384,0.014591,59.972702,18.579666,-154.930923,,,
729862107.402502,0.75,6.957539,53.192145,-0.129669,0.013092,0.99736,-0.005411,0.015384,0.014591,59.972702,18.579666,-154.930923,,,
729862107.405766,0.75,6.957539,53.192145,-0.129669,0.013092,0.99736,-0.005411,0.015384,0.014591,59.972702,18.579666,-154.930923,,,
729862107.40911,0.751718,6.957282,53.198575,-0.129868,0.010162,0.995773,0.005164,0.011978,0.023334,59.972702,18.579666,-154.930923,,,
729862107.412507,0.754026,6.959028,53.205408,-0.129868,0.010162,0.995773,0.005164,0.011978,0.023334,59.914581,18.597427,-154.665756,,,
729862107.415865,0.754026,6.959028,53.205408,-0.129868,0.010162,0.995773,0.005164,0.011978,0.023334,59.914581,18.597427,-154.665756,,,
729862107.419114,0.758144,6.960972,53.211415,-0.123566,0.012085,0.991776,0.012746,-0.000594,0.018681,59.914581,18.597427,-154.665756,,,
729862107.422438,0.763108,6.958625,53.215347,-0.123566,0.012085,0.991776,0.012746,-0.000594,0.018681,59.914581,18.597427,-154.665756,,,
729862107.425865,0.763108,6.958625,53.215347,-0.123566,0.012085,0.991776,0.012746,-0.000594,0.018681,59.914581,18.597427,-154.665756,,,
729862107.429109,0.768587,6.960733,53.216593,-0.113663,0.011124,0.991302,0.022583,-0.017952,0.001638,59.914581,18.597427,-154.665756,,,
729862107.432444,0.775276,6.954808,53.215632,-0.113663,0.011124,0.991302,0.022583,-0.017952,0.001638,59.914581,18.597427,-154.665756,,,
729862107.435787,0.775276,6.954808,53.215632,-0.113663,0.011124,0.991302,0.022583,-0.017952,0.001638,59.914581,18.597427,-154.665756,,,
729862107.439198,0.781474,6.960191,53.212564,-0.11116,0.009888,0.996689,0.024101,-0.009588,-0.012015,59.914581,18.597427,-154.665756,,,
729862107.442433,0.786836,6.958813,53.208958,-0.11116,0.009888,0.996689,0.024101,-0.009588,-0.012015,59.914581,18.597427,-154.665756,,,
729862107.445787,0.786836,6.958813,53.208958,-0.11116,0.009888,0.996689,0.024101,-0.009588,-0.012015,59.914581,18.597427,-154.665756,,,
729862107.449115,0.79079,6.968481,53.20599,-0.114258,0.013657,0.99765,0.009712,0.019462,-0.008605,59.914581,18.597427,-154.665756,,,
729862107.452435,0.792301,6.975265,53.204759,-0.114258,0.013657,0.99765,0.009712,0.019462,-0.008605,60.09816,18.615723,-154.67131,,,
729862107.455787,0.792301,6.975265,53.204759,-0.114258,0.013657,0.99765,0.009712,0.019462,-0.008605,60.09816,18.615723,-154.67131,,,
729862107.459123,0.793155,6.987152,53.205614,-0.121979,0.012009,0.992859,-0.001695,0.035568,0.004918,60.09816,18.615723,-154.67131,,,
729862107.462434,0.79257,6.997237,53.207954,-0.121979,0.012009,0.992859,-0.001695,0.035568,0.004918,60.09816,18.615723,-154.67131,,,
729862107.465853,0.79257,6.997237,53.207954,-0.121979,0.012009,0.992859,-0.001695,0.035568,0.004918,60.09816,18.615723,-154.67131,,,
729862107.469116,0.793435,7.009076,53.210848,-0.120895,0.01358,0.992584,0.002934,0.03992,0.009502,60.09816,18.615723,-154.67131,,,
729862107.472432,0.794695,7.018992,53.2132,-0.120895,0.01358,0.992584,0.002934,0.03992,0.009502,60.09816,18.615723,-154.67131,,,
729862107.475781,0.794695,7.018992,53.2132,-0.120895,0.01358,0.992584,0.002934,0.03992,0.009502,60.09816,18.615723,-154.67131,,,
729862107.479175,0.796918,7.029486,53.214317,-0.122147,0.01358,0.997635,0.01172,0.025143,0.002096,60.09816,18.615723,-154.67131,,,
729862107.482518,0.80131,7.034795,53.214336,-0.122147,0.01358,0.997635,0.01172,0.025143,0.002096,60.09816,18.615723,-154.67131,,,
729862107.485767,0.80131,7.034795,53.214336,-0.122147,0.01358,0.997635,0.01172,0.025143,0.002096,60.09816,18.615723,-154.67131,,,
729862107.48912,0.807026,7.039702,53.21367,-0.122253,0.011353,0.998947,0.026971,0.002772,-0.000552,60.09816,18.615723,-154.67131,,,
729862107.492438,0.814898,7.037531,53.212703,-0.122253,0.011353,0.998947,0.026971,0.002772,-0.000552,60.039139,18.72229,-154.741226,,,
729862107.495777,0.814898,7.037531,53.212703,-0.122253,0.011353,0.998947,0.026971,0.002772,-0.000552,60.039139,18.72229,-154.741226,,,
729862107.499126,0.822084,7.03344,53.211643,-0.120865,0.012177,0.986725,0.025937,-0.02162,-0.001087,60.039139,18.72229,-154.741226,,,
729862107.50249,0.827837,7.026221,53.210664,-0.120865,0.012177,0.986725,0.025937,-0.02162,-0.001087,60.039139,18.72229,-154.741226,,,
729862107.505783,0.827837,7.026221,53.210664,-0.120865,0.012177,0.986725,0.025937,-0.02162,-0.001087,60.039139,18.72229,-154.741226,,,
729862107.509138,0.8305,7.016324,53.209294,-0.116364,0.018539,0.976395,0.007751,-0.020022,-0.006333,60.039139,18.72229,-154.741226,,,
729862107.512442,0.831354,7.010395,53.207498,-0.116364,0.018539,0.976395,0.007751,-0.020022,-0.006333,60.039139,18.72229,-154.741226,,,
729862107.515765,0.831354,7.010395,53.207498,-0.116364,0.018539,0.976395,0.007751,-0.020022,-0.006333,60.039139,18.72229,-154.741226,,,
729862107.519126,0.82953,7.001739,53.205363,-0.114304,0.018768,0.981537,-0.002812,-0.007242,-0.010461,60.039139,18.72229,-154.741226,,,
729862107.52247,0.826956,7.000877,53.203002,-0.114304,0.018768,0.981537,-0.002812,-0.007242,-0.010461,60.039139,18.72229,-154.741226,,,
729862107.52576,0.826956,7.000877,53.203002,-0.114304,0.018768,0.981537,-0.002812,-0.007242,-0.010461,60.039139,18.72229,-154.741226,,,
729862107.529208,0.822407,7.000033,53.200782,-0.114471,0.016693,0.986679,-0.014931,0.019792,-0.011397,60.039139,18.72229,-154.741226,,,
729862107.532444,0.816984,7.006455,53.199402,-0.114471,0.016693,0.986679,-0.014931,0.019792,-0.011397,60.039139,18.72229,-154.741226,,,
729862107.535768,0.816984,7.006455,53.199402,-0.114471,0.016693,0.986679,-0.014931,0.019792,-0.011397,59.847534,18.690216,-154.838638,,,
729862107.539103,0.809977,7.014606,53.199479,-0.119232,0.0177,0.98613,-0.024023,0.037518,-0.002345,59.847534,18.690216,-154.838638,,,
729862107.542433,0.802978,7.025061,53.20011,-0.119232,0.0177,0.98613,-0.024023,0.037518,-0.002345,59.847534,18.690216,-154.838638,,,
729862107.545793,0.802978,7.025061,53.20011,-0.119232,0.0177,0.98613,-0.024023,0.037518,-0.002345,59.847534,18.690216,-154.838638,,,
729862107.549118,0.796136,7.034929,53.200773,-0.125717,0.016388,0.982513,-0.021869,0.036597,-0.001921,59.847534,18.690216,-154.838638,,,
729862107.552431,0.790012,7.044118,53.201302,-0.125717,0.016388,0.982513,-0.021869,0.036597,-0.001921,59.847534,18.690216,-154.838638,,,
729862107.555838,0.790012,7.044118,53.201302,-0.125717,0.016388,0.982513,-0.021869,0.036597,-0.001921,59.847534,18.690216,-154.838638,,,
729862107.559106,0.785305,7.050614,53.201752,-0.12735,0.013931,0.983871,-0.012282,0.023438,-0.001381,59.847534,18.690216,-154.838638,,,
729862107.562433,0.78211,7.055616,53.201916,-0.12735,0.013931,0.983871,-0.012282,0.023438,-0.001381,59.847534,18.690216,-154.838638,,,
729862107.565776,0.78211,7.055616,53.201916,-0.12735,0.013931,0.983871,-0.012282,0.023438,-0.001381,59.847534,18.690216,-154.838638,,,
729862107.569154,0.779692,7.057438,53.202042,-0.127686,0.013489,0.985291,-0.00386,0.006954,-0.000683,59.847534,18.690216,-154.838638,,,
729862107.57243,0.779121,7.056553,53.202444,-0.127686,0.013489,0.985291,-0.00386,0.006954,-0.000683,59.847534,18.690216,-154.838638,,,
729862107.575762,0.779121,7.056553,53.202444,-0.127686,0.013489,0.985291,-0.00386,0.006954,-0.000683,60.05571,18.556976,-154.755081,,,
729862107.579126,0.779696,7.051801,53.20273,-0.123856,0.012573,0.983734,0.006199,-0.017581,-0.000318,60.05571,18.556976,-154.755081,,,
729862107.582429,0.781938,7.045306,53.202424,-0.123856,0.012573,0.983734,0.006199,-0.017581,-0.000318,60.05571,18.556976,-154.755081,,,
729862107.585784,0.781938,7.045306,53.202424,-0.123856,0.012573,0.983734,0.006199,-0.017581,-0.000318,60.05571,18.556976,-154.755081,,,
729862107.589113,0.785469,7.03664,53.201033,-0.121017,0.005707,0.987869,0.010837,-0.024361,-0.00746,60.05571,18.556976,-154.755081,,,
729862107.592433,0.78862,7.028794,53.198392,-0.121017,0.005707,0.987869,0.010837,-0.024361,-0.00746,60.05571,18.556976,-154.755081,,,
729862107.595763,0.78862,7.028794,53.198392,-0.121017,0.005707,0.987869,0.010837,-0.024361,-0.00746,60.05571,18.556976,-154.755081,,,
729862107.59911,0.793477,7.019697,53.195298,-0.116241,0.009933,0.996841,0.015163,-0.015451,-0.01029,60.05571,18.556976,-154.755081,,,
729862107.602436,0.796607,7.016155,53.192465,-0.116241,0.009933,0.996841,0.015163,-0.015451,-0.01029,60.05571,18.556976,-154.755081,,,
729862107.605863,0.796607,7.016155,53.192465,-0.116241,0.009933,0.996841,0.015163,-0.015451,-0.01029,60.05571,18.556976,-154.755081,,,
729862107.609107,0.799217,7.013969,53.190735,-0.11676,0.012604,0.996323,0.005612,0.01237,-0.004009,60.05571,18.556976,-154.755081,,,
729862107.612441,0.799921,7.01833,53.19061,-0.11676,0.012604,0.996323,0.005612,0.01237,-0.004009,60.05571,18.556976,-154.755081,,,
729862107.615772,0.799921,7.01833,53.19061,-0.11676,0.012604,0.996323,0.005612,0.01237,-0.004009,59.828842,18.687271,-154.373138,,,
729862107.619166,0.800446,7.023139,53.191452,-0.117279,0.013992,0.990707,-0.000875,0.025219,0.001871,59.828842,18.687271,-154.373138,,,
729862107.622422,0.799869,7.029271,53.191859,-0.117279,0.013992,0.990707,-0.000875,0.025219,0.001871,59.828842,18.687271,-154.373138,,,
729862107.625787,0.799869,7.029271,53.191859,-0.117279,0.013992,0.990707,-0.000875,0.025219,0.001871,59.828842,18.687271,-154.373138,,,
729862107.629125,0.799738,7.035127,53.191521,-0.115234,0.016556,0.982834,-0.002137,0.015796,-0.00338,59.828842,18.687271,-154.373138,,,
729862107.63243,0.798039,7.037718,53.189954,-0.115234,0.016556,0.982834,-0.002137,0.015796,-0.00338,59.828842,18.687271,-154.373138,,,
729862107.635783,0.798039,7.037718,53.189954,-0.115234,0.016556,0.982834,-0.002137,0.015796,-0.00338,59.828842,18.687271,-154.373138,,,
729862107.639116,0.795255,7.040696,53.187188,-0.114655,0.015884,0.975128,-0.0093,0.000999,-0.012491,59.828842,18.687271,-154.373138,,,
729862107.642436,0.79099,7.039939,53.183483,-0.114655,0.015884,0.975128,-0.0093,0.000999,-0.012491,59.828842,18.687271,-154.373138,,,
729862107.645846,0.79099,7.039939,53.183483,-0.114655,0.015884,0.975128,-0.0093,0.000999,-0.012491,59.828842,18.687271,-154.373138,,,
729862107.649114,0.783918,7.042407,53.17848,-0.113083,0.017395,0.979111,-0.026248,0.007411,-0.023489,59.828842,18.687271,-154.373138,,,
729862107.652447,0.774847,7.043932,53.172938,-0.113083,0.017395,0.979111,-0.026248,0.007411,-0.023489,59.828842,18.687271,-154.373138,,,
729862107.655854,0.774847,7.043932,53.172938,-0.113083,0.017395,0.979111,-0.026248,0.007411,-0.023489,59.855469,18.861755,-154.61142,,,
729862107.659095,0.765527,7.04806,53.167766,-0.122467,0.017624,0.985443,-0.028437,0.01179,-0.020953,59.855469,18.861755,-154.61142,,,
729862107.662438,0.75703,7.050665,53.164423,-0.122467,0.017624,0.985443,-0.028437,0.01179,-0.020953,59.855469,18.861755,-154.61142,,,
729862107.665806,0.75703,7.050665,53.164423,-0.122467,0.017624,0.985443,-0.028437,0.01179,-0.020953,59.855469,18.861755,-154.61142,,,
729862107.669135,0.748127,7.052538,53.163239,-0.135529,0.011475,0.990433,-0.023098,0.008265,-0.005128,59.855469,18.861755,-154.61142,,,
729862107.672528,0.742497,7.053395,53.163747,-0.135529,0.011475,0.990433,-0.023098,0.008265,-0.005128,59.855469,18.861755,-154.61142,,,
729862107.675757,0.742497,7.053395,53.163747,-0.135529,0.011475,0.990433,-0.023098,0.008265,-0.005128,59.855469,18.861755,-154.61142,,,
729862107.679107,0.738349,7.051391,53.165883,-0.136841,0.010483,0.997665,-0.008285,0.002662,0.007934,59.855469,18.861755,-154.61142,,,
729862107.68244,0.73711,7.050877,53.168461,-0.136841,0.010483,0.997665,-0.008285,0.002662,0.007934,59.855469,18.861755,-154.61142,,,
729862107.685847,0.73711,7.050877,53.168461,-0.136841,0.010483,0.997665,-0.008285,0.002662,0.007934,59.855469,18.861755,-154.61142,,,
729862107.689104,0.738125,7.046309,53.170548,-0.134186,0.008469,1.000198,0.008077,-0.00554,0.006276,59.855469,18.861755,-154.61142,,,
729862107.692439,0.741506,7.043288,53.172486,-0.134186,0.008469,1.000198,0.008077,-0.00554,0.006276,59.855469,18.861755,-154.61142,,,
729862107.695784,0.741506,7.043288,53.172486,-0.134186,0.008469,1.000198,0.008077,-0.00554,0.006276,59.855469,18.861755,-154.61142,,,
729862107.699162,0.74638,7.036624,53.174511,-0.12999,0.009323,0.995911,0.01811,-0.016001,0.007963,59.907242,18.709915,-154.451935,,,
729862107.702426,0.751503,7.031159,53.176312,-0.12999,0.009323,0.995911,0.01811,-0.016001,0.007963,59.907242,18.709915,-154.451935,,,
729862107.70583,0.751503,7.031159,53.176312,-0.12999,0.009323,0.995911,0.01811,-0.016001,0.007963,59.907242,18.709915,-154.451935,,,
729862107.70915,0.756613,7.023825,53.177654,-0.12471,0.013107,0.987656,0.014375,-0.012718,0.004045,59.907242,18.709915,-154.451935,,,
729862107.712465,0.759103,7.02041,53.178523,-0.12471,0.013107,0.987656,0.014375,-0.012718,0.004045,59.907242,18.709915,-154.451935,,,
729862107.715811,0.759103,7.02041,53.178523,-0.12471,0.013107,0.987656,0.014375,-0.012718,0.004045,59.907242,18.709915,-154.451935,,,
729862107.719126,0.759844,7.01676,53.179657,-0.121567,0.01796,0.983688,-0.002912,0.000418,0.003549,59.907242,18.709915,-154.451935,,,
729862107.722435,0.758198,7.016376,53.181183,-0.121567,0.01796,0.983688,-0.002912,0.000418,0.003549,59.907242,18.709915,-154.451935,,,
729862107.725877,0.758198,7.016376,53.181183,-0.121567,0.01796,0.983688,-0.002912,0.000418,0.003549,59.907242,18.709915,-154.451935,,,
729862107.729113,0.755724,7.013632,53.182395,-0.124466,0.017395,0.984161,-0.014298,0.005847,-0.000342,59.907242,18.709915,-154.451935,,,
729862107.732438,0.752291,7.01408,53.182835,-0.124466,0.017395,0.984161,-0.014298,0.005847,-0.000342,59.907242,18.709915,-154.451935,,,
729862107.735815,0.752291,7.01408,53.182835,-0.124466,0.017395,0.984161,-0.014298,0.005847,-0.000342,59.907242,18.709915,-154.451935,,,
729862107.739198,0.751776,7.013229,53.182665,-0.122803,0.014496,0.993454,-0.001785,0.003124,-0.003179,59.842621,18.678589,-154.707977,,,
729862107.742433,0.751654,7.013519,53.182408,-0.122803,0.014496,0.993454,-0.001785,0.003124,-0.003179,59.842621,18.678589,-154.707977,,,
729862107.745793,0.751654,7.013519,53.182408,-0.122803,0.014496,0.993454,-0.001785,0.003124,-0.003179,59.842621,18.678589,-154.707977,,,
729862107.749116,0.753606,7.017909,53.183022,-0.131912,0.008179,0.999283,0.01281,-0.002409,0.005273,59.842621,18.678589,-154.707977,,,
729862107.75244,0.757248,7.015438,53.185085,-0.131912,0.008179,0.999283,0.01281,-0.002409,0.005273,59.842621,18.678589,-154.707977,,,
729862107.755792,0.757248,7.015438,53.185085,-0.131912,0.008179,0.999283,0.01281,-0.002409,0.005273,59.842621,18.678589,-154.707977,,,
729862107.759104,0.761086,7.016853,53.18902,-0.134903,0.005386,0.994019,0.016858,-0.015316,0.019483,59.842621,18.678589,-154.707977,,,
729862107.762433,0.767251,7.010938,53.194903,-0.134903,0.005386,0.994019,0.016858,-0.015316,0.019483,59.842621,18.678589,-154.707977,,,
729862107.765855,0.767251,7.010938,53.194903,-0.134903,0.005386,0.994019,0.016858,-0.015316,0.019483,59.842621,18.678589,-154.707977,,,
729862107.769113,0.772911,7.008319,53.201419,-0.125916,0.009399,0.989151,0.019321,-0.02586,0.024679,59.842621,18.678589,-154.707977,,,
729862107.772438,0.77866,6.99977,53.207845,-0.125916,0.009399,0.989151,0.019321,-0.02586,0.024679,59.842621,18.678589,-154.707977,,,
729862107.775774,0.77866,6.99977,53.207845,-0.125916,0.009399,0.989151,0.019321,-0.02586,0.024679,59.842621,18.678589,-154.707977,,,
729862107.779197,0.781111,6.995008,53.212472,-0.111679,0.017105,0.982071,0.005096,-0.024028,0.010639,59.807831,18.832764,-154.538986,,,
729862107.782327,0.781982,6.987878,53.2151,-0.111679,0.017105,0.982071,0.005096,-0.024028,0.010639,59.807831,18.832764,-154.538986,,,
729862107.78581,0.781982,6.987878,53.2151,-0.111679,0.017105,0.982071,0.005096,-0.024028,0.010639,59.807831,18.832764,-154.538986,,,
729862107.789101,0.780963,6.984056,53.215575,-0.102005,0.018356,0.980057,-0.00466,-0.015296,-0.005471,59.807831,18.832764,-154.538986,,,
729862107.792436,0.778117,6.980647,53.213598,-0.102005,0.018356,0.980057,-0.00466,-0.015296,-0.005471,59.807831,18.832764,-154.538986,,,
729862107.795782,0.778117,6.980647,53.213598,-0.102005,0.018356,0.980057,-0.00466,-0.015296,-0.005471,59.807831,18.832764,-154.538986,,,
729862107.799109,0.77337,6.980762,53.21043,-0.101974,0.018753,0.979202,-0.020992,0.007897,-0.015864,59.807831,18.832764,-154.538986,,,
729862107.802429,0.76545,6.983013,53.207149,-0.101974,0.018753,0.979202,-0.020992,0.007897,-0.015864,59.807831,18.832764,-154.538986,,,
729862107.805851,0.76545,6.983013,53.207149,-0.101974,0.018753,0.979202,-0.020992,0.007897,-0.015864,59.807831,18.832764,-154.538986,,,
729862107.809114,0.757213,6.988721,53.204381,-0.113205,0.016449,0.986237,-0.03017,0.020039,-0.013184,59.807831,18.832764,-154.538986,,,
729862107.81244,0.748463,6.994062,53.202409,-0.113205,0.016449,0.986237,-0.03017,0.020039,-0.013184,59.807831,18.832764,-154.538986,,,
729862107.815787,0.748463,6.994062,53.202409,-0.113205,0.016449,0.986237,-0.03017,0.020039,-0.013184,59.807831,18.832764,-154.538986,,,
729862107.819202,0.742031,6.999203,53.201051,-0.119202,0.011597,0.994095,-0.018005,0.017416,-0.007341,59.807831,18.832764,-154.538986,,,
729862107.82243,0.737999,7.002037,53.199741,-0.119202,0.011597,0.994095,-0.018005,0.017416,-0.007341,59.687927,18.698334,-154.34137,,,
729862107.825779,0.737999,7.002037,53.199741,-0.119202,0.011597,0.994095,-0.018005,0.017416,-0.007341,59.687927,18.698334,-154.34137,,,
729862107.829124,0.736093,7.004819,53.19843,-0.126816,0.006882,1.001419,0.001444,0.000414,-0.004691,59.687927,18.698334,-154.34137,,,
729862107.83243,0.736637,7.003177,53.197515,-0.126816,0.006882,1.001419,0.001444,0.000414,-0.004691,59.687927,18.698334,-154.34137,,,
729862107.835784,0.736637,7.003177,53.197515,-0.126816,0.006882,1.001419,0.001444,0.000414,-0.004691,59.687927,18.698334,-154.34137,,,
729862107.839119,0.736829,7.005098,53.196257,-0.125366,0.008316,1.001846,0.009045,-0.010315,-0.005646,59.687927,18.698334,-154.34137,,,
729862107.842474,0.73886,7.001038,53.194927,-0.125366,0.008316,1.001846,0.009045,-0.010315,-0.005646,59.687927,18.698334,-154.34137,,,
729862107.845827,0.73886,7.001038,53.194927,-0.125366,0.008316,1.001846,0.009045,-0.010315,-0.005646,59.687927,18.698334,-154.34137,,,
729862107.84911,0.739522,6.999137,53.193582,-0.124329,0.012299,0.996674,0.008583,-0.016118,-0.005579,59.687927,18.698334,-154.34137,,,
729862107.852432,0.741462,6.993615,53.19195,-0.124329,0.012299,0.996674,0.008583,-0.016118,-0.005579,59.687927,18.698334,-154.34137,,,
729862107.855772,0.741462,6.993615,53.19195,-0.124329,0.012299,0.996674,0.008583,-0.016118,-0.005579,59.687927,18.698334,-154.34137,,,
729862107.85885,0.743402,6.985582,53.190392,-0.123322,0.013885,0.994034,0.005099,-0.018689,-0.005654,59.687927,18.698334,-154.34137,,,
