Time (sec),Pitch (deg),Roll (deg),Yaw(deg),X-Acceleration (g),Y-Acceleration (g),Z-Acceleration (g),Pitch Rate (deg/sec),Roll Rate (deg/sec),Yaw Rate (deg/sec),Magnetic Field in X direction (uT),Magnetic Field in Y direction (uT),Magnetic Field in Z Direction (uT),Latitude (deg),Longitude (deg),Altitude (m)
729860929.448325,1.340489,4.921481,50.491141,-0.083252,0.022018,0.987778,0.059544,0.029215,-0.013322,64.245285,13.440201,-145.946548,,,
729860929.451663,1.354659,4.930559,50.486582,-0.083252,0.022018,0.987778,0.059544,0.029215,-0.013322,64.245285,13.440201,-145.946548,,,
729860929.455149,1.354659,4.930559,50.486582,-0.09285,0.028778,0.967209,0.025068,0.04675,-0.006807,64.245285,13.440201,-145.946548,,,
729860929.458345,1.365076,4.942929,50.483363,-0.09285,0.028778,0.967209,0.025068,0.04675,-0.006807,64.245285,13.440201,-145.946548,,,
729860929.461647,1.368366,4.955502,50.482154,-0.09285,0.028778,0.967209,0.025068,0.04675,-0.006807,64.245285,13.440201,-145.946548,,,
729860929.465043,1.368366,4.955502,50.482154,-0.09285,0.028778,0.967209,-0.0204,0.04182,-0.004174,64.360657,13.327423,-146.206177,,,
729860929.468373,1.366198,4.967694,50.481887,-0.098404,0.034393,0.948471,-0.0204,0.04182,-0.004174,64.360657,13.327423,-146.206177,,,
729860929.471653,1.357509,4.977472,50.482889,-0.098404,0.034393,0.948471,-0.0204,0.04182,-0.004174,64.360657,13.327423,-146.206177,,,
729860929.475,1.357509,4.977472,50.482889,-0.098404,0.034393,0.948471,-0.0204,0.04182,-0.004174,64.360657,13.327423,-146.206177,,,
729860929.478319,1.343402,4.983833,50.486044,-0.100677,0.034119,0.942978,-0.060033,0.020839,0.007302,64.360657,13.327423,-146.206177,,,
729860929.481673,1.32437,4.986598,50.491027,-0.100677,0.034119,0.942978,-0.060033,0.020839,0.007302,64.360657,13.327423,-146.206177,,,
729860929.485032,1.32437,4.986598,50.491027,-0.100677,0.034119,0.942978,-0.060033,0.020839,0.007302,64.360657,13.327423,-146.206177,,,
729860929.488348,1.300829,4.9844,50.497741,-0.10025,0.026566,0.94809,-0.087405,-0.007581,0.016803,64.360657,13.327423,-146.206177,,,
729860929.491649,1.27523,4.978998,50.506366,-0.10025,0.026566,0.94809,-0.087405,-0.007581,0.016803,64.360657,13.327423,-146.206177,,,
729860929.495059,1.27523,4.978998,50.506366,-0.10025,0.026566,0.94809,-0.087405,-0.007581,0.016803,64.360657,13.327423,-146.206177,,,
729860929.498321,1.24738,4.969379,50.516705,-0.09407,0.024796,0.958511,-0.095701,-0.029824,0.027923,64.360657,13.327423,-146.206177,,,
729860929.501701,1.220902,4.959332,50.527172,-0.09407,0.024796,0.958511,-0.095701,-0.029824,0.027923,64.360657,13.327423,-146.206177,,,
729860929.505155,1.220902,4.959332,50.527172,-0.09407,0.024796,0.958511,-0.095701,-0.029824,0.027923,64.360657,13.327423,-146.206177,,,
729860929.508306,1.193042,4.948225,50.536693,-0.084198,0.018845,0.981186,-0.090212,-0.029728,0.021628,64.398804,13.440079,-146.115234,,,
729860929.511669,1.168646,4.939878,50.54379,-0.084198,0.018845,0.981186,-0.090212,-0.029728,0.021628,64.398804,13.440079,-146.115234,,,
729860929.514989,1.168646,4.939878,50.54379,-0.084198,0.018845,0.981186,-0.090212,-0.029728,0.021628,64.398804,13.440079,-146.115234,,,
729860929.518382,1.145359,4.933725,50.547856,-0.069717,0.014084,1.003922,-0.069377,-0.010084,0.002206,64.398804,13.440079,-146.115234,,,
729860929.521659,1.127796,4.930957,50.548855,-0.069717,0.014084,1.003922,-0.069377,-0.010084,0.002206,64.398804,13.440079,-146.115234,,,
729860929.524986,1.127796,4.930957,50.548855,-0.069717,0.014084,1.003922,-0.069377,-0.010084,0.002206,64.398804,13.440079,-146.115234,,,
729860929.528324,1.115842,4.929656,50.546424,-0.067261,0.00769,1.019592,-0.028589,0.002845,-0.018308,64.398804,13.440079,-146.115234,,,
729860929.531713,1.110463,4.930811,50.541256,-0.067261,0.00769,1.019592,-0.028589,0.002845,-0.018308,64.398804,13.440079,-146.115234,,,
729860929.535007,1.110463,4.930811,50.541256,-0.067261,0.00769,1.019592,-0.028589,0.002845,-0.018308,64.398804,13.440079,-146.115234,,,
729860929.538325,1.111882,4.935338,50.534688,-0.070633,0.003418,1.033844,0.012755,0.020087,-0.024419,64.398804,13.440079,-146.115234,,,
729860929.541656,1.116808,4.941405,50.528188,-0.070633,0.003418,1.033844,0.012755,0.020087,-0.024419,64.398804,13.440079,-146.115234,,,
729860929.545078,1.116808,4.941405,50.528188,-0.070633,0.003418,1.033844,0.012755,0.020087,-0.024419,64.398804,13.440079,-146.115234,,,
729860929.548321,1.125973,4.950353,50.522958,-0.081146,0.001877,1.025528,0.03012,0.02734,-0.013728,64.329391,13.526596,-145.945694,,,
729860929.551647,1.134298,4.956811,50.520025,-0.081146,0.001877,1.025528,0.03012,0.02734,-0.013728,64.329391,13.526596,-145.945694,,,
729860929.555011,1.134298,4.956811,50.520025,-0.081146,0.001877,1.025528,0.03012,0.02734,-0.013728,64.329391,13.526596,-145.945694,,,
729860929.55831,1.143694,4.964196,50.519275,-0.087219,0.010025,0.995392,0.022369,0.018407,0.00115,64.329391,13.526596,-145.945694,,,
729860929.561663,1.146809,4.967891,50.520102,-0.087219,0.010025,0.995392,0.022369,0.018407,0.00115,64.329391,13.526596,-145.945694,,,
729860929.565137,1.146809,4.967891,50.520102,-0.087219,0.010025,0.995392,0.022369,0.018407,0.00115,64.329391,13.526596,-145.945694,,,
729860929.568305,1.145409,4.971911,50.522241,-0.084564,0.02066,0.974258,-0.01692,0.005779,0.007133,64.329391,13.526596,-145.945694,,,
729860929.57171,1.137385,4.972025,50.524662,-0.084564,0.02066,0.974258,-0.01692,0.005779,0.007133,64.329391,13.526596,-145.945694,,,
729860929.57503,1.137385,4.972025,50.524662,-0.084564,0.02066,0.974258,-0.01692,0.005779,0.007133,64.329391,13.526596,-145.945694,,,
729860929.578315,1.124216,4.972046,50.526536,-0.082596,0.023651,0.96994,-0.057281,-0.005597,-8e-06,64.329391,13.526596,-145.945694,,,
729860929.581649,1.106153,4.968292,50.528248,-0.082596,0.023651,0.96994,-0.057281,-0.005597,-8e-06,64.329391,13.526596,-145.945694,,,
729860929.584975,1.106153,4.968292,50.528248,-0.082596,0.023651,0.96994,-0.057281,-0.005597,-8e-06,64.329391,13.526596,-145.945694,,,
729860929.588314,1.085759,4.963176,50.52916,-0.081177,0.020752,0.975586,-0.073796,-0.017606,-0.006947,64.181091,13.637726,-146.281479,,,
729860929.59168,1.065046,4.956364,50.529384,-0.081177,0.020752,0.975586,-0.073796,-0.017606,-0.006947,64.181091,13.637726,-146.281479,,,
729860929.595082,1.065046,4.956364,50.529384,-0.081177,0.020752,0.975586,-0.073796,-0.017606,-0.006947,64.181091,13.637726,-146.281479,,,
729860929.59831,1.04613,4.947024,50.529293,-0.082169,0.016815,0.999481,-0.058157,-0.021784,-0.008073,64.181091,13.637726,-146.281479,,,
729860929.601645,1.030486,4.939447,50.529221,-0.082169,0.016815,0.999481,-0.058157,-0.021784,-0.008073,64.181091,13.637726,-146.281479,,,
729860929.605015,1.030486,4.939447,50.529221,-0.082169,0.016815,0.999481,-0.058157,-0.021784,-0.008073,64.181091,13.637726,-146.281479,,,
729860929.608366,1.01743,4.927809,50.529678,-0.086929,0.010681,1.01239,-0.033195,-0.030902,-0.002574,64.181091,13.637726,-146.281479,,,
729860929.611645,1.007635,4.915305,50.530501,-0.086929,0.010681,1.01239,-0.033195,-0.030902,-0.002574,64.181091,13.637726,-146.281479,,,
729860929.614983,1.007635,4.915305,50.530501,-0.086929,0.010681,1.01239,-0.033195,-0.030902,-0.002574,64.181091,13.637726,-146.281479,,,
729860929.618321,0.997497,4.899578,50.531551,-0.083878,0.010925,1.005554,-0.025502,-0.036122,-0.000569,64.181091,13.637726,-146.281479,,,
729860929.621697,0.9951,4.890751,50.531486,-0.083878,0.010925,1.005554,-0.025502,-0.036122,-0.000569,64.181091,13.637726,-146.281479,,,
729860929.624971,0.9951,4.890751,50.531486,-0.083878,0.010925,1.005554,-0.025502,-0.036122,-0.000569,64.181091,13.637726,-146.281479,,,
729860929.628396,0.999416,4.883869,50.529885,-0.079346,0.012634,1.024902,0.035206,-0.013769,-0.006248,64.181091,13.637726,-146.281479,,,
729860929.631651,1.010729,4.878783,50.526854,-0.079346,0.012634,1.024902,0.035206,-0.013769,-0.006248,64.249588,13.675919,-146.032288,,,
729860929.635036,1.010729,4.878783,50.526854,-0.079346,0.012634,1.024902,0.035206,-0.013769,-0.006248,64.249588,13.675919,-146.032288,,,
729860929.638321,1.022452,4.874701,50.522194,-0.076492,0.001587,1.014343,0.048481,-0.007575,-0.016531,64.249588,13.675919,-146.032288,,,
729860929.641653,1.036219,4.873579,50.515955,-0.076492,0.001587,1.014343,0.048481,-0.007575,-0.016531,64.249588,13.675919,-146.032288,,,
729860929.644981,1.036219,4.873579,50.515955,-0.076492,0.001587,1.014343,0.048481,-0.007575,-0.016531,64.249588,13.675919,-146.032288,,,
729860929.648369,1.050243,4.876498,50.509099,-0.077728,0.019379,1.007751,0.049894,0.016759,-0.020541,64.249588,13.675919,-146.032288,,,
729860929.651642,1.063353,4.881288,50.50355,-0.077728,0.019379,1.007751,0.049894,0.016759,-0.020541,64.249588,13.675919,-146.032288,,,
729860929.65498,1.063353,4.881288,50.50355,-0.077728,0.019379,1.007751,0.049894,0.016759,-0.020541,64.249588,13.675919,-146.032288,,,
729860929.658332,1.075685,4.886553,50.500188,-0.084686,0.018951,0.997162,0.033021,0.022259,-0.006741,64.249588,13.675919,-146.032288,,,
729860929.661693,1.082864,4.892748,50.499491,-0.084686,0.018951,0.997162,0.033021,0.022259,-0.006741,64.249588,13.675919,-146.032288,,,
729860929.66497,1.082864,4.892748,50.499491,-0.084686,0.018951,0.997162,0.033021,0.022259,-0.006741,64.249588,13.675919,-146.032288,,,
729860929.668353,1.086016,4.900173,50.500777,-0.086594,0.025452,0.9823,-0.001795,0.034372,0.004086,64.249588,13.675919,-146.032288,,,
729860929.671661,1.082582,4.909536,50.50298,-0.086594,0.025452,0.9823,-0.001795,0.034372,0.004086,64.169662,13.558929,-146.065979,,,
729860929.675044,1.082582,4.909536,50.50298,-0.086594,0.025452,0.9823,-0.001795,0.034372,0.004086,64.169662,13.558929,-146.065979,,,
729860929.678319,1.073068,4.918867,50.506651,-0.089447,0.030426,0.978119,-0.043611,0.042778,0.010579,64.169662,13.558929,-146.065979,,,
729860929.681653,1.059003,4.929434,50.511271,-0.089447,0.030426,0.978119,-0.043611,0.042778,0.010579,64.169662,13.558929,-146.065979,,,
729860929.684979,1.059003,4.929434,50.511271,-0.089447,0.030426,0.978119,-0.043611,0.042778,0.010579,64.169662,13.558929,-146.065979,,,
729860929.688404,1.039361,4.937556,50.516457,-0.092636,0.025742,0.969925,-0.072806,0.02642,0.011951,64.169662,13.558929,-146.065979,,,
729860929.69165,1.018256,4.941472,50.522172,-0.092636,0.025742,0.969925,-0.072806,0.02642,0.011951,64.169662,13.558929,-146.065979,,,
729860929.695048,1.018256,4.941472,50.522172,-0.092636,0.025742,0.969925,-0.072806,0.02642,0.011951,64.169662,13.558929,-146.065979,,,
729860929.698324,0.995094,4.939659,50.527333,-0.090149,0.024429,0.971329,-0.073178,-0.008699,0.007993,64.169662,13.558929,-146.065979,,,
729860929.70165,0.975929,4.933989,50.531015,-0.090149,0.024429,0.971329,-0.073178,-0.008699,0.007993,64.169662,13.558929,-146.065979,,,
729860929.70499,0.975929,4.933989,50.531015,-0.090149,0.024429,0.971329,-0.073178,-0.008699,0.007993,64.169662,13.558929,-146.065979,,,
729860929.708321,0.958927,4.922401,50.533304,-0.089813,0.014618,0.986267,-0.053274,-0.038053,-0.000209,64.169662,13.558929,-146.065979,,,
729860929.711657,0.945944,4.909642,50.53413,-0.089813,0.014618,0.986267,-0.053274,-0.038053,-0.000209,64.200729,13.675034,-145.672668,,,
729860929.715041,0.945944,4.909642,50.53413,-0.089813,0.014618,0.986267,-0.053274,-0.038053,-0.000209,64.200729,13.675034,-145.672668,,,
729860929.718329,0.936285,4.891763,50.534112,-0.088226,0.005615,1.000153,-0.00725,-0.055537,-0.002361,64.200729,13.675034,-145.672668,,,
729860929.721657,0.939017,4.875524,50.533567,-0.088226,0.005615,1.000153,-0.00725,-0.055537,-0.002361,64.200729,13.675034,-145.672668,,,
729860929.724993,0.939017,4.875524,50.533567,-0.088226,0.005615,1.000153,-0.00725,-0.055537,-0.002361,64.200729,13.675034,-145.672668,,,
729860929.728378,0.95014,4.85902,50.532113,-0.085541,-0.000626,1.028732,0.053426,-0.041648,-0.003778,64.200729,13.675034,-145.672668,,,
729860929.731658,0.968458,4.848417,50.529833,-0.085541,-0.000626,1.028732,0.053426,-0.041648,-0.003778,64.200729,13.675034,-145.672668,,,
729860929.734986,0.968458,4.848417,50.529833,-0.085541,-0.000626,1.028732,0.053426,-0.041648,-0.003778,64.200729,13.675034,-145.672668,,,
729860929.738345,0.991809,4.842612,50.526952,-0.078217,-0.000931,1.026978,0.083721,-0.005312,-0.005459,64.200729,13.675034,-145.672668,,,
729860929.74165,1.015339,4.8421,50.523798,-0.078217,-0.000931,1.026978,0.083721,-0.005312,-0.005459,64.200729,13.675034,-145.672668,,,
729860929.744985,1.015339,4.8421,50.523798,-0.078217,-0.000931,1.026978,0.083721,-0.005312,-0.005459,64.200729,13.675034,-145.672668,,,
729860929.748322,1.038316,4.846238,50.520776,-0.076553,0.009644,1.004288,0.072674,0.022172,-0.005399,64.200729,13.675034,-145.672668,,,
729860929.75165,1.057132,4.853378,50.517627,-0.076553,0.009644,1.004288,0.072674,0.022172,-0.005399,64.09227,13.577469,-145.930923,,,
729860929.754978,1.057132,4.853378,50.517627,-0.076553,0.009644,1.004288,0.072674,0.022172,-0.005399,64.09227,13.577469,-145.930923,,,
729860929.758365,1.074179,4.86395,50.514725,-0.081635,0.019379,0.984634,0.040406,0.037239,-0.006182,64.09227,13.577469,-145.930923,,,
729860929.761668,1.081779,4.873937,50.513081,-0.081635,0.019379,0.984634,0.040406,0.037239,-0.006182,64.09227,13.577469,-145.930923,,,
729860929.764977,1.081779,4.873937,50.513081,-0.081635,0.019379,0.984634,0.040406,0.037239,-0.006182,64.09227,13.577469,-145.930923,,,
729860929.768308,1.083824,4.885928,50.512566,-0.085953,0.024628,0.963425,-0.012366,0.034839,-0.002456,64.09227,13.577469,-145.930923,,,
729860929.771653,1.07664,4.893599,50.513522,-0.085953,0.024628,0.963425,-0.012366,0.034839,-0.002456,64.09227,13.577469,-145.930923,,,
729860929.774986,1.07664,4.893599,50.513522,-0.085953,0.024628,0.963425,-0.012366,0.034839,-0.002456,64.09227,13.577469,-145.930923,,,
729860929.778389,1.064462,4.899558,50.515929,-0.093155,0.028519,0.955109,-0.056137,0.010802,0.00424,64.09227,13.577469,-145.930923,,,
729860929.781654,1.046278,4.900028,50.51964,-0.093155,0.028519,0.955109,-0.056137,0.010802,0.00424,64.09227,13.577469,-145.930923,,,
729860929.784977,1.046278,4.900028,50.51964,-0.093155,0.028519,0.955109,-0.056137,0.010802,0.00424,64.09227,13.577469,-145.930923,,,
729860929.788378,1.023721,4.898166,50.524969,-0.095627,0.026215,0.956512,-0.087748,-0.012099,0.012944,64.09227,13.577469,-145.930923,,,
729860929.791677,0.997996,4.891821,50.531778,-0.095627,0.026215,0.956512,-0.087748,-0.012099,0.012944,64.09227,13.577469,-145.930923,,,
729860929.795012,0.997996,4.891821,50.531778,-0.095627,0.026215,0.956512,-0.087748,-0.012099,0.012944,64.014481,13.574371,-145.860733,,,
729860929.798319,0.969484,4.882794,50.538904,-0.088425,0.022614,0.968353,-0.095351,-0.036032,0.014662,64.014481,13.574371,-145.860733,,,
729860929.80175,0.943669,4.870696,50.545431,-0.088425,0.022614,0.968353,-0.095351,-0.036032,0.014662,64.014481,13.574371,-145.860733,,,
729860929.804983,0.943669,4.870696,50.545431,-0.088425,0.022614,0.968353,-0.095351,-0.036032,0.014662,64.014481,13.574371,-145.860733,,,
729860929.808329,0.918274,4.856888,50.550779,-0.081253,0.014282,0.994812,-0.069714,-0.048196,0.008697,64.014481,13.574371,-145.860733,,,
729860929.81166,0.901732,4.843376,50.553622,-0.081253,0.014282,0.994812,-0.069714,-0.048196,0.008697,64.014481,13.574371,-145.860733,,,
729860929.815062,0.901732,4.843376,50.553622,-0.081253,0.014282,0.994812,-0.069714,-0.048196,0.008697,64.014481,13.574371,-145.860733,,,
729860929.818353,0.889374,4.832282,50.5528,-0.068802,0.007324,1.029755,-0.017777,-0.021445,-0.012651,64.014481,13.574371,-145.860733,,,
729860929.821681,0.88783,4.829416,50.548261,-0.068802,0.007324,1.029755,-0.017777,-0.021445,-0.012651,64.014481,13.574371,-145.860733,,,
729860929.824986,0.88783,4.829416,50.548261,-0.068802,0.007324,1.029755,-0.017777,-0.021445,-0.012651,64.014481,13.574371,-145.860733,,,
729860929.828374,0.892435,4.832903,50.541006,-0.064316,-0.001358,1.048538,0.033692,0.03054,-0.027429,64.014481,13.574371,-145.860733,,,
729860929.831652,0.90406,4.843918,50.532045,-0.064316,-0.001358,1.048538,0.033692,0.03054,-0.027429,64.014481,13.574371,-145.860733,,,
729860929.834977,0.90406,4.843918,50.532045,-0.064316,-0.001358,1.048538,0.033692,0.03054,-0.027429,64.131241,13.568146,-146.131088,,,
729860929.838309,0.921238,4.858951,50.522692,-0.073883,-0.000687,1.03978,0.070657,0.061154,-0.027125,64.131241,13.568146,-146.131088,,,
729860929.841729,0.941571,4.876091,50.513816,-0.073883,-0.000687,1.03978,0.070657,0.061154,-0.027125,64.131241,13.568146,-146.131088,,,
729860929.844989,0.941571,4.876091,50.513816,-0.073883,-0.000687,1.03978,0.070657,0.061154,-0.027125,64.131241,13.568146,-146.131088,,,
729860929.848328,0.963743,4.893475,50.505776,-0.088898,0.00592,1.015045,0.077796,0.060931,-0.020663,64.131241,13.568146,-146.131088,,,
729860929.851656,0.983612,4.909741,50.498929,-0.088898,0.00592,1.015045,0.077796,0.060931,-0.020663,64.131241,13.568146,-146.131088,,,
729860929.854993,0.983612,4.909741,50.498929,-0.088898,0.00592,1.015045,0.077796,0.060931,-0.020663,64.131241,13.568146,-146.131088,,,
729860929.858398,1.000276,4.926667,50.493641,-0.098862,0.014572,0.986755,0.045933,0.057762,-0.012408,64.131241,13.568146,-146.131088,,,
729860929.861641,1.009184,4.941089,50.489964,-0.098862,0.014572,0.986755,0.045933,0.057762,-0.012408,64.131241,13.568146,-146.131088,,,
729860929.865045,1.009184,4.941089,50.489964,-0.098862,0.014572,0.986755,0.045933,0.057762,-0.012408,64.131241,13.568146,-146.131088,,,
729860929.868319,1.011643,4.95344,50.488016,-0.097809,0.029953,0.959442,-0.006839,0.032425,-0.004707,64.131241,13.568146,-146.131088,,,
729860929.871658,1.005722,4.957828,50.487794,-0.097809,0.029953,0.959442,-0.006839,0.032425,-0.004707,64.131241,13.568146,-146.131088,,,
729860929.874976,1.005722,4.957828,50.487794,-0.097809,0.029953,0.959442,-0.006839,0.032425,-0.004707,64.209991,13.512405,-146.186478,,,
729860929.878331,0.99297,4.953604,50.488695,-0.104874,0.033997,0.933273,-0.058667,-0.031541,-0.001253,64.209991,13.512405,-146.186478,,,
729860929.881649,0.97289,4.939892,50.491272,-0.104874,0.033997,0.933273,-0.058667,-0.031541,-0.001253,64.209991,13.512405,-146.186478,,,
729860929.884981,0.97289,4.939892,50.491272,-0.104874,0.033997,0.933273,-0.058667,-0.031541,-0.001253,64.209991,13.512405,-146.186478,,,
729860929.888321,0.947555,4.919278,50.495289,-0.104156,0.034027,0.936935,-0.09596,-0.078099,0.005678,64.209991,13.512405,-146.186478,,,
729860929.891729,0.919016,4.89493,50.500492,-0.104156,0.034027,0.936935,-0.09596,-0.078099,0.005678,64.209991,13.512405,-146.186478,,,
729860929.89497,0.919016,4.89493,50.500492,-0.104156,0.034027,0.936935,-0.09596,-0.078099,0.005678,64.209991,13.512405,-146.186478,,,
729860929.898348,0.887887,4.868796,50.507333,-0.09816,0.025528,0.962921,-0.111266,-0.0816,0.015721,64.209991,13.512405,-146.186478,,,
729860929.901668,0.856564,4.845535,50.515339,-0.09816,0.025528,0.962921,-0.111266,-0.0816,0.015721,64.209991,13.512405,-146.186478,,,
729860929.905039,0.856564,4.845535,50.515339,-0.09816,0.025528,0.962921,-0.111266,-0.0816,0.015721,64.209991,13.512405,-146.186478,,,
729860929.908302,0.826105,4.823608,50.523877,-0.084259,0.015182,0.992783,-0.098291,-0.058647,0.020331,64.209991,13.512405,-146.186478,,,
729860929.911658,0.800242,4.809708,50.531871,-0.084259,0.015182,0.992783,-0.098291,-0.058647,0.020331,64.209991,13.512405,-146.186478,,,
729860929.914977,0.800242,4.809708,50.531871,-0.084259,0.015182,0.992783,-0.098291,-0.058647,0.020331,64.215378,13.559326,-146.070572,,,
729860929.918378,0.778242,4.801327,50.537952,-0.067444,0.008209,1.021301,-0.062474,-0.011143,0.009917,64.215378,13.559326,-146.070572,,,
729860929.921663,0.76458,4.800019,50.541529,-0.067444,0.008209,1.021301,-0.062474,-0.011143,0.009917,64.215378,13.559326,-146.070572,,,
729860929.924995,0.76458,4.800019,50.541529,-0.067444,0.008209,1.021301,-0.062474,-0.011143,0.009917,64.215378,13.559326,-146.070572,,,
729860929.928349,0.758285,4.803447,50.54197,-0.060196,0.000107,1.035675,-0.005304,0.021681,-0.007179,64.215378,13.559326,-146.070572,,,
729860929.931653,0.760982,4.811066,50.538185,-0.060196,0.000107,1.035675,-0.005304,0.021681,-0.007179,64.215378,13.559326,-146.070572,,,
729860929.93499,0.760982,4.811066,50.538185,-0.060196,0.000107,1.035675,-0.005304,0.021681,-0.007179,64.215378,13.559326,-146.070572,,,
729860929.938344,0.771763,4.823341,50.530856,-0.062378,-0.006287,1.040344,0.05345,0.047444,-0.026937,64.215378,13.559326,-146.070572,,,
729860929.94166,0.788018,4.838275,50.520794,-0.062378,-0.006287,1.040344,0.05345,0.047444,-0.026937,64.215378,13.559326,-146.070572,,,
729860929.944982,0.788018,4.838275,50.520794,-0.062378,-0.006287,1.040344,0.05345,0.047444,-0.026937,64.215378,13.559326,-146.070572,,,
729860929.948328,0.806915,4.857041,50.50877,-0.07785,-0.003433,1.022232,0.066834,0.065763,-0.03933,64.215378,13.559326,-146.070572,,,
729860929.951671,0.824048,4.874458,50.497498,-0.07785,-0.003433,1.022232,0.066834,0.065763,-0.03933,64.215378,13.559326,-146.070572,,,
729860929.955078,0.824048,4.874458,50.497498,-0.07785,-0.003433,1.022232,0.066834,0.065763,-0.03933,64.215378,13.559326,-146.070572,,,
729860929.958364,0.8394,4.891009,50.488358,-0.088333,0.011078,0.986298,0.0431,0.047577,-0.026282,64.16951,13.716995,-145.919037,,,
729860929.961656,0.84779,4.901957,50.481019,-0.088333,0.011078,0.986298,0.0431,0.047577,-0.026282,64.16951,13.716995,-145.919037,,,
729860929.964995,0.84779,4.901957,50.481019,-0.088333,0.011078,0.986298,0.0431,0.047577,-0.026282,64.16951,13.716995,-145.919037,,,
729860929.96837,0.850918,4.911095,50.475313,-0.097198,0.021713,0.959122,-0.004347,0.02153,-0.018755,64.16951,13.716995,-145.919037,,,
729860929.971643,0.845042,4.913955,50.471204,-0.097198,0.021713,0.959122,-0.004347,0.02153,-0.018755,64.16951,13.716995,-145.919037,,,
729860929.974991,0.845042,4.913955,50.471204,-0.097198,0.021713,0.959122,-0.004347,0.02153,-0.018755,64.16951,13.716995,-145.919037,,,
729860929.978312,0.83241,4.913975,50.468566,-0.100479,0.027695,0.949615,-0.05822,-0.006811,-0.013055,64.16951,13.716995,-145.919037,,,
729860929.981674,0.812582,4.909902,50.467753,-0.100479,0.027695,0.949615,-0.05822,-0.006811,-0.013055,64.16951,13.716995,-145.919037,,,
729860929.984985,0.812582,4.909902,50.467753,-0.100479,0.027695,0.949615,-0.05822,-0.006811,-0.013055,64.16951,13.716995,-145.919037,,,
729860929.988311,0.788257,4.903967,50.468878,-0.100769,0.024521,0.956116,-0.09217,-0.021428,-0.002364,64.16951,13.716995,-145.919037,,,
729860929.991595,0.759574,4.896977,50.471638,-0.100769,0.024521,0.956116,-0.09217,-0.021428,-0.002364,64.16951,13.716995,-145.919037,,,
729860929.995058,0.759574,4.896977,50.471638,-0.100769,0.024521,0.956116,-0.09217,-0.021428,-0.002364,64.16951,13.716995,-145.919037,,,
729860929.998332,0.728127,4.888655,50.475783,-0.098068,0.019653,0.96907,-0.110756,-0.021625,0.005632,64.261703,13.645416,-146.167297,,,
729860930.00166,0.695988,4.881419,50.481393,-0.098068,0.019653,0.96907,-0.110756,-0.021625,0.005632,64.261703,13.645416,-146.167297,,,
729860930.004988,0.695988,4.881419,50.481393,-0.098068,0.019653,0.96907,-0.110756,-0.021625,0.005632,64.261703,13.645416,-146.167297,,,
729860930.008396,0.663212,4.871978,50.488012,-0.089096,0.019302,0.984604,-0.109814,-0.02032,0.01266,64.261703,13.645416,-146.167297,,,
729860930.01166,0.634078,4.865983,50.494728,-0.089096,0.019302,0.984604,-0.109814,-0.02032,0.01266,64.261703,13.645416,-146.167297,,,
729860930.014989,0.634078,4.865983,50.494728,-0.089096,0.019302,0.984604,-0.109814,-0.02032,0.01266,64.261703,13.645416,-146.167297,,,
729860930.01831,0.608376,4.859249,50.500729,-0.0849,0.010162,1.006226,-0.076002,-0.008435,0.010319,64.261703,13.645416,-146.167297,,,
729860930.021654,0.589822,4.856545,50.504802,-0.0849,0.010162,1.006226,-0.076002,-0.008435,0.010319,64.261703,13.645416,-146.167297,,,
729860930.024993,0.589822,4.856545,50.504802,-0.0849,0.010162,1.006226,-0.076002,-0.008435,0.010319,64.261703,13.645416,-146.167297,,,
729860930.028316,0.577267,4.854811,50.505587,-0.073639,0.004562,1.028671,-0.024481,0.005799,-0.008376,64.261703,13.645416,-146.167297,,,
729860930.031702,0.572361,4.856923,50.502919,-0.073639,0.004562,1.028671,-0.024481,0.005799,-0.008376,64.261703,13.645416,-146.167297,,,
729860930.034992,0.572361,4.856923,50.502919,-0.073639,0.004562,1.028671,-0.024481,0.005799,-0.008376,64.261703,13.645416,-146.167297,,,
729860930.038317,0.572098,4.861338,50.497852,-0.070374,-0.001007,1.035767,0.010906,0.02039,-0.0222,64.289871,13.800323,-146.244476,,,
729860930.041654,0.575924,4.866477,50.490789,-0.070374,-0.001007,1.035767,0.010906,0.02039,-0.0222,64.289871,13.800323,-146.244476,,,
729860930.045064,0.575924,4.866477,50.490789,-0.070374,-0.001007,1.035767,0.010906,0.02039,-0.0222,64.289871,13.800323,-146.244476,,,
729860930.048312,0.582731,4.873452,50.482925,-0.079742,0.002121,1.018753,0.025152,0.023242,-0.026518,64.289871,13.800323,-146.244476,,,
729860930.051662,0.588693,4.879109,50.475798,-0.079742,0.002121,1.018753,0.025152,0.023242,-0.026518,64.289871,13.800323,-146.244476,,,
729860930.054995,0.588693,4.879109,50.475798,-0.079742,0.002121,1.018753,0.025152,0.023242,-0.026518,64.289871,13.800323,-146.244476,,,
729860930.058318,0.594973,4.886615,50.470508,-0.090271,0.008545,0.997025,0.013156,0.019737,-0.014485,64.289871,13.800323,-146.244476,,,
729860930.061667,0.596214,4.890485,50.467741,-0.090271,0.008545,0.997025,0.013156,0.019737,-0.014485,64.289871,13.800323,-146.244476,,,
729860930.064992,0.596214,4.890485,50.467741,-0.090271,0.008545,0.997025,0.013156,0.019737,-0.014485,64.289871,13.800323,-146.244476,,,
729860930.068336,0.594437,4.894845,50.46729,-0.093887,0.014084,0.979553,-0.021463,0.007653,-0.001101,64.289871,13.800323,-146.244476,,,
729860930.07165,0.585905,4.894867,50.468831,-0.093887,0.014084,0.979553,-0.021463,0.007653,-0.001101,64.289871,13.800323,-146.244476,,,
729860930.075004,0.585905,4.894867,50.468831,-0.093887,0.014084,0.979553,-0.021463,0.007653,-0.001101,64.289871,13.800323,-146.244476,,,
729860930.07833,0.573772,4.89437,50.471795,-0.096771,0.01712,0.973465,-0.054451,-0.009459,0.006159,64.205612,13.937073,-146.199738,,,
729860930.081671,0.556826,4.890158,50.475948,-0.096771,0.01712,0.973465,-0.054451,-0.009459,0.006159,64.205612,13.937073,-146.199738,,,
729860930.084979,0.556826,4.890158,50.475948,-0.096771,0.01712,0.973465,-0.054451,-0.009459,0.006159,64.205612,13.937073,-146.199738,,,
729860930.088328,0.538503,4.885906,50.481037,-0.092804,0.013092,0.978699,-0.072484,-0.016019,0.011194,64.205612,13.937073,-146.199738,,,
729860930.091672,0.51709,4.880958,50.48621,-0.092804,0.013092,0.978699,-0.072484,-0.016019,0.011194,64.205612,13.937073,-146.199738,,,
729860930.095055,0.51709,4.880958,50.48621,-0.092804,0.013092,0.978699,-0.072484,-0.016019,0.011194,64.205612,13.937073,-146.199738,,,
729860930.098308,0.495803,4.877251,50.491036,-0.0849,0.010437,0.994431,-0.074478,-0.007861,0.008553,64.205612,13.937073,-146.199738,,,
729860930.101667,0.475618,4.874722,50.49518,-0.0849,0.010437,0.994431,-0.074478,-0.007861,0.008553,64.205612,13.937073,-146.199738,,,
729860930.104991,0.475618,4.874722,50.49518,-0.0849,0.010437,0.994431,-0.074478,-0.007861,0.008553,64.205612,13.937073,-146.199738,,,
729860930.108375,0.457642,4.872323,50.498268,-0.076141,0.004593,1.009811,-0.055657,0.005194,0.00257,64.205612,13.937073,-146.199738,,,
729860930.111658,0.444089,4.874372,50.5,-0.076141,0.004593,1.009811,-0.055657,0.005194,0.00257,64.205612,13.937073,-146.199738,,,
729860930.114994,0.444089,4.874372,50.5,-0.076141,0.004593,1.009811,-0.055657,0.005194,0.00257,64.205612,13.937073,-146.199738,,,
729860930.11831,0.43429,4.876201,50.499887,-0.073654,-0.002213,1.027298,-0.020899,0.023161,-0.007607,64.205612,13.937073,-146.199738,,,
729860930.121711,0.430645,4.883092,50.497678,-0.073654,-0.002213,1.027298,-0.020899,0.023161,-0.007607,64.333282,13.800186,-146.408905,,,
729860930.124978,0.430645,4.883092,50.497678,-0.073654,-0.002213,1.027298,-0.020899,0.023161,-0.007607,64.333282,13.800186,-146.408905,,,
729860930.128322,0.430898,4.890152,50.493884,-0.072403,-0.004074,1.032379,0.013306,0.035,-0.015843,64.333282,13.800186,-146.408905,,,
729860930.131656,0.436799,4.899249,50.488482,-0.072403,-0.004074,1.032379,0.013306,0.035,-0.015843,64.333282,13.800186,-146.408905,,,
729860930.135031,0.436799,4.899249,50.488482,-0.072403,-0.004074,1.032379,0.013306,0.035,-0.015843,64.333282,13.800186,-146.408905,,,
729860930.138308,0.447926,4.907986,50.481394,-0.076477,-0.004791,1.031265,0.051632,0.029482,-0.024358,64.333282,13.800186,-146.408905,,,
729860930.141727,0.46339,4.915513,50.473329,-0.076477,-0.004791,1.031265,0.051632,0.029482,-0.024358,64.333282,13.800186,-146.408905,,,
729860930.145054,0.46339,4.915513,50.473329,-0.076477,-0.004791,1.031265,0.051632,0.029482,-0.024358,64.333282,13.800186,-146.408905,,,
729860930.148419,0.481766,4.923708,50.464669,-0.088928,-0.00322,1.022797,0.065944,0.022544,-0.027174,64.333282,13.800186,-146.408905,,,
729860930.151682,0.499687,4.928203,50.456204,-0.088928,-0.00322,1.022797,0.065944,0.022544,-0.027174,64.333282,13.800186,-146.408905,,,
729860930.154994,0.499687,4.928203,50.456204,-0.088928,-0.00322,1.022797,0.065944,0.022544,-0.027174,64.333282,13.800186,-146.408905,,,
729860930.158326,0.518766,4.932509,50.449252,-0.098236,0.004715,0.996979,0.059872,-7.5e-05,-0.016911,64.333282,13.800186,-146.408905,,,
729860930.161656,0.533853,4.929103,50.444669,-0.098236,0.004715,0.996979,0.059872,-7.5e-05,-0.016911,64.248077,13.668091,-146.211319,,,
729860930.16469,0.533853,4.929103,50.444669,-0.098236,0.004715,0.996979,0.059872,-7.5e-05,-0.016911,64.248077,13.668091,-146.211319,,,
729860930.168391,0.546903,4.923135,50.442573,-0.105865,0.012665,0.977325,0.035591,-0.034268,-0.001437,64.248077,13.668091,-146.211319,,,
729860930.171698,0.554676,4.91035,50.442397,-0.105865,0.012665,0.977325,0.035591,-0.034268,-0.001437,64.248077,13.668091,-146.211319,,,
729860930.175056,0.554676,4.91035,50.442397,-0.105865,0.012665,0.977325,0.035591,-0.034268,-0.001437,64.248077,13.668091,-146.211319,,,
729860930.178315,0.557927,4.894655,50.443421,-0.106857,0.016464,0.965256,0.00129,-0.057596,0.003989,64.248077,13.668091,-146.211319,,,
729860930.181674,0.555506,4.87681,50.445828,-0.106857,0.016464,0.965256,0.00129,-0.057596,0.003989,64.248077,13.668091,-146.211319,,,
729860930.18499,0.555506,4.87681,50.445828,-0.106857,0.016464,0.965256,0.00129,-0.057596,0.003989,64.248077,13.668091,-146.211319,,,
729860930.188329,0.546889,4.8576,50.449602,-0.099213,0.018478,0.963974,-0.039358,-0.057267,0.010022,64.248077,13.668091,-146.211319,,,
729860930.191672,0.534237,4.841655,50.453889,-0.099213,0.018478,0.963974,-0.039358,-0.057267,0.010022,64.248077,13.668091,-146.211319,,,
729860930.194989,0.534237,4.841655,50.453889,-0.099213,0.018478,0.963974,-0.039358,-0.057267,0.010022,64.248077,13.668091,-146.211319,,,
729860930.198324,0.517422,4.826955,50.458676,-0.088882,0.015991,0.979797,-0.056558,-0.032127,0.011945,64.248077,13.668091,-146.211319,,,
729860930.201653,0.501205,4.819452,50.463661,-0.088882,0.015991,0.979797,-0.056558,-0.032127,0.011945,64.309784,13.571686,-146.168381,,,
729860930.204998,0.501205,4.819452,50.463661,-0.088882,0.015991,0.979797,-0.056558,-0.032127,0.011945,64.309784,13.571686,-146.168381,,,
729860930.208321,0.482222,4.814128,50.4688,-0.083954,0.010406,0.998093,-0.059736,0.002568,0.012568,64.309784,13.571686,-146.168381,,,
729860930.211666,0.46722,4.816221,50.474417,-0.083954,0.010406,0.998093,-0.059736,0.002568,0.012568,64.309784,13.571686,-146.168381,,,
729860930.215084,0.46722,4.816221,50.474417,-0.083954,0.010406,0.998093,-0.059736,0.002568,0.012568,64.309784,13.571686,-146.168381,,,
729860930.218317,0.453584,4.820761,50.480031,-0.085052,0.00415,1.014297,-0.034682,0.037332,0.014463,64.309784,13.571686,-146.168381,,,
729860930.221658,0.446146,4.832678,50.485315,-0.085052,0.00415,1.014297,-0.034682,0.037332,0.014463,64.309784,13.571686,-146.168381,,,
729860930.22501,0.446146,4.832678,50.485315,-0.085052,0.00415,1.014297,-0.034682,0.037332,0.014463,64.309784,13.571686,-146.168381,,,
729860930.228311,0.440998,4.846859,50.490055,-0.087006,-0.000992,1.022308,-0.003588,0.054544,0.013273,64.309784,13.571686,-146.168381,,,
729860930.231673,0.441817,4.861298,50.493426,-0.087006,-0.000992,1.022308,-0.003588,0.054544,0.013273,64.309784,13.571686,-146.168381,,,
729860930.235001,0.441817,4.861298,50.493426,-0.087006,-0.000992,1.022308,-0.003588,0.054544,0.013273,64.309784,13.571686,-146.168381,,,
729860930.238317,0.444596,4.875682,50.495288,-0.086868,0.001816,1.010162,0.018068,0.03923,0.0047,64.309784,13.571686,-146.168381,,,
729860930.241684,0.444596,4.875682,50.495288,-0.086868,0.001816,1.010162,0.018068,0.03923,0.0047,64.309784,13.571686,-146.168381,,,
729860930.244978,0.451233,4.883734,50.495496,-0.086868,0.001816,1.010162,0.018068,0.03923,0.0047,64.228226,13.847733,-146.185013,,,
729860930.248313,0.460365,4.891548,50.494047,-0.090286,0.003555,0.994064,0.031732,0.005869,-0.005494,64.228226,13.847733,-146.185013,,,
729860930.251655,0.460365,4.889474,50.491428,-0.090286,0.003555,0.994064,0.031732,0.005869,-0.005494,64.228226,13.847733,-146.185013,,,
729860930.255048,0.46914,4.889474,50.491428,-0.090286,0.003555,0.994064,0.031732,0.005869,-0.005494,64.228226,13.847733,-146.185013,,,
729860930.258306,0.479704,4.887406,50.488026,-0.091354,0.003799,0.983292,0.03373,-0.032401,-0.010507,64.228226,13.847733,-146.185013,,,
729860930.261664,0.479704,4.887406,50.484689,-0.091354,0.003799,0.983292,0.03373,-0.032401,-0.010507,64.228226,13.847733,-146.185013,,,
729860930.264995,0.489337,4.875213,50.484689,-0.091354,0.003799,0.983292,0.03373,-0.032401,-0.010507,64.228226,13.847733,-146.185013,,,
729860930.26831,0.500782,4.864303,50.481755,-0.089828,0.004379,0.981934,0.032367,-0.051423,-0.007604,64.228226,13.847733,-146.185013,,,
729860930.271643,0.500782,4.864303,50.481755,-0.089828,0.004379,0.981934,0.032367,-0.051423,-0.007604,64.228226,13.847733,-146.185013,,,
729860930.274981,0.508434,4.849108,50.479524,-0.089828,0.004379,0.981934,0.032367,-0.051423,-0.007604,64.228226,13.847733,-146.185013,,,
729860930.278313,0.514985,4.837458,50.47879,-0.0896,0.003922,0.982834,0.012538,-0.040577,0.001247,64.228226,13.847733,-146.185013,,,
729860930.281731,0.514985,4.826177,50.479745,-0.0896,0.003922,0.982834,0.012538,-0.040577,0.001247,64.228226,13.847733,-146.185013,,,
729860930.284979,0.516502,4.826177,50.479745,-0.0896,0.003922,0.982834,0.012538,-0.040577,0.001247,64.037613,13.641891,-146.20343,,,
729860930.288325,0.514952,4.817416,50.481908,-0.081329,0.008255,0.980942,-0.014522,-0.023361,0.007396,64.037613,13.641891,-146.20343,,,
729860930.291662,0.514952,4.817416,50.481908,-0.081329,0.008255,0.980942,-0.014522,-0.023361,0.007396,64.037613,13.641891,-146.20343,,,
729860930.295046,0.509277,4.811849,50.485236,-0.081329,0.008255,0.980942,-0.014522,-0.023361,0.007396,64.037613,13.641891,-146.20343,,,
729860930.298399,0.499539,4.809769,50.488813,-0.074203,0.010468,0.979919,-0.037117,0.001642,0.007239,64.037613,13.641891,-146.20343,,,
729860930.301643,0.499539,4.809769,50.488813,-0.074203,0.010468,0.979919,-0.037117,0.001642,0.007239,64.037613,13.641891,-146.20343,,,
729860930.304998,0.48779,4.81072,50.491968,-0.074203,0.010468,0.979919,-0.037117,0.001642,0.007239,64.037613,13.641891,-146.20343,,,
729860930.308323,0.471836,4.813972,50.49437,-0.073074,0.010345,0.983337,-0.052393,0.01741,0.000689,64.037613,13.641891,-146.20343,,,
729860930.311662,0.471836,4.813972,50.49437,-0.073074,0.010345,0.983337,-0.052393,0.01741,0.000689,64.037613,13.641891,-146.20343,,,
729860930.314986,0.456388,4.818416,50.495468,-0.073074,0.010345,0.983337,-0.052393,0.01741,0.000689,64.037613,13.641891,-146.20343,,,
729860930.318323,0.439677,4.82353,50.495272,-0.073471,0.008362,0.986374,-0.049318,0.019683,-0.008102,64.037613,13.641891,-146.20343,,,
729860930.321723,0.439677,4.828161,50.494306,-0.073471,0.008362,0.986374,-0.049318,0.019683,-0.008102,64.037613,13.641891,-146.20343,,,
729860930.324972,0.426413,4.828161,50.494306,-0.073471,0.008362,0.986374,-0.049318,0.019683,-0.008102,64.167984,13.812515,-146.190796,,,
729860930.328233,0.415787,4.833027,50.492592,-0.077621,-0.000427,1.003098,-0.022926,0.012857,-0.011064,64.167984,13.812515,-146.190796,,,
729860930.331679,0.415787,4.833027,50.492592,-0.077621,-0.000427,1.003098,-0.022926,0.012857,-0.011064,64.167984,13.812515,-146.190796,,,
729860930.334982,0.411205,4.835427,50.489881,-0.077621,-0.000427,1.003098,-0.022926,0.012857,-0.011064,64.167984,13.812515,-146.190796,,,
729860930.338315,0.410861,4.839068,50.486387,-0.081161,-0.005615,1.016525,0.012485,0.006913,-0.013496,64.167984,13.812515,-146.190796,,,
729860930.341661,0.410861,4.839068,50.486387,-0.081161,-0.005615,1.016525,0.012485,0.006913,-0.013496,64.167984,13.812515,-146.190796,,,
729860930.344992,0.415695,4.839974,50.481683,-0.081161,-0.005615,1.016525,0.012485,0.006913,-0.013496,64.167984,13.812515,-146.190796,,,
729860930.348467,0.423253,4.842032,50.475805,-0.080719,-0.001999,1.017609,0.036047,0.002268,-0.019594,64.167984,13.812515,-146.190796,,,
729860930.351787,0.423253,4.842032,50.475805,-0.080719,-0.001999,1.017609,0.036047,0.002268,-0.019594,64.167984,13.812515,-146.190796,,,
729860930.355013,0.43401,4.840669,50.469482,-0.080719,-0.001999,1.017609,0.036047,0.002268,-0.019594,64.167984,13.812515,-146.190796,,,
729860930.358326,0.445578,4.838969,50.463271,-0.08284,-0.000412,1.00708,0.047128,-0.012589,-0.017782,64.167984,13.812515,-146.190796,,,
729860930.36177,0.445578,4.838969,50.463271,-0.08284,-0.000412,1.00708,0.047128,-0.012589,-0.017782,64.167984,13.812515,-146.190796,,,
729860930.364985,0.457692,4.833852,50.45785,-0.08284,-0.000412,1.00708,0.047128,-0.012589,-0.017782,64.014801,13.892776,-146.132889,,,
729860930.368357,0.468262,4.827296,50.453111,-0.087402,0.004944,0.99675,0.036318,-0.023129,-0.013932,64.014801,13.892776,-146.132889,,,
729860930.37175,0.468262,4.827296,50.453111,-0.087402,0.004944,0.99675,0.036318,-0.023129,-0.013932,64.014801,13.892776,-146.132889,,,
729860930.375007,0.476528,4.820365,50.448765,-0.087402,0.004944,0.99675,0.036318,-0.023129,-0.013932,64.014801,13.892776,-146.132889,,,
729860930.378361,0.481451,4.812919,50.445159,-0.08638,0.011932,0.986923,0.00993,-0.013079,-0.011023,64.014801,13.892776,-146.132889,,,
729860930.381655,0.481451,4.812919,50.445159,-0.08638,0.011932,0.986923,0.00993,-0.013079,-0.011023,64.014801,13.892776,-146.132889,,,
729860930.385023,0.481702,4.809242,50.442998,-0.08638,0.011932,0.986923,0.00993,-0.013079,-0.011023,64.014801,13.892776,-146.132889,,,
729860930.388327,0.47703,4.805593,50.442331,-0.085159,0.018295,0.980423,-0.027702,0.003223,-0.003844,64.014801,13.892776,-146.132889,,,
729860930.391649,0.47703,4.805593,50.442331,-0.085159,0.018295,0.980423,-0.027702,0.003223,-0.003844,64.014801,13.892776,-146.132889,,,
729860930.395017,0.465473,4.80779,50.442751,-0.085159,0.018295,0.980423,-0.027702,0.003223,-0.003844,64.014801,13.892776,-146.132889,,,
729860930.398312,0.448363,4.811186,50.444658,-0.08255,0.021774,0.977509,-0.069245,0.028829,0.002906,64.014801,13.892776,-146.132889,,,
729860930.401662,0.448363,4.811186,50.444658,-0.08255,0.021774,0.977509,-0.069245,0.028829,0.002906,64.014801,13.892776,-146.132889,,,
729860930.404995,0.427312,4.820049,50.447752,-0.08255,0.021774,0.977509,-0.069245,0.028829,0.002906,64.014801,13.892776,-146.132889,,,
729860930.408314,0.403481,4.828902,50.451427,-0.083801,0.017593,0.984634,-0.080993,0.042343,0.005882,64.073959,13.985672,-146.416977,,,
729860930.411715,0.403481,4.828902,50.451427,-0.083801,0.017593,0.984634,-0.080993,0.042343,0.005882,64.073959,13.985672,-146.416977,,,
729860930.414994,0.380791,4.839684,50.455506,-0.083801,0.017593,0.984634,-0.080993,0.042343,0.005882,64.073959,13.985672,-146.416977,,,
729860930.418356,0.35799,4.847449,50.4591,-0.084183,0.009201,0.997467,-0.062658,0.030302,0.003973,64.073959,13.985672,-146.416977,,,
729860930.421676,0.35799,4.847449,50.4591,-0.084183,0.009201,0.997467,-0.062658,0.030302,0.003973,64.073959,13.985672,-146.416977,,,
729860930.425064,0.342707,4.853883,50.46165,-0.084183,0.009201,0.997467,-0.062658,0.030302,0.003973,64.073959,13.985672,-146.416977,,,
729860930.428307,0.331472,4.8564,50.462202,-0.083542,-0.000931,1.011658,-0.020187,0.012387,-0.006447,64.073959,13.985672,-146.416977,,,
729860930.431655,0.331472,4.8564,50.462202,-0.083542,-0.000931,1.011658,-0.020187,0.012387,-0.006447,64.073959,13.985672,-146.416977,,,
729860930.435,0.328317,4.859154,50.46009,-0.083542,-0.000931,1.011658,-0.020187,0.012387,-0.006447,64.073959,13.985672,-146.416977,,,
729860930.43832,0.329721,4.860833,50.455878,-0.082687,-0.005325,1.022263,0.022773,0.010464,-0.017524,64.073959,13.985672,-146.416977,,,
729860930.441659,0.329721,4.860833,50.455878,-0.082687,-0.005325,1.022263,0.022773,0.010464,-0.017524,64.073959,13.985672,-146.416977,,,
729860930.444991,0.336974,4.863125,50.450288,-0.082687,-0.005325,1.022263,0.022773,0.010464,-0.017524,64.073959,13.985672,-146.416977,,,
729860930.448237,0.346127,4.865714,50.444382,-0.083755,-0.002869,1.014984,0.041313,0.010722,-0.018102,64.041138,13.91716,-146.099243,,,
729860930.451732,0.346127,4.865714,50.444382,-0.083755,-0.002869,1.014984,0.041313,0.010722,-0.018102,64.041138,13.91716,-146.099243,,,
729860930.454995,0.358035,4.868216,50.439318,-0.083755,-0.002869,1.014984,0.041313,0.010722,-0.018102,64.041138,13.91716,-146.099243,,,
729860930.458392,0.371275,4.872518,50.435446,-0.085114,0.002426,0.999344,0.043194,0.018812,-0.009557,64.041138,13.91716,-146.099243,,,
729860930.461669,0.371275,4.872518,50.435446,-0.085114,0.002426,0.999344,0.043194,0.018812,-0.009557,64.041138,13.91716,-146.099243,,,
729860930.464991,0.382005,4.878139,50.433052,-0.085114,0.002426,0.999344,0.043194,0.018812,-0.009557,64.041138,13.91716,-146.099243,,,
729860930.468388,0.391725,4.886516,50.431965,-0.088516,0.007721,0.985718,0.019696,0.034147,-0.002329,64.041138,13.91716,-146.099243,,,
729860930.47172,0.391725,4.886516,50.431965,-0.088516,0.007721,0.985718,0.019696,0.034147,-0.002329,64.041138,13.91716,-146.099243,,,
729860930.475046,0.394949,4.895738,50.431515,-0.088516,0.007721,0.985718,0.019696,0.034147,-0.002329,64.041138,13.91716,-146.099243,,,
729860930.478328,0.39754,4.904719,50.432006,-0.089645,0.012253,0.970596,-0.008691,0.03272,0.001868,64.041138,13.91716,-146.099243,,,
729860930.481676,0.39754,4.904719,50.432006,-0.089645,0.012253,0.970596,-0.008691,0.03272,0.001868,64.041138,13.91716,-146.099243,,,
729860930.485003,0.393675,4.911625,50.433241,-0.089645,0.012253,0.970596,-0.008691,0.03272,0.001868,64.041138,13.91716,-146.099243,,,
729860930.488327,0.389597,4.915909,50.434938,-0.090561,0.010925,0.965988,-0.029333,0.015579,0.003304,63.950211,14.057556,-146.324631,,,
729860930.491726,0.389597,4.915909,50.434938,-0.090561,0.010925,0.965988,-0.029333,0.015579,0.003304,63.950211,14.057556,-146.324631,,,
729860930.494983,0.381282,4.91743,50.436851,-0.090561,0.010925,0.965988,-0.029333,0.015579,0.003304,63.950211,14.057556,-146.324631,,,
729860930.498328,0.375209,4.913804,50.43808,-0.091309,0.007751,0.973938,-0.021194,-0.01744,-0.000836,63.950211,14.057556,-146.324631,,,
729860930.501661,0.375209,4.913804,50.43808,-0.091309,0.007751,0.973938,-0.021194,-0.01744,-0.000836,63.950211,14.057556,-146.324631,,,
729860930.50509,0.370837,4.90552,50.438669,-0.091309,0.007751,0.973938,-0.021194,-0.01744,-0.000836,63.950211,14.057556,-146.324631,,,
729860930.508313,0.368546,4.892508,50.439024,-0.09288,0.001205,0.986923,0.001416,-0.046139,-0.000534,63.950211,14.057556,-146.324631,,,
729860930.51167,0.368546,4.892508,50.439024,-0.09288,0.001205,0.986923,0.001416,-0.046139,-0.000534,63.950211,14.057556,-146.324631,,,
729860930.514998,0.370158,4.8773,50.43949,-0.09288,0.001205,0.986923,0.001416,-0.046139,-0.000534,63.950211,14.057556,-146.324631,,,
729860930.518318,0.371493,4.85894,50.440624,-0.090912,-0.000595,0.991333,0.016038,-0.060389,0.005301,63.950211,14.057556,-146.324631,,,
729860930.521681,0.371493,4.85894,50.440624,-0.090912,-0.000595,0.991333,0.016038,-0.060389,0.005301,63.950211,14.057556,-146.324631,,,
729860930.525004,0.376307,4.840433,50.44234,-0.090912,-0.000595,0.991333,0.016038,-0.060389,0.005301,63.950211,14.057556,-146.324631,,,
729860930.528326,0.377946,4.822436,50.444338,-0.080566,0.00386,0.985748,0.009765,-0.051929,0.006756,63.906357,14.089508,-146.45311,,,
729860930.531726,0.377946,4.822436,50.444338,-0.080566,0.00386,0.985748,0.009765,-0.051929,0.006756,63.906357,14.089508,-146.45311,,,
729860930.534987,0.380528,4.80838,50.4466,-0.080566,0.00386,0.985748,0.009765,-0.051929,0.006756,63.906357,14.089508,-146.45311,,,
729860930.538324,0.380726,4.799157,50.449138,-0.070435,0.005814,0.990494,0.001122,-0.018747,0.007908,63.906357,14.089508,-146.45311,,,
729860930.541674,0.380726,4.799157,50.449138,-0.070435,0.005814,0.990494,0.001122,-0.018747,0.007908,63.906357,14.089508,-146.45311,,,
729860930.545028,0.379761,4.79562,50.451515,-0.070435,0.005814,0.990494,0.001122,-0.018747,0.007908,63.906357,14.089508,-146.45311,,,
729860930.548312,0.377988,4.799121,50.453454,-0.066528,0.005432,0.999969,-0.004226,0.021656,0.0045,63.906357,14.089508,-146.45311,,,
729860930.551659,0.377988,4.799121,50.453454,-0.066528,0.005432,0.999969,-0.004226,0.021656,0.0045,63.906357,14.089508,-146.45311,,,
729860930.554995,0.376223,4.80687,50.45447,-0.066528,0.005432,0.999969,-0.004226,0.021656,0.0045,63.906357,14.089508,-146.45311,,,
729860930.558362,0.375388,4.820415,50.45445,-0.065414,0.003021,1.006561,-0.005157,0.050439,-0.002715,63.906357,14.089508,-146.45311,,,
729860930.561659,0.375388,4.820415,50.45445,-0.065414,0.003021,1.006561,-0.005157,0.050439,-0.002715,63.906357,14.089508,-146.45311,,,
729860930.564985,0.373932,4.834122,50.454054,-0.065414,0.003021,1.006561,-0.005157,0.050439,-0.002715,63.906357,14.089508,-146.45311,,,
729860930.568322,0.374735,4.849127,50.453143,-0.071976,0.002274,1.004395,0.001595,0.043041,-0.005641,63.906357,14.089508,-146.45311,,,
729860930.571732,0.374735,4.849127,50.453143,-0.071976,0.002274,1.004395,0.001595,0.043041,-0.005641,64.227402,13.930771,-146.175858,,,
729860930.574995,0.376345,4.859606,50.45194,-0.071976,0.002274,1.004395,0.001595,0.043041,-0.005641,64.227402,13.930771,-146.175858,,,
729860930.578326,0.38004,4.86923,50.450304,-0.078903,0.001663,1.00322,0.011726,0.02451,-0.007719,64.227402,13.930771,-146.175858,,,
729860930.581668,0.38004,4.86923,50.450304,-0.078903,0.001663,1.00322,0.011726,0.02451,-0.007719,64.227402,13.930771,-146.175858,,,
729860930.584983,0.383117,4.873619,50.448334,-0.078903,0.001663,1.00322,0.011726,0.02451,-0.007719,64.227402,13.930771,-146.175858,,,
729860930.588328,0.385269,4.876085,50.446384,-0.082199,0.002701,0.994125,0.01104,-0.003593,-0.007634,64.227402,13.930771,-146.175858,,,
729860930.591668,0.385269,4.876085,50.446384,-0.082199,0.002701,0.994125,0.01104,-0.003593,-0.007634,64.227402,13.930771,-146.175858,,,
729860930.595056,0.388126,4.872557,50.444291,-0.082199,0.002701,0.994125,0.01104,-0.003593,-0.007634,64.227402,13.930771,-146.175858,,,
729860930.598303,0.387774,4.86754,50.441907,-0.081985,0.005829,0.988525,0.000724,-0.025371,-0.010476,64.227402,13.930771,-146.175858,,,
729860930.601761,0.387774,4.86754,50.441907,-0.081985,0.005829,0.988525,0.000724,-0.025371,-0.010476,64.227402,13.930771,-146.175858,,,
729860930.604986,0.386882,4.85843,50.438903,-0.081985,0.005829,0.988525,0.000724,-0.025371,-0.010476,64.227402,13.930771,-146.175858,,,
729860930.608326,0.383968,4.846761,50.435648,-0.083115,0.007385,0.987762,-0.007625,-0.042572,-0.012974,64.227402,13.930771,-146.175858,,,
729860930.611654,0.383968,4.846761,50.435648,-0.083115,0.007385,0.987762,-0.007625,-0.042572,-0.012974,64.003571,13.916336,-146.364105,,,
729860930.614981,0.380524,4.833923,50.432305,-0.083115,0.007385,0.987762,-0.007625,-0.042572,-0.012974,64.003571,13.916336,-146.364105,,,
729860930.618327,0.375819,4.81921,50.428893,-0.081726,0.006256,0.994263,-0.014525,-0.037548,-0.014161,64.003571,13.916336,-146.364105,,,
729860930.621737,0.375819,4.81921,50.428893,-0.081726,0.006256,0.994263,-0.014525,-0.037548,-0.014161,64.003571,13.916336,-146.364105,,,
729860930.624987,0.370225,4.809566,50.425844,-0.081726,0.006256,0.994263,-0.014525,-0.037548,-0.014161,64.003571,13.916336,-146.364105,,,
729860930.628319,0.363483,4.800349,50.423455,-0.081451,0.005875,1.002869,-0.021919,-0.006811,-0.010373,64.003571,13.916336,-146.364105,,,
729860930.631671,0.363483,4.800349,50.423455,-0.081451,0.005875,1.002869,-0.021919,-0.006811,-0.010373,64.003571,13.916336,-146.364105,,,
729860930.635057,0.357027,4.800121,50.422016,-0.081451,0.005875,1.002869,-0.021919,-0.006811,-0.010373,64.003571,13.916336,-146.364105,,,
729860930.638308,0.349814,4.800362,50.421335,-0.082672,0.005173,1.006195,-0.023587,0.028594,-0.005399,64.003571,13.916336,-146.364105,,,
729860930.641659,0.349814,4.800362,50.421335,-0.082672,0.005173,1.006195,-0.023587,0.028594,-0.005399,64.003571,13.916336,-146.364105,,,
729860930.644992,0.342996,4.809193,50.42082,-0.082672,0.005173,1.006195,-0.023587,0.028594,-0.005399,64.003571,13.916336,-146.364105,,,
729860930.648317,0.336074,4.817016,50.420631,-0.085617,0.005966,1.005173,-0.019042,0.044687,-0.00288,64.003571,13.916336,-146.364105,,,
729860930.651713,0.336074,4.817016,50.420631,-0.085617,0.005966,1.005173,-0.019042,0.044687,-0.00288,64.031891,14.040695,-146.255859,,,
729860930.655004,0.330625,4.829512,50.420033,-0.085617,0.005966,1.005173,-0.019042,0.044687,-0.00288,64.031891,14.040695,-146.255859,,,
729860930.658319,0.324257,4.841268,50.418725,-0.087112,0.006195,1.004547,-0.019738,0.051574,-0.007981,64.031891,14.040695,-146.255859,,,
729860930.661738,0.324257,4.841268,50.418725,-0.087112,0.006195,1.004547,-0.019738,0.051574,-0.007981,64.031891,14.040695,-146.255859,,,
729860930.665021,0.318814,4.856228,50.41707,-0.087112,0.006195,1.004547,-0.019738,0.051574,-0.007981,64.031891,14.040695,-146.255859,,,
729860930.668363,0.312506,4.87105,50.415292,-0.088501,0.004684,1.000977,-0.021639,0.054429,-0.009081,64.031891,14.040695,-146.255859,,,
729860930.671648,0.312506,4.87105,50.415292,-0.088501,0.004684,1.000977,-0.021639,0.054429,-0.009081,64.031891,14.040695,-146.255859,,,
729860930.675059,0.30612,4.885044,50.414438,-0.088501,0.004684,1.000977,-0.021639,0.054429,-0.009081,64.031891,14.040695,-146.255859,,,
729860930.678318,0.299947,4.896039,50.414726,-0.094467,0.001404,0.996964,-0.020298,0.038089,-0.000977,64.031891,14.040695,-146.255859,,,
729860930.681662,0.299947,4.896039,50.414726,-0.094467,0.001404,0.996964,-0.020298,0.038089,-0.000977,64.031891,14.040695,-146.255859,,,
729860930.684995,0.294545,4.904301,50.415361,-0.094467,0.001404,0.996964,-0.020298,0.038089,-0.000977,64.031891,14.040695,-146.255859,,,
729860930.688324,0.290443,4.910382,50.415705,-0.097,-0.000351,1.006546,-0.014576,0.024884,-0.002453,64.031891,14.040695,-146.255859,,,
729860930.691693,0.290443,4.910382,50.415705,-0.097,-0.000351,1.006546,-0.014576,0.024884,-0.002453,64.031891,14.040695,-146.255859,,,
729860930.694989,0.286745,4.915826,50.416206,-0.097,-0.000351,1.006546,-0.014576,0.024884,-0.002453,64.179642,13.862701,-146.485107,,,
729860930.698327,0.284099,4.919183,50.417461,-0.094208,-0.002655,1.017105,-0.010893,0.015813,0.003121,64.179642,13.862701,-146.485107,,,
729860930.701724,0.284099,4.919183,50.417461,-0.094208,-0.002655,1.017105,-0.010893,0.015813,0.003121,64.179642,13.862701,-146.485107,,,
729860930.70499,0.28165,4.922738,50.419412,-0.094208,-0.002655,1.017105,-0.010893,0.015813,0.003121,64.179642,13.862701,-146.485107,,,
729860930.708327,0.28053,4.924906,50.422572,-0.097183,-0.004089,1.017426,-0.003678,0.013123,0.012128,64.179642,13.862701,-146.485107,,,
729860930.711666,0.28053,4.924906,50.422572,-0.097183,-0.004089,1.017426,-0.003678,0.013123,0.012128,64.179642,13.862701,-146.485107,,,
729860930.715073,0.280221,4.927917,50.426387,-0.097183,-0.004089,1.017426,-0.003678,0.013123,0.012128,64.179642,13.862701,-146.485107,,,
729860930.718307,0.281583,4.929637,50.430549,-0.09343,-0.002274,1.01976,0.007422,0.010691,0.015502,64.179642,13.862701,-146.485107,,,
729860930.721673,0.281583,4.929637,50.430549,-0.09343,-0.002274,1.01976,0.007422,0.010691,0.015502,64.179642,13.862701,-146.485107,,,
729860930.724997,0.285218,4.932273,50.435082,-0.09343,-0.002274,1.01976,0.007422,0.010691,0.015502,64.179642,13.862701,-146.485107,,,
729860930.728321,0.291645,4.935328,50.439814,-0.087692,-0.002014,1.021393,0.025723,0.017302,0.018482,64.179642,13.862701,-146.485107,,,
729860930.73165,0.291645,4.935328,50.439814,-0.087692,-0.002014,1.021393,0.025723,0.017302,0.018482,64.179642,13.862701,-146.485107,,,
729860930.734983,0.30004,4.940084,50.444065,-0.087692,-0.002014,1.021393,0.025723,0.017302,0.018482,64.027466,14.049789,-146.099136,,,
729860930.738323,0.309735,4.946219,50.447375,-0.085663,-0.000519,1.017105,0.034096,0.026365,0.012558,64.027466,14.049789,-146.099136,,,
729860930.741721,0.309735,4.946219,50.447375,-0.085663,-0.000519,1.017105,0.034096,0.026365,0.012558,64.027466,14.049789,-146.099136,,,
729860930.74498,0.319148,4.954108,50.450296,-0.085663,-0.000519,1.017105,0.034096,0.026365,0.012558,64.027466,14.049789,-146.099136,,,
729860930.748318,0.327262,4.963459,50.453533,-0.087662,0.00589,1.001038,0.025276,0.034676,0.014082,64.027466,14.049789,-146.099136,,,
729860930.751657,0.327262,4.963459,50.453533,-0.087662,0.00589,1.001038,0.025276,0.034676,0.014082,64.027466,14.049789,-146.099136,,,
729860930.755074,0.333776,4.973251,50.458008,-0.087662,0.00589,1.001038,0.025276,0.034676,0.014082,64.027466,14.049789,-146.099136,,,
729860930.758368,0.337624,4.985125,50.463579,-0.091309,0.009766,0.989914,0.011347,0.039887,0.020635,64.027466,14.049789,-146.099136,,,
729860930.76165,0.337624,4.985125,50.463579,-0.091309,0.009766,0.989914,0.011347,0.039887,0.020635,64.027466,14.049789,-146.099136,,,
729860930.764862,0.339751,4.994967,50.470551,-0.091309,0.009766,0.989914,0.011347,0.039887,0.020635,64.027466,14.049789,-146.099136,,,
729860930.768346,0.338067,5.004893,50.478653,-0.087357,0.008072,0.980774,-0.008108,0.025974,0.026925,64.027466,14.049789,-146.099136,,,
729860930.771668,0.338067,5.004893,50.478653,-0.087357,0.008072,0.980774,-0.008108,0.025974,0.026925,64.027466,14.049789,-146.099136,,,
729860930.774985,0.335357,5.010615,50.486656,-0.087357,0.008072,0.980774,-0.008108,0.025974,0.026925,64.115677,14.023621,-145.961411,,,
729860930.778319,0.329626,5.016147,50.494002,-0.083969,0.008911,0.975128,-0.01681,0.016087,0.021588,64.115677,14.023621,-145.961411,,,
729860930.781688,0.329626,5.016147,50.494002,-0.083969,0.008911,0.975128,-0.01681,0.016087,0.021588,64.115677,14.023621,-145.961411,,,
729860930.7851,0.324154,5.019681,50.500289,-0.083969,0.008911,0.975128,-0.01681,0.016087,0.021588,64.115677,14.023621,-145.961411,,,
729860930.788415,0.315307,5.024804,50.505441,-0.081406,0.007019,0.982819,-0.02474,0.014875,0.013086,64.115677,14.023621,-145.961411,,,
729860930.79165,0.315307,5.024804,50.505441,-0.081406,0.007019,0.982819,-0.02474,0.014875,0.013086,64.115677,14.023621,-145.961411,,,
729860930.795083,0.3093,5.02788,50.509953,-0.081406,0.007019,0.982819,-0.02474,0.014875,0.013086,64.115677,14.023621,-145.961411,,,
729860930.798376,0.303515,5.032515,50.513895,-0.080963,0.001434,0.995316,-0.011118,0.018401,0.01033,64.115677,14.023621,-145.961411,,,
729860930.801666,0.303515,5.032515,50.513895,-0.080963,0.001434,0.995316,-0.011118,0.018401,0.01033,64.115677,14.023621,-145.961411,,,
729860930.805005,0.301789,5.037619,50.517845,-0.080963,0.001434,0.995316,-0.011118,0.018401,0.01033,64.115677,14.023621,-145.961411,,,
729860930.808319,0.3013,5.04331,50.522419,-0.080353,-0.001953,1.002853,0.007608,0.022771,0.01631,64.115677,14.023621,-145.961411,,,
729860930.811663,0.3013,5.04331,50.522419,-0.080353,-0.001953,1.002853,0.007608,0.022771,0.01631,64.115677,14.023621,-145.961411,,,
729860930.814985,0.304784,5.048734,50.527092,-0.080353,-0.001953,1.002853,0.007608,0.022771,0.01631,63.852188,14.197205,-145.840958,,,
729860930.818343,0.309918,5.052035,50.530967,-0.077637,0.000443,0.999664,0.02823,0.015444,0.012494,63.852188,14.197205,-145.840958,,,
729860930.82172,0.309918,5.052035,50.530967,-0.077637,0.000443,0.999664,0.02823,0.015444,0.012494,63.852188,14.197205,-145.840958,,,
729860930.825092,0.318468,5.055385,50.533707,-0.077637,0.000443,0.999664,0.02823,0.015444,0.012494,63.852188,14.197205,-145.840958,,,
729860930.828205,0.327449,5.058045,50.53562,-0.077454,0.00322,0.994659,0.034096,0.014132,0.007204,63.852188,14.197205,-145.840958,,,
729860930.83168,0.327449,5.058045,50.53562,-0.077454,0.00322,0.994659,0.034096,0.014132,0.007204,63.852188,14.197205,-145.840958,,,
729860930.835086,0.336928,5.060724,50.536434,-0.077454,0.00322,0.994659,0.034096,0.014132,0.007204,63.852188,14.197205,-145.840958,,,
729860930.838325,0.346656,5.063354,50.536024,-0.074142,0.0065,0.987198,0.031149,0.008913,-0.001542,63.852188,14.197205,-145.840958,,,
729860930.84169,0.346656,5.063354,50.536024,-0.074142,0.0065,0.987198,0.031149,0.008913,-0.001542,63.852188,14.197205,-145.840958,,,
729860930.844996,0.354529,5.065717,50.534052,-0.074142,0.0065,0.987198,0.031149,0.008913,-0.001542,63.852188,14.197205,-145.840958,,,
729860930.848397,0.361007,5.069835,50.530583,-0.075714,0.008957,0.986374,0.018859,0.020153,-0.01304,63.852188,14.197205,-145.840958,,,
729860930.851666,0.361007,5.069835,50.530583,-0.075714,0.008957,0.986374,0.018859,0.020153,-0.01304,63.852188,14.197205,-145.840958,,,
729860930.854992,0.365341,5.075111,50.527008,-0.075714,0.008957,0.986374,0.018859,0.020153,-0.01304,63.852188,14.197205,-145.840958,,,
729860930.858335,0.368009,5.080998,50.523913,-0.077164,0.011581,0.981888,0.002071,0.026613,-0.011212,64.087952,14.131866,-146.013596,,,
729860930.861685,0.368009,5.080998,50.523913,-0.077164,0.011581,0.981888,0.002071,0.026613,-0.011212,64.087952,14.131866,-146.013596,,,
729860930.86499,0.367761,5.0886,50.521367,-0.077164,0.011581,0.981888,0.002071,0.026613,-0.011212,64.087952,14.131866,-146.013596,,,
729860930.868319,0.366324,5.096071,50.519484,-0.077545,0.01152,0.983688,-0.009892,0.035855,-0.007671,64.087952,14.131866,-146.013596,,,
729860930.871711,0.366324,5.096071,50.519484,-0.077545,0.01152,0.983688,-0.009892,0.035855,-0.007671,64.087952,14.131866,-146.013596,,,
729860930.874989,0.362722,5.107156,50.517772,-0.077545,0.01152,0.983688,-0.009892,0.035855,-0.007671,64.087952,14.131866,-146.013596,,,
729860930.878336,0.357928,5.118378,50.515851,-0.082092,0.010498,0.989899,-0.013292,0.048489,-0.009579,64.087952,14.131866,-146.013596,,,
729860930.881676,0.357928,5.118378,50.515851,-0.082092,0.010498,0.989899,-0.013292,0.048489,-0.009579,64.087952,14.131866,-146.013596,,,
729860930.885055,0.353704,5.131696,50.513867,-0.082092,0.010498,0.989899,-0.013292,0.048489,-0.009579,64.087952,14.131866,-146.013596,,,
729860930.888313,0.348124,5.142759,50.512183,-0.086624,0.008972,0.990005,-0.011687,0.046975,-0.007406,64.087952,14.131866,-146.013596,,,
729860930.891664,0.348124,5.142759,50.512183,-0.086624,0.008972,0.990005,-0.011687,0.046975,-0.007406,64.087952,14.131866,-146.013596,,,
729860930.894977,0.344248,5.155011,50.510649,-0.086624,0.008972,0.990005,-0.011687,0.046975,-0.007406,64.087952,14.131866,-146.013596,,,
729860930.898323,0.344248,5.163041,50.509309,-0.092606,0.009628,0.985275,-0.015502,0.036159,-0.006466,64.175308,14.089157,-145.791779,,,
729860930.901656,0.338585,5.163041,50.509309,-0.092606,0.009628,0.985275,-0.015502,0.036159,-0.006466,64.175308,14.089157,-145.791779,,,
729860930.905009,0.334163,5.171397,50.508511,-0.092606,0.009628,0.985275,-0.015502,0.036159,-0.006466,64.175308,14.089157,-145.791779,,,
729860930.90834,0.329519,5.173685,50.507731,-0.093491,0.009766,0.979919,-0.012368,0.014702,-0.006172,64.175308,14.089157,-145.791779,,,
729860930.91172,0.329519,5.173685,50.507731,-0.093491,0.009766,0.979919,-0.012368,0.014702,-0.006172,64.175308,14.089157,-145.791779,,,
