Time (sec),Pitch (deg),Roll (deg),Yaw(deg),X-Acceleration (g),Y-Acceleration (g),Z-Acceleration (g),Pitch Rate (deg/sec),Roll Rate (deg/sec),Yaw Rate (deg/sec),Magnetic Field in X direction (uT),Magnetic Field in Y direction (uT),Magnetic Field in Z Direction (uT),Latitude (deg),Longitude (deg),Altitude (m)
729861019.672467,-0.470668,3.55117,41.701805,-0.051987,0.00827,0.971191,-0.014718,-0.042623,0.002366,69.583557,2.03418,-146.144989,,,
729861019.675878,-0.470668,3.55117,41.701805,-0.051987,0.00827,0.971191,-0.014718,-0.042623,0.002366,69.583557,2.03418,-146.144989,,,
729861019.67914,-0.478914,3.536428,41.702638,-0.051987,0.00827,0.971191,-0.031634,-0.049787,-0.001151,69.583557,2.03418,-146.144989,,,
729861019.682462,-0.485233,3.522668,41.702399,-0.041748,-0.002151,0.987122,-0.031634,-0.049787,-0.001151,69.583557,2.03418,-146.144989,,,
729861019.68579,-0.485233,3.522668,41.702399,-0.041748,-0.002151,0.987122,-0.031634,-0.049787,-0.001151,69.583557,2.03418,-146.144989,,,
729861019.689113,-0.493603,3.50953,41.700363,-0.041748,-0.002151,0.987122,-0.025479,-0.04048,-0.013263,69.583557,2.03418,-146.144989,,,
729861019.692459,-0.500184,3.49749,41.69569,-0.032318,-0.004944,0.9991,-0.025479,-0.04048,-0.013263,69.583557,2.03418,-146.144989,,,
729861019.695845,-0.500184,3.49749,41.69569,-0.032318,-0.004944,0.9991,-0.025479,-0.04048,-0.013263,69.583557,2.03418,-146.144989,,,
729861019.699111,-0.507914,3.489595,41.687946,-0.032318,-0.004944,0.9991,-0.024413,-0.019462,-0.034637,69.583557,2.03418,-146.144989,,,
729861019.702448,-0.514958,3.483132,41.677909,-0.029449,-0.007812,1.006393,-0.024413,-0.019462,-0.034637,69.647736,1.736267,-146.328796,,,
729861019.705879,-0.514958,3.483132,41.677909,-0.029449,-0.007812,1.006393,-0.024413,-0.019462,-0.034637,69.647736,1.736267,-146.328796,,,
729861019.709133,-0.518437,3.482772,41.666347,-0.029449,-0.007812,1.006393,-0.001885,0.009844,-0.044064,69.647736,1.736267,-146.328796,,,
729861019.712464,-0.517717,3.48564,41.653578,-0.039383,-0.018356,1.021332,-0.001885,0.009844,-0.044064,69.647736,1.736267,-146.328796,,,
729861019.715837,-0.517717,3.48564,41.653578,-0.039383,-0.018356,1.021332,-0.001885,0.009844,-0.044064,69.647736,1.736267,-146.328796,,,
729861019.719189,-0.511116,3.496293,41.640305,-0.039383,-0.018356,1.021332,0.03558,0.049153,-0.045447,69.647736,1.736267,-146.328796,,,
729861019.722448,-0.500353,3.50938,41.627395,-0.056519,-0.021622,1.029175,0.03558,0.049153,-0.045447,69.647736,1.736267,-146.328796,,,
729861019.725821,-0.500353,3.50938,41.627395,-0.056519,-0.021622,1.029175,0.03558,0.049153,-0.045447,69.647736,1.736267,-146.328796,,,
729861019.728898,-0.485995,3.524324,41.6153,-0.056519,-0.021622,1.029175,0.055845,0.053807,-0.038598,69.647736,1.736267,-146.328796,,,
729861019.732594,-0.469781,3.536608,41.604421,-0.069824,-0.018753,1.00827,0.055845,0.053807,-0.038598,69.647736,1.736267,-146.328796,,,
729861019.735782,-0.469781,3.536608,41.604421,-0.069824,-0.018753,1.00827,0.055845,0.053807,-0.038598,69.647736,1.736267,-146.328796,,,
729861019.739144,-0.452157,3.544435,41.594041,-0.069824,-0.018753,1.00827,0.064878,0.02059,-0.03459,69.647736,1.736267,-146.328796,,,
729861019.742456,-0.432358,3.546885,41.584297,-0.078522,-0.011795,0.988388,0.064878,0.02059,-0.03459,69.856522,1.630173,-146.237595,,,
729861019.745809,-0.432358,3.546885,41.584297,-0.078522,-0.011795,0.988388,0.064878,0.02059,-0.03459,69.856522,1.630173,-146.237595,,,
729861019.749208,-0.416416,3.543761,41.575463,-0.078522,-0.011795,0.988388,0.054038,-0.017108,-0.02895,69.856522,1.630173,-146.237595,,,
729861019.752515,-0.400466,3.53409,41.567319,-0.080475,-0.004974,0.97084,0.054038,-0.017108,-0.02895,69.856522,1.630173,-146.237595,,,
729861019.75579,-0.400466,3.53409,41.567319,-0.080475,-0.004974,0.97084,0.054038,-0.017108,-0.02895,69.856522,1.630173,-146.237595,,,
729861019.759111,-0.392984,3.52024,41.56003,-0.080475,-0.004974,0.97084,0.020682,-0.054228,-0.025139,69.856522,1.630173,-146.237595,,,
729861019.762415,-0.389473,3.497902,41.552927,-0.073898,0.003601,0.959396,0.020682,-0.054228,-0.025139,69.856522,1.630173,-146.237595,,,
729861019.765802,-0.389473,3.497902,41.552927,-0.073898,0.003601,0.959396,0.020682,-0.054228,-0.025139,69.856522,1.630173,-146.237595,,,
729861019.769203,-0.394061,3.47578,41.545888,-0.073898,0.003601,0.959396,-0.025098,-0.081027,-0.027656,69.856522,1.630173,-146.237595,,,
729861019.77252,-0.404032,3.445215,41.539305,-0.064896,0.005554,0.964966,-0.025098,-0.081027,-0.027656,69.856522,1.630173,-146.237595,,,
729861019.775772,-0.404032,3.445215,41.539305,-0.064896,0.005554,0.964966,-0.025098,-0.081027,-0.027656,69.856522,1.630173,-146.237595,,,
729861019.779119,-0.418123,3.420248,41.53351,-0.064896,0.005554,0.964966,-0.051757,-0.079834,-0.023973,69.856522,1.630173,-146.237595,,,
729861019.782446,-0.432777,3.392175,41.528225,-0.058548,-0.003128,0.990509,-0.051757,-0.079834,-0.023973,69.856522,1.630173,-146.237595,,,
729861019.78578,-0.432777,3.392175,41.528225,-0.058548,-0.003128,0.990509,-0.051757,-0.079834,-0.023973,69.878616,1.556305,-146.260147,,,
729861019.789112,-0.446615,3.37616,41.52361,-0.058548,-0.003128,0.990509,-0.043901,-0.043205,-0.019217,69.878616,1.556305,-146.260147,,,
729861019.792511,-0.459253,3.36113,41.519608,-0.055252,-0.0159,1.02066,-0.043901,-0.043205,-0.019217,69.878616,1.556305,-146.260147,,,
729861019.795813,-0.459253,3.36113,41.519608,-0.055252,-0.0159,1.02066,-0.043901,-0.043205,-0.019217,69.878616,1.556305,-146.260147,,,
729861019.799142,-0.465688,3.358366,41.515677,-0.055252,-0.0159,1.02066,-0.011657,0.005569,-0.017072,69.878616,1.556305,-146.260147,,,
729861019.802453,-0.469317,3.360201,41.510776,-0.046524,-0.020752,1.038788,-0.011657,0.005569,-0.017072,69.878616,1.556305,-146.260147,,,
729861019.805829,-0.469317,3.360201,41.510776,-0.046524,-0.020752,1.038788,-0.011657,0.005569,-0.017072,69.878616,1.556305,-146.260147,,,
729861019.809109,-0.46602,3.368737,41.504069,-0.046524,-0.020752,1.038788,0.021865,0.042113,-0.027806,69.878616,1.556305,-146.260147,,,
729861019.812453,-0.459534,3.382756,41.4953,-0.048309,-0.023376,1.042206,0.021865,0.042113,-0.027806,69.878616,1.556305,-146.260147,,,
729861019.815781,-0.459534,3.382756,41.4953,-0.048309,-0.023376,1.042206,0.021865,0.042113,-0.027806,69.878616,1.556305,-146.260147,,,
729861019.819206,-0.447563,3.398715,41.485237,-0.048309,-0.023376,1.042206,0.049718,0.062644,-0.035135,69.878616,1.556305,-146.260147,,,
729861019.82245,-0.433876,3.418612,41.47433,-0.060455,-0.023361,1.02594,0.049718,0.062644,-0.035135,69.878616,1.556305,-146.260147,,,
729861019.825791,-0.433876,3.418612,41.47433,-0.060455,-0.023361,1.02594,0.049718,0.062644,-0.035135,69.936142,1.494812,-146.178513,,,
729861019.829137,-0.418104,3.435079,41.463727,-0.060455,-0.023361,1.02594,0.059027,0.057326,-0.0323,69.936142,1.494812,-146.178513,,,
729861019.832456,-0.403027,3.452496,41.454625,-0.077118,-0.017654,1.002335,0.059027,0.057326,-0.0323,69.936142,1.494812,-146.178513,,,
729861019.835817,-0.403027,3.452496,41.454625,-0.077118,-0.017654,1.002335,0.059027,0.057326,-0.0323,69.936142,1.494812,-146.178513,,,
729861019.839136,-0.3907,3.46253,41.447789,-0.077118,-0.017654,1.002335,0.039831,0.030835,-0.017474,69.936142,1.494812,-146.178513,,,
729861019.842455,-0.380635,3.471529,41.443359,-0.086685,-0.011749,0.979919,0.039831,0.030835,-0.017474,69.936142,1.494812,-146.178513,,,
729861019.845851,-0.380635,3.471529,41.443359,-0.086685,-0.011749,0.979919,0.039831,0.030835,-0.017474,69.936142,1.494812,-146.178513,,,
729861019.84912,-0.375914,3.473387,41.441657,-0.086685,-0.011749,0.979919,0.009942,0.002633,-0.000154,69.936142,1.494812,-146.178513,,,
729861019.852449,-0.372519,3.473348,41.442703,-0.088928,-0.009415,0.976761,0.009942,0.002633,-0.000154,69.936142,1.494812,-146.178513,,,
729861019.855852,-0.372519,3.473348,41.442703,-0.088928,-0.009415,0.976761,0.009942,0.002633,-0.000154,69.936142,1.494812,-146.178513,,,
729861019.85913,-0.372481,3.470203,41.445378,-0.088928,-0.009415,0.976761,-0.002301,-0.010603,0.010484,69.936142,1.494812,-146.178513,,,
729861019.862269,-0.371691,3.466727,41.450037,-0.085159,-0.01532,0.990173,-0.002301,-0.010603,0.010484,69.936142,1.494812,-146.178513,,,
729861019.86581,-0.371691,3.466727,41.450037,-0.085159,-0.01532,0.990173,-0.002301,-0.010603,0.010484,69.744766,1.5569,-145.98497,,,
729861019.869186,-0.36988,3.464099,41.456391,-0.085159,-0.01532,0.990173,0.01044,-0.004536,0.023182,69.744766,1.5569,-145.98497,,,
729861019.872448,-0.366703,3.462563,41.463008,-0.078094,-0.021332,0.999786,0.01044,-0.004536,0.023182,69.744766,1.5569,-145.98497,,,
729861019.875802,-0.366703,3.462563,41.463008,-0.078094,-0.021332,0.999786,0.01044,-0.004536,0.023182,69.744766,1.5569,-145.98497,,,
729861019.878903,-0.360979,3.464671,41.469444,-0.078094,-0.021332,0.999786,0.022058,0.014783,0.022605,69.744766,1.5569,-145.98497,,,
729861019.882484,-0.35667,3.466221,41.475165,-0.065979,-0.014725,0.993393,0.022058,0.014783,0.022605,69.744766,1.5569,-145.98497,,,
729861019.88579,-0.35667,3.466221,41.475165,-0.065979,-0.014725,0.993393,0.022058,0.014783,0.022605,69.744766,1.5569,-145.98497,,,
729861019.889143,-0.352266,3.470506,41.478975,-0.065979,-0.014725,0.993393,0.009713,0.018602,0.008466,69.744766,1.5569,-145.98497,,,
729861019.892453,-0.35346,3.471902,41.480417,-0.054764,-0.007339,0.979568,0.009713,0.018602,0.008466,69.744766,1.5569,-145.98497,,,
729861019.895589,-0.35346,3.471902,41.480417,-0.054764,-0.007339,0.979568,0.009713,0.018602,0.008466,69.744766,1.5569,-145.98497,,,
729861019.899156,-0.355388,3.474705,41.479085,-0.054764,-0.007339,0.979568,-0.010557,0.00987,-0.012168,69.744766,1.5569,-145.98497,,,
729861019.902451,-0.362962,3.474487,41.475137,-0.051056,-0.006439,0.96785,-0.010557,0.00987,-0.012168,69.744766,1.5569,-145.98497,,,
729861019.905807,-0.362962,3.474487,41.475137,-0.051056,-0.006439,0.96785,-0.010557,0.00987,-0.012168,69.82959,1.534012,-146.067886,,,
729861019.909189,-0.371136,3.473021,41.469702,-0.051056,-0.006439,0.96785,-0.031586,-0.005505,-0.023849,69.82959,1.534012,-146.067886,,,
729861019.912209,-0.382331,3.472024,41.463832,-0.053879,-0.011856,0.976212,-0.031586,-0.005505,-0.023849,69.82959,1.534012,-146.067886,,,
729861019.915839,-0.382331,3.472024,41.463832,-0.053879,-0.011856,0.976212,-0.031586,-0.005505,-0.023849,69.82959,1.534012,-146.067886,,,
729861019.919036,-0.391134,3.469089,41.45846,-0.053879,-0.011856,0.976212,-0.027897,-0.005711,-0.020142,69.82959,1.534012,-146.067886,,,
729861019.922458,-0.399608,3.472175,41.45379,-0.063492,-0.014893,0.999359,-0.027897,-0.005711,-0.020142,69.82959,1.534012,-146.067886,,,
729861019.925798,-0.399608,3.472175,41.45379,-0.063492,-0.014893,0.999359,-0.027897,-0.005711,-0.020142,69.82959,1.534012,-146.067886,,,
729861019.928891,-0.405286,3.472942,41.450082,-0.063492,-0.014893,0.999359,-0.015377,0.009763,-0.012455,69.82959,1.534012,-146.067886,,,
729861019.932481,-0.409491,3.482675,41.448328,-0.069382,-0.019073,1.021103,-0.015377,0.009763,-0.012455,69.82959,1.534012,-146.067886,,,
729861019.935871,-0.409491,3.482675,41.448328,-0.069382,-0.019073,1.021103,-0.015377,0.009763,-0.012455,69.82959,1.534012,-146.067886,,,
729861019.939123,-0.410006,3.488746,41.448694,-0.069382,-0.019073,1.021103,0.006026,0.027304,0.003928,69.82959,1.534012,-146.067886,,,
729861019.942456,-0.407562,3.502084,41.451372,-0.073669,-0.023865,1.026169,0.006026,0.027304,0.003928,69.82959,1.534012,-146.067886,,,
729861019.945847,-0.407562,3.502084,41.451372,-0.073669,-0.023865,1.026169,0.006026,0.027304,0.003928,69.82959,1.534012,-146.067886,,,
729861019.949132,-0.400443,3.512185,41.456286,-0.073669,-0.023865,1.026169,0.029607,0.040737,0.021271,69.864182,1.574234,-146.09317,,,
729861019.952456,-0.393611,3.526772,41.462983,-0.074799,-0.01828,1.02037,0.029607,0.040737,0.021271,69.864182,1.574234,-146.09317,,,
729861019.955799,-0.393611,3.526772,41.462983,-0.074799,-0.01828,1.02037,0.029607,0.040737,0.021271,69.864182,1.574234,-146.09317,,,
729861019.959178,-0.384153,3.53668,41.470166,-0.074799,-0.01828,1.02037,0.031093,0.033014,0.024947,69.864182,1.574234,-146.09317,,,
729861019.962519,-0.379179,3.545288,41.47642,-0.071259,-0.004623,0.993927,0.031093,0.033014,0.024947,69.864182,1.574234,-146.09317,,,
729861019.965781,-0.379179,3.545288,41.47642,-0.071259,-0.004623,0.993927,0.031093,0.033014,0.024947,69.864182,1.574234,-146.09317,,,
729861019.969137,-0.376575,3.548347,41.481357,-0.071259,-0.004623,0.993927,2.1e-05,0.006295,0.013864,69.864182,1.574234,-146.09317,,,
729861019.972456,-0.380341,3.5465,41.485563,-0.064468,0.004059,0.970551,2.1e-05,0.006295,0.013864,69.864182,1.574234,-146.09317,,,
729861019.975786,-0.380341,3.5465,41.485563,-0.064468,0.004059,0.970551,2.1e-05,0.006295,0.013864,69.864182,1.574234,-146.09317,,,
729861019.979122,-0.388841,3.543093,41.489774,-0.064468,0.004059,0.970551,-0.036233,-0.0124,0.011588,69.864182,1.574234,-146.09317,,,
729861019.982456,-0.39982,3.535841,41.494617,-0.062744,0.002441,0.979446,-0.036233,-0.0124,0.011588,69.864182,1.574234,-146.09317,,,
729861019.985782,-0.39982,3.535841,41.494617,-0.062744,0.002441,0.979446,-0.036233,-0.0124,0.011588,69.864182,1.574234,-146.09317,,,
729861019.989126,-0.411031,3.530561,41.500615,-0.062744,0.002441,0.979446,-0.038559,-0.013663,0.019434,69.64389,1.750015,-146.018463,,,
729861019.992453,-0.421253,3.52496,41.507708,-0.054428,-0.006836,1.003235,-0.038559,-0.013663,0.019434,69.64389,1.750015,-146.018463,,,
729861019.995791,-0.421253,3.52496,41.507708,-0.054428,-0.006836,1.003235,-0.038559,-0.013663,0.019434,69.64389,1.750015,-146.018463,,,
729861019.999157,-0.427921,3.523832,41.515476,-0.054428,-0.006836,1.003235,-0.018455,0.004006,0.025273,69.64389,1.750015,-146.018463,,,
729861020.002461,-0.432971,3.525661,41.522733,-0.044891,-0.011368,1.014984,-0.018455,0.004006,0.025273,69.64389,1.750015,-146.018463,,,
729861020.005793,-0.432971,3.525661,41.522733,-0.044891,-0.011368,1.014984,-0.018455,0.004006,0.025273,69.64389,1.750015,-146.018463,,,
729861020.009129,-0.432608,3.53102,41.528527,-0.044891,-0.011368,1.014984,0.008433,0.027625,0.016733,69.64389,1.750015,-146.018463,,,
729861020.012514,-0.430132,3.541312,41.531846,-0.037491,-0.013474,1.019394,0.008433,0.027625,0.016733,69.64389,1.750015,-146.018463,,,
729861020.015786,-0.430132,3.541312,41.531846,-0.037491,-0.013474,1.019394,0.008433,0.027625,0.016733,69.64389,1.750015,-146.018463,,,
729861020.019151,-0.421635,3.552492,41.531723,-0.037491,-0.013474,1.019394,0.036753,0.043093,-0.005437,69.64389,1.750015,-146.018463,,,
729861020.022459,-0.413968,3.566052,41.528669,-0.038589,-0.011826,1.012405,0.036753,0.043093,-0.005437,69.64389,1.750015,-146.018463,,,
729861020.025831,-0.413968,3.566052,41.528669,-0.038589,-0.011826,1.012405,0.036753,0.043093,-0.005437,69.64389,1.750015,-146.018463,,,
729861020.029155,-0.401831,3.577005,41.523461,-0.038589,-0.011826,1.012405,0.043648,0.040192,-0.01999,69.795975,1.673996,-146.152237,,,
729861020.032448,-0.393783,3.58992,41.517376,-0.045944,-0.011826,0.994019,0.043648,0.040192,-0.01999,69.795975,1.673996,-146.152237,,,
729861020.035792,-0.393783,3.58992,41.517376,-0.045944,-0.011826,0.994019,0.043648,0.040192,-0.01999,69.795975,1.673996,-146.152237,,,
729861020.039112,-0.385338,3.600523,41.511468,-0.045944,-0.011826,0.994019,0.025622,0.040766,-0.019735,69.795975,1.673996,-146.152237,,,
729861020.04218,-0.379993,3.614201,41.507516,-0.06012,-0.00473,0.985962,0.025622,0.040766,-0.019735,69.795975,1.673996,-146.152237,,,
729861020.045796,-0.379993,3.614201,41.507516,-0.06012,-0.00473,0.985962,0.025622,0.040766,-0.019735,69.795975,1.673996,-146.152237,,,
729861020.049177,-0.377689,3.626321,41.506572,-0.06012,-0.00473,0.985962,0.001462,0.04578,-0.000184,69.795975,1.673996,-146.152237,,,
729861020.052455,-0.376618,3.639286,41.508461,-0.071762,-0.003159,0.980438,0.001462,0.04578,-0.000184,69.795975,1.673996,-146.152237,,,
729861020.055808,-0.376618,3.639286,41.508461,-0.071762,-0.003159,0.980438,0.001462,0.04578,-0.000184,69.795975,1.673996,-146.152237,,,
729861020.059121,-0.380193,3.649334,41.512959,-0.071762,-0.003159,0.980438,-0.016715,0.032966,0.016915,69.795975,1.673996,-146.152237,,,
729861020.062278,-0.384049,3.65677,41.518982,-0.072067,-0.004379,0.975311,-0.016715,0.032966,0.016915,69.795975,1.673996,-146.152237,,,
729861020.065837,-0.384049,3.65677,41.518982,-0.072067,-0.004379,0.975311,-0.016715,0.032966,0.016915,69.795975,1.673996,-146.152237,,,
729861020.069115,-0.392183,3.660217,41.52537,-0.072067,-0.004379,0.975311,-0.029861,0.007333,0.018661,69.795975,1.673996,-146.152237,,,
729861020.072452,-0.400287,3.658675,41.53107,-0.069458,-0.005066,0.978912,-0.029861,0.007333,0.018661,69.840637,1.931381,-145.975311,,,
729861020.075895,-0.400287,3.658675,41.53107,-0.069458,-0.005066,0.978912,-0.029861,0.007333,0.018661,69.840637,1.931381,-145.975311,,,
729861020.078872,-0.40863,3.655795,41.534979,-0.069458,-0.005066,0.978912,-0.027547,-0.011466,0.006245,69.840637,1.931381,-145.975311,,,
729861020.082496,-0.416846,3.646379,41.536639,-0.063599,-0.007111,0.985977,-0.027547,-0.011466,0.006245,69.840637,1.931381,-145.975311,,,
729861020.085781,-0.416846,3.646379,41.536639,-0.063599,-0.007111,0.985977,-0.027547,-0.011466,0.006245,69.840637,1.931381,-145.975311,,,
729861020.089156,-0.422582,3.639454,41.536012,-0.063599,-0.007111,0.985977,-0.014474,-0.022499,-0.009033,69.840637,1.931381,-145.975311,,,
729861020.092487,-0.426891,3.62618,41.533393,-0.052841,-0.011154,0.996231,-0.014474,-0.022499,-0.009033,69.840637,1.931381,-145.975311,,,
729861020.095595,-0.426891,3.62618,41.533393,-0.052841,-0.011154,0.996231,-0.014474,-0.022499,-0.009033,69.840637,1.931381,-145.975311,,,
729861020.099158,-0.427286,3.620058,41.530025,-0.052841,-0.011154,0.996231,0.004896,-0.016449,-0.013369,69.840637,1.931381,-145.975311,,,
729861020.102452,-0.425252,3.610054,41.526454,-0.055679,-0.017395,1.005447,0.004896,-0.016449,-0.013369,69.840637,1.931381,-145.975311,,,
729861020.105806,-0.425252,3.610054,41.526454,-0.055679,-0.017395,1.005447,0.004896,-0.016449,-0.013369,69.840637,1.931381,-145.975311,,,
729861020.109131,-0.419158,3.609705,41.523111,-0.055679,-0.017395,1.005447,0.026676,0.007511,-0.010735,69.840637,1.931381,-145.975311,,,
729861020.112286,-0.411463,3.607808,41.520108,-0.064316,-0.014893,1.012268,0.026676,0.007511,-0.010735,69.753021,1.797623,-146.125336,,,
729861020.115887,-0.411463,3.607808,41.520108,-0.064316,-0.014893,1.012268,0.026676,0.007511,-0.010735,69.753021,1.797623,-146.125336,,,
729861020.119112,-0.400902,3.613457,41.517776,-0.064316,-0.014893,1.012268,0.038338,0.027225,-0.005606,69.753021,1.797623,-146.125336,,,
729861020.122457,-0.391024,3.62007,41.515811,-0.064499,-0.010941,1.002823,0.038338,0.027225,-0.005606,69.753021,1.797623,-146.125336,,,
729861020.125802,-0.391024,3.62007,41.515811,-0.064499,-0.010941,1.002823,0.038338,0.027225,-0.005606,69.753021,1.797623,-146.125336,,,
729861020.128977,-0.383227,3.629967,41.514028,-0.064499,-0.010941,1.002823,0.023639,0.040065,-0.005302,69.753021,1.797623,-146.125336,,,
729861020.132491,-0.377254,3.642159,41.512739,-0.064743,-0.008514,0.988785,0.023639,0.040065,-0.005302,69.753021,1.797623,-146.125336,,,
729861020.13579,-0.377254,3.642159,41.512739,-0.064743,-0.008514,0.988785,0.023639,0.040065,-0.005302,69.753021,1.797623,-146.125336,,,
729861020.139132,-0.374768,3.651219,41.51188,-0.064743,-0.008514,0.988785,0.004959,0.030289,-0.003387,69.753021,1.797623,-146.125336,,,
729861020.142449,-0.374334,3.659717,41.511747,-0.073349,-0.003571,0.981781,0.004959,0.030289,-0.003387,69.753021,1.797623,-146.125336,,,
729861020.145836,-0.374334,3.659717,41.511747,-0.073349,-0.003571,0.981781,0.004959,0.030289,-0.003387,69.753021,1.797623,-146.125336,,,
729861020.149134,-0.376286,3.661622,41.512753,-0.073349,-0.003571,0.981781,-0.008592,0.002253,0.003853,69.753021,1.797623,-146.125336,,,
729861020.152561,-0.379105,3.661472,41.514785,-0.078354,-0.005478,0.978378,-0.008592,0.002253,0.003853,69.928497,2.183365,-146.140427,,,
729861020.155851,-0.379105,3.661472,41.514785,-0.078354,-0.005478,0.978378,-0.008592,0.002253,0.003853,69.928497,2.183365,-146.140427,,,
729861020.159132,-0.383206,3.656697,41.51806,-0.078354,-0.005478,0.978378,-0.015005,-0.018094,0.012293,69.928497,2.183365,-146.140427,,,
729861020.162518,-0.386808,3.651179,41.522671,-0.076401,-0.009918,0.987564,-0.015005,-0.018094,0.012293,69.928497,2.183365,-146.140427,,,
729861020.1658,-0.386808,3.651179,41.522671,-0.076401,-0.009918,0.987564,-0.015005,-0.018094,0.012293,69.928497,2.183365,-146.140427,,,
729861020.169203,-0.390158,3.644858,41.528393,-0.076401,-0.009918,0.987564,-0.013216,-0.018973,0.020213,69.928497,2.183365,-146.140427,,,
729861020.172539,-0.393983,3.636178,41.534425,-0.069336,-0.01062,0.991882,-0.013216,-0.018973,0.020213,69.928497,2.183365,-146.140427,,,
729861020.175802,-0.393983,3.636178,41.534425,-0.069336,-0.01062,0.991882,-0.013216,-0.018973,0.020213,69.928497,2.183365,-146.140427,,,
729861020.179135,-0.396799,3.629129,41.540361,-0.069336,-0.01062,0.991882,-0.011473,-0.021691,0.01955,69.928497,2.183365,-146.140427,,,
729861020.182528,-0.402975,3.620297,41.546276,-0.062775,-0.005936,0.986374,-0.011473,-0.021691,0.01955,69.928497,2.183365,-146.140427,,,
729861020.185799,-0.402975,3.620297,41.546276,-0.062775,-0.005936,0.986374,-0.011473,-0.021691,0.01955,69.928497,2.183365,-146.140427,,,
729861020.189132,-0.408823,3.615011,41.55116,-0.062775,-0.005936,0.986374,-0.023995,-0.013121,0.011502,69.928497,2.183365,-146.140427,,,
729861020.192453,-0.417411,3.611126,41.554358,-0.053146,-0.005203,0.989258,-0.023995,-0.013121,0.011502,69.707153,1.914917,-146.40448,,,
729861020.195783,-0.417411,3.611126,41.554358,-0.053146,-0.005203,0.989258,-0.023995,-0.013121,0.011502,69.707153,1.914917,-146.40448,,,
729861020.199112,-0.422683,3.610066,41.556321,-0.053146,-0.005203,0.989258,-0.014603,0.004229,0.003424,69.707153,1.914917,-146.40448,,,
729861020.202457,-0.426461,3.612662,41.557051,-0.047729,-0.010056,1.003647,-0.014603,0.004229,0.003424,69.707153,1.914917,-146.40448,,,
729861020.205871,-0.426461,3.612662,41.557051,-0.047729,-0.010056,1.003647,-0.014603,0.004229,0.003424,69.707153,1.914917,-146.40448,,,
729861020.209138,-0.426751,3.617855,41.556191,-0.047729,-0.010056,1.003647,0.005243,0.024199,-0.006387,69.707153,1.914917,-146.40448,,,
729861020.212465,-0.424528,3.624976,41.553943,-0.049469,-0.013718,1.01384,0.005243,0.024199,-0.006387,69.707153,1.914917,-146.40448,,,
729861020.215793,-0.424528,3.624976,41.553943,-0.049469,-0.013718,1.01384,0.005243,0.024199,-0.006387,69.707153,1.914917,-146.40448,,,
729861020.219175,-0.419872,3.633037,41.549837,-0.049469,-0.013718,1.01384,0.019956,0.033104,-0.018437,69.707153,1.914917,-146.40448,,,
729861020.222543,-0.413667,3.644099,41.543637,-0.05069,-0.007446,1.008835,0.019956,0.033104,-0.018437,69.707153,1.914917,-146.40448,,,
729861020.22579,-0.413667,3.644099,41.543637,-0.05069,-0.007446,1.008835,0.019956,0.033104,-0.018437,69.707153,1.914917,-146.40448,,,
729861020.229124,-0.40795,3.652934,41.535392,-0.05069,-0.007446,1.008835,0.022845,0.032605,-0.03247,69.707153,1.914917,-146.40448,,,
729861020.232453,-0.400815,3.664112,41.525568,-0.052994,-0.007767,1.002457,0.022845,0.032605,-0.03247,69.707153,1.914917,-146.40448,,,
729861020.235798,-0.400815,3.664112,41.525568,-0.052994,-0.007767,1.002457,0.022845,0.032605,-0.03247,69.806061,1.903458,-146.162003,,,
729861020.23914,-0.394074,3.670077,41.514492,-0.052994,-0.007767,1.002457,0.025397,0.023106,-0.040813,69.806061,1.903458,-146.162003,,,
729861020.242469,-0.38832,3.679384,41.502389,-0.061096,-0.005112,1.002655,0.025397,0.023106,-0.040813,69.806061,1.903458,-146.162003,,,
729861020.245792,-0.38832,3.679384,41.502389,-0.061096,-0.005112,1.002655,0.025397,0.023106,-0.040813,69.806061,1.903458,-146.162003,,,
729861020.24912,-0.383257,3.685568,41.489897,-0.061096,-0.005112,1.002655,0.017868,0.025769,-0.043818,69.806061,1.903458,-146.162003,,,
729861020.252554,-0.380616,3.694701,41.47813,-0.067581,-0.005753,1.001968,0.017868,0.025769,-0.043818,69.806061,1.903458,-146.162003,,,
729861020.255845,-0.380616,3.694701,41.47813,-0.067581,-0.005753,1.001968,0.017868,0.025769,-0.043818,69.806061,1.903458,-146.162003,,,
729861020.259127,-0.378218,3.70407,41.468139,-0.067581,-0.005753,1.001968,0.008131,0.038913,-0.03194,69.806061,1.903458,-146.162003,,,
729861020.262242,-0.378218,3.70407,41.468139,-0.067581,-0.005753,1.001968,0.008131,0.038913,-0.03194,69.806061,1.903458,-146.162003,,,
729861020.265842,-0.376905,3.71467,41.461526,-0.084106,-0.009842,1.003113,0.008131,0.038913,-0.03194,69.806061,1.903458,-146.162003,,,
729861020.269193,-0.375396,3.72465,41.459499,-0.084106,-0.009842,1.003113,0.006093,0.034103,-0.000126,69.806061,1.903458,-146.162003,,,
729861020.272462,-0.375396,3.729923,41.462307,-0.097351,-0.006332,0.996902,0.006093,0.034103,-0.000126,69.806061,1.903458,-146.162003,,,
729861020.275801,-0.373601,3.729923,41.462307,-0.097351,-0.006332,0.996902,0.006093,0.034103,-0.000126,69.95079,1.988464,-146.465851,,,
729861020.278903,-0.37383,3.732789,41.469832,-0.097351,-0.006332,0.996902,-0.007181,0.002823,0.031919,69.95079,1.988464,-146.465851,,,
729861020.282524,-0.377273,3.726144,41.480033,-0.096054,0.000763,0.982758,-0.007181,0.002823,0.031919,69.95079,1.988464,-146.465851,,,
729861020.285789,-0.377273,3.726144,41.480033,-0.096054,0.000763,0.982758,-0.007181,0.002823,0.031919,69.95079,1.988464,-146.465851,,,
729861020.289154,-0.382917,3.718579,41.491051,-0.096054,0.000763,0.982758,-0.024835,-0.032439,0.036284,69.95079,1.988464,-146.465851,,,
729861020.292522,-0.382917,3.718579,41.502171,-0.077896,0.002243,0.98764,-0.024835,-0.032439,0.036284,69.95079,1.988464,-146.465851,,,
729861020.295594,-0.39131,3.702956,41.502171,-0.077896,0.002243,0.98764,-0.024835,-0.032439,0.036284,69.95079,1.988464,-146.465851,,,
729861020.299156,-0.397186,3.689013,41.511722,-0.077896,0.002243,0.98764,-0.017935,-0.048392,0.025571,69.95079,1.988464,-146.465851,,,
729861020.302483,-0.399844,3.670942,41.518461,-0.063828,-0.007935,1.012207,-0.017935,-0.048392,0.025571,69.95079,1.988464,-146.465851,,,
729861020.305804,-0.399844,3.670942,41.518461,-0.063828,-0.007935,1.012207,-0.017935,-0.048392,0.025571,69.95079,1.988464,-146.465851,,,
729861020.309183,-0.396226,3.658311,41.522076,-0.063828,-0.007935,1.012207,0.024805,-0.034756,0.006351,69.95079,1.988464,-146.465851,,,
729861020.312292,-0.396226,3.658311,41.522076,-0.063828,-0.007935,1.012207,0.024805,-0.034756,0.006351,69.95079,1.988464,-146.465851,,,
729861020.31581,-0.385897,3.64605,41.522402,-0.055725,-0.015549,1.036026,0.024805,-0.034756,0.006351,69.591431,2.077271,-146.135437,,,
729861020.319122,-0.36919,3.640373,41.520042,-0.055725,-0.015549,1.036026,0.068379,-0.010601,-0.009714,69.591431,2.077271,-146.135437,,,
729861020.322451,-0.36919,3.640373,41.520042,-0.047272,-0.014954,1.027664,0.068379,-0.010601,-0.009714,69.591431,2.077271,-146.135437,,,
729861020.325807,-0.348282,3.636619,41.515721,-0.047272,-0.014954,1.027664,0.068379,-0.010601,-0.009714,69.591431,2.077271,-146.135437,,,
729861020.328919,-0.325487,3.635396,41.510902,-0.047272,-0.014954,1.027664,0.083442,0.000526,-0.012255,69.591431,2.077271,-146.135437,,,
729861020.332557,-0.325487,3.635396,41.510902,-0.047272,-0.014954,1.027664,0.083442,0.000526,-0.012255,69.591431,2.077271,-146.135437,,,
729861020.335788,-0.302067,3.635445,41.506473,-0.050156,-0.008194,1.00502,0.083442,0.000526,-0.012255,69.591431,2.077271,-146.135437,,,
729861020.339122,-0.280086,3.635526,41.503219,-0.050156,-0.008194,1.00502,0.074036,0.002969,-0.004644,69.591431,2.077271,-146.135437,,,
729861020.342455,-0.280086,3.635526,41.503219,-0.055649,0.000626,0.985413,0.074036,0.002969,-0.004644,69.591431,2.077271,-146.135437,,,
729861020.345845,-0.261938,3.639371,41.50168,-0.055649,0.000626,0.985413,0.074036,0.002969,-0.004644,69.591431,2.077271,-146.135437,,,
729861020.349133,-0.246205,3.640111,41.501679,-0.055649,0.000626,0.985413,0.048818,0.007682,0.00454,69.591431,2.077271,-146.135437,,,
729861020.352521,-0.246205,3.640111,41.501679,-0.055649,0.000626,0.985413,0.048818,0.007682,0.00454,69.591431,2.077271,-146.135437,,,
729861020.355817,-0.235587,3.649524,41.503104,-0.050156,0.004349,0.972931,0.048818,0.007682,0.00454,69.544281,2.073578,-145.932861,,,
729861020.359203,-0.229067,3.653463,41.505536,-0.050156,0.004349,0.972931,0.014498,0.021191,0.009565,69.544281,2.073578,-145.932861,,,
729861020.362495,-0.229067,3.653463,41.505536,-0.041824,0.003174,0.971146,0.014498,0.021191,0.009565,69.544281,2.073578,-145.932861,,,
729861020.365808,-0.226589,3.669776,41.508133,-0.041824,0.003174,0.971146,0.014498,0.021191,0.009565,69.544281,2.073578,-145.932861,,,
729861020.369122,-0.229402,3.680812,41.510149,-0.041824,0.003174,0.971146,-0.017644,0.045334,0.003709,69.544281,2.073578,-145.932861,,,
729861020.37252,-0.229402,3.680812,41.510149,-0.041824,0.003174,0.971146,-0.017644,0.045334,0.003709,69.544281,2.073578,-145.932861,,,
729861020.375783,-0.233656,3.69871,41.511471,-0.044113,0.002914,0.977539,-0.017644,0.045334,0.003709,69.544281,2.073578,-145.932861,,,
729861020.379125,-0.240211,3.712464,41.512076,-0.044113,0.002914,0.977539,-0.022077,0.049686,-0.001491,69.544281,2.073578,-145.932861,,,
729861020.382463,-0.240211,3.712464,41.512076,-0.044113,0.002914,0.977539,-0.022077,0.049686,-0.001491,69.544281,2.073578,-145.932861,,,
729861020.385866,-0.245655,3.725691,41.512228,-0.058212,-0.003922,0.98761,-0.022077,0.049686,-0.001491,69.544281,2.073578,-145.932861,,,
729861020.38913,-0.248399,3.737213,41.511271,-0.058212,-0.003922,0.98761,-0.003224,0.039597,-0.008026,69.544281,2.073578,-145.932861,,,
729861020.392497,-0.248399,3.737213,41.511271,-0.058212,-0.003922,0.98761,-0.003224,0.039597,-0.008026,69.544281,2.073578,-145.932861,,,
729861020.395786,-0.250422,3.744376,41.509073,-0.066116,-0.00856,0.994781,-0.003224,0.039597,-0.008026,69.544281,2.073578,-145.932861,,,
729861020.39912,-0.24775,3.751128,41.506173,-0.066116,-0.00856,0.994781,0.015279,0.020763,-0.011761,69.678253,1.97287,-146.163269,,,
729861020.402524,-0.24775,3.751128,41.506173,-0.066116,-0.00856,0.994781,0.015279,0.020763,-0.011761,69.678253,1.97287,-146.163269,,,
729861020.405799,-0.245382,3.749562,41.502767,-0.073975,-0.010651,0.988235,0.015279,0.020763,-0.011761,69.678253,1.97287,-146.163269,,,
729861020.409194,-0.239885,3.747448,41.49923,-0.073975,-0.010651,0.988235,0.020386,-0.01356,-0.012448,69.678253,1.97287,-146.163269,,,
729861020.41249,-0.239885,3.747448,41.49923,-0.073975,-0.010651,0.988235,0.020386,-0.01356,-0.012448,69.678253,1.97287,-146.163269,,,
729861020.415802,-0.236038,3.73536,41.495471,-0.080826,-0.003906,0.976013,0.020386,-0.01356,-0.012448,69.678253,1.97287,-146.163269,,,
729861020.419214,-0.232021,3.722517,41.491492,-0.080826,-0.003906,0.976013,0.013359,-0.048995,-0.014644,69.678253,1.97287,-146.163269,,,
729861020.42249,-0.232021,3.722517,41.491492,-0.080826,-0.003906,0.976013,0.013359,-0.048995,-0.014644,69.678253,1.97287,-146.163269,,,
729861020.425812,-0.228426,3.704074,41.487691,-0.081955,9.2e-05,0.968765,0.013359,-0.048995,-0.014644,69.678253,1.97287,-146.163269,,,
729861020.42917,-0.226995,3.686339,41.484409,-0.081955,9.2e-05,0.968765,0.002288,-0.058875,-0.011756,69.678253,1.97287,-146.163269,,,
729861020.43246,-0.226995,3.686339,41.484409,-0.081955,9.2e-05,0.968765,0.002288,-0.058875,-0.011756,69.678253,1.97287,-146.163269,,,
729861020.435889,-0.225748,3.666155,41.481921,-0.079254,-0.000793,0.970917,0.002288,-0.058875,-0.011756,69.678253,1.97287,-146.163269,,,
729861020.439127,-0.227999,3.650014,41.480886,-0.079254,-0.000793,0.970917,-0.01019,-0.048791,-0.002473,69.603485,2.116241,-146.306915,,,
729861020.442499,-0.227999,3.650014,41.480886,-0.079254,-0.000793,0.970917,-0.01019,-0.048791,-0.002473,69.603485,2.116241,-146.306915,,,
729861020.445813,-0.229852,3.632698,41.481095,-0.072159,-0.001053,0.981125,-0.01019,-0.048791,-0.002473,69.603485,2.116241,-146.306915,,,
729861020.449127,-0.2332,3.624331,41.48252,-0.072159,-0.001053,0.981125,-0.009304,-0.018054,0.006021,69.603485,2.116241,-146.306915,,,
729861020.452473,-0.2332,3.624331,41.48252,-0.072159,-0.001053,0.981125,-0.009304,-0.018054,0.006021,69.603485,2.116241,-146.306915,,,
729861020.455808,-0.233308,3.615722,41.485388,-0.064423,-0.00354,0.995911,-0.009304,-0.018054,0.006021,69.603485,2.116241,-146.306915,,,
729861020.459225,-0.233155,3.617996,41.489004,-0.064423,-0.00354,0.995911,0.003718,0.022666,0.011949,69.603485,2.116241,-146.306915,,,
729861020.462239,-0.233155,3.617996,41.489004,-0.064423,-0.00354,0.995911,0.003718,0.022666,0.011949,69.603485,2.116241,-146.306915,,,
729861020.465831,-0.231519,3.624775,41.492693,-0.05722,-0.004959,0.998077,0.003718,0.022666,0.011949,69.603485,2.116241,-146.306915,,,
729861020.469127,-0.230649,3.638098,41.495185,-0.05722,-0.004959,0.998077,0.00118,0.055202,0.003421,69.603485,2.116241,-146.306915,,,
729861020.472501,-0.230649,3.638098,41.495185,-0.05722,-0.004959,0.998077,0.00118,0.055202,0.003421,69.603485,2.116241,-146.306915,,,
729861020.475785,-0.232673,3.654101,41.495796,-0.050919,0.002258,0.987823,0.00118,0.055202,0.003421,69.603485,2.116241,-146.306915,,,
729861020.478891,-0.237395,3.671048,41.494942,-0.050919,0.002258,0.987823,-0.022132,0.06375,-0.008287,69.821259,1.893295,-146.168198,,,
729861020.482546,-0.237395,3.671048,41.494942,-0.050919,0.002258,0.987823,-0.022132,0.06375,-0.008287,69.821259,1.893295,-146.168198,,,
729861020.485837,-0.247492,3.689419,41.493115,-0.057205,0.006317,0.969559,-0.022132,0.06375,-0.008287,69.821259,1.893295,-146.168198,,,
729861020.489129,-0.261,3.704407,41.490879,-0.057205,0.006317,0.969559,-0.052776,0.050649,-0.01307,69.821259,1.893295,-146.168198,,,
729861020.49246,-0.261,3.704407,41.490879,-0.057205,0.006317,0.969559,-0.052776,0.050649,-0.01307,69.821259,1.893295,-146.168198,,,
729861020.495561,-0.277888,3.718286,41.489347,-0.066833,0.003494,0.967026,-0.052776,0.050649,-0.01307,69.821259,1.893295,-146.168198,,,
729861020.499156,-0.296223,3.725107,41.488846,-0.066833,0.003494,0.967026,-0.064898,0.01628,-0.006574,69.821259,1.893295,-146.168198,,,
729861020.502463,-0.296223,3.725107,41.488846,-0.066833,0.003494,0.967026,-0.064898,0.01628,-0.006574,69.821259,1.893295,-146.168198,,,
729861020.505793,-0.313886,3.728433,41.489126,-0.073654,4.6e-05,0.981827,-0.064898,0.01628,-0.006574,69.821259,1.893295,-146.168198,,,
729861020.509126,-0.33047,3.723065,41.4906,-0.073654,4.6e-05,0.981827,-0.054301,-0.027068,0.002539,69.821259,1.893295,-146.168198,,,
729861020.512256,-0.33047,3.723065,41.4906,-0.073654,4.6e-05,0.981827,-0.054301,-0.027068,0.002539,69.821259,1.893295,-146.168198,,,
729861020.515831,-0.344943,3.7138,41.492639,-0.073441,-0.007416,0.992264,-0.054301,-0.027068,0.002539,69.821259,1.893295,-146.168198,,,
729861020.519138,-0.358599,3.696541,41.494107,-0.073441,-0.007416,0.992264,-0.043795,-0.06559,-0.000669,69.821259,1.893295,-146.168198,,,
729861020.522465,-0.358599,3.696541,41.494107,-0.073441,-0.007416,0.992264,-0.043795,-0.06559,-0.000669,69.631653,2.321167,-145.909592,,,
729861020.525871,-0.368866,3.67668,41.494484,-0.062775,-0.013046,1.002853,-0.043795,-0.06559,-0.000669,69.631653,2.321167,-145.909592,,,
729861020.529133,-0.375632,3.6527,41.492607,-0.062775,-0.013046,1.002853,-0.013431,-0.082597,-0.01437,69.631653,2.321167,-145.909592,,,
729861020.532474,-0.375632,3.6527,41.492607,-0.062775,-0.013046,1.002853,-0.013431,-0.082597,-0.01437,69.631653,2.321167,-145.909592,,,
729861020.535798,-0.376899,3.629705,41.487878,-0.051163,-0.014572,1.025955,-0.013431,-0.082597,-0.01437,69.631653,2.321167,-145.909592,,,
729861020.539124,-0.375013,3.609258,41.480928,-0.051163,-0.014572,1.025955,0.014893,-0.060287,-0.028073,69.631653,2.321167,-145.909592,,,
729861020.542455,-0.375013,3.609258,41.480928,-0.051163,-0.014572,1.025955,0.014893,-0.060287,-0.028073,69.631653,2.321167,-145.909592,,,
729861020.545564,-0.36982,3.592796,41.473132,-0.050095,-0.018768,1.037262,0.014893,-0.060287,-0.028073,69.631653,2.321167,-145.909592,,,
729861020.549152,-0.362411,3.583451,41.465717,-0.050095,-0.018768,1.037262,0.031195,-0.016432,-0.02441,69.631653,2.321167,-145.909592,,,
729861020.552332,-0.362411,3.583451,41.465717,-0.050095,-0.018768,1.037262,0.031195,-0.016432,-0.02441,69.631653,2.321167,-145.909592,,,
729861020.555808,-0.352969,3.579355,41.458638,-0.049484,-0.011932,1.031113,0.031195,-0.016432,-0.02441,69.631653,2.321167,-145.909592,,,
729861020.559125,-0.346405,3.584254,41.452374,-0.049484,-0.011932,1.031113,0.020754,0.030748,-0.019505,69.631653,2.321167,-145.909592,,,
729861020.562542,-0.346405,3.584254,41.452374,-0.049484,-0.011932,1.031113,0.020754,0.030748,-0.019505,69.645782,2.125778,-146.240585,,,
729861020.565796,-0.339366,3.593056,41.447812,-0.051544,-0.003723,1.018799,0.020754,0.030748,-0.019505,69.645782,2.125778,-146.240585,,,
729861020.569144,-0.33554,3.607053,41.445969,-0.051544,-0.003723,1.018799,0.012404,0.057457,-0.001097,69.645782,2.125778,-146.240585,,,
729861020.572468,-0.33554,3.607053,41.445969,-0.051544,-0.003723,1.018799,0.012404,0.057457,-0.001097,69.645782,2.125778,-146.240585,,,
729861020.575857,-0.330384,3.624024,41.446409,-0.066299,-0.005783,1.0065,0.012404,0.057457,-0.001097,69.645782,2.125778,-146.240585,,,
729861020.579129,-0.326851,3.639242,41.448373,-0.066299,-0.005783,1.0065,0.013212,0.051761,0.009631,69.645782,2.125778,-146.240585,,,
729861020.582457,-0.326851,3.639242,41.448373,-0.066299,-0.005783,1.0065,0.013212,0.051761,0.009631,69.645782,2.125778,-146.240585,,,
729861020.585799,-0.322315,3.653325,41.451165,-0.076569,-0.002197,0.996826,0.013212,0.051761,0.009631,69.645782,2.125778,-146.240585,,,
729861020.589128,-0.319367,3.660276,41.453858,-0.076569,-0.002197,0.996826,0.010833,0.016505,0.008828,69.645782,2.125778,-146.240585,,,
729861020.592472,-0.319367,3.660276,41.453858,-0.076569,-0.002197,0.996826,0.010833,0.016505,0.008828,69.645782,2.125778,-146.240585,,,
729861020.595797,-0.316509,3.66371,41.456751,-0.07843,0.002121,0.985641,0.010833,0.016505,0.008828,69.645782,2.125778,-146.240585,,,
729861020.599139,-0.314696,3.658611,41.45905,-0.07843,0.002121,0.985641,0.004833,-0.024522,0.004361,69.645782,2.125778,-146.240585,,,
729861020.602451,-0.314696,3.658611,41.45905,-0.07843,0.002121,0.985641,0.004833,-0.024522,0.004361,69.828705,2.057693,-146.158035,,,
729861020.60581,-0.315354,3.648936,41.45986,-0.073502,0.002335,0.984848,0.004833,-0.024522,0.004361,69.828705,2.057693,-146.158035,,,
729861020.609122,-0.315466,3.635062,41.45969,-0.073502,0.002335,0.984848,-0.000999,-0.048992,-0.002793,69.828705,2.057693,-146.158035,,,
729861020.612457,-0.315466,3.635062,41.45969,-0.073502,0.002335,0.984848,-0.000999,-0.048992,-0.002793,69.828705,2.057693,-146.158035,,,
729861020.615807,-0.317862,3.617429,41.458152,-0.062027,0.001282,0.989822,-0.000999,-0.048992,-0.002793,69.828705,2.057693,-146.158035,,,
729861020.619126,-0.318204,3.602924,41.455131,-0.062027,0.001282,0.989822,0.00277,-0.045837,-0.013055,69.828705,2.057693,-146.158035,,,
729861020.622461,-0.318204,3.602924,41.455131,-0.062027,0.001282,0.989822,0.00277,-0.045837,-0.013055,69.828705,2.057693,-146.158035,,,
729861020.625896,-0.31869,3.586836,41.451071,-0.058243,-0.007401,1.014038,0.00277,-0.045837,-0.013055,69.828705,2.057693,-146.158035,,,
729861020.629203,-0.311908,3.578659,41.44668,-0.058243,-0.007401,1.014038,0.035624,-0.016918,-0.013487,69.828705,2.057693,-146.158035,,,
729861020.63246,-0.311908,3.578659,41.44668,-0.058243,-0.007401,1.014038,0.035624,-0.016918,-0.013487,69.828705,2.057693,-146.158035,,,
729861020.635811,-0.301612,3.57148,41.442779,-0.061142,-0.014572,1.032333,0.035624,-0.016918,-0.013487,69.828705,2.057693,-146.158035,,,
729861020.639118,-0.286263,3.569109,41.438903,-0.061142,-0.014572,1.032333,0.058494,-0.004078,-0.012028,69.828705,2.057693,-146.158035,,,
729861020.642544,-0.286263,3.569109,41.438903,-0.061142,-0.014572,1.032333,0.058494,-0.004078,-0.012028,69.828705,2.057693,-146.158035,,,
729861020.645791,-0.269163,3.563708,41.434561,-0.064545,-0.010315,1.018723,0.058494,-0.004078,-0.012028,69.61116,2.076599,-146.187531,,,
729861020.649123,-0.251831,3.560361,41.429649,-0.064545,-0.010315,1.018723,0.06103,-0.010813,-0.015969,69.61116,2.076599,-146.187531,,,
729861020.652521,-0.251831,3.560361,41.429649,-0.064545,-0.010315,1.018723,0.06103,-0.010813,-0.015969,69.61116,2.076599,-146.187531,,,
729861020.65579,-0.235387,3.555974,41.424163,-0.06366,-0.001404,0.999725,0.06103,-0.010813,-0.015969,69.61116,2.076599,-146.187531,,,
729861020.659156,-0.219616,3.552188,41.418365,-0.06366,-0.001404,0.999725,0.055102,-0.008568,-0.018599,69.61116,2.076599,-146.187531,,,
729861020.662499,-0.219616,3.552188,41.418365,-0.06366,-0.001404,0.999725,0.055102,-0.008568,-0.018599,69.61116,2.076599,-146.187531,,,
729861020.665818,-0.204419,3.552984,41.412983,-0.066452,-0.002258,0.997955,0.055102,-0.008568,-0.018599,69.61116,2.076599,-146.187531,,,
729861020.669123,-0.189031,3.552005,41.408414,-0.066452,-0.002258,0.997955,0.055243,0.001395,-0.012866,69.61116,2.076599,-146.187531,,,
729861020.672455,-0.189031,3.552005,41.408414,-0.066452,-0.002258,0.997955,0.055243,0.001395,-0.012866,69.61116,2.076599,-146.187531,,,
729861020.675751,-0.17285,3.555939,41.405059,-0.066177,-0.003098,0.995285,0.055243,0.001395,-0.012866,69.61116,2.076599,-146.187531,,,
729861020.678839,-0.159925,3.557549,41.403023,-0.066177,-0.003098,0.995285,0.038991,0.011051,-0.004578,69.61116,2.076599,-146.187531,,,
729861020.682447,-0.159925,3.557549,41.403023,-0.066177,-0.003098,0.995285,0.038991,0.011051,-0.004578,69.61116,2.076599,-146.187531,,,
729861020.685826,-0.150264,3.56397,41.401768,-0.067551,0.003052,0.979462,0.038991,0.011051,-0.004578,69.733109,1.768356,-145.821304,,,
729861020.689132,-0.146793,3.567501,41.400904,-0.067551,0.003052,0.979462,0.003419,0.015777,-0.003995,69.733109,1.768356,-145.821304,,,
729861020.692469,-0.146793,3.567501,41.400904,-0.067551,0.003052,0.979462,0.003419,0.015777,-0.003995,69.733109,1.768356,-145.821304,,,
729861020.695574,-0.147113,3.572503,41.400677,-0.068695,0.007477,0.966965,0.003419,0.015777,-0.003995,69.733109,1.768356,-145.821304,,,
729861020.699172,-0.152161,3.577507,41.401363,-0.068695,0.007477,0.966965,-0.022827,0.021,0.000808,69.733109,1.768356,-145.821304,,,
729861020.702524,-0.152161,3.577507,41.401363,-0.068695,0.007477,0.966965,-0.022827,0.021,0.000808,69.733109,1.768356,-145.821304,,,
729861020.705797,-0.160368,3.582688,41.403029,-0.065857,0.005478,0.975739,-0.022827,0.021,0.000808,69.733109,1.768356,-145.821304,,,
729861020.709132,-0.169739,3.590575,41.406284,-0.065857,0.005478,0.975739,-0.035363,0.031576,0.011101,69.733109,1.768356,-145.821304,,,
729861020.712231,-0.169739,3.590575,41.406284,-0.065857,0.005478,0.975739,-0.035363,0.031576,0.011101,69.733109,1.768356,-145.821304,,,
729861020.715911,-0.181976,3.598104,41.411093,-0.069672,-0.005371,0.986023,-0.035363,0.031576,0.011101,69.733109,1.768356,-145.821304,,,
729861020.719121,-0.191667,3.606955,41.416413,-0.069672,-0.005371,0.986023,-0.034563,0.034803,0.014637,69.733109,1.768356,-145.821304,,,
729861020.722483,-0.191667,3.606955,41.416413,-0.069672,-0.005371,0.986023,-0.034563,0.034803,0.014637,69.733109,1.768356,-145.821304,,,
729861020.72581,-0.202862,3.615565,41.42174,-0.067947,-0.009995,0.994232,-0.034563,0.034803,0.014637,69.738022,1.899673,-146.21312,,,
729861020.728904,-0.211243,3.623346,41.427131,-0.067947,-0.009995,0.994232,-0.027897,0.028367,0.015475,69.738022,1.899673,-146.21312,,,
729861020.732507,-0.211243,3.623346,41.427131,-0.067947,-0.009995,0.994232,-0.027897,0.028367,0.015475,69.738022,1.899673,-146.21312,,,
729861020.735793,-0.21695,3.629145,41.432287,-0.064484,-0.013031,1.003693,-0.027897,0.028367,0.015475,69.738022,1.899673,-146.21312,,,
729861020.73913,-0.217734,3.631707,41.436914,-0.064484,-0.013031,1.003693,0.006949,0.007422,0.013977,69.738022,1.899673,-146.21312,,,
729861020.742528,-0.217734,3.631707,41.436914,-0.064484,-0.013031,1.003693,0.006949,0.007422,0.013977,69.738022,1.899673,-146.21312,,,
729861020.745605,-0.212591,3.632679,41.440034,-0.059509,-0.015625,1.01297,0.006949,0.007422,0.013977,69.738022,1.899673,-146.21312,,,
729861020.749183,-0.202985,3.630994,41.44076,-0.059509,-0.015625,1.01297,0.043669,-0.007342,-0.000415,69.738022,1.899673,-146.21312,,,
729861020.752448,-0.202985,3.630994,41.44076,-0.059509,-0.015625,1.01297,0.043669,-0.007342,-0.000415,69.738022,1.899673,-146.21312,,,
729861020.755891,-0.188679,3.627693,41.439424,-0.056549,-0.013718,1.008698,0.043669,-0.007342,-0.000415,69.738022,1.899673,-146.21312,,,
729861020.759119,-0.170922,3.621695,41.435494,-0.056549,-0.013718,1.008698,0.067938,-0.021379,-0.017003,69.738022,1.899673,-146.21312,,,
729861020.762251,-0.170922,3.621695,41.435494,-0.056549,-0.013718,1.008698,0.067938,-0.021379,-0.017003,69.738022,1.899673,-146.21312,,,
729861020.765823,-0.150641,3.615258,41.428994,-0.052094,-0.010635,0.999023,0.067938,-0.021379,-0.017003,69.673752,1.966003,-145.916,,,
729861020.769117,-0.131758,3.608809,41.421489,-0.052094,-0.010635,0.999023,0.06536,-0.014822,-0.024132,69.673752,1.966003,-145.916,,,
729861020.772468,-0.131758,3.608809,41.421489,-0.052094,-0.010635,0.999023,0.06536,-0.014822,-0.024132,69.673752,1.966003,-145.916,,,
729861020.775798,-0.113228,3.60655,41.413949,-0.053864,-0.004761,0.986298,0.06536,-0.014822,-0.024132,69.673752,1.966003,-145.916,,,
729861020.778904,-0.100519,3.604351,41.407709,-0.053864,-0.004761,0.986298,0.037587,-0.000311,-0.016773,69.673752,1.966003,-145.916,,,
729861020.782573,-0.100519,3.604351,41.407709,-0.053864,-0.004761,0.986298,0.037587,-0.000311,-0.016773,69.673752,1.966003,-145.916,,,
729861020.785784,-0.090802,3.606171,41.403265,-0.053391,0.002213,0.971054,0.037587,-0.000311,-0.016773,69.673752,1.966003,-145.916,,,
729861020.789128,-0.089188,3.609821,41.400666,-0.053391,0.002213,0.971054,-0.006033,0.019846,-0.006674,69.673752,1.966003,-145.916,,,
729861020.792486,-0.089188,3.609821,41.400666,-0.053391,0.002213,0.971054,-0.006033,0.019846,-0.006674,69.673752,1.966003,-145.916,,,
729861020.795868,-0.095282,3.617918,41.40044,-0.054581,0.007492,0.962097,-0.006033,0.019846,-0.006674,69.673752,1.966003,-145.916,,,
729861020.799114,-0.107814,3.626848,41.401854,-0.054581,0.007492,0.962097,-0.053863,0.035971,0.001756,69.673752,1.966003,-145.916,,,
729861020.802486,-0.107814,3.626848,41.401854,-0.054581,0.007492,0.962097,-0.053863,0.035971,0.001756,69.673752,1.966003,-145.916,,,
729861020.805863,-0.127578,3.637886,41.403902,-0.062134,0.005402,0.961212,-0.053863,0.035971,0.001756,69.587631,2.088303,-146.174301,,,
729861020.809142,-0.149748,3.645959,41.406006,-0.062134,0.005402,0.961212,-0.081324,0.026878,0.000374,69.587631,2.088303,-146.174301,,,
729861020.812498,-0.149748,3.645959,41.406006,-0.062134,0.005402,0.961212,-0.081324,0.026878,0.000374,69.587631,2.088303,-146.174301,,,
729861020.815819,-0.175411,3.651755,41.407122,-0.063675,0.001389,0.966904,-0.081324,0.026878,0.000374,69.587631,2.088303,-146.174301,,,
729861020.819133,-0.200155,3.654144,41.406517,-0.063675,0.001389,0.966904,-0.086146,0.004494,-0.011931,69.587631,2.088303,-146.174301,,,
729861020.822539,-0.200155,3.654144,41.406517,-0.063675,0.001389,0.966904,-0.086146,0.004494,-0.011931,69.587631,2.088303,-146.174301,,,
729861020.825805,-0.226593,3.652313,41.404493,-0.064819,-0.004486,0.978729,-0.086146,0.004494,-0.011931,69.587631,2.088303,-146.174301,,,
729861020.829127,-0.248882,3.647559,41.401516,-0.064819,-0.004486,0.978729,-0.070363,-0.021058,-0.017557,69.587631,2.088303,-146.174301,,,
729861020.83247,-0.248882,3.647559,41.401516,-0.064819,-0.004486,0.978729,-0.070363,-0.021058,-0.017557,69.587631,2.088303,-146.174301,,,
729861020.835791,-0.268241,3.638278,41.397589,-0.065231,-0.011932,0.995056,-0.070363,-0.021058,-0.017557,69.587631,2.088303,-146.174301,,,
729861020.83912,-0.280832,3.628052,41.392621,-0.065231,-0.011932,0.995056,-0.033509,-0.036152,-0.02247,69.587631,2.088303,-146.174301,,,
729861020.84248,-0.280832,3.628052,41.392621,-0.065231,-0.011932,0.995056,-0.033509,-0.036152,-0.02247,69.587631,2.088303,-146.174301,,,
729861020.84579,-0.288817,3.614117,41.386906,-0.06604,-0.017609,1.015152,-0.033509,-0.036152,-0.02247,69.587631,2.088303,-146.174301,,,
729861020.849124,-0.289113,3.602462,41.380444,-0.06604,-0.017609,1.015152,0.012065,-0.033904,-0.024865,69.392715,2.115646,-146.298248,,,
729861020.852454,-0.289113,3.602462,41.380444,-0.06604,-0.017609,1.015152,0.012065,-0.033904,-0.024865,69.392715,2.115646,-146.298248,,,
729861020.855802,-0.283185,3.591345,41.373298,-0.068695,-0.01796,1.028732,0.012065,-0.033904,-0.024865,69.392715,2.115646,-146.298248,,,
729861020.859122,-0.271818,3.5863,41.366733,-0.068695,-0.01796,1.028732,0.048618,-0.007811,-0.018601,69.392715,2.115646,-146.298248,,,
729861020.862456,-0.271818,3.5863,41.366733,-0.068695,-0.01796,1.028732,0.048618,-0.007811,-0.018601,69.392715,2.115646,-146.298248,,,
729861020.865794,-0.256655,3.583141,41.361502,-0.06572,-0.017746,1.02298,0.048618,-0.007811,-0.018601,69.392715,2.115646,-146.298248,,,
729861020.868857,-0.242526,3.584724,41.357808,-0.06572,-0.017746,1.02298,0.049195,0.012773,-0.007889,69.392715,2.115646,-146.298248,,,
729861020.872515,-0.242526,3.584724,41.357808,-0.06572,-0.017746,1.02298,0.049195,0.012773,-0.007889,69.392715,2.115646,-146.298248,,,
729861020.875801,-0.22836,3.586329,41.355319,-0.061295,-0.005127,0.999283,0.049195,0.012773,-0.007889,69.392715,2.115646,-146.298248,,,
729861020.879134,-0.221473,3.591007,41.353732,-0.061295,-0.005127,0.999283,0.013955,0.021008,-0.003841,69.392715,2.115646,-146.298248,,,
729861020.882469,-0.221473,3.591007,41.353732,-0.061295,-0.005127,0.999283,0.013955,0.021008,-0.003841,69.392715,2.115646,-146.298248,,,
729861020.88581,-0.218595,3.59547,41.352912,-0.065582,0.006454,0.970856,0.013955,0.021008,-0.003841,69.392715,2.115646,-146.298248,,,
729861020.889125,-0.223972,3.597887,41.352405,-0.065582,0.006454,0.970856,-0.027924,0.006254,-0.00422,69.661789,1.820831,-146.248383,,,
729861020.892479,-0.223972,3.597887,41.352405,-0.065582,0.006454,0.970856,-0.027924,0.006254,-0.00422,69.661789,1.820831,-146.248383,,,
729861020.895844,-0.233539,3.598302,41.352506,-0.070511,0.009949,0.959183,-0.027924,0.006254,-0.00422,69.661789,1.820831,-146.248383,,,
729861020.899128,-0.248932,3.595816,41.353667,-0.070511,0.009949,0.959183,-0.060403,-0.009318,0.001175,69.661789,1.820831,-146.248383,,,
729861020.902457,-0.248932,3.595816,41.353667,-0.070511,0.009949,0.959183,-0.060403,-0.009318,0.001175,69.661789,1.820831,-146.248383,,,
729861020.905789,-0.267762,3.592448,41.355949,-0.072327,0.005157,0.9664,-0.060403,-0.009318,0.001175,69.661789,1.820831,-146.248383,,,
729861020.909132,-0.289416,3.58816,41.359224,-0.072327,0.005157,0.9664,-0.07912,-0.011337,0.006978,69.661789,1.820831,-146.248383,,,
729861020.912308,-0.289416,3.58816,41.359224,-0.072327,0.005157,0.9664,-0.07912,-0.011337,0.006978,69.661789,1.820831,-146.248383,,,
729861020.915897,-0.313184,3.58512,41.363498,-0.068756,-0.001633,0.984406,-0.07912,-0.011337,0.006978,69.661789,1.820831,-146.248383,,,
729861020.919117,-0.336266,3.583042,41.367805,-0.068756,-0.001633,0.984406,-0.080131,-0.000223,0.007124,69.661789,1.820831,-146.248383,,,
729861020.922473,-0.336266,3.583042,41.367805,-0.068756,-0.001633,0.984406,-0.080131,-0.000223,0.007124,69.661789,1.820831,-146.248383,,,
729861020.925794,-0.359725,3.583003,41.371255,-0.063644,-0.005539,1.00174,-0.080131,-0.000223,0.007124,69.661789,1.820831,-146.248383,,,
729861020.928895,-0.377353,3.583622,41.373411,-0.063644,-0.005539,1.00174,-0.052805,0.008086,-0.000194,69.766235,2.062057,-146.539764,,,
729861020.932487,-0.377353,3.583622,41.373411,-0.063644,-0.005539,1.00174,-0.052805,0.008086,-0.000194,69.766235,2.062057,-146.539764,,,
729861020.935806,-0.391844,3.587108,41.373541,-0.056366,-0.015808,1.022949,-0.052805,0.008086,-0.000194,69.766235,2.062057,-146.539764,,,
729861020.939122,-0.398318,3.592375,41.371327,-0.056366,-0.015808,1.022949,-0.009297,0.025698,-0.01382,69.766235,2.062057,-146.539764,,,
729861020.942461,-0.398318,3.592375,41.371327,-0.056366,-0.015808,1.022949,-0.009297,0.025698,-0.01382,69.766235,2.062057,-146.539764,,,
729861020.945807,-0.399552,3.60055,41.366879,-0.059647,-0.021744,1.039078,-0.009297,0.025698,-0.01382,69.766235,2.062057,-146.539764,,,
729861020.949134,-0.392882,3.609584,41.36124,-0.059647,-0.021744,1.039078,0.035972,0.034576,-0.019322,69.766235,2.062057,-146.539764,,,
729861020.952461,-0.392882,3.609584,41.36124,-0.059647,-0.021744,1.039078,0.035972,0.034576,-0.019322,69.766235,2.062057,-146.539764,,,
729861020.955793,-0.381772,3.618621,41.356301,-0.071014,-0.021606,1.030701,0.035972,0.034576,-0.019322,69.766235,2.062057,-146.539764,,,
729861020.959133,-0.368351,3.627428,41.352875,-0.071014,-0.021606,1.030701,0.049631,0.031579,-0.007926,69.766235,2.062057,-146.539764,,,
729861020.962287,-0.368351,3.627428,41.352875,-0.071014,-0.021606,1.030701,0.049631,0.031579,-0.007926,69.766235,2.062057,-146.539764,,,
729861020.965812,-0.353782,3.634821,41.351734,-0.077652,-0.01413,1.006149,0.049631,0.031579,-0.007926,69.766235,2.062057,-146.539764,,,
729861020.969165,-0.34349,3.639109,41.353656,-0.077652,-0.01413,1.006149,0.029828,0.012183,0.012184,69.766235,2.062057,-146.539764,,,
729861020.972568,-0.34349,3.639109,41.353656,-0.077652,-0.01413,1.006149,0.029828,0.012183,0.012184,69.955185,2.144226,-146.301971,,,
729861020.975889,-0.333834,3.641715,41.35782,-0.078491,-0.002991,0.987457,0.029828,0.012183,0.012184,69.955185,2.144226,-146.301971,,,
729861020.97912,-0.330716,3.639362,41.36341,-0.078491,-0.002991,0.987457,0.001958,-0.011161,0.020403,69.955185,2.144226,-146.301971,,,
729861020.982465,-0.330716,3.639362,41.36341,-0.078491,-0.002991,0.987457,0.001958,-0.011161,0.020403,69.955185,2.144226,-146.301971,,,
729861020.985815,-0.329359,3.635297,41.370301,-0.076218,0.002945,0.979294,0.001958,-0.011161,0.020403,69.955185,2.144226,-146.301971,,,
729861020.989121,-0.333148,3.625837,41.378279,-0.076218,0.002945,0.979294,-0.019814,-0.034936,0.026699,69.955185,2.144226,-146.301971,,,
729861020.992472,-0.333148,3.625837,41.378279,-0.076218,0.002945,0.979294,-0.019814,-0.034936,0.026699,69.955185,2.144226,-146.301971,,,
729861020.995557,-0.338281,3.615651,41.387099,-0.070419,-0.001053,0.983154,-0.019814,-0.034936,0.026699,69.955185,2.144226,-146.301971,,,
729861020.999155,-0.345468,3.603793,41.396452,-0.070419,-0.001053,0.983154,-0.028397,-0.037595,0.0299,69.955185,2.144226,-146.301971,,,
729861021.002525,-0.345468,3.603793,41.396452,-0.070419,-0.001053,0.983154,-0.028397,-0.037595,0.0299,69.955185,2.144226,-146.301971,,,
729861021.005787,-0.35347,3.594128,41.405704,-0.063034,-0.003052,0.99942,-0.028397,-0.037595,0.0299,69.955185,2.144226,-146.301971,,,
729861021.009126,-0.361771,3.587102,41.414236,-0.063034,-0.003052,0.99942,-0.028224,-0.016758,0.024885,69.955185,2.144226,-146.301971,,,
729861021.012226,-0.361771,3.587102,41.414236,-0.063034,-0.003052,0.99942,-0.028224,-0.016758,0.024885,69.702972,2.01622,-146.291763,,,
729861021.015823,-0.370692,3.581615,41.422676,-0.057938,-0.002686,1.010178,-0.028224,-0.016758,0.024885,69.702972,2.01622,-146.291763,,,
729861021.019245,-0.377669,3.580264,41.431591,-0.057938,-0.002686,1.010178,-0.022419,0.00383,0.028538,69.702972,2.01622,-146.291763,,,
729861021.022249,-0.377669,3.580264,41.431591,-0.057938,-0.002686,1.010178,-0.022419,0.00383,0.028538,69.702972,2.01622,-146.291763,,,
729861021.025726,-0.385195,3.58088,41.440601,-0.060715,-0.007401,1.014709,-0.022419,0.00383,0.028538,69.702972,2.01622,-146.291763,,,
729861021.028966,-0.386982,3.58477,41.449899,-0.060715,-0.007401,1.014709,3.1e-05,0.017414,0.031899,69.702972,2.01622,-146.291763,,,
729861021.032525,-0.386982,3.58477,41.449899,-0.060715,-0.007401,1.014709,3.1e-05,0.017414,0.031899,69.702972,2.01622,-146.291763,,,
729861021.035805,-0.387028,3.589828,41.458462,-0.055374,-0.008759,1.020035,3.1e-05,0.017414,0.031899,69.702972,2.01622,-146.291763,,,
729861021.039126,-0.380341,3.593971,41.465662,-0.055374,-0.008759,1.020035,0.029722,0.015579,0.024253,69.702972,2.01622,-146.291763,,,
729861021.042563,-0.380341,3.593971,41.465662,-0.055374,-0.008759,1.020035,0.029722,0.015579,0.024253,69.702972,2.01622,-146.291763,,,
729861021.045868,-0.372331,3.599344,41.471123,-0.051971,-0.009445,1.008179,0.029722,0.015579,0.024253,69.702972,2.01622,-146.291763,,,
729861021.049144,-0.360505,3.600364,41.47361,-0.051971,-0.009445,1.008179,0.045908,0.003184,0.00461,69.702972,2.01622,-146.291763,,,
729861021.052466,-0.360505,3.600364,41.47361,-0.051971,-0.009445,1.008179,0.045908,0.003184,0.00461,69.617493,1.916641,-146.297531,,,
729861021.0558,-0.348101,3.603393,41.47281,-0.046051,-0.006897,0.991638,0.045908,0.003184,0.00461,69.617493,1.916641,-146.297531,,,
729861021.059133,-0.336999,3.601279,41.469166,-0.046051,-0.006897,0.991638,0.038884,-0.00404,-0.015517,69.617493,1.916641,-146.297531,,,
729861021.062471,-0.336999,3.601279,41.469166,-0.046051,-0.006897,0.991638,0.038884,-0.00404,-0.015517,69.617493,1.916641,-146.297531,,,
729861021.065799,-0.325393,3.60348,41.463731,-0.044403,-0.003113,0.981491,0.038884,-0.00404,-0.015517,69.617493,1.916641,-146.297531,,,
729861021.069135,-0.317771,3.602519,41.457367,-0.044403,-0.003113,0.981491,0.024331,0.001448,-0.022727,69.617493,1.916641,-146.297531,,,
729861021.072492,-0.317771,3.602519,41.457367,-0.044403,-0.003113,0.981491,0.024331,0.001448,-0.022727,69.617493,1.916641,-146.297531,,,
729861021.07581,-0.311111,3.605635,41.451441,-0.052399,-0.002151,0.977646,0.024331,0.001448,-0.022727,69.617493,1.916641,-146.297531,,,
729861021.079122,-0.308154,3.608255,41.447265,-0.052399,-0.002151,0.977646,0.006929,0.015759,-0.0115,69.617493,1.916641,-146.297531,,,
729861021.082535,-0.308154,3.608255,41.447265,-0.052399,-0.002151,0.977646,0.006929,0.015759,-0.0115,69.617493,1.916641,-146.297531,,,
729861021.085797,-0.307416,3.61361,41.445664,-0.05632,-0.003235,0.977097,0.006929,0.015759,-0.0115,69.617493,1.916641,-146.297531,,,
729861021.089126,-0.309396,3.619728,41.446087,-0.05632,-0.003235,0.977097,-0.009474,0.025429,0.001589,69.617493,1.916641,-146.297531,,,
729861021.092469,-0.309396,3.619728,41.446087,-0.05632,-0.003235,0.977097,-0.009474,0.025429,0.001589,69.770355,1.910828,-146.360443,,,
729861021.095801,-0.312509,3.624627,41.448291,-0.063354,-0.002594,0.975861,-0.009474,0.025429,0.001589,69.770355,1.910828,-146.360443,,,
729861021.099123,-0.317814,3.629946,41.451639,-0.063354,-0.002594,0.975861,-0.019185,0.018612,0.008904,69.770355,1.910828,-146.360443,,,
729861021.102495,-0.317814,3.629946,41.451639,-0.063354,-0.002594,0.975861,-0.019185,0.018612,0.008904,69.770355,1.910828,-146.360443,,,
729861021.105903,-0.324701,3.632713,41.455007,-0.062653,0.001038,0.969574,-0.019185,0.018612,0.008904,69.770355,1.910828,-146.360443,,,
729861021.109116,-0.333593,3.634661,41.458334,-0.062653,0.001038,0.969574,-0.033536,0.006619,0.007638,69.770355,1.910828,-146.360443,,,
729861021.112468,-0.333593,3.634661,41.458334,-0.062653,0.001038,0.969574,-0.033536,0.006619,0.007638,69.770355,1.910828,-146.360443,,,
729861021.115791,-0.344637,3.63354,41.461023,-0.057251,0.000595,0.972702,-0.033536,0.006619,0.007638,69.770355,1.910828,-146.360443,,,
729861021.119122,-0.356503,3.634653,41.462234,-0.057251,0.000595,0.972702,-0.041966,0.008476,-0.00335,69.770355,1.910828,-146.360443,,,
729861021.12248,-0.356503,3.634653,41.462234,-0.057251,0.000595,0.972702,-0.041966,0.008476,-0.00335,69.770355,1.910828,-146.360443,,,
729861021.125791,-0.369239,3.633968,41.461797,-0.05098,-0.001999,0.985077,-0.041966,0.008476,-0.00335,69.770355,1.910828,-146.360443,,,
729861021.129152,-0.381031,3.636354,41.459374,-0.05098,-0.001999,0.985077,-0.038659,0.012025,-0.017157,69.770355,1.910828,-146.360443,,,
729861021.132549,-0.381031,3.636354,41.459374,-0.05098,-0.001999,0.985077,-0.038659,0.012025,-0.017157,69.770355,1.910828,-146.360443,,,
