Time (sec),Pitch (deg),Roll (deg),Yaw(deg),X-Acceleration (g),Y-Acceleration (g),Z-Acceleration (g),Pitch Rate (deg/sec),Roll Rate (deg/sec),Yaw Rate (deg/sec),Magnetic Field in X direction (uT),Magnetic Field in Y direction (uT),Magnetic Field in Z Direction (uT),Latitude (deg),Longitude (deg),Altitude (m)
729861282.18558,-0.790253,4.765831,42.677278,-0.073486,-0.014618,0.987228,0.019824,-0.014818,-0.006174,73.046082,10.167648,-154.277634,,,
729861282.188879,-0.790015,4.762691,42.676433,-0.073486,-0.014618,0.987228,-0.00451,-0.005662,-0.003247,73.046082,10.167648,-154.277634,,,
729861282.192211,-0.790015,4.762691,42.676433,-0.073486,-0.014618,0.987228,-0.00451,-0.005662,-0.003247,73.046082,10.167648,-154.277634,,,
729861282.195544,-0.793571,4.766105,42.676118,-0.072037,-0.012054,0.979462,-0.00451,-0.005662,-0.003247,73.046082,10.167648,-154.277634,,,
729861282.19889,-0.800999,4.768556,42.675699,-0.072037,-0.012054,0.979462,-0.02667,0.01687,-0.005348,73.046082,10.167648,-154.277634,,,
729861282.202224,-0.800999,4.768556,42.675699,-0.072037,-0.012054,0.979462,-0.02667,0.01687,-0.005348,73.046082,10.167648,-154.277634,,,
729861282.205552,-0.809761,4.776361,42.674936,-0.073349,-0.015137,0.992355,-0.02667,0.01687,-0.005348,73.046082,10.167648,-154.277634,,,
729861282.20894,-0.816303,4.786611,42.674213,-0.073349,-0.015137,0.992355,-0.016381,0.044487,-0.004014,73.046082,10.167648,-154.277634,,,
729861282.212272,-0.816303,4.786611,42.674213,-0.073349,-0.015137,0.992355,-0.016381,0.044487,-0.004014,73.046082,10.167648,-154.277634,,,
729861282.215539,-0.819312,4.798486,42.673988,-0.08223,-0.026901,1.016037,-0.016381,0.044487,-0.004014,73.046082,10.167648,-154.277634,,,
729861282.218873,-0.818848,4.811857,42.674793,-0.08223,-0.026901,1.016037,0.008246,0.047464,0.005138,73.046082,10.167648,-154.277634,,,
729861282.222202,-0.818848,4.811857,42.674793,-0.08223,-0.026901,1.016037,0.008246,0.047464,0.005138,73.033646,10.074341,-154.305542,,,
729861282.225545,-0.815746,4.821156,42.675961,-0.090118,-0.028305,1.01236,0.008246,0.047464,0.005138,73.033646,10.074341,-154.305542,,,
729861282.228874,-0.810388,4.83106,42.676471,-0.090118,-0.028305,1.01236,0.023934,0.033731,0.001586,73.033646,10.074341,-154.305542,,,
729861282.232222,-0.810388,4.83106,42.676471,-0.090118,-0.028305,1.01236,0.023934,0.033731,0.001586,73.033646,10.074341,-154.305542,,,
729861282.235624,-0.803076,4.836293,42.676249,-0.091156,-0.023972,1.00209,0.023934,0.033731,0.001586,73.033646,10.074341,-154.305542,,,
729861282.238875,-0.793635,4.839253,42.675086,-0.091156,-0.023972,1.00209,0.035803,0.004986,-0.004136,73.033646,10.074341,-154.305542,,,
729861282.242223,-0.793635,4.839253,42.675086,-0.091156,-0.023972,1.00209,0.035803,0.004986,-0.004136,73.033646,10.074341,-154.305542,,,
729861282.245546,-0.782964,4.835064,42.672723,-0.094147,-0.027206,0.997147,0.035803,0.004986,-0.004136,73.033646,10.074341,-154.305542,,,
729861282.248882,-0.769699,4.826908,42.669452,-0.094147,-0.027206,0.997147,0.050798,-0.035979,-0.009439,73.033646,10.074341,-154.305542,,,
729861282.252318,-0.769699,4.826908,42.669452,-0.094147,-0.027206,0.997147,0.050798,-0.035979,-0.009439,73.033646,10.074341,-154.305542,,,
729861282.255642,-0.755787,4.810737,42.665293,-0.095581,-0.023758,0.986938,0.050798,-0.035979,-0.009439,73.033646,10.074341,-154.305542,,,
729861282.258869,-0.742154,4.791553,42.660237,-0.095581,-0.023758,0.986938,0.047277,-0.06888,-0.016188,73.033646,10.074341,-154.305542,,,
729861282.262219,-0.742154,4.791553,42.660237,-0.095581,-0.023758,0.986938,0.047277,-0.06888,-0.016188,73.024551,10.095917,-154.454178,,,
729861282.265553,-0.731122,4.768791,42.655342,-0.091553,-0.017532,0.977951,0.047277,-0.06888,-0.016188,73.024551,10.095917,-154.454178,,,
729861282.268993,-0.722989,4.750204,42.651776,-0.091553,-0.017532,0.977951,0.023289,-0.057253,-0.009234,73.024551,10.095917,-154.454178,,,
729861282.272232,-0.722989,4.750204,42.651776,-0.091553,-0.017532,0.977951,0.023289,-0.057253,-0.009234,73.024551,10.095917,-154.454178,,,
729861282.275548,-0.718422,4.732028,42.649477,-0.087799,-0.015106,0.97702,0.023289,-0.057253,-0.009234,73.024551,10.095917,-154.454178,,,
729861282.278881,-0.717036,4.72051,42.648656,-0.087799,-0.015106,0.97702,0.000349,-0.031187,-0.00108,73.024551,10.095917,-154.454178,,,
729861282.282225,-0.717036,4.72051,42.648656,-0.087799,-0.015106,0.97702,0.000349,-0.031187,-0.00108,73.024551,10.095917,-154.454178,,,
729861282.28554,-0.718545,4.709049,42.649673,-0.082092,-0.011108,0.979782,0.000349,-0.031187,-0.00108,73.024551,10.095917,-154.454178,,,
729861282.288887,-0.721676,4.702287,42.651875,-0.082092,-0.011108,0.979782,-0.013245,-0.018028,0.005824,73.024551,10.095917,-154.454178,,,
729861282.29222,-0.721676,4.702287,42.651875,-0.082092,-0.011108,0.979782,-0.013245,-0.018028,0.005824,73.024551,10.095917,-154.454178,,,
729861282.295548,-0.728771,4.696558,42.653571,-0.077255,-0.01236,0.983459,-0.013245,-0.018028,0.005824,73.024551,10.095917,-154.454178,,,
729861282.298866,-0.733588,4.694542,42.65401,-0.077255,-0.01236,0.983459,-0.014274,-0.000529,-0.003074,73.024551,10.095917,-154.454178,,,
729861282.302316,-0.733588,4.694542,42.65401,-0.077255,-0.01236,0.983459,-0.014274,-0.000529,-0.003074,73.024551,10.095917,-154.454178,,,
729861282.305543,-0.740732,4.695562,42.652772,-0.074326,-0.016022,0.986664,-0.014274,-0.000529,-0.003074,72.871353,10.074478,-154.369217,,,
729861282.308874,-0.744299,4.69635,42.650352,-0.074326,-0.016022,0.986664,-0.013021,0.008542,-0.011096,72.871353,10.074478,-154.369217,,,
729861282.312233,-0.744299,4.69635,42.650352,-0.074326,-0.016022,0.986664,-0.013021,0.008542,-0.011096,72.871353,10.074478,-154.369217,,,
729861282.315652,-0.750466,4.700468,42.64829,-0.076477,-0.01268,0.981842,-0.013021,0.008542,-0.011096,72.871353,10.074478,-154.369217,,,
729861282.318866,-0.753659,4.701526,42.647207,-0.076477,-0.01268,0.981842,-0.009861,0.00513,-0.003728,72.871353,10.074478,-154.369217,,,
729861282.322238,-0.753659,4.701526,42.647207,-0.076477,-0.01268,0.981842,-0.009861,0.00513,-0.003728,72.871353,10.074478,-154.369217,,,
729861282.325542,-0.759101,4.705398,42.647378,-0.084625,-0.009918,0.982574,-0.009861,0.00513,-0.003728,72.871353,10.074478,-154.369217,,,
729861282.328887,-0.761302,4.705667,42.647975,-0.084625,-0.009918,0.982574,-0.007928,0.003246,-0.000309,72.871353,10.074478,-154.369217,,,
729861282.332217,-0.761302,4.705667,42.647975,-0.084625,-0.009918,0.982574,-0.007928,0.003246,-0.000309,72.871353,10.074478,-154.369217,,,
729861282.335567,-0.766766,4.710361,42.648337,-0.081131,-0.008774,0.982239,-0.007928,0.003246,-0.000309,72.871353,10.074478,-154.369217,,,
729861282.338873,-0.770582,4.711673,42.647805,-0.081131,-0.008774,0.982239,-0.016071,0.010797,-0.006818,72.871353,10.074478,-154.369217,,,
729861282.342308,-0.770582,4.711673,42.647805,-0.081131,-0.008774,0.982239,-0.016071,0.010797,-0.006818,72.871353,10.074478,-154.369217,,,
729861282.345562,-0.777899,4.718397,42.6461,-0.069504,-0.008987,0.980972,-0.016071,0.010797,-0.006818,73.096771,10.015076,-154.415955,,,
729861282.348886,-0.786486,4.723254,42.643394,-0.069504,-0.008987,0.980972,-0.033134,0.022474,-0.014851,73.096771,10.015076,-154.415955,,,
729861282.35232,-0.786486,4.723254,42.643394,-0.069504,-0.008987,0.980972,-0.033134,0.022474,-0.014851,73.096771,10.015076,-154.415955,,,
729861282.355556,-0.797441,4.731387,42.639092,-0.071014,-0.00679,0.984879,-0.033134,0.022474,-0.014851,73.096771,10.015076,-154.415955,,,
729861282.358883,-0.809097,4.735256,42.632815,-0.071014,-0.00679,0.984879,-0.039856,0.012445,-0.028981,73.096771,10.015076,-154.415955,,,
729861282.362206,-0.809097,4.735256,42.632815,-0.071014,-0.00679,0.984879,-0.039856,0.012445,-0.028981,73.096771,10.015076,-154.415955,,,
729861282.365543,-0.8206,4.737075,42.624879,-0.073715,-0.006302,0.99321,-0.039856,0.012445,-0.028981,73.096771,10.015076,-154.415955,,,
729861282.368912,-0.831316,4.736225,42.615987,-0.073715,-0.006302,0.99321,-0.030374,-0.00226,-0.034784,73.096771,10.015076,-154.415955,,,
729861282.372265,-0.831316,4.736225,42.615987,-0.073715,-0.006302,0.99321,-0.030374,-0.00226,-0.034784,73.096771,10.015076,-154.415955,,,
729861282.375596,-0.837822,4.732695,42.607892,-0.079346,-0.0177,1.007233,-0.030374,-0.00226,-0.034784,73.096771,10.015076,-154.415955,,,
729861282.378892,-0.837822,4.728063,42.600837,-0.079346,-0.0177,1.007233,0.011885,-0.01529,-0.024086,73.096771,10.015076,-154.415955,,,
729861282.382273,-0.838777,4.728063,42.600837,-0.079346,-0.0177,1.007233,0.011885,-0.01529,-0.024086,73.096771,10.015076,-154.415955,,,
729861282.385538,-0.833446,4.720281,42.594601,-0.088501,-0.022919,1.031311,0.011885,-0.01529,-0.024086,72.952042,10.139221,-154.530289,,,
729861282.388879,-0.833446,4.720281,42.590037,-0.088501,-0.022919,1.031311,0.047422,-0.023699,-0.009708,72.952042,10.139221,-154.530289,,,
729861282.392206,-0.822745,4.713147,42.590037,-0.088501,-0.022919,1.031311,0.047422,-0.023699,-0.009708,72.952042,10.139221,-154.530289,,,
729861282.395538,-0.808382,4.702977,42.587097,-0.088593,-0.018616,1.025131,0.047422,-0.023699,-0.009708,72.952042,10.139221,-154.530289,,,
729861282.398951,-0.793085,4.694277,42.585109,-0.088593,-0.018616,1.025131,0.053366,-0.02681,-0.002814,72.952042,10.139221,-154.530289,,,
729861282.402206,-0.793085,4.694277,42.585109,-0.088593,-0.018616,1.025131,0.053366,-0.02681,-0.002814,72.952042,10.139221,-154.530289,,,
729861282.405551,-0.778618,4.687116,42.583002,-0.077591,-0.00647,0.999588,0.053366,-0.02681,-0.002814,72.952042,10.139221,-154.530289,,,
729861282.408918,-0.778618,4.687116,42.583002,-0.077591,-0.00647,0.999588,0.053366,-0.02681,-0.002814,72.952042,10.139221,-154.530289,,,
729861282.41221,-0.767727,4.680622,42.579945,-0.077591,-0.00647,0.999588,0.033767,-0.016003,-0.010979,72.952042,10.139221,-154.530289,,,
729861282.415551,-0.759664,4.677724,42.576008,-0.065826,0.001404,0.987579,0.033767,-0.016003,-0.010979,72.952042,10.139221,-154.530289,,,
729861282.41888,-0.759664,4.677724,42.576008,-0.065826,0.001404,0.987579,0.033767,-0.016003,-0.010979,72.952042,10.139221,-154.530289,,,
729861282.422249,-0.755557,4.677027,42.571143,-0.065826,0.001404,0.987579,0.013175,0.006018,-0.019077,72.952042,10.139221,-154.530289,,,
729861282.425629,-0.753089,4.676006,42.565333,-0.065125,0.001968,0.984695,0.013175,0.006018,-0.019077,72.952042,10.139221,-154.530289,,,
729861282.428961,-0.753089,4.676006,42.565333,-0.065125,0.001968,0.984695,0.013175,0.006018,-0.019077,73.16951,9.895004,-154.434219,,,
729861282.432215,-0.754818,4.680399,42.559336,-0.065125,0.001968,0.984695,-0.009656,0.024401,-0.022512,73.16951,9.895004,-154.434219,,,
729861282.43555,-0.758366,4.68403,42.554093,-0.075226,-0.000214,0.985321,-0.009656,0.024401,-0.022512,73.16951,9.895004,-154.434219,,,
729861282.438903,-0.758366,4.68403,42.554093,-0.075226,-0.000214,0.985321,-0.009656,0.024401,-0.022512,73.16951,9.895004,-154.434219,,,
729861282.442218,-0.765512,4.692279,42.550433,-0.075226,-0.000214,0.985321,-0.027824,0.033772,-0.01323,73.16951,9.895004,-154.434219,,,
729861282.445546,-0.772304,4.698824,42.548004,-0.076263,-0.001114,0.984772,-0.027824,0.033772,-0.01323,73.16951,9.895004,-154.434219,,,
729861282.449028,-0.772304,4.698824,42.548004,-0.076263,-0.001114,0.984772,-0.027824,0.033772,-0.01323,73.16951,9.895004,-154.434219,,,
729861282.452208,-0.781242,4.707057,42.545512,-0.076263,-0.001114,0.984772,-0.029956,0.028548,-0.014046,73.16951,9.895004,-154.434219,,,
729861282.455635,-0.790541,4.711639,42.541904,-0.074112,-0.005661,0.987152,-0.029956,0.028548,-0.014046,73.16951,9.895004,-154.434219,,,
729861282.458919,-0.790541,4.711639,42.541904,-0.074112,-0.005661,0.987152,-0.029956,0.028548,-0.014046,73.16951,9.895004,-154.434219,,,
729861282.46223,-0.799079,4.715563,42.537013,-0.074112,-0.005661,0.987152,-0.025559,0.013987,-0.02283,73.16951,9.895004,-154.434219,,,
729861282.465555,-0.807507,4.717577,42.530875,-0.076996,-0.014938,0.99054,-0.025559,0.013987,-0.02283,73.16951,9.895004,-154.434219,,,
729861282.468905,-0.807507,4.717577,42.530875,-0.076996,-0.014938,0.99054,-0.025559,0.013987,-0.02283,73.000748,9.93895,-154.589371,,,
729861282.472212,-0.81161,4.716759,42.523756,-0.076996,-0.014938,0.99054,-0.008023,-0.002215,-0.028162,73.000748,9.93895,-154.589371,,,
729861282.475665,-0.814803,4.716009,42.516107,-0.077682,-0.018936,0.998444,-0.008023,-0.002215,-0.028162,73.000748,9.93895,-154.589371,,,
729861282.479054,-0.814803,4.716009,42.516107,-0.077682,-0.018936,0.998444,-0.008023,-0.002215,-0.028162,73.000748,9.93895,-154.589371,,,
729861282.48223,-0.81456,4.71177,42.508685,-0.077682,-0.018936,0.998444,0.007647,-0.016884,-0.025145,73.000748,9.93895,-154.589371,,,
729861282.485558,-0.811485,4.705217,42.501386,-0.077667,-0.020706,0.999756,0.007647,-0.016884,-0.025145,73.000748,9.93895,-154.589371,,,
729861282.488905,-0.811485,4.705217,42.501386,-0.077667,-0.020706,0.999756,0.007647,-0.016884,-0.025145,73.000748,9.93895,-154.589371,,,
729861282.492316,-0.808596,4.700644,42.494558,-0.077667,-0.020706,0.999756,0.012696,-0.008882,-0.021483,73.000748,9.93895,-154.589371,,,
729861282.495547,-0.80302,4.694404,42.488632,-0.079483,-0.020172,0.999298,0.012696,-0.008882,-0.021483,73.000748,9.93895,-154.589371,,,
729861282.498886,-0.80302,4.694404,42.488632,-0.079483,-0.020172,0.999298,0.012696,-0.008882,-0.021483,73.000748,9.93895,-154.589371,,,
729861282.502226,-0.802148,4.694592,42.483299,-0.079483,-0.020172,0.999298,0.001349,0.007993,-0.018666,73.000748,9.93895,-154.589371,,,
729861282.505547,-0.800253,4.691937,42.478282,-0.076233,-0.018967,0.994019,0.001349,0.007993,-0.018666,73.000748,9.93895,-154.589371,,,
729861282.508924,-0.800253,4.691937,42.478282,-0.076233,-0.018967,0.994019,0.001349,0.007993,-0.018666,73.091461,9.884338,-154.773987,,,
729861282.512233,-0.804481,4.696858,42.473181,-0.076233,-0.018967,0.994019,-0.016209,0.024348,-0.021144,73.091461,9.884338,-154.773987,,,
729861282.515549,-0.807372,4.701253,42.467623,-0.079193,-0.016022,0.992599,-0.016209,0.024348,-0.021144,73.091461,9.884338,-154.773987,,,
729861282.518893,-0.807372,4.701253,42.467623,-0.079193,-0.016022,0.992599,-0.016209,0.024348,-0.021144,73.091461,9.884338,-154.773987,,,
729861282.522312,-0.813614,4.709524,42.462226,-0.079193,-0.016022,0.992599,-0.019084,0.034438,-0.020511,73.091461,9.884338,-154.773987,,,
729861282.525588,-0.816382,4.716959,42.457684,-0.090149,-0.023804,1.002563,-0.019084,0.034438,-0.020511,73.091461,9.884338,-154.773987,,,
729861282.528909,-0.816382,4.716959,42.457684,-0.090149,-0.023804,1.002563,-0.019084,0.034438,-0.020511,73.091461,9.884338,-154.773987,,,
729861282.532232,-0.820199,4.724196,42.454429,-0.090149,-0.023804,1.002563,-0.006942,0.023123,-0.010642,73.091461,9.884338,-154.773987,,,
729861282.535541,-0.818714,4.72601,42.452339,-0.099609,-0.031509,0.999573,-0.006942,0.023123,-0.010642,73.091461,9.884338,-154.773987,,,
729861282.538909,-0.818714,4.72601,42.452339,-0.099609,-0.031509,0.999573,-0.006942,0.023123,-0.010642,73.091461,9.884338,-154.773987,,,
729861282.542244,-0.817102,4.725956,42.451171,-0.099609,-0.031509,0.999573,0.009523,-0.005462,-0.00307,73.091461,9.884338,-154.773987,,,
729861282.545542,-0.813273,4.720425,42.451159,-0.101929,-0.028137,0.992828,0.009523,-0.005462,-0.00307,73.091461,9.884338,-154.773987,,,
729861282.548886,-0.813273,4.720425,42.451159,-0.101929,-0.028137,0.992828,0.009523,-0.005462,-0.00307,73.129333,9.912613,-154.452942,,,
729861282.552226,-0.809086,4.71411,42.452207,-0.101929,-0.028137,0.992828,0.013332,-0.024261,0.004429,73.129333,9.912613,-154.452942,,,
729861282.555545,-0.807131,4.704262,42.454378,-0.10022,-0.023697,0.983444,0.013332,-0.024261,0.004429,73.129333,9.912613,-154.452942,,,
729861282.558905,-0.807131,4.704262,42.454378,-0.10022,-0.023697,0.983444,0.013332,-0.024261,0.004429,73.129333,9.912613,-154.452942,,,
729861282.562267,-0.805677,4.69329,42.457143,-0.10022,-0.023697,0.983444,0.002288,-0.040463,0.007587,73.129333,9.912613,-154.452942,,,
729861282.565537,-0.806898,4.678652,42.46002,-0.090958,-0.017487,0.972473,0.002288,-0.040463,0.007587,73.129333,9.912613,-154.452942,,,
729861282.568889,-0.806898,4.678652,42.46002,-0.090958,-0.017487,0.972473,0.002288,-0.040463,0.007587,73.129333,9.912613,-154.452942,,,
729861282.572213,-0.808769,4.665265,42.462605,-0.090958,-0.017487,0.972473,-0.011229,-0.041951,0.004318,73.129333,9.912613,-154.452942,,,
729861282.575568,-0.813895,4.652645,42.464473,-0.083298,-0.017273,0.979782,-0.011229,-0.041951,0.004318,73.129333,9.912613,-154.452942,,,
729861282.578902,-0.813895,4.652645,42.464473,-0.083298,-0.017273,0.979782,-0.011229,-0.041951,0.004318,73.129333,9.912613,-154.452942,,,
729861282.58222,-0.819159,4.643006,42.465983,-0.083298,-0.017273,0.979782,-0.020906,-0.024415,0.000958,73.129333,9.912613,-154.452942,,,
729861282.585548,-0.827438,4.636807,42.467132,-0.078781,-0.018906,0.993149,-0.020906,-0.024415,0.000958,73.129333,9.912613,-154.452942,,,
729861282.589008,-0.827438,4.636807,42.467132,-0.078781,-0.018906,0.993149,-0.020906,-0.024415,0.000958,73.129333,9.912613,-154.452942,,,
729861282.592228,-0.835375,4.636697,42.468649,-0.078781,-0.018906,0.993149,-0.027753,0.010689,0.002815,73.054337,9.921082,-154.477661,,,
729861282.595547,-0.844232,4.640292,42.471326,-0.078247,-0.021347,1.004822,-0.027753,0.010689,0.002815,73.054337,9.921082,-154.477661,,,
729861282.5989,-0.844232,4.640292,42.471326,-0.078247,-0.021347,1.004822,-0.027753,0.010689,0.002815,73.054337,9.921082,-154.477661,,,
729861282.602306,-0.852139,4.647994,42.475795,-0.078247,-0.021347,1.004822,-0.025671,0.03333,0.015401,73.054337,9.921082,-154.477661,,,
729861282.605545,-0.859907,4.658453,42.481555,-0.080505,-0.023865,1.01033,-0.025671,0.03333,0.015401,73.054337,9.921082,-154.477661,,,
729861282.608906,-0.859907,4.658453,42.481555,-0.080505,-0.023865,1.01033,-0.025671,0.03333,0.015401,73.054337,9.921082,-154.477661,,,
729861282.612244,-0.863896,4.666849,42.487423,-0.080505,-0.023865,1.01033,-0.009242,0.031582,0.017702,73.054337,9.921082,-154.477661,,,
729861282.615551,-0.868122,4.678611,42.492921,-0.08429,-0.024155,1.010132,-0.009242,0.031582,0.017702,73.054337,9.921082,-154.477661,,,
729861282.6189,-0.868122,4.678611,42.492921,-0.08429,-0.024155,1.010132,-0.009242,0.031582,0.017702,73.054337,9.921082,-154.477661,,,
729861282.622226,-0.866446,4.682174,42.497346,-0.08429,-0.024155,1.010132,0.007524,0.007723,0.012015,73.054337,9.921082,-154.477661,,,
729861282.625563,-0.865799,4.686572,42.500721,-0.08287,-0.025101,1.000565,0.007524,0.007723,0.012015,73.054337,9.921082,-154.477661,,,
729861282.628969,-0.865799,4.686572,42.500721,-0.08287,-0.025101,1.000565,0.007524,0.007723,0.012015,73.054337,9.921082,-154.477661,,,
729861282.632216,-0.859811,4.681002,42.503369,-0.08287,-0.025101,1.000565,0.023184,-0.022122,0.008805,73.16539,9.994171,-154.521835,,,
729861282.635543,-0.855025,4.67991,42.505376,-0.082916,-0.023605,0.997711,0.023184,-0.022122,0.008805,73.16539,9.994171,-154.521835,,,
729861282.638897,-0.855025,4.67991,42.505376,-0.082916,-0.023605,0.997711,0.023184,-0.022122,0.008805,73.16539,9.994171,-154.521835,,,
729861282.642235,-0.848689,4.67258,42.506804,-0.082916,-0.023605,0.997711,0.018985,-0.021731,0.005085,73.16539,9.994171,-154.521835,,,
729861282.64555,-0.845063,4.670874,42.508455,-0.077698,-0.014999,0.994019,0.018985,-0.021731,0.005085,73.16539,9.994171,-154.521835,,,
729861282.648902,-0.845063,4.670874,42.508455,-0.077698,-0.014999,0.994019,0.018985,-0.021731,0.005085,73.16539,9.994171,-154.521835,,,
729861282.652275,-0.843548,4.667435,42.510761,-0.077698,-0.014999,0.994019,-0.002462,-0.004698,0.008273,73.16539,9.994171,-154.521835,,,
729861282.655537,-0.846169,4.669526,42.513871,-0.072372,-0.009583,0.987946,-0.002462,-0.004698,0.008273,73.16539,9.994171,-154.521835,,,
729861282.658903,-0.846169,4.669526,42.513871,-0.072372,-0.009583,0.987946,-0.002462,-0.004698,0.008273,73.16539,9.994171,-154.521835,,,
729861282.662232,-0.852222,4.67408,42.517368,-0.072372,-0.009583,0.987946,-0.02957,0.025004,0.008983,73.16539,9.994171,-154.521835,,,
729861282.665638,-0.862143,4.68154,42.521028,-0.073944,-0.009506,0.99057,-0.02957,0.025004,0.008983,73.16539,9.994171,-154.521835,,,
729861282.668895,-0.862143,4.68154,42.521028,-0.073944,-0.009506,0.99057,-0.02957,0.025004,0.008983,73.16539,9.994171,-154.521835,,,
729861282.67222,-0.871982,4.691272,42.524917,-0.073944,-0.009506,0.99057,-0.035077,0.038483,0.010122,72.96817,9.790573,-154.912949,,,
729861282.67563,-0.882598,4.700124,42.528706,-0.081055,-0.01712,1.003342,-0.035077,0.038483,0.010122,72.96817,9.790573,-154.912949,,,
729861282.678944,-0.882598,4.700124,42.528706,-0.081055,-0.01712,1.003342,-0.035077,0.038483,0.010122,72.96817,9.790573,-154.912949,,,
729861282.682223,-0.889676,4.709412,42.532325,-0.081055,-0.01712,1.003342,-0.018756,0.032611,0.01015,72.96817,9.790573,-154.912949,,,
729861282.685556,-0.894783,4.715762,42.535982,-0.089279,-0.023315,1.015152,-0.018756,0.032611,0.01015,72.96817,9.790573,-154.912949,,,
729861282.688892,-0.894783,4.715762,42.535982,-0.089279,-0.023315,1.015152,-0.018756,0.032611,0.01015,72.96817,9.790573,-154.912949,,,
729861282.692238,-0.8951,4.72051,42.540101,-0.089279,-0.023315,1.015152,0.002572,0.014684,0.015042,72.96817,9.790573,-154.912949,,,
729861282.695551,-0.895002,4.722333,42.545186,-0.094894,-0.023193,1.009766,0.002572,0.014684,0.015042,72.96817,9.790573,-154.912949,,,
729861282.698902,-0.895002,4.722333,42.545186,-0.094894,-0.023193,1.009766,0.002572,0.014684,0.015042,72.96817,9.790573,-154.912949,,,
729861282.702278,-0.892238,4.720318,42.550742,-0.094894,-0.023193,1.009766,0.008895,-0.0111,0.018933,72.96817,9.790573,-154.912949,,,
729861282.705544,-0.892344,4.714562,42.555927,-0.089386,-0.015793,0.990738,0.008895,-0.0111,0.018933,72.96817,9.790573,-154.912949,,,
729861282.708884,-0.892344,4.714562,42.555927,-0.089386,-0.015793,0.990738,0.008895,-0.0111,0.018933,72.96817,9.790573,-154.912949,,,
729861282.712218,-0.892132,4.705799,42.560714,-0.089386,-0.015793,0.990738,-0.003069,-0.031695,0.015143,73.089935,9.960617,-154.420837,,,
729861282.715549,-0.896492,4.695772,42.565293,-0.084427,-0.005905,0.979797,-0.003069,-0.031695,0.015143,73.089935,9.960617,-154.420837,,,
729861282.718899,-0.896492,4.695772,42.565293,-0.084427,-0.005905,0.979797,-0.003069,-0.031695,0.015143,73.089935,9.960617,-154.420837,,,
729861282.722227,-0.901973,4.685532,42.569335,-0.084427,-0.005905,0.979797,-0.024054,-0.032746,0.009716,73.089935,9.960617,-154.420837,,,
729861282.72538,-0.911024,4.676066,42.572297,-0.07637,-0.004242,0.976883,-0.024054,-0.032746,0.009716,73.089935,9.960617,-154.420837,,,
729861282.728991,-0.911024,4.676066,42.572297,-0.07637,-0.004242,0.976883,-0.024054,-0.032746,0.009716,73.089935,9.960617,-154.420837,,,
729861282.732217,-0.921679,4.670294,42.574437,-0.07637,-0.004242,0.976883,-0.037915,-0.01086,0.002761,73.089935,9.960617,-154.420837,,,
729861282.735556,-0.931385,4.666196,42.576109,-0.072174,-0.009293,0.990952,-0.037915,-0.01086,0.002761,73.089935,9.960617,-154.420837,,,
729861282.738898,-0.931385,4.666196,42.576109,-0.072174,-0.009293,0.990952,-0.037915,-0.01086,0.002761,73.089935,9.960617,-154.420837,,,
729861282.742319,-0.940149,4.668257,42.577818,-0.072174,-0.009293,0.990952,-0.023647,0.016496,0.00396,73.089935,9.960617,-154.420837,,,
729861282.745541,-0.943166,4.671414,42.579781,-0.073593,-0.018494,1.009537,-0.023647,0.016496,0.00396,73.089935,9.960617,-154.420837,,,
729861282.748896,-0.943166,4.671414,42.579781,-0.073593,-0.018494,1.009537,-0.023647,0.016496,0.00396,73.089935,9.960617,-154.420837,,,
729861282.752251,-0.942755,4.678999,42.581471,-0.073593,-0.018494,1.009537,0.011405,0.031962,0.004714,73.089935,9.960617,-154.420837,,,
729861282.755554,-0.937017,4.687238,42.582539,-0.072067,-0.023285,1.023071,0.011405,0.031962,0.004714,73.085739,10.126663,-154.608704,,,
729861282.758917,-0.937017,4.687238,42.582539,-0.072067,-0.023285,1.023071,0.011405,0.031962,0.004714,73.085739,10.126663,-154.608704,,,
729861282.76222,-0.928525,4.698663,42.582576,-0.072067,-0.023285,1.023071,0.03389,0.04629,-0.000762,73.085739,10.126663,-154.608704,,,
729861282.765546,-0.920828,4.713207,42.58135,-0.070312,-0.021454,1.008514,0.03389,0.04629,-0.000762,73.085739,10.126663,-154.608704,,,
729861282.768978,-0.920828,4.713207,42.58135,-0.070312,-0.021454,1.008514,0.03389,0.04629,-0.000762,73.085739,10.126663,-154.608704,,,
729861282.772218,-0.913362,4.726657,42.578866,-0.070312,-0.021454,1.008514,0.024306,0.047381,-0.010169,73.085739,10.126663,-154.608704,,,
729861282.775557,-0.910126,4.741206,42.575356,-0.075836,-0.013611,0.982986,0.024306,0.047381,-0.010169,73.085739,10.126663,-154.608704,,,
729861282.778893,-0.910126,4.741206,42.575356,-0.075836,-0.013611,0.982986,0.024306,0.047381,-0.010169,73.085739,10.126663,-154.608704,,,
729861282.782284,-0.908655,4.750362,42.571643,-0.075836,-0.013611,0.982986,0.001179,0.030569,-0.013202,73.085739,10.126663,-154.608704,,,
729861282.785547,-0.910985,4.759507,42.568766,-0.086792,-0.007629,0.97493,0.001179,0.030569,-0.013202,73.085739,10.126663,-154.608704,,,
729861282.788899,-0.910985,4.759507,42.568766,-0.086792,-0.007629,0.97493,0.001179,0.030569,-0.013202,73.085739,10.126663,-154.608704,,,
729861282.792231,-0.915014,4.764341,42.566923,-0.086792,-0.007629,0.97493,-0.015715,0.016463,-0.007166,73.085739,10.126663,-154.608704,,,
729861282.795554,-0.918696,4.76805,42.566023,-0.094559,-0.010849,0.977509,-0.015715,0.016463,-0.007166,73.092102,10.138306,-154.706482,,,
729861282.798889,-0.918696,4.76805,42.566023,-0.094559,-0.010849,0.977509,-0.015715,0.016463,-0.007166,73.092102,10.138306,-154.706482,,,
729861282.802232,-0.925118,4.767501,42.565771,-0.094559,-0.010849,0.977509,-0.022259,-0.004952,-0.003028,73.092102,10.138306,-154.706482,,,
729861282.805551,-0.928758,4.763262,42.565785,-0.091721,-0.015182,0.984833,-0.022259,-0.004952,-0.003028,73.092102,10.138306,-154.706482,,,
729861282.808949,-0.928758,4.763262,42.565785,-0.091721,-0.015182,0.984833,-0.022259,-0.004952,-0.003028,73.092102,10.138306,-154.706482,,,
729861282.812227,-0.932867,4.758389,42.565618,-0.091721,-0.015182,0.984833,-0.007933,-0.015289,-0.003125,73.092102,10.138306,-154.706482,,,
729861282.81555,-0.931905,4.750802,42.565065,-0.087448,-0.021286,0.999588,-0.007933,-0.015289,-0.003125,73.092102,10.138306,-154.706482,,,
729861282.818894,-0.931905,4.750802,42.565065,-0.087448,-0.021286,0.999588,-0.007933,-0.015289,-0.003125,73.092102,10.138306,-154.706482,,,
729861282.822274,-0.929099,4.745801,42.564233,-0.087448,-0.021286,0.999588,0.017728,-0.015351,-0.003222,73.092102,10.138306,-154.706482,,,
729861282.825577,-0.922177,4.737196,42.563486,-0.0867,-0.024734,1.006683,0.017728,-0.015351,-0.003222,73.092102,10.138306,-154.706482,,,
729861282.828893,-0.922177,4.737196,42.563486,-0.0867,-0.024734,1.006683,0.017728,-0.015351,-0.003222,73.092102,10.138306,-154.706482,,,
729861282.832218,-0.911751,4.730967,42.563485,-0.0867,-0.024734,1.006683,0.041941,-0.021148,0.0036,73.092102,10.138306,-154.706482,,,
729861282.835553,-0.900488,4.720542,42.564523,-0.087189,-0.019577,0.999817,0.041941,-0.021148,0.0036,73.169708,9.996063,-154.484329,,,
729861282.838899,-0.900488,4.720542,42.564523,-0.087189,-0.019577,0.999817,0.041941,-0.021148,0.0036,73.169708,9.996063,-154.484329,,,
729861282.842234,-0.887585,4.713503,42.566087,-0.087189,-0.019577,0.999817,0.043699,-0.01988,0.007108,73.169708,9.996063,-154.484329,,,
729861282.84555,-0.877297,4.704381,42.567104,-0.072998,-0.012024,0.988098,0.043699,-0.01988,0.007108,73.169708,9.996063,-154.484329,,,
729861282.848958,-0.877297,4.704381,42.567104,-0.072998,-0.012024,0.988098,0.043699,-0.01988,0.007108,73.169708,9.996063,-154.484329,,,
729861282.852241,-0.867649,4.702103,42.567931,-0.072998,-0.012024,0.988098,0.029795,0.000631,0.004206,73.169708,9.996063,-154.484329,,,
729861282.855549,-0.860817,4.700757,42.568551,-0.066666,-0.007919,0.984543,0.029795,0.000631,0.004206,73.169708,9.996063,-154.484329,,,
729861282.858883,-0.860817,4.700757,42.568551,-0.066666,-0.007919,0.984543,0.029795,0.000631,0.004206,73.169708,9.996063,-154.484329,,,
729861282.862273,-0.856938,4.704903,42.56886,-0.066666,-0.007919,0.984543,0.007253,0.022052,-2.9e-05,73.169708,9.996063,-154.484329,,,
729861282.865576,-0.855314,4.712488,42.56879,-0.068466,-0.005447,0.978073,0.007253,0.022052,-2.9e-05,73.169708,9.996063,-154.484329,,,
729861282.868898,-0.855314,4.712488,42.56879,-0.068466,-0.005447,0.978073,0.007253,0.022052,-2.9e-05,73.169708,9.996063,-154.484329,,,
729861282.872224,-0.857833,4.720343,42.568582,-0.068466,-0.005447,0.978073,-0.01156,0.032071,-0.00242,73.169708,9.996063,-154.484329,,,
729861282.875573,-0.860349,4.732285,42.568256,-0.071243,-0.006348,0.978165,-0.01156,0.032071,-0.00242,73.169708,9.996063,-154.484329,,,
729861282.878899,-0.860349,4.732285,42.568256,-0.071243,-0.006348,0.978165,-0.01156,0.032071,-0.00242,73.000412,10.149261,-154.491379,,,
729861282.88226,-0.864313,4.740464,42.567074,-0.071243,-0.006348,0.978165,-0.013258,0.032166,-0.008159,73.000412,10.149261,-154.491379,,,
729861282.885539,-0.868343,4.750961,42.56503,-0.07283,-0.01088,0.980026,-0.013258,0.032166,-0.008159,73.000412,10.149261,-154.491379,,,
729861282.888977,-0.868343,4.750961,42.56503,-0.07283,-0.01088,0.980026,-0.013258,0.032166,-0.008159,73.000412,10.149261,-154.491379,,,
729861282.892251,-0.873439,4.754566,42.561615,-0.07283,-0.01088,0.980026,-0.01851,0.008449,-0.017692,73.000412,10.149261,-154.491379,,,
729861282.895558,-0.881296,4.755224,42.556951,-0.075684,-0.01091,0.970551,-0.01851,0.008449,-0.017692,73.000412,10.149261,-154.491379,,,
729861282.898914,-0.881296,4.755224,42.556951,-0.075684,-0.01091,0.970551,-0.01851,0.008449,-0.017692,73.000412,10.149261,-154.491379,,,
729861282.902314,-0.890695,4.749998,42.551641,-0.075684,-0.01091,0.970551,-0.035114,-0.02181,-0.023429,73.000412,10.149261,-154.491379,,,
729861282.905556,-0.904409,4.742577,42.545999,-0.075531,-0.007309,0.962723,-0.035114,-0.02181,-0.023429,73.000412,10.149261,-154.491379,,,
729861282.908911,-0.904409,4.742577,42.545999,-0.075531,-0.007309,0.962723,-0.035114,-0.02181,-0.023429,73.000412,10.149261,-154.491379,,,
729861282.912236,-0.918027,4.733411,42.539464,-0.075531,-0.007309,0.962723,-0.048317,-0.028266,-0.030659,73.000412,10.149261,-154.491379,,,
729861282.915546,-0.934206,4.727271,42.531752,-0.074631,-0.01123,0.976273,-0.048317,-0.028266,-0.030659,73.000412,10.149261,-154.491379,,,
729861282.918933,-0.934206,4.727271,42.531752,-0.074631,-0.01123,0.976273,-0.048317,-0.028266,-0.030659,72.97316,10.214981,-154.627518,,,
729861282.922219,-0.949543,4.722601,42.523507,-0.074631,-0.01123,0.976273,-0.048965,-0.007181,-0.034245,72.97316,10.214981,-154.627518,,,
729861282.925554,-0.963131,4.720427,42.515302,-0.076401,-0.019302,1.003616,-0.048965,-0.007181,-0.034245,72.97316,10.214981,-154.627518,,,
729861282.928968,-0.963131,4.720427,42.515302,-0.076401,-0.019302,1.003616,-0.048965,-0.007181,-0.034245,72.97316,10.214981,-154.627518,,,
729861282.932217,-0.975777,4.723523,42.507615,-0.076401,-0.019302,1.003616,-0.039152,0.020748,-0.029935,72.97316,10.214981,-154.627518,,,
729861282.935638,-0.984229,4.727056,42.500717,-0.082535,-0.02565,1.015518,-0.039152,0.020748,-0.029935,72.97316,10.214981,-154.627518,,,
729861282.938869,-0.984229,4.727056,42.500717,-0.082535,-0.02565,1.015518,-0.039152,0.020748,-0.029935,72.97316,10.214981,-154.627518,,,
729861282.942244,-0.990241,4.737966,42.495006,-0.082535,-0.02565,1.015518,-0.011671,0.046608,-0.019862,72.97316,10.214981,-154.627518,,,
729861282.945616,-0.98958,4.747443,42.490191,-0.090393,-0.030777,1.025238,-0.011671,0.046608,-0.019862,72.97316,10.214981,-154.627518,,,
729861282.948885,-0.98958,4.747443,42.490191,-0.090393,-0.030777,1.025238,-0.011671,0.046608,-0.019862,72.97316,10.214981,-154.627518,,,
729861282.952265,-0.987516,4.76211,42.486065,-0.090393,-0.030777,1.025238,0.013481,0.053967,-0.013418,72.97316,10.214981,-154.627518,,,
729861282.955556,-0.981249,4.772186,42.482414,-0.094162,-0.027267,1.014618,0.013481,0.053967,-0.013418,72.97316,10.214981,-154.627518,,,
729861282.958891,-0.981249,4.772186,42.482414,-0.094162,-0.027267,1.014618,0.013481,0.053967,-0.013418,73.091599,10.120087,-154.613281,,,
729861282.962224,-0.977174,4.782021,42.478502,-0.094162,-0.027267,1.014618,0.015926,0.030321,-0.015364,73.091599,10.120087,-154.613281,,,
729861282.965566,-0.971927,4.785224,42.473579,-0.092621,-0.020233,0.994522,0.015926,0.030321,-0.015364,73.091599,10.120087,-154.613281,,,
729861282.968883,-0.971927,4.785224,42.473579,-0.092621,-0.020233,0.994522,0.015926,0.030321,-0.015364,73.091599,10.120087,-154.613281,,,
729861282.972218,-0.969784,4.788277,42.467602,-0.092621,-0.020233,0.994522,0.005798,0.008592,-0.023949,73.091599,10.120087,-154.613281,,,
729861282.97558,-0.968459,4.787042,42.460765,-0.093735,-0.01622,0.988968,0.005798,0.008592,-0.023949,73.091599,10.120087,-154.613281,,,
729861282.978945,-0.968459,4.787042,42.460765,-0.093735,-0.01622,0.988968,0.005798,0.008592,-0.023949,73.091599,10.120087,-154.613281,,,
729861282.982229,-0.970834,4.785446,42.45389,-0.093735,-0.01622,0.988968,-0.012136,-0.005985,-0.025848,73.091599,10.120087,-154.613281,,,
729861282.985555,-0.974044,4.780668,42.448078,-0.099777,-0.014496,0.980591,-0.012136,-0.005985,-0.025848,73.091599,10.120087,-154.613281,,,
729861282.9889,-0.974044,4.780668,42.448078,-0.099777,-0.014496,0.980591,-0.012136,-0.005985,-0.025848,73.091599,10.120087,-154.613281,,,
729861282.99226,-0.980803,4.776211,42.444138,-0.099777,-0.014496,0.980591,-0.023926,-0.013066,-0.013883,73.091599,10.120087,-154.613281,,,
729861282.995543,-0.986992,4.769639,42.44181,-0.102402,-0.015121,0.987427,-0.023926,-0.013066,-0.013883,73.091599,10.120087,-154.613281,,,
729861282.998893,-0.986992,4.769639,42.44181,-0.102402,-0.015121,0.987427,-0.023926,-0.013066,-0.013883,73.213806,10.227814,-154.915024,,,
729861283.002246,-0.994951,4.764822,42.440693,-0.102402,-0.015121,0.987427,-0.024967,-0.014525,-0.005739,73.213806,10.227814,-154.915024,,,
729861283.005556,-1.002032,4.757493,42.440415,-0.101852,-0.018829,0.997803,-0.024967,-0.014525,-0.005739,73.213806,10.227814,-154.915024,,,
729861283.008885,-1.002032,4.757493,42.440415,-0.101852,-0.018829,0.997803,-0.024967,-0.014525,-0.005739,73.213806,10.227814,-154.915024,,,
729861283.012217,-1.007709,4.752806,42.4411,-0.101852,-0.018829,0.997803,-0.016902,-0.012351,0.001408,73.213806,10.227814,-154.915024,,,
729861283.015554,-1.013621,4.747297,42.442903,-0.101654,-0.020874,0.995193,-0.016902,-0.012351,0.001408,73.213806,10.227814,-154.915024,,,
729861283.01892,-1.013621,4.747297,42.442903,-0.101654,-0.020874,0.995193,-0.016902,-0.012351,0.001408,73.213806,10.227814,-154.915024,,,
729861283.022391,-1.017453,4.742112,42.44587,-0.101654,-0.020874,0.995193,-0.012064,-0.017131,0.009816,73.213806,10.227814,-154.915024,,,
729861283.025622,-1.022714,4.73696,42.44996,-0.096191,-0.016983,0.991257,-0.012064,-0.017131,0.009816,73.213806,10.227814,-154.915024,,,
729861283.028896,-1.022714,4.73696,42.44996,-0.096191,-0.016983,0.991257,-0.012064,-0.017131,0.009816,73.213806,10.227814,-154.915024,,,
729861283.032298,-1.023918,4.731146,42.454333,-0.096191,-0.016983,0.991257,-0.001799,-0.015031,0.012734,73.213806,10.227814,-154.915024,,,
729861283.035558,-1.026908,4.729385,42.458259,-0.083069,-0.019302,0.997177,-0.001799,-0.015031,0.012734,73.213806,10.227814,-154.915024,,,
729861283.038929,-1.026908,4.729385,42.458259,-0.083069,-0.019302,0.997177,-0.001799,-0.015031,0.012734,73.213806,10.227814,-154.915024,,,
729861283.042225,-1.028253,4.72713,42.46134,-0.083069,-0.019302,0.997177,-0.005157,-0.000278,0.006995,72.990616,10.571991,-154.893372,,,
729861283.045582,-1.028253,4.72713,42.463613,-0.073135,-0.020126,0.999573,-0.005157,-0.000278,0.006995,72.990616,10.571991,-154.893372,,,
729861283.048888,-1.03039,4.73051,42.463613,-0.073135,-0.020126,0.999573,-0.005157,-0.000278,0.006995,72.990616,10.571991,-154.893372,,,
729861283.052227,-1.031014,4.733725,42.465293,-0.073135,-0.020126,0.999573,0.000339,0.019917,0.003662,72.990616,10.571991,-154.893372,,,
729861283.05557,-1.031014,4.74373,42.466722,-0.072845,-0.018814,1.013809,0.000339,0.019917,0.003662,72.990616,10.571991,-154.893372,,,
729861283.058957,-1.029543,4.74373,42.466722,-0.072845,-0.018814,1.013809,0.000339,0.019917,0.003662,72.990616,10.571991,-154.893372,,,
729861283.062224,-1.025854,4.754027,42.468013,-0.072845,-0.018814,1.013809,0.017452,0.043354,0.004515,72.990616,10.571991,-154.893372,,,
729861283.065548,-1.025854,4.754027,42.468013,-0.079407,-0.026352,1.021988,0.017452,0.043354,0.004515,72.990616,10.571991,-154.893372,,,
729861283.068886,-1.019012,4.770868,42.469697,-0.079407,-0.026352,1.021988,0.017452,0.043354,0.004515,72.990616,10.571991,-154.893372,,,
729861283.072293,-1.010428,4.783556,42.471573,-0.079407,-0.026352,1.021988,0.032154,0.047757,0.007664,72.990616,10.571991,-154.893372,,,
729861283.075608,-1.010428,4.783556,42.473492,-0.08075,-0.023865,1.007614,0.032154,0.047757,0.007664,72.990616,10.571991,-154.893372,,,
729861283.078893,-1.000525,4.801091,42.473492,-0.08075,-0.023865,1.007614,0.032154,0.047757,0.007664,72.990616,10.571991,-154.893372,,,
729861283.082226,-0.991458,4.809836,42.474762,-0.08075,-0.023865,1.007614,0.031414,0.028756,0.003839,73.202454,10.220383,-154.685638,,,
729861283.085549,-0.991458,4.809836,42.474762,-0.08075,-0.023865,1.007614,0.031414,0.028756,0.003839,73.202454,10.220383,-154.685638,,,
729861283.088898,-0.983212,4.819622,42.474917,-0.081207,-0.01474,0.995087,0.031414,0.028756,0.003839,73.202454,10.220383,-154.685638,,,
729861283.092217,-0.97717,4.818352,42.474011,-0.081207,-0.01474,0.995087,0.016689,-0.012984,-0.004177,73.202454,10.220383,-154.685638,,,
729861283.095587,-0.97717,4.818352,42.474011,-0.084167,-0.012344,0.974274,0.016689,-0.012984,-0.004177,73.202454,10.220383,-154.685638,,,
729861283.098878,-0.975218,4.816697,42.472614,-0.084167,-0.012344,0.974274,0.016689,-0.012984,-0.004177,73.202454,10.220383,-154.685638,,,
729861283.102221,-0.975013,4.80522,42.470498,-0.084167,-0.012344,0.974274,-0.001855,-0.043953,-0.010097,73.202454,10.220383,-154.685638,,,
729861283.105563,-0.975013,4.80522,42.470498,-0.084167,-0.012344,0.974274,-0.001855,-0.043953,-0.010097,73.202454,10.220383,-154.685638,,,
729861283.108961,-0.977304,4.795408,42.468093,-0.084625,-0.01004,0.972778,-0.001855,-0.043953,-0.010097,73.202454,10.220383,-154.685638,,,
729861283.112224,-0.982186,4.781239,42.465434,-0.084625,-0.01004,0.972778,-0.020073,-0.044364,-0.012892,73.202454,10.220383,-154.685638,,,
729861283.115584,-0.982186,4.781239,42.465434,-0.084625,-0.01004,0.972778,-0.020073,-0.044364,-0.012892,73.202454,10.220383,-154.685638,,,
729861283.118889,-0.989626,4.770062,42.463199,-0.081314,-0.013077,0.985474,-0.020073,-0.044364,-0.012892,73.202454,10.220383,-154.685638,,,
729861283.122221,-0.997835,4.761613,42.462254,-0.081314,-0.013077,0.985474,-0.028684,-0.018429,-0.004502,73.255798,10.436508,-154.506989,,,
729861283.125547,-0.997835,4.761613,42.462254,-0.081314,-0.013077,0.985474,-0.028684,-0.018429,-0.004502,73.255798,10.436508,-154.506989,,,
729861283.128886,-1.005934,4.755505,42.463391,-0.085388,-0.022171,1.005936,-0.028684,-0.018429,-0.004502,73.255798,10.436508,-154.506989,,,
729861283.13222,-1.009673,4.756734,42.46644,-0.085388,-0.022171,1.005936,-0.004539,0.016112,0.010459,73.255798,10.436508,-154.506989,,,
729861283.135605,-1.009673,4.756734,42.46644,-0.085388,-0.022171,1.005936,-0.004539,0.016112,0.010459,73.255798,10.436508,-154.506989,,,
729861283.138877,-1.008594,4.759231,42.470075,-0.089142,-0.027313,1.028656,-0.004539,0.016112,0.010459,73.255798,10.436508,-154.506989,,,
729861283.142218,-1.001873,4.769131,42.474326,-0.089142,-0.027313,1.028656,0.033618,0.043323,0.017488,73.255798,10.436508,-154.506989,,,
729861283.145584,-1.001873,4.769131,42.474326,-0.089142,-0.027313,1.028656,0.033618,0.043323,0.017488,73.255798,10.436508,-154.506989,,,
729861283.148955,-0.992012,4.779243,42.478522,-0.092972,-0.032394,1.031906,0.033618,0.043323,0.017488,73.255798,10.436508,-154.506989,,,
729861283.15223,-0.977947,4.790598,42.482542,-0.092972,-0.032394,1.031906,0.053234,0.037554,0.01766,73.255798,10.436508,-154.506989,,,
729861283.155567,-0.977947,4.790598,42.482542,-0.092972,-0.032394,1.031906,0.053234,0.037554,0.01766,73.255798,10.436508,-154.506989,,,
729861283.158898,-0.962763,4.797745,42.485935,-0.095276,-0.027237,1.013306,0.053234,0.037554,0.01766,73.255798,10.436508,-154.506989,,,
729861283.162214,-0.944063,4.801712,42.488231,-0.095276,-0.027237,1.013306,0.066562,0.008178,0.011086,72.977219,10.321564,-154.830093,,,
729861283.165591,-0.944063,4.801712,42.488231,-0.095276,-0.027237,1.013306,0.066562,0.008178,0.011086,72.977219,10.321564,-154.830093,,,
729861283.168891,-0.925505,4.800522,42.490025,-0.095108,-0.018799,0.994614,0.066562,0.008178,0.011086,72.977219,10.321564,-154.830093,,,
729861283.172249,-0.908429,4.79662,42.491708,-0.095108,-0.018799,0.994614,0.056874,-0.016947,0.009448,72.977219,10.321564,-154.830093,,,
729861283.175603,-0.908429,4.79662,42.491708,-0.095108,-0.018799,0.994614,0.056874,-0.016947,0.009448,72.977219,10.321564,-154.830093,,,
729861283.178889,-0.892781,4.790015,42.494172,-0.097733,-0.012131,0.978531,0.056874,-0.016947,0.009448,72.977219,10.321564,-154.830093,,,
729861283.182229,-0.880858,4.781292,42.49881,-0.097733,-0.012131,0.978531,0.034431,-0.031515,0.022687,72.977219,10.321564,-154.830093,,,
729861283.185665,-0.880858,4.781292,42.49881,-0.097733,-0.012131,0.978531,0.034431,-0.031515,0.022687,72.977219,10.321564,-154.830093,,,
729861283.188953,-0.871639,4.771271,42.505727,-0.096176,-0.00354,0.965958,0.034431,-0.031515,0.022687,72.977219,10.321564,-154.830093,,,
729861283.19221,-0.866925,4.758188,42.513751,-0.096176,-0.00354,0.965958,0.008215,-0.045342,0.028363,72.977219,10.321564,-154.830093,,,
729861283.195599,-0.866925,4.758188,42.513751,-0.096176,-0.00354,0.965958,0.008215,-0.045342,0.028363,72.977219,10.321564,-154.830093,,,
729861283.198938,-0.865053,4.744556,42.521937,-0.08548,-0.000381,0.96431,0.008215,-0.045342,0.028363,72.977219,10.321564,-154.830093,,,
729861283.202225,-0.8676,4.732782,42.529611,-0.08548,-0.000381,0.96431,-0.016858,-0.032519,0.022673,72.977219,10.321564,-154.830093,,,
729861283.20556,-0.8676,4.732782,42.529611,-0.08548,-0.000381,0.96431,-0.016858,-0.032519,0.022673,73.264084,10.096649,-154.493393,,,
729861283.208914,-0.874191,4.724704,42.536127,-0.070709,-0.002136,0.968979,-0.016858,-0.032519,0.022673,73.264084,10.096649,-154.493393,,,
729861283.212212,-0.881919,4.719981,42.540377,-0.070709,-0.002136,0.968979,-0.028753,-0.006105,0.005965,73.264084,10.096649,-154.493393,,,
729861283.215616,-0.881919,4.719981,42.540377,-0.070709,-0.002136,0.968979,-0.028753,-0.006105,0.005965,73.264084,10.096649,-154.493393,,,
729861283.218876,-0.8918,4.720329,42.542272,-0.060791,-0.008041,0.981705,-0.028753,-0.006105,0.005965,73.264084,10.096649,-154.493393,,,
729861283.22228,-0.898961,4.723074,42.542405,-0.060791,-0.008041,0.981705,-0.022123,0.01773,-0.005682,73.264084,10.096649,-154.493393,,,
729861283.225536,-0.898961,4.723074,42.542405,-0.060791,-0.008041,0.981705,-0.022123,0.01773,-0.005682,73.264084,10.096649,-154.493393,,,
729861283.228888,-0.908436,4.730138,42.541145,-0.060913,-0.012787,0.9888,-0.022123,0.01773,-0.005682,73.264084,10.096649,-154.493393,,,
729861283.232211,-0.91412,4.737247,42.538591,-0.060913,-0.012787,0.9888,-0.015302,0.029232,-0.014085,73.264084,10.096649,-154.493393,,,
729861283.235626,-0.91412,4.737247,42.538591,-0.060913,-0.012787,0.9888,-0.015302,0.029232,-0.014085,73.264084,10.096649,-154.493393,,,
729861283.23889,-0.920989,4.748596,42.535655,-0.067612,-0.019485,0.985733,-0.015302,0.029232,-0.014085,73.264084,10.096649,-154.493393,,,
729861283.242216,-0.923622,4.758679,42.533489,-0.067612,-0.019485,0.985733,-0.005079,0.042407,-0.007502,73.264084,10.096649,-154.493393,,,
729861283.245541,-0.923622,4.758679,42.533489,-0.067612,-0.019485,0.985733,-0.005079,0.042407,-0.007502,73.191818,10.318146,-154.824997,,,
729861283.248929,-0.926044,4.773729,42.532402,-0.076782,-0.018784,0.993607,-0.005079,0.042407,-0.007502,73.191818,10.318146,-154.824997,,,
729861283.252217,-0.92729,4.786112,42.532268,-0.076782,-0.018784,0.993607,-0.004633,0.046141,-0.000438,73.191818,10.318146,-154.824997,,,
729861283.255568,-0.92729,4.786112,42.532268,-0.076782,-0.018784,0.993607,-0.004633,0.046141,-0.000438,73.191818,10.318146,-154.824997,,,
729861283.258885,-0.928975,4.802065,42.533173,-0.087387,-0.015961,0.987045,-0.004633,0.046141,-0.000438,73.191818,10.318146,-154.824997,,,
729861283.262216,-0.933029,4.811463,42.534549,-0.087387,-0.015961,0.987045,-0.018081,0.03119,0.00212,73.191818,10.318146,-154.824997,,,
729861283.265558,-0.933029,4.811463,42.534549,-0.087387,-0.015961,0.987045,-0.018081,0.03119,0.00212,73.191818,10.318146,-154.824997,,,
729861283.26888,-0.936972,4.822682,42.536274,-0.08812,-0.013336,0.976364,-0.018081,0.03119,0.00212,73.191818,10.318146,-154.824997,,,
729861283.272213,-0.945235,4.825982,42.537535,-0.08812,-0.013336,0.976364,-0.031517,0.007724,-0.001715,73.191818,10.318146,-154.824997,,,
729861283.275647,-0.945235,4.825982,42.537535,-0.08812,-0.013336,0.976364,-0.031517,0.007724,-0.001715,73.191818,10.318146,-154.824997,,,
729861283.278895,-0.950743,4.827337,42.538135,-0.087646,-0.015259,0.978348,-0.031517,0.007724,-0.001715,73.191818,10.318146,-154.824997,,,
729861283.282222,-0.95984,4.821892,42.538402,-0.087646,-0.015259,0.978348,-0.03084,-0.024165,-0.003739,73.191818,10.318146,-154.824997,,,
729861283.285551,-0.95984,4.821892,42.538402,-0.087646,-0.015259,0.978348,-0.03084,-0.024165,-0.003739,73.2005,10.071823,-154.415192,,,
729861283.288959,-0.965105,4.810822,42.538309,-0.088867,-0.02005,0.987091,-0.03084,-0.024165,-0.003739,73.2005,10.071823,-154.415192,,,
729861283.292201,-0.972452,4.799832,42.538433,-0.088867,-0.02005,0.987091,-0.023751,-0.037191,-0.001839,73.2005,10.071823,-154.415192,,,
729861283.29556,-0.972452,4.799832,42.538433,-0.088867,-0.02005,0.987091,-0.023751,-0.037191,-0.001839,73.2005,10.071823,-154.415192,,,
729861283.298884,-0.976951,4.781991,42.539276,-0.088974,-0.022339,0.998306,-0.023751,-0.037191,-0.001839,73.2005,10.071823,-154.415192,,,
729861283.302214,-0.983863,4.771013,42.540948,-0.088974,-0.022339,0.998306,-0.024895,-0.031218,0.003175,73.2005,10.071823,-154.415192,,,
729861283.305568,-0.983863,4.771013,42.540948,-0.088974,-0.022339,0.998306,-0.024895,-0.031218,0.003175,73.2005,10.071823,-154.415192,,,
729861283.308875,-0.990415,4.755586,42.543277,-0.085739,-0.019653,0.998871,-0.024895,-0.031218,0.003175,73.2005,10.071823,-154.415192,,,
729861283.312222,-0.998558,4.747417,42.545986,-0.085739,-0.019653,0.998871,-0.028584,-0.022366,0.004793,73.2005,10.071823,-154.415192,,,
729861283.315606,-0.998558,4.747417,42.545986,-0.085739,-0.019653,0.998871,-0.028584,-0.022366,0.004793,73.2005,10.071823,-154.415192,,,
729861283.318874,-1.006939,4.737959,42.548042,-0.079239,-0.018234,1.002869,-0.028584,-0.022366,0.004793,73.2005,10.071823,-154.415192,,,
729861283.322218,-1.013522,4.735091,42.549907,-0.079239,-0.018234,1.002869,-0.017042,-0.003263,0.003956,73.2005,10.071823,-154.415192,,,
729861283.325376,-1.013522,4.735091,42.549907,-0.079239,-0.018234,1.002869,-0.017042,-0.003263,0.003956,73.2005,10.071823,-154.415192,,,
729861283.328968,-1.017419,4.733138,42.551674,-0.077988,-0.02417,1.013412,-0.017042,-0.003263,0.003956,72.974319,10.375519,-154.973831,,,
729861283.332234,-1.019036,4.735232,42.55317,-0.077988,-0.02417,1.013412,-0.003485,0.011175,0.002946,72.974319,10.375519,-154.973831,,,
729861283.335563,-1.019036,4.735232,42.55317,-0.077988,-0.02417,1.013412,-0.003485,0.011175,0.002946,72.974319,10.375519,-154.973831,,,
729861283.338903,-1.018636,4.73766,42.554934,-0.085327,-0.022263,1.014542,-0.003485,0.011175,0.002946,72.974319,10.375519,-154.973831,,,
729861283.342213,-1.016464,4.737001,42.557689,-0.085327,-0.022263,1.014542,0.01024,-0.00327,0.011158,72.974319,10.375519,-154.973831,,,
729861283.345565,-1.016464,4.737001,42.557689,-0.085327,-0.022263,1.014542,0.01024,-0.00327,0.011158,72.974319,10.375519,-154.973831,,,
729861283.34888,-1.012256,4.736288,42.56083,-0.086334,-0.017303,1.00029,0.01024,-0.00327,0.011158,72.974319,10.375519,-154.973831,,,
729861283.352215,-1.007997,4.732029,42.563419,-0.086334,-0.017303,1.00029,0.016342,-0.013212,0.008127,72.974319,10.375519,-154.973831,,,
729861283.355631,-1.007997,4.732029,42.563419,-0.086334,-0.017303,1.00029,0.016342,-0.013212,0.008127,72.974319,10.375519,-154.973831,,,
729861283.358893,-1.00287,4.729658,42.565646,-0.084808,-0.015991,1.00325,0.016342,-0.013212,0.008127,72.974319,10.375519,-154.973831,,,
729861283.36222,-0.998956,4.725697,42.567847,-0.084808,-0.015991,1.00325,0.013143,-0.011995,0.007902,72.974319,10.375519,-154.973831,,,
729861283.365649,-0.998956,4.725697,42.567847,-0.084808,-0.015991,1.00325,0.013143,-0.011995,0.007902,72.974319,10.375519,-154.973831,,,
729861283.368934,-0.996967,4.724031,42.570256,-0.081055,-0.013565,1.000275,0.013143,-0.011995,0.007902,73.262222,10.30777,-154.630203,,,
729861283.372211,-0.996234,4.720659,42.57288,-0.081055,-0.013565,1.000275,0.00046,-0.008674,0.008634,73.262222,10.30777,-154.630203,,,
729861283.375558,-0.996234,4.720659,42.57288,-0.081055,-0.013565,1.000275,0.00046,-0.008674,0.008634,73.262222,10.30777,-154.630203,,,
729861283.378895,-0.997709,4.719849,42.575671,-0.081299,-0.007584,0.999939,0.00046,-0.008674,0.008634,73.262222,10.30777,-154.630203,,,
729861283.382214,-0.999482,4.718183,42.57788,-0.081299,-0.007584,0.999939,-0.00814,0.000126,0.004127,73.262222,10.30777,-154.630203,,,
729861283.385555,-0.999482,4.718183,42.57788,-0.081299,-0.007584,0.999939,-0.00814,0.000126,0.004127,73.262222,10.30777,-154.630203,,,
729861283.388894,-1.002705,4.719248,42.579511,-0.07695,-0.007797,1.005615,-0.00814,0.000126,0.004127,73.262222,10.30777,-154.630203,,,
729861283.392223,-1.004794,4.720359,42.580676,-0.07695,-0.007797,1.005615,-0.004872,0.009816,0.001346,73.262222,10.30777,-154.630203,,,
729861283.395631,-1.004794,4.720359,42.580676,-0.07695,-0.007797,1.005615,-0.004872,0.009816,0.001346,73.262222,10.30777,-154.630203,,,
729861283.398879,-1.005624,4.72295,42.581349,-0.074554,-0.012939,1.010406,-0.004872,0.009816,0.001346,73.262222,10.30777,-154.630203,,,
729861283.402222,-1.004551,4.727129,42.582308,-0.074554,-0.012939,1.010406,0.007667,0.017413,0.004275,73.262222,10.30777,-154.630203,,,
729861283.405564,-1.004551,4.727129,42.582308,-0.074554,-0.012939,1.010406,0.007667,0.017413,0.004275,73.262222,10.30777,-154.630203,,,
729861283.40895,-1.002866,4.729474,42.582868,-0.07962,-0.012451,1.011429,0.007667,0.017413,0.004275,73.151337,10.294296,-155.026031,,,
729861283.412214,-0.999247,4.73336,42.582278,-0.07962,-0.012451,1.011429,0.015653,0.014496,-0.003387,73.151337,10.294296,-155.026031,,,
729861283.415563,-0.999247,4.73336,42.582278,-0.07962,-0.012451,1.011429,0.015653,0.014496,-0.003387,73.151337,10.294296,-155.026031,,,
729861283.418897,-0.997337,4.735732,42.580886,-0.080872,-0.006836,1.00206,0.015653,0.014496,-0.003387,73.151337,10.294296,-155.026031,,,
729861283.422219,-0.994806,4.736988,42.578617,-0.080872,-0.006836,1.00206,0.010597,0.004316,-0.010012,73.151337,10.294296,-155.026031,,,
729861283.425576,-0.994806,4.736988,42.578617,-0.080872,-0.006836,1.00206,0.010597,0.004316,-0.010012,73.151337,10.294296,-155.026031,,,
729861283.428905,-0.992012,4.738102,42.575846,-0.081772,-0.010666,0.994461,0.010597,0.004316,-0.010012,73.151337,10.294296,-155.026031,,,
729861283.432219,-0.989564,4.738129,42.57302,-0.081772,-0.010666,0.994461,0.007683,0.003682,-0.010535,73.151337,10.294296,-155.026031,,,
729861283.435615,-0.989564,4.738129,42.57302,-0.081772,-0.010666,0.994461,0.007683,0.003682,-0.010535,73.151337,10.294296,-155.026031,,,
729861283.438893,-0.988511,4.739531,42.570668,-0.083817,-0.011765,0.994476,0.007683,0.003682,-0.010535,73.151337,10.294296,-155.026031,,,
729861283.442222,-0.988948,4.741887,42.569008,-0.083817,-0.011765,0.994476,-0.0019,0.013994,-0.006385,73.151337,10.294296,-155.026031,,,
729861283.445547,-0.988948,4.741887,42.569008,-0.083817,-0.011765,0.994476,-0.0019,0.013994,-0.006385,73.151337,10.294296,-155.026031,,,
729861283.448973,-0.989384,4.745232,42.568496,-0.081589,-0.01033,0.996445,-0.0019,0.013994,-0.006385,73.310638,10.220947,-154.641281,,,
729861283.452238,-0.990256,4.750016,42.569373,-0.081589,-0.01033,0.996445,-0.002091,0.01969,0.003204,73.310638,10.220947,-154.641281,,,
729861283.455608,-0.990256,4.750016,42.569373,-0.081589,-0.01033,0.996445,-0.002091,0.01969,0.003204,73.310638,10.220947,-154.641281,,,
729861283.458905,-0.989023,4.754894,42.571046,-0.083801,-0.013077,0.999344,-0.002091,0.01969,0.003204,73.310638,10.220947,-154.641281,,,
729861283.462216,-0.988628,4.759522,42.573429,-0.083801,-0.013077,0.999344,0.003923,0.015074,0.008569,73.310638,10.220947,-154.641281,,,
729861283.465556,-0.988628,4.759522,42.573429,-0.083801,-0.013077,0.999344,0.003923,0.015074,0.008569,73.310638,10.220947,-154.641281,,,
729861283.468907,-0.984238,4.760731,42.575694,-0.082703,-0.017792,0.999542,0.003923,0.015074,0.008569,73.310638,10.220947,-154.641281,,,
729861283.472221,-0.979701,4.761848,42.577281,-0.082703,-0.017792,0.999542,0.020458,0.00561,0.005056,73.310638,10.220947,-154.641281,,,
729861283.475657,-0.979701,4.761848,42.577281,-0.082703,-0.017792,0.999542,0.020458,0.00561,0.005056,73.310638,10.220947,-154.641281,,,
729861283.478898,-0.971679,4.759316,42.577795,-0.075928,-0.020416,1.005219,0.020458,0.00561,0.005056,73.310638,10.220947,-154.641281,,,
729861283.482219,-0.963074,4.759239,42.576386,-0.075928,-0.020416,1.005219,0.034016,0.003357,-0.007567,73.310638,10.220947,-154.641281,,,
729861283.48556,-0.963074,4.759239,42.576386,-0.075928,-0.020416,1.005219,0.034016,0.003357,-0.007567,73.310638,10.220947,-154.641281,,,
729861283.488947,-0.953031,4.758173,42.573285,-0.07576,-0.019135,1.004486,0.034016,0.003357,-0.007567,73.310638,10.220947,-154.641281,,,
729861283.492213,-0.943817,4.7603,42.569839,-0.07576,-0.019135,1.004486,0.033186,0.012741,-0.010227,73.353806,9.937561,-154.466293,,,
729861283.495561,-0.943817,4.7603,42.569839,-0.07576,-0.019135,1.004486,0.033186,0.012741,-0.010227,73.353806,9.937561,-154.466293,,,
729861283.498894,-0.932925,4.762923,42.566795,-0.079346,-0.017792,0.996262,0.033186,0.012741,-0.010227,73.353806,9.937561,-154.466293,,,
729861283.502231,-0.924811,4.767711,42.564562,-0.079346,-0.017792,0.996262,0.026046,0.022156,-0.005216,73.353806,9.937561,-154.466293,,,
729861283.50557,-0.924811,4.767711,42.564562,-0.079346,-0.017792,0.996262,0.026046,0.022156,-0.005216,73.353806,9.937561,-154.466293,,,
729861283.508899,-0.916494,4.772524,42.563363,-0.084183,-0.016632,0.991486,0.026046,0.022156,-0.005216,73.353806,9.937561,-154.466293,,,
729861283.512215,-0.911407,4.777082,42.56288,-0.084183,-0.016632,0.991486,0.013827,0.018373,-0.001229,73.353806,9.937561,-154.466293,,,
729861283.515564,-0.911407,4.777082,42.56288,-0.084183,-0.016632,0.991486,0.013827,0.018373,-0.001229,73.353806,9.937561,-154.466293,,,
729861283.518907,-0.907533,4.781241,42.562896,-0.085571,-0.01535,0.980392,0.013827,0.018373,-0.001229,73.353806,9.937561,-154.466293,,,
729861283.52222,-0.905818,4.784136,42.563537,-0.085571,-0.01535,0.980392,0.004102,0.010785,0.002457,73.353806,9.937561,-154.466293,,,
729861283.525568,-0.905818,4.784136,42.563537,-0.085571,-0.01535,0.980392,0.004102,0.010785,0.002457,73.353806,9.937561,-154.466293,,,
729861283.528953,-0.903717,4.784665,42.564138,-0.083099,-0.019165,0.975815,0.004102,0.010785,0.002457,73.353806,9.937561,-154.466293,,,
729861283.532205,-0.903336,4.783554,42.563927,-0.083099,-0.019165,0.975815,0.000784,-0.003054,-0.00354,73.289597,9.918716,-154.292892,,,
729861283.535561,-0.903336,4.783554,42.563927,-0.083099,-0.019165,0.975815,0.000784,-0.003054,-0.00354,73.289597,9.918716,-154.292892,,,
729861283.538888,-0.901747,4.780717,42.563201,-0.076447,-0.019943,0.980377,0.000784,-0.003054,-0.00354,73.289597,9.918716,-154.292892,,,
729861283.542302,-0.899509,4.776557,42.562621,-0.076447,-0.019943,0.980377,0.011199,-0.013798,-0.00174,73.289597,9.918716,-154.292892,,,
729861283.54554,-0.899509,4.776557,42.562621,-0.076447,-0.019943,0.980377,0.011199,-0.013798,-0.00174,73.289597,9.918716,-154.292892,,,
729861283.548901,-0.896296,4.77169,42.561247,-0.073547,-0.022293,0.989105,0.011199,-0.013798,-0.00174,73.289597,9.918716,-154.292892,,,
729861283.552221,-0.892656,4.767116,42.559404,-0.073547,-0.022293,0.989105,0.013637,-0.011551,-0.004808,73.289597,9.918716,-154.292892,,,
729861283.555618,-0.892656,4.767116,42.559404,-0.073547,-0.022293,0.989105,0.013637,-0.011551,-0.004808,73.289597,9.918716,-154.292892,,,
729861283.558874,-0.889906,4.762673,42.557517,-0.06749,-0.022842,0.988678,0.013637,-0.011551,-0.004808,73.289597,9.918716,-154.292892,,,
729861283.562218,-0.886673,4.762366,42.554768,-0.06749,-0.022842,0.988678,0.010814,0.006045,-0.011329,73.289597,9.918716,-154.292892,,,
729861283.565559,-0.886673,4.762366,42.554768,-0.06749,-0.022842,0.988678,0.010814,0.006045,-0.011329,73.289597,9.918716,-154.292892,,,
729861283.568941,-0.885105,4.762406,42.550758,-0.060425,-0.018921,0.989532,0.010814,0.006045,-0.011329,73.289597,9.918716,-154.292892,,,
729861283.572209,-0.883076,4.768947,42.545089,-0.060425,-0.018921,0.989532,0.009719,0.033109,-0.023201,73.446762,10.000336,-154.434387,,,
729861283.575565,-0.883076,4.768947,42.545089,-0.060425,-0.018921,0.989532,0.009719,0.033109,-0.023201,73.446762,10.000336,-154.434387,,,
729861283.578888,-0.881815,4.776793,42.538505,-0.065277,-0.016785,0.991211,0.009719,0.033109,-0.023201,73.446762,10.000336,-154.434387,,,
729861283.582216,-0.880496,4.78749,42.531286,-0.065277,-0.016785,0.991211,0.006259,0.043318,-0.028081,73.446762,10.000336,-154.434387,,,
729861283.585549,-0.880496,4.78749,42.531286,-0.065277,-0.016785,0.991211,0.006259,0.043318,-0.028081,73.446762,10.000336,-154.434387,,,
729861283.588897,-0.879602,4.798891,42.52348,-0.074768,-0.021713,0.985962,0.006259,0.043318,-0.028081,73.446762,10.000336,-154.434387,,,
729861283.592222,-0.877743,4.810128,42.516209,-0.074768,-0.021713,0.985962,0.009972,0.041663,-0.023995,73.446762,10.000336,-154.434387,,,
729861283.595623,-0.877743,4.810128,42.516209,-0.074768,-0.021713,0.985962,0.009972,0.041663,-0.023995,73.446762,10.000336,-154.434387,,,
729861283.598885,-0.876528,4.821156,42.509412,-0.085419,-0.017654,0.980423,0.009972,0.041663,-0.023995,73.446762,10.000336,-154.434387,,,
729861283.602217,-0.876888,4.830472,42.503119,-0.085419,-0.017654,0.980423,-0.002061,0.034606,-0.021403,73.446762,10.000336,-154.434387,,,
729861283.605561,-0.876888,4.830472,42.503119,-0.085419,-0.017654,0.980423,-0.002061,0.034606,-0.021403,73.446762,10.000336,-154.434387,,,
729861283.608942,-0.88,4.839251,42.497644,-0.090744,-0.012329,0.972183,-0.002061,0.034606,-0.021403,73.446762,10.000336,-154.434387,,,
729861283.612219,-0.88538,4.845494,42.492549,-0.090744,-0.012329,0.972183,-0.021983,0.020434,-0.020402,73.229507,10.052872,-154.283463,,,
729861283.615561,-0.88538,4.845494,42.492549,-0.090744,-0.012329,0.972183,-0.021983,0.020434,-0.020402,73.229507,10.052872,-154.283463,,,
729861283.618893,-0.895044,4.846944,42.488165,-0.094574,-0.011581,0.964935,-0.021983,0.020434,-0.020402,73.229507,10.052872,-154.283463,,,
729861283.622215,-0.906135,4.845514,42.484327,-0.094574,-0.011581,0.964935,-0.039435,-0.008693,-0.018168,73.229507,10.052872,-154.283463,,,
729861283.625572,-0.906135,4.845514,42.484327,-0.094574,-0.011581,0.964935,-0.039435,-0.008693,-0.018168,73.229507,10.052872,-154.283463,,,
729861283.628878,-0.920789,4.838442,42.48098,-0.099503,-0.014664,0.968445,-0.039435,-0.008693,-0.018168,73.229507,10.052872,-154.283463,,,
729861283.632219,-0.936512,4.833247,42.478306,-0.099503,-0.014664,0.968445,-0.056688,-0.015857,-0.015282,73.229507,10.052872,-154.283463,,,
