Time (sec),Pitch (deg),Roll (deg),Yaw(deg),X-Acceleration (g),Y-Acceleration (g),Z-Acceleration (g),Pitch Rate (deg/sec),Roll Rate (deg/sec),Yaw Rate (deg/sec),Magnetic Field in X direction (uT),Magnetic Field in Y direction (uT),Magnetic Field in Z Direction (uT),Latitude (deg),Longitude (deg),Altitude (m)
729863213.480078,0.348151,3.719171,46.306498,-0.070511,0.001709,1.00766,-0.005542,-0.006558,-0.020559,56.341217,2.099808,-150.048462,,,
729863213.483346,0.352364,3.700536,46.300437,-0.070511,0.001709,1.00766,0.012192,-0.040024,-0.024457,56.341217,2.099808,-150.048462,,,
729863213.486737,0.35462,3.689625,46.293848,-0.076141,-0.004395,1.013351,0.012192,-0.040024,-0.024457,56.341217,2.099808,-150.048462,,,
729863213.490003,0.35462,3.689625,46.293848,-0.076141,-0.004395,1.013351,0.012192,-0.040024,-0.024457,56.341217,2.099808,-150.048462,,,
729863213.49342,0.362621,3.664359,46.288005,-0.076141,-0.004395,1.013351,0.028083,-0.054093,-0.012459,56.341217,2.099808,-150.048462,,,
729863213.496656,0.369273,3.648229,46.2838,-0.080002,-0.003082,1.014282,0.028083,-0.054093,-0.012459,56.341217,2.099808,-150.048462,,,
729863213.500052,0.369273,3.648229,46.2838,-0.080002,-0.003082,1.014282,0.028083,-0.054093,-0.012459,56.341217,2.099808,-150.048462,,,
729863213.503388,0.380181,3.626457,46.281413,-0.080002,-0.003082,1.014282,0.020055,-0.03708,-0.000886,56.338409,1.868454,-149.887863,,,
729863213.506658,0.386456,3.614691,46.280747,-0.069595,0.008514,1.008881,0.020055,-0.03708,-0.000886,56.338409,1.868454,-149.887863,,,
729863213.509999,0.386456,3.614691,46.280747,-0.069595,0.008514,1.008881,0.020055,-0.03708,-0.000886,56.338409,1.868454,-149.887863,,,
729863213.513334,0.390262,3.603152,46.280339,-0.069595,0.008514,1.008881,-0.006552,-0.006732,-0.002158,56.338409,1.868454,-149.887863,,,
729863213.516666,0.389488,3.599537,46.279821,-0.054245,0.013504,0.993408,-0.006552,-0.006732,-0.002158,56.338409,1.868454,-149.887863,,,
729863213.520127,0.389488,3.599537,46.279821,-0.054245,0.013504,0.993408,-0.006552,-0.006732,-0.002158,56.338409,1.868454,-149.887863,,,
729863213.523343,0.38489,3.598469,46.279465,-0.054245,0.013504,0.993408,-0.026798,0.019665,-0.008396,56.338409,1.868454,-149.887863,,,
729863213.526671,0.376971,3.602974,46.278171,-0.051743,0.01825,0.984528,-0.026798,0.019665,-0.008396,56.338409,1.868454,-149.887863,,,
729863213.530023,0.376971,3.602974,46.278171,-0.051743,0.01825,0.984528,-0.026798,0.019665,-0.008396,56.338409,1.868454,-149.887863,,,
729863213.533393,0.366237,3.612624,46.276205,-0.051743,0.01825,0.984528,-0.044908,0.047363,-0.006509,56.338409,1.868454,-149.887863,,,
729863213.536701,0.353703,3.624627,46.274844,-0.059113,0.016647,0.98494,-0.044908,0.047363,-0.006509,56.338409,1.868454,-149.887863,,,
729863213.540011,0.353703,3.624627,46.274844,-0.059113,0.016647,0.98494,-0.044908,0.047363,-0.006509,56.338409,1.868454,-149.887863,,,
729863213.543341,0.340131,3.643095,46.274643,-0.059113,0.016647,0.98494,-0.037683,0.058547,0.001898,56.48967,2.121277,-150.462616,,,
729863213.546664,0.329494,3.659468,46.275775,-0.06955,0.01152,0.997131,-0.037683,0.058547,0.001898,56.48967,2.121277,-150.462616,,,
729863213.55003,0.329494,3.659468,46.275775,-0.06955,0.01152,0.997131,-0.037683,0.058547,0.001898,56.48967,2.121277,-150.462616,,,
729863213.553387,0.319985,3.678278,46.278015,-0.06955,0.01152,0.997131,-0.023539,0.047725,0.007632,56.48967,2.121277,-150.462616,,,
729863213.556658,0.313231,3.691096,46.28067,-0.07312,0.009048,1.001175,-0.023539,0.047725,0.007632,56.48967,2.121277,-150.462616,,,
729863213.560105,0.313231,3.691096,46.28067,-0.07312,0.009048,1.001175,-0.023539,0.047725,0.007632,56.48967,2.121277,-150.462616,,,
729863213.563336,0.307329,3.702346,46.282965,-0.07312,0.009048,1.001175,-0.006138,0.013406,0.003159,56.48967,2.121277,-150.462616,,,
729863213.566671,0.304879,3.706931,46.284719,-0.069031,0.007828,0.995834,-0.006138,0.013406,0.003159,56.48967,2.121277,-150.462616,,,
729863213.570083,0.304879,3.706931,46.284719,-0.069031,0.007828,0.995834,-0.006138,0.013406,0.003159,56.48967,2.121277,-150.462616,,,
729863213.573384,0.301172,3.710614,46.284935,-0.069031,0.007828,0.995834,0.002144,-0.018661,-0.012093,56.48967,2.121277,-150.462616,,,
729863213.576665,0.30124,3.70576,46.282567,-0.060333,0.007019,0.993515,0.002144,-0.018661,-0.012093,56.48967,2.121277,-150.462616,,,
729863213.580026,0.30124,3.70576,46.282567,-0.060333,0.007019,0.993515,0.002144,-0.018661,-0.012093,56.48967,2.121277,-150.462616,,,
729863213.583351,0.299514,3.701735,46.278011,-0.060333,0.007019,0.993515,-0.004903,-0.032123,-0.023083,56.565399,2.067047,-150.029999,,,
729863213.586705,0.297836,3.692179,46.272382,-0.057495,0.00499,0.985687,-0.004903,-0.032123,-0.023083,56.565399,2.067047,-150.029999,,,
729863213.590027,0.297836,3.692179,46.272382,-0.057495,0.00499,0.985687,-0.004903,-0.032123,-0.023083,56.565399,2.067047,-150.029999,,,
729863213.593358,0.295208,3.682718,46.266365,-0.057495,0.00499,0.985687,-0.025615,-0.023277,-0.023273,56.565399,2.067047,-150.029999,,,
729863213.596673,0.288301,3.674543,46.260488,-0.05072,0.00705,0.982712,-0.025615,-0.023277,-0.023273,56.565399,2.067047,-150.029999,,,
729863213.600107,0.288301,3.674543,46.260488,-0.05072,0.00705,0.982712,-0.025615,-0.023277,-0.023273,56.565399,2.067047,-150.029999,,,
729863213.603431,0.280192,3.665424,46.255892,-0.05072,0.00705,0.982712,-0.04848,0.001584,-0.019794,56.565399,2.067047,-150.029999,,,
729863213.60666,0.266338,3.663874,46.251604,-0.050095,0.009811,0.983963,-0.04848,0.001584,-0.019794,56.565399,2.067047,-150.029999,,,
729863213.61005,0.266338,3.663874,46.251604,-0.050095,0.009811,0.983963,-0.04848,0.001584,-0.019794,56.565399,2.067047,-150.029999,,,
729863213.613397,0.253576,3.662864,46.24672,-0.050095,0.009811,0.983963,-0.058011,0.026931,-0.024475,56.565399,2.067047,-150.029999,,,
729863213.616658,0.236091,3.668979,46.241187,-0.050247,0.005981,0.992233,-0.058011,0.026931,-0.024475,56.565399,2.067047,-150.029999,,,
729863213.62004,0.236091,3.668979,46.241187,-0.050247,0.005981,0.992233,-0.058011,0.026931,-0.024475,56.565399,2.067047,-150.029999,,,
729863213.623332,0.223138,3.677699,46.234497,-0.050247,0.005981,0.992233,-0.040289,0.044849,-0.02945,56.525726,2.232361,-150.203445,,,
729863213.626669,0.209693,3.689298,46.227336,-0.054596,-0.001694,1.006821,-0.040289,0.044849,-0.02945,56.525726,2.232361,-150.203445,,,
729863213.629999,0.209693,3.689298,46.227336,-0.054596,-0.001694,1.006821,-0.040289,0.044849,-0.02945,56.525726,2.232361,-150.203445,,,
729863213.633355,0.201926,3.702601,46.220135,-0.054596,-0.001694,1.006821,-0.010044,0.037025,-0.026062,56.525726,2.232361,-150.203445,,,
729863213.636702,0.196946,3.713001,46.213405,-0.071564,-0.00441,1.015808,-0.010044,0.037025,-0.026062,56.525726,2.232361,-150.203445,,,
729863213.6401,0.196946,3.713001,46.213405,-0.071564,-0.00441,1.015808,-0.010044,0.037025,-0.026062,56.525726,2.232361,-150.203445,,,
729863213.643352,0.196804,3.725787,46.207783,-0.071564,-0.00441,1.015808,0.008174,0.031571,-0.017766,56.525726,2.232361,-150.203445,,,
729863213.646673,0.198052,3.734517,46.203026,-0.080933,-0.002243,1.012833,0.008174,0.031571,-0.017766,56.525726,2.232361,-150.203445,,,
729863213.650019,0.198052,3.734517,46.203026,-0.080933,-0.002243,1.012833,0.008174,0.031571,-0.017766,56.525726,2.232361,-150.203445,,,
729863213.653348,0.201867,3.742764,46.199484,-0.080933,-0.002243,1.012833,0.016553,0.022025,-0.007905,56.525726,2.232361,-150.203445,,,
729863213.656678,0.205696,3.748674,46.197134,-0.082642,-0.002869,1.005768,0.016553,0.022025,-0.007905,56.525726,2.232361,-150.203445,,,
729863213.660102,0.205696,3.748674,46.197134,-0.082642,-0.002869,1.005768,0.016553,0.022025,-0.007905,56.525726,2.232361,-150.203445,,,
729863213.663369,0.210533,3.750566,46.195307,-0.082642,-0.002869,1.005768,0.014288,0.007205,-0.007954,56.525726,2.232361,-150.203445,,,
729863213.666679,0.214102,3.752479,46.193885,-0.082092,-0.000595,1.003571,0.014288,0.007205,-0.007954,56.805176,2.099625,-150.057632,,,
729863213.670054,0.214102,3.752479,46.193885,-0.082092,-0.000595,1.003571,0.014288,0.007205,-0.007954,56.805176,2.099625,-150.057632,,,
729863213.673354,0.218155,3.749157,46.192363,-0.082092,-0.000595,1.003571,0.018586,-0.017695,-0.005204,56.805176,2.099625,-150.057632,,,
729863213.676667,0.222355,3.744688,46.190882,-0.080276,-0.000565,1.00444,0.018586,-0.017695,-0.005204,56.805176,2.099625,-150.057632,,,
729863213.680066,0.222355,3.744688,46.190882,-0.080276,-0.000565,1.00444,0.018586,-0.017695,-0.005204,56.805176,2.099625,-150.057632,,,
729863213.683334,0.228617,3.731225,46.189501,-0.080276,-0.000565,1.00444,0.023275,-0.046223,-0.004769,56.805176,2.099625,-150.057632,,,
729863213.686716,0.234589,3.718271,46.187934,-0.080627,-0.0009,1.00174,0.023275,-0.046223,-0.004769,56.805176,2.099625,-150.057632,,,
729863213.690001,0.234589,3.718271,46.187934,-0.080627,-0.0009,1.00174,0.023275,-0.046223,-0.004769,56.805176,2.099625,-150.057632,,,
729863213.693378,0.242338,3.696422,46.186584,-0.080627,-0.0009,1.00174,0.028076,-0.063365,-0.002935,56.805176,2.099625,-150.057632,,,
729863213.696661,0.249704,3.677383,46.18568,-0.072784,-0.00235,1.001556,0.028076,-0.063365,-0.002935,56.805176,2.099625,-150.057632,,,
729863213.7,0.249704,3.677383,46.18568,-0.072784,-0.00235,1.001556,0.028076,-0.063365,-0.002935,56.805176,2.099625,-150.057632,,,
729863213.703383,0.257,3.654755,46.185006,-0.072784,-0.00235,1.001556,0.022854,-0.044695,-0.001226,56.805176,2.099625,-150.057632,,,
729863213.706682,0.262944,3.640009,46.184399,-0.062653,0.000854,1.004318,0.022854,-0.044695,-0.001226,56.483307,2.083145,-150.094559,,,
729863213.710018,0.262944,3.640009,46.184399,-0.062653,0.000854,1.004318,0.022854,-0.044695,-0.001226,56.483307,2.083145,-150.094559,,,
729863213.71335,0.264883,3.627796,46.183386,-0.062653,0.000854,1.004318,0.005311,-0.010612,-0.004725,56.483307,2.083145,-150.094559,,,
729863213.716666,0.266955,3.622598,46.182028,-0.060745,0.002335,1.006561,0.005311,-0.010612,-0.004725,56.483307,2.083145,-150.094559,,,
729863213.720084,0.266955,3.622598,46.182028,-0.060745,0.002335,1.006561,0.005311,-0.010612,-0.004725,56.483307,2.083145,-150.094559,,,
729863213.723333,0.266365,3.626501,46.181419,-0.060745,0.002335,1.006561,0.015148,0.026793,0.002785,56.483307,2.083145,-150.094559,,,
729863213.726675,0.269998,3.632029,46.182299,-0.07074,-0.002075,1.018066,0.015148,0.026793,0.002785,56.483307,2.083145,-150.094559,,,
729863213.730013,0.269998,3.632029,46.182299,-0.07074,-0.002075,1.018066,0.015148,0.026793,0.002785,56.483307,2.083145,-150.094559,,,
729863213.733443,0.274914,3.646785,46.185139,-0.07074,-0.002075,1.018066,0.039505,0.044255,0.019324,56.483307,2.083145,-150.094559,,,
729863213.736717,0.285287,3.657764,46.189899,-0.081467,-0.004929,1.028732,0.039505,0.044255,0.019324,56.483307,2.083145,-150.094559,,,
729863213.74002,0.285287,3.657764,46.189899,-0.081467,-0.004929,1.028732,0.039505,0.044255,0.019324,56.483307,2.083145,-150.094559,,,
729863213.743355,0.296159,3.675722,46.196418,-0.081467,-0.004929,1.028732,0.046015,0.036939,0.029103,56.483307,2.083145,-150.094559,,,
729863213.74667,0.309672,3.686455,46.204407,-0.082184,0.002274,1.006851,0.046015,0.036939,0.029103,56.60994,2.040878,-150.221466,,,
729863213.750019,0.309672,3.686455,46.204407,-0.082184,0.002274,1.006851,0.046015,0.036939,0.029103,56.60994,2.040878,-150.221466,,,
729863213.753386,0.320482,3.69982,46.212926,-0.082184,0.002274,1.006851,0.029696,0.019111,0.031518,56.60994,2.040878,-150.221466,,,
729863213.75667,0.329535,3.705077,46.22148,-0.074615,0.012009,0.977234,0.029696,0.019111,0.031518,56.60994,2.040878,-150.221466,,,
729863213.760008,0.329535,3.705077,46.22148,-0.074615,0.012009,0.977234,0.029696,0.019111,0.031518,56.60994,2.040878,-150.221466,,,
729863213.763364,0.334234,3.711904,46.229994,-0.074615,0.012009,0.977234,0.015578,-0.010605,0.022209,56.60994,2.040878,-150.221466,,,
729863213.766671,0.339086,3.709345,46.237387,-0.062912,0.012894,0.965332,0.015578,-0.010605,0.022209,56.60994,2.040878,-150.221466,,,
729863213.770145,0.339086,3.709345,46.237387,-0.062912,0.012894,0.965332,0.015578,-0.010605,0.022209,56.60994,2.040878,-150.221466,,,
729863213.773334,0.34032,3.708689,46.242514,-0.062912,0.012894,0.965332,0.006677,-0.02404,0.008065,56.60994,2.040878,-150.221466,,,
729863213.776675,0.342425,3.701587,46.245268,-0.056061,0.011627,0.979263,0.006677,-0.02404,0.008065,56.60994,2.040878,-150.221466,,,
729863213.779774,0.342425,3.701587,46.245268,-0.056061,0.011627,0.979263,0.006677,-0.02404,0.008065,56.60994,2.040878,-150.221466,,,
729863213.783439,0.342117,3.695299,46.246132,-0.056061,0.011627,0.979263,0.005317,-0.026412,-0.005134,56.60994,2.040878,-150.221466,,,
729863213.786709,0.343146,3.687178,46.245827,-0.046402,0.006622,0.985397,0.005317,-0.026412,-0.005134,56.70076,1.681274,-150.144791,,,
729863213.790018,0.343146,3.687178,46.245827,-0.046402,0.006622,0.985397,0.005317,-0.026412,-0.005134,56.70076,1.681274,-150.144791,,,
729863213.793359,0.342203,3.679507,46.244027,-0.046402,0.006622,0.985397,-0.004062,-0.008156,-0.016886,56.70076,1.681274,-150.144791,,,
729863213.796672,0.341015,3.675926,46.240395,-0.040833,0.006241,0.987,-0.004062,-0.008156,-0.016886,56.70076,1.681274,-150.144791,,,
729863213.799816,0.341015,3.675926,46.240395,-0.040833,0.006241,0.987,-0.004062,-0.008156,-0.016886,56.70076,1.681274,-150.144791,,,
729863213.803414,0.337313,3.674083,46.234789,-0.040833,0.006241,0.987,-0.018667,0.006906,-0.031414,56.70076,1.681274,-150.144791,,,
729863213.806664,0.33317,3.675064,46.226766,-0.042084,0.005096,0.988373,-0.018667,0.006906,-0.031414,56.70076,1.681274,-150.144791,,,
729863213.810084,0.33317,3.675064,46.226766,-0.042084,0.005096,0.988373,-0.018667,0.006906,-0.031414,56.70076,1.681274,-150.144791,,,
729863213.813344,0.325311,3.680334,46.217427,-0.042084,0.005096,0.988373,-0.013806,0.016306,-0.035888,56.70076,1.681274,-150.144791,,,
729863213.816667,0.319838,3.684624,46.208086,-0.055374,0.001556,1.003128,-0.013806,0.016306,-0.035888,56.70076,1.681274,-150.144791,,,
729863213.820051,0.319838,3.684624,46.208086,-0.055374,0.001556,1.003128,-0.013806,0.016306,-0.035888,56.70076,1.681274,-150.144791,,,
729863213.823409,0.312326,3.695373,46.199976,-0.055374,0.001556,1.003128,-0.012591,0.022939,-0.019737,56.70076,1.681274,-150.144791,,,
729863213.826749,0.307719,3.701231,46.194325,-0.070358,-0.001602,1.00415,-0.012591,0.022939,-0.019737,56.70076,1.681274,-150.144791,,,
729863213.830144,0.307719,3.701231,46.194325,-0.070358,-0.001602,1.00415,-0.012591,0.022939,-0.019737,56.509155,1.926712,-149.97345,,,
729863213.833363,0.303953,3.712982,46.190639,-0.070358,-0.001602,1.00415,-0.009531,0.027585,-0.004119,56.509155,1.926712,-149.97345,,,
729863213.836723,0.300287,3.719793,46.188852,-0.075317,0.000168,0.995209,-0.009531,0.027585,-0.004119,56.509155,1.926712,-149.97345,,,
729863213.840018,0.300287,3.719793,46.188852,-0.075317,0.000168,0.995209,-0.009531,0.027585,-0.004119,56.509155,1.926712,-149.97345,,,
729863213.843366,0.299372,3.729904,46.189386,-0.075317,0.000168,0.995209,-0.007155,0.025625,0.012777,56.509155,1.926712,-149.97345,,,
729863213.846679,0.297188,3.737106,46.192487,-0.082397,-0.002884,0.992554,-0.007155,0.025625,0.012777,56.509155,1.926712,-149.97345,,,
729863213.850005,0.297188,3.737106,46.192487,-0.082397,-0.002884,0.992554,-0.007155,0.025625,0.012777,56.509155,1.926712,-149.97345,,,
729863213.853434,0.297719,3.743356,46.197288,-0.082397,-0.002884,0.992554,-0.006175,0.027101,0.020591,56.509155,1.926712,-149.97345,,,
729863213.856665,0.296338,3.750212,46.203229,-0.075989,0.006226,0.990677,-0.006175,0.027101,0.020591,56.509155,1.926712,-149.97345,,,
729863213.860024,0.296338,3.750212,46.203229,-0.075989,0.006226,0.990677,-0.006175,0.027101,0.020591,56.509155,1.926712,-149.97345,,,
729863213.8634,0.296091,3.753851,46.209073,-0.075989,0.006226,0.990677,-0.005506,0.028761,0.012606,56.509155,1.926712,-149.97345,,,
729863213.86666,0.29414,3.761468,46.213444,-0.062088,0.009247,0.990936,-0.005506,0.028761,0.012606,56.509155,1.926712,-149.97345,,,
729863213.870044,0.29414,3.761468,46.213444,-0.062088,0.009247,0.990936,-0.005506,0.028761,0.012606,56.673737,1.924149,-150.041306,,,
729863213.873361,0.292604,3.760929,46.216045,-0.062088,0.009247,0.990936,-0.003693,0.01366,-0.002911,56.673737,1.924149,-150.041306,,,
729863213.876677,0.290782,3.765084,46.216276,-0.061829,0.004364,0.988953,-0.003693,0.01366,-0.002911,56.673737,1.924149,-150.041306,,,
729863213.879831,0.290782,3.765084,46.216276,-0.061829,0.004364,0.988953,-0.003693,0.01366,-0.002911,56.673737,1.924149,-150.041306,,,
729863213.88337,0.288489,3.759699,46.214253,-0.061829,0.004364,0.988953,-0.01375,0.013294,-0.016843,56.673737,1.924149,-150.041306,,,
729863213.886715,0.284239,3.762887,46.210503,-0.05957,0.006851,0.993652,-0.01375,0.013294,-0.016843,56.673737,1.924149,-150.041306,,,
729863213.890052,0.284239,3.762887,46.210503,-0.05957,0.006851,0.993652,-0.01375,0.013294,-0.016843,56.673737,1.924149,-150.041306,,,
729863213.893341,0.278835,3.759115,46.206309,-0.05957,0.006851,0.993652,-0.016866,0.009751,-0.014693,56.673737,1.924149,-150.041306,,,
729863213.896674,0.273575,3.76138,46.202375,-0.064865,0.003464,0.998459,-0.016866,0.009751,-0.014693,56.673737,1.924149,-150.041306,,,
729863213.900076,0.273575,3.76138,46.202375,-0.064865,0.003464,0.998459,-0.016866,0.009751,-0.014693,56.673737,1.924149,-150.041306,,,
729863213.903384,0.267581,3.75977,46.198807,-0.064865,0.003464,0.998459,-0.011858,-0.003336,-0.009381,56.673737,1.924149,-150.041306,,,
729863213.906674,0.263056,3.758926,46.196301,-0.072296,0.000137,1.004608,-0.011858,-0.003336,-0.009381,56.673737,1.924149,-150.041306,,,
729863213.910006,0.263056,3.758926,46.196301,-0.072296,0.000137,1.004608,-0.011858,-0.003336,-0.009381,56.519745,2.004288,-149.886017,,,
729863213.913365,0.257352,3.758458,46.195151,-0.072296,0.000137,1.004608,-0.016667,-0.019428,-0.002901,56.519745,2.004288,-149.886017,,,
729863213.916672,0.252317,3.753651,46.195018,-0.07518,0.00325,0.998718,-0.016667,-0.019428,-0.002901,56.519745,2.004288,-149.886017,,,
729863213.920057,0.252317,3.753651,46.195018,-0.07518,0.00325,0.998718,-0.016667,-0.019428,-0.002901,56.519745,2.004288,-149.886017,,,
729863213.923348,0.244532,3.751261,46.195124,-0.07518,0.00325,0.998718,-0.023009,-0.018245,-0.005286,56.519745,2.004288,-149.886017,,,
729863213.926677,0.237983,3.745337,46.194813,-0.068192,0.004852,0.999725,-0.023009,-0.018245,-0.005286,56.519745,2.004288,-149.886017,,,
729863213.930073,0.237983,3.745337,46.194813,-0.068192,0.004852,0.999725,-0.023009,-0.018245,-0.005286,56.519745,2.004288,-149.886017,,,
729863213.933337,0.232128,3.747127,46.19419,-0.068192,0.004852,0.999725,-0.001319,0.000216,-0.003127,56.519745,2.004288,-149.886017,,,
729863213.936388,0.231259,3.745173,46.193649,-0.065125,0.001221,1.021423,-0.001319,0.000216,-0.003127,56.519745,2.004288,-149.886017,,,
729863213.940059,0.231259,3.745173,46.193649,-0.065125,0.001221,1.021423,-0.001319,0.000216,-0.003127,56.519745,2.004288,-149.886017,,,
729863213.943402,0.235604,3.746664,46.193733,-0.065125,0.001221,1.021423,0.029056,0.000871,0.00509,56.519745,2.004288,-149.886017,,,
729863213.946665,0.242732,3.746386,46.19473,-0.068588,-0.00296,1.02948,0.029056,0.000871,0.00509,56.519745,2.004288,-149.886017,,,
729863213.950023,0.242732,3.746386,46.19473,-0.068588,-0.00296,1.02948,0.029056,0.000871,0.00509,56.641373,1.905869,-150.314209,,,
729863213.953386,0.254658,3.745214,46.196086,-0.068588,-0.00296,1.02948,0.052859,0.005714,0.006227,56.641373,1.905869,-150.314209,,,
729863213.956661,0.268975,3.745845,46.197528,-0.068817,0.004547,1.020554,0.052859,0.005714,0.006227,56.641373,1.905869,-150.314209,,,
729863213.960011,0.268975,3.745845,46.197528,-0.068817,0.004547,1.020554,0.052859,0.005714,0.006227,56.641373,1.905869,-150.314209,,,
729863213.96334,0.284933,3.744456,46.199613,-0.068817,0.004547,1.020554,0.053596,-0.004885,0.010125,56.641373,1.905869,-150.314209,,,
729863213.966671,0.300662,3.742693,46.202064,-0.061676,0.00647,1.002548,0.053596,-0.004885,0.010125,56.641373,1.905869,-150.314209,,,
729863213.970074,0.300662,3.742693,46.202064,-0.061676,0.00647,1.002548,0.053596,-0.004885,0.010125,56.641373,1.905869,-150.314209,,,
729863213.973344,0.315282,3.738118,46.204619,-0.061676,0.00647,1.002548,0.03582,-0.010546,0.008565,56.641373,1.905869,-150.314209,,,
729863213.976675,0.326291,3.73445,46.206912,-0.057037,0.012436,0.979919,0.03582,-0.010546,0.008565,56.641373,1.905869,-150.314209,,,
729863213.980015,0.326291,3.73445,46.206912,-0.057037,0.012436,0.979919,0.03582,-0.010546,0.008565,56.641373,1.905869,-150.314209,,,
729863213.983404,0.331555,3.731059,46.208671,-0.057037,0.012436,0.979919,0.001266,-0.013347,0.000439,56.641373,1.905869,-150.314209,,,
729863213.986707,0.332568,3.726683,46.209604,-0.047501,0.021622,0.962631,0.001266,-0.013347,0.000439,56.641373,1.905869,-150.314209,,,
729863213.99001,0.332568,3.726683,46.209604,-0.047501,0.021622,0.962631,0.001266,-0.013347,0.000439,56.641373,1.905869,-150.314209,,,
729863213.993354,0.327371,3.725784,46.209394,-0.047501,0.021622,0.962631,-0.027098,-0.004408,-0.008237,56.558395,1.903351,-150.144073,,,
729863213.996673,0.319876,3.723886,46.208255,-0.044586,0.018784,0.964722,-0.027098,-0.004408,-0.008237,56.558395,1.903351,-150.144073,,,
729863214.000007,0.319876,3.723886,46.208255,-0.044586,0.018784,0.964722,-0.027098,-0.004408,-0.008237,56.558395,1.903351,-150.144073,,,
729863214.003423,0.308769,3.726836,46.205973,-0.044586,0.018784,0.964722,-0.039731,0.014269,-0.016362,56.558395,1.903351,-150.144073,,,
729863214.006658,0.296894,3.729754,46.202789,-0.049774,0.013489,0.977066,-0.039731,0.014269,-0.016362,56.558395,1.903351,-150.144073,,,
729863214.010078,0.296894,3.729754,46.202789,-0.049774,0.013489,0.977066,-0.039731,0.014269,-0.016362,56.558395,1.903351,-150.144073,,,
729863214.013351,0.284631,3.735502,46.199287,-0.049774,0.013489,0.977066,-0.041536,0.030375,-0.014637,56.558395,1.903351,-150.144073,,,
729863214.016672,0.271976,3.74305,46.1961,-0.057877,0.012039,0.988907,-0.041536,0.030375,-0.014637,56.558395,1.903351,-150.144073,,,
729863214.020056,0.271976,3.74305,46.1961,-0.057877,0.012039,0.988907,-0.041536,0.030375,-0.014637,56.558395,1.903351,-150.144073,,,
729863214.023394,0.259306,3.752633,46.193941,-0.057877,0.012039,0.988907,-0.031296,0.045103,-0.008172,56.558395,1.903351,-150.144073,,,
729863214.026687,0.249841,3.764356,46.192861,-0.066147,0.002594,1.002213,-0.031296,0.045103,-0.008172,56.558395,1.903351,-150.144073,,,
729863214.029799,0.249841,3.764356,46.192861,-0.066147,0.002594,1.002213,-0.031296,0.045103,-0.008172,56.558395,1.903351,-150.144073,,,
729863214.033392,0.241051,3.776589,46.191934,-0.066147,0.002594,1.002213,-0.015232,0.036525,-0.003501,56.796478,2.039536,-150.228195,,,
729863214.036713,0.236173,3.787143,46.190926,-0.0728,0.001923,1.003448,-0.015232,0.036525,-0.003501,56.796478,2.039536,-150.228195,,,
729863214.040019,0.236173,3.787143,46.190926,-0.0728,0.001923,1.003448,-0.015232,0.036525,-0.003501,56.796478,2.039536,-150.228195,,,
729863214.043348,0.233636,3.796219,46.188972,-0.0728,0.001923,1.003448,0.003703,0.026041,-0.010896,56.796478,2.039536,-150.228195,,,
729863214.046673,0.233008,3.803721,46.185785,-0.070862,0.001648,1.009064,0.003703,0.026041,-0.010896,56.796478,2.039536,-150.228195,,,
729863214.050088,0.233008,3.803721,46.185785,-0.070862,0.001648,1.009064,0.003703,0.026041,-0.010896,56.796478,2.039536,-150.228195,,,
729863214.05338,0.236277,3.807252,46.182459,-0.070862,0.001648,1.009064,0.024761,0.009109,-0.008711,56.796478,2.039536,-150.228195,,,
729863214.056663,0.242708,3.809886,46.179077,-0.075806,-0.003815,1.016495,0.024761,0.009109,-0.008711,56.796478,2.039536,-150.228195,,,
729863214.059831,0.242708,3.809886,46.179077,-0.075806,-0.003815,1.016495,0.024761,0.009109,-0.008711,56.796478,2.039536,-150.228195,,,
729863214.063417,0.255827,3.806371,46.175962,-0.075806,-0.003815,1.016495,0.047277,-0.007835,-0.006573,56.796478,2.039536,-150.228195,,,
729863214.066669,0.268699,3.803915,46.173293,-0.083496,-0.004196,1.019882,0.047277,-0.007835,-0.006573,56.796478,2.039536,-150.228195,,,
729863214.070051,0.268699,3.803915,46.173293,-0.083496,-0.004196,1.019882,0.047277,-0.007835,-0.006573,56.796478,2.039536,-150.228195,,,
729863214.073329,0.286847,3.794578,46.171663,-0.083496,-0.004196,1.019882,0.044116,-0.012011,0.004,56.623199,1.908478,-150.434937,,,
729863214.076667,0.2997,3.791175,46.171867,-0.085709,-0.003311,1.010574,0.044116,-0.012011,0.004,56.623199,1.908478,-150.434937,,,
729863214.080017,0.2997,3.791175,46.171867,-0.085709,-0.003311,1.010574,0.044116,-0.012011,0.004,56.623199,1.908478,-150.434937,,,
729863214.083347,0.314258,3.781351,46.173746,-0.085709,-0.003311,1.010574,0.031667,-0.007741,0.016142,56.623199,1.908478,-150.434937,,,
729863214.086715,0.323173,3.778377,46.177397,-0.081985,0.001373,0.99794,0.031667,-0.007741,0.016142,56.623199,1.908478,-150.434937,,,
729863214.090062,0.323173,3.778377,46.177397,-0.081985,0.001373,0.99794,0.031667,-0.007741,0.016142,56.623199,1.908478,-150.434937,,,
729863214.093328,0.331795,3.77163,46.182893,-0.081985,0.001373,0.99794,0.013281,-0.010542,0.023734,56.623199,1.908478,-150.434937,,,
729863214.096673,0.336344,3.768199,46.189485,-0.078339,0.011093,0.983795,0.013281,-0.010542,0.023734,56.623199,1.908478,-150.434937,,,
729863214.10001,0.336344,3.768199,46.189485,-0.078339,0.011093,0.983795,0.013281,-0.010542,0.023734,56.623199,1.908478,-150.434937,,,
729863214.10339,0.338883,3.76171,46.196343,-0.078339,0.011093,0.983795,-0.00957,-0.017653,0.020604,56.623199,1.908478,-150.434937,,,
729863214.106687,0.336723,3.756684,46.202789,-0.06546,0.016693,0.967972,-0.00957,-0.017653,0.020604,56.623199,1.908478,-150.434937,,,
729863214.110025,0.336723,3.756684,46.202789,-0.06546,0.016693,0.967972,-0.00957,-0.017653,0.020604,56.623199,1.908478,-150.434937,,,
729863214.113465,0.330069,3.752692,46.208721,-0.06546,0.016693,0.967972,-0.034178,-0.012632,0.018219,56.623199,1.908478,-150.434937,,,
729863214.116741,0.321437,3.748138,46.214622,-0.059189,0.014435,0.959091,-0.034178,-0.012632,0.018219,56.541428,1.926987,-149.825043,,,
729863214.120061,0.321437,3.748138,46.214622,-0.059189,0.014435,0.959091,-0.034178,-0.012632,0.018219,56.541428,1.926987,-149.825043,,,
729863214.123336,0.30931,3.746682,46.220311,-0.059189,0.014435,0.959091,-0.048783,-0.007108,0.01307,56.541428,1.926987,-149.825043,,,
729863214.126704,0.295724,3.742973,46.224804,-0.052872,0.016281,0.963318,-0.048783,-0.007108,0.01307,56.541428,1.926987,-149.825043,,,
729863214.130022,0.295724,3.742973,46.224804,-0.052872,0.016281,0.963318,-0.048783,-0.007108,0.01307,56.541428,1.926987,-149.825043,,,
729863214.133345,0.280241,3.74112,46.227703,-0.052872,0.016281,0.963318,-0.038878,-0.007509,-0.003619,56.541428,1.926987,-149.825043,,,
729863214.136798,0.267648,3.738532,46.228743,-0.047958,0.007629,0.982986,-0.038878,-0.007509,-0.003619,56.541428,1.926987,-149.825043,,,
729863214.140071,0.267648,3.738532,46.228743,-0.047958,0.007629,0.982986,-0.038878,-0.007509,-0.003619,56.541428,1.926987,-149.825043,,,
729863214.143351,0.256781,3.741373,46.227606,-0.047958,0.007629,0.982986,-0.001024,0.006347,-0.012719,56.541428,1.926987,-149.825043,,,
729863214.146749,0.254095,3.741854,46.224891,-0.054657,-0.005936,1.014252,-0.001024,0.006347,-0.012719,56.541428,1.926987,-149.825043,,,
729863214.15001,0.254095,3.741854,46.224891,-0.054657,-0.005936,1.014252,-0.001024,0.006347,-0.012719,56.541428,1.926987,-149.825043,,,
729863214.153436,0.25538,3.748474,46.221609,-0.054657,-0.005936,1.014252,0.041482,0.002399,-0.005969,56.541428,1.926987,-149.825043,,,
729863214.156664,0.264981,3.748855,46.219094,-0.062775,-0.015152,1.028198,0.041482,0.002399,-0.005969,56.450104,2.000336,-150.044235,,,
729863214.160036,0.264981,3.748855,46.219094,-0.062775,-0.015152,1.028198,0.041482,0.002399,-0.005969,56.450104,2.000336,-150.044235,,,
729863214.163344,0.276997,3.754051,46.217166,-0.062775,-0.015152,1.028198,0.050606,0.000271,-0.004684,56.450104,2.000336,-150.044235,,,
729863214.166665,0.29161,3.753116,46.215414,-0.06781,-0.009689,1.018585,0.050606,0.000271,-0.004684,56.450104,2.000336,-150.044235,,,
729863214.170071,0.29161,3.753116,46.215414,-0.06781,-0.009689,1.018585,0.050606,0.000271,-0.004684,56.450104,2.000336,-150.044235,,,
729863214.17335,0.3036,3.757173,46.213831,-0.06781,-0.009689,1.018585,0.027768,-0.004712,-0.001763,56.450104,2.000336,-150.044235,,,
729863214.176709,0.312095,3.755212,46.212489,-0.067078,-0.000305,0.993988,0.027768,-0.004712,-0.001763,56.450104,2.000336,-150.044235,,,
729863214.180094,0.312095,3.755212,46.212489,-0.067078,-0.000305,0.993988,0.027768,-0.004712,-0.001763,56.450104,2.000336,-150.044235,,,
729863214.183355,0.317632,3.755261,46.211858,-0.067078,-0.000305,0.993988,-0.012981,-0.019266,-0.000615,56.450104,2.000336,-150.044235,,,
729863214.18677,0.315282,3.74957,46.21221,-0.068268,0.006638,0.972717,-0.012981,-0.019266,-0.000615,56.450104,2.000336,-150.044235,,,
729863214.190003,0.315282,3.74957,46.21221,-0.068268,0.006638,0.972717,-0.012981,-0.019266,-0.000615,56.450104,2.000336,-150.044235,,,
729863214.193412,0.309749,3.741654,46.213338,-0.068268,0.006638,0.972717,-0.048016,-0.031183,0.001927,56.450104,2.000336,-150.044235,,,
729863214.196761,0.297404,3.732416,46.215334,-0.065567,0.012314,0.966415,-0.048016,-0.031183,0.001927,56.242157,1.979538,-150.182816,,,
729863214.200012,0.297404,3.732416,46.215334,-0.065567,0.012314,0.966415,-0.048016,-0.031183,0.001927,56.242157,1.979538,-150.182816,,,
729863214.20339,0.284773,3.721268,46.218262,-0.065567,0.012314,0.966415,-0.053956,-0.028844,0.006895,56.242157,1.979538,-150.182816,,,
729863214.206706,0.269428,3.712116,46.221615,-0.067398,0.008591,0.9841,-0.053956,-0.028844,0.006895,56.242157,1.979538,-150.182816,,,
729863214.210011,0.269428,3.712116,46.221615,-0.067398,0.008591,0.9841,-0.053956,-0.028844,0.006895,56.242157,1.979538,-150.182816,,,
729863214.213346,0.257492,3.70196,46.225822,-0.067398,0.008591,0.9841,-0.046008,-0.003942,0.012371,56.242157,1.979538,-150.182816,,,
729863214.216697,0.257492,3.699183,46.230471,-0.062775,0.003418,1.005051,-0.046008,-0.003942,0.012371,56.242157,1.979538,-150.182816,,,
729863214.220108,0.244945,3.699183,46.230471,-0.062775,0.003418,1.005051,-0.046008,-0.003942,0.012371,56.242157,1.979538,-150.182816,,,
729863214.223333,0.234037,3.697197,46.234768,-0.062775,0.003418,1.005051,-0.028469,0.032404,0.008487,56.242157,1.979538,-150.182816,,,
729863214.226672,0.234037,3.704812,46.238021,-0.062775,0.003418,1.005051,-0.028469,0.032404,0.008487,56.242157,1.979538,-150.182816,,,
729863214.230028,0.225321,3.704812,46.238021,-0.059998,0.004425,1.015778,-0.028469,0.032404,0.008487,56.242157,1.979538,-150.182816,,,
729863214.233422,0.216012,3.714132,46.239824,-0.059998,0.004425,1.015778,-0.010657,0.057777,-0.002352,56.242157,1.979538,-150.182816,,,
729863214.236731,0.211971,3.729575,46.240208,-0.057175,0.004547,1.019379,-0.010657,0.057777,-0.002352,56.471115,2.019501,-150.399216,,,
729863214.240025,0.211971,3.729575,46.240208,-0.057175,0.004547,1.019379,-0.010657,0.057777,-0.002352,56.471115,2.019501,-150.399216,,,
729863214.243466,0.20688,3.745821,46.238693,-0.057175,0.004547,1.019379,0.01552,0.05375,-0.014404,56.471115,2.019501,-150.399216,,,
729863214.246748,0.20688,3.745821,46.238693,-0.057175,0.004547,1.019379,0.01552,0.05375,-0.014404,56.471115,2.019501,-150.399216,,,
729863214.250017,0.209626,3.761132,46.235042,-0.067169,0.002319,1.015564,0.01552,0.05375,-0.014404,56.471115,2.019501,-150.399216,,,
729863214.253407,0.214547,3.772772,46.229505,-0.067169,0.002319,1.015564,0.03993,0.018755,-0.020197,56.471115,2.019501,-150.399216,,,
729863214.256676,0.214547,3.772772,46.229505,-0.067169,0.002319,1.015564,0.03993,0.018755,-0.020197,56.471115,2.019501,-150.399216,,,
729863214.260091,0.225107,3.778688,46.223322,-0.082962,-0.0,1.011703,0.03993,0.018755,-0.020197,56.471115,2.019501,-150.399216,,,
729863214.26337,0.237,3.778362,46.217912,-0.082962,-0.0,1.011703,0.049969,-0.032821,-0.011583,56.471115,2.019501,-150.399216,,,
729863214.266685,0.237,3.778362,46.217912,-0.082962,-0.0,1.011703,0.049969,-0.032821,-0.011583,56.471115,2.019501,-150.399216,,,
729863214.270065,0.250044,3.770274,46.213844,-0.089874,6.1e-05,0.996735,0.049969,-0.032821,-0.011583,56.471115,2.019501,-150.399216,,,
729863214.273415,0.264419,3.755674,46.211524,-0.089874,6.1e-05,0.996735,0.042252,-0.072169,0.001442,56.471115,2.019501,-150.399216,,,
729863214.276687,0.264419,3.755674,46.211524,-0.089874,6.1e-05,0.996735,0.042252,-0.072169,0.001442,56.471115,2.019501,-150.399216,,,
729863214.28,0.277031,3.735001,46.21143,-0.087753,0.007523,0.986954,0.042252,-0.072169,0.001442,56.513565,1.887375,-149.768677,,,
729863214.283335,0.288944,3.714904,46.213406,-0.087753,0.007523,0.986954,0.016175,-0.059771,0.013423,56.513565,1.887375,-149.768677,,,
729863214.286759,0.288944,3.714904,46.217246,-0.087753,0.007523,0.986954,0.016175,-0.059771,0.013423,56.513565,1.887375,-149.768677,,,
729863214.289998,0.294587,3.69646,46.217246,-0.079132,0.009644,0.985703,0.016175,-0.059771,0.013423,56.513565,1.887375,-149.768677,,,
729863214.293346,0.29622,3.682505,46.222456,-0.079132,0.009644,0.985703,-0.02187,-0.021116,0.020204,56.513565,1.887375,-149.768677,,,
729863214.296677,0.29622,3.682505,46.222456,-0.079132,0.009644,0.985703,-0.02187,-0.021116,0.020204,56.513565,1.887375,-149.768677,,,
729863214.300073,0.291881,3.673784,46.228596,-0.061951,0.015747,0.981064,-0.02187,-0.021116,0.020204,56.513565,1.887375,-149.768677,,,
729863214.303366,0.281212,3.671337,46.236069,-0.061951,0.015747,0.981064,-0.055821,0.030254,0.023022,56.513565,1.887375,-149.768677,,,
729863214.306686,0.281212,3.671337,46.236069,-0.061951,0.015747,0.981064,-0.055821,0.030254,0.023022,56.513565,1.887375,-149.768677,,,
729863214.310011,0.266809,3.676587,46.244505,-0.056488,0.016464,0.98175,-0.055821,0.030254,0.023022,56.513565,1.887375,-149.768677,,,
729863214.313372,0.248961,3.686102,46.252875,-0.056488,0.016464,0.98175,-0.070332,0.060692,0.022036,56.513565,1.887375,-149.768677,,,
729863214.316712,0.248961,3.686102,46.252875,-0.056488,0.016464,0.98175,-0.070332,0.060692,0.022036,56.513565,1.887375,-149.768677,,,
729863214.320053,0.229484,3.701747,46.260939,-0.055649,0.011597,0.986877,-0.070332,0.060692,0.022036,56.512451,2.054108,-149.904633,,,
729863214.32333,0.210448,3.716516,46.26908,-0.055649,0.011597,0.986877,-0.052881,0.05699,0.018341,56.512451,2.054108,-149.904633,,,
729863214.326751,0.210448,3.716516,46.26908,-0.055649,0.011597,0.986877,-0.052881,0.05699,0.018341,56.512451,2.054108,-149.904633,,,
729863214.330004,0.194243,3.732929,46.276689,-0.057114,0.006058,0.996613,-0.052881,0.05699,0.018341,56.512451,2.054108,-149.904633,,,
729863214.333337,0.181339,3.748647,46.283775,-0.057114,0.006058,0.996613,-0.025785,0.03699,0.021483,56.512451,2.054108,-149.904633,,,
729863214.336757,0.181339,3.748647,46.283775,-0.057114,0.006058,0.996613,-0.025785,0.03699,0.021483,56.512451,2.054108,-149.904633,,,
729863214.340073,0.172545,3.759493,46.290938,-0.063614,-0.000534,1.001312,-0.025785,0.03699,0.021483,56.512451,2.054108,-149.904633,,,
729863214.343339,0.166882,3.774251,46.297264,-0.063614,-0.000534,1.001312,0.002227,0.019327,0.014717,56.512451,2.054108,-149.904633,,,
729863214.346736,0.166882,3.774251,46.297264,-0.063614,-0.000534,1.001312,0.002227,0.019327,0.014717,56.512451,2.054108,-149.904633,,,
729863214.350014,0.166169,3.779983,46.302132,-0.057175,-0.002686,1.005692,0.002227,0.019327,0.014717,56.512451,2.054108,-149.904633,,,
729863214.353376,0.167899,3.791823,46.304675,-0.057175,-0.002686,1.005692,0.019381,0.014068,5e-06,56.512451,2.054108,-149.904633,,,
729863214.356717,0.167899,3.791823,46.304675,-0.057175,-0.002686,1.005692,0.019381,0.014068,5e-06,56.512451,2.054108,-149.904633,,,
729863214.36001,0.172358,3.794927,46.304727,-0.04483,-0.00473,1.011917,0.019381,0.014068,5e-06,56.625351,2.141327,-150.118332,,,
729863214.363343,0.180307,3.805545,46.302539,-0.04483,-0.00473,1.011917,0.026069,0.020087,-0.016592,56.625351,2.141327,-150.118332,,,
729863214.366677,0.180307,3.805545,46.302539,-0.04483,-0.00473,1.011917,0.026069,0.020087,-0.016592,56.625351,2.141327,-150.118332,,,
729863214.370062,0.187438,3.810041,46.298416,-0.050339,-0.006195,1.010635,0.026069,0.020087,-0.016592,56.625351,2.141327,-150.118332,,,
729863214.373388,0.195084,3.817576,46.293658,-0.050339,-0.006195,1.010635,0.005657,0.01754,-0.011672,56.625351,2.141327,-150.118332,,,
729863214.376727,0.195084,3.817576,46.293658,-0.050339,-0.006195,1.010635,0.005657,0.01754,-0.011672,56.625351,2.141327,-150.118332,,,
729863214.380009,0.197486,3.821922,46.289915,-0.06218,0.000534,0.994675,0.005657,0.01754,-0.011672,56.625351,2.141327,-150.118332,,,
729863214.383394,0.199757,3.823379,46.287463,-0.06218,0.000534,0.994675,-0.020665,0.001758,-0.000699,56.625351,2.141327,-150.118332,,,
729863214.386722,0.199757,3.823379,46.287463,-0.06218,0.000534,0.994675,-0.020665,0.001758,-0.000699,56.625351,2.141327,-150.118332,,,
729863214.390066,0.195057,3.824241,46.286774,-0.069855,0.005066,0.979492,-0.020665,0.001758,-0.000699,56.625351,2.141327,-150.118332,,,
729863214.393336,0.189776,3.818845,46.288101,-0.069855,0.005066,0.979492,-0.041225,-0.01315,0.007869,56.625351,2.141327,-150.118332,,,
729863214.396678,0.189776,3.818845,46.288101,-0.069855,0.005066,0.979492,-0.041225,-0.01315,0.007869,56.625351,2.141327,-150.118332,,,
729863214.400024,0.178541,3.814609,46.290604,-0.072311,0.00293,0.976715,-0.041225,-0.01315,0.007869,56.736481,2.286804,-150.436539,,,
729863214.40338,0.167301,3.805568,46.294102,-0.072311,0.00293,0.976715,-0.044158,-0.013019,0.0077,56.736481,2.286804,-150.436539,,,
729863214.406676,0.167301,3.805568,46.294102,-0.072311,0.00293,0.976715,-0.044158,-0.013019,0.0077,56.736481,2.286804,-150.436539,,,
729863214.41002,0.153862,3.800784,46.297604,-0.065048,0.002472,0.988434,-0.044158,-0.013019,0.0077,56.736481,2.286804,-150.436539,,,
729863214.413343,0.141485,3.794448,46.300364,-0.065048,0.002472,0.988434,-0.037724,-0.003331,0.00282,56.736481,2.286804,-150.436539,,,
729863214.416734,0.141485,3.794448,46.300364,-0.065048,0.002472,0.988434,-0.037724,-0.003331,0.00282,56.736481,2.286804,-150.436539,,,
729863214.420101,0.130477,3.792251,46.302312,-0.060257,-0.000214,1.000366,-0.037724,-0.003331,0.00282,56.736481,2.286804,-150.436539,,,
729863214.423339,0.121247,3.792093,46.303524,-0.060257,-0.000214,1.000366,-0.011548,0.01682,-0.003347,56.736481,2.286804,-150.436539,,,
729863214.42669,0.121247,3.792093,46.303524,-0.060257,-0.000214,1.000366,-0.011548,0.01682,-0.003347,56.736481,2.286804,-150.436539,,,
729863214.430091,0.11668,3.795651,46.303682,-0.058594,-0.003479,1.012863,-0.011548,0.01682,-0.003347,56.736481,2.286804,-150.436539,,,
729863214.433339,0.114288,3.798326,46.303157,-0.058594,-0.003479,1.012863,0.010983,0.0402,-0.001678,56.736481,2.286804,-150.436539,,,
729863214.436731,0.114288,3.798326,46.303157,-0.058594,-0.003479,1.012863,0.010983,0.0402,-0.001678,56.736481,2.286804,-150.436539,,,
729863214.440017,0.11657,3.809025,46.302968,-0.063492,-0.005875,1.016815,0.010983,0.0402,-0.001678,56.736481,2.286804,-150.436539,,,
729863214.443342,0.119712,3.815455,46.303893,-0.063492,-0.005875,1.016815,0.02257,0.058682,0.013195,56.684723,2.219742,-150.156616,,,
729863214.446682,0.119712,3.815455,46.303893,-0.063492,-0.005875,1.016815,0.02257,0.058682,0.013195,56.684723,2.219742,-150.156616,,,
729863214.450021,0.126131,3.830844,46.306729,-0.074142,-0.004196,1.010269,0.02257,0.058682,0.013195,56.684723,2.219742,-150.156616,,,
729863214.45338,0.131317,3.841352,46.311356,-0.074142,-0.004196,1.010269,0.020602,0.043469,0.018908,56.684723,2.219742,-150.156616,,,
729863214.456752,0.131317,3.841352,46.311356,-0.074142,-0.004196,1.010269,0.020602,0.043469,0.018908,56.684723,2.219742,-150.156616,,,
729863214.460041,0.13799,3.854127,46.316632,-0.075012,0.003525,0.993652,0.020602,0.043469,0.018908,56.684723,2.219742,-150.156616,,,
729863214.463346,0.144068,3.861691,46.321475,-0.075012,0.003525,0.993652,0.018827,0.005523,0.00918,56.684723,2.219742,-150.156616,,,
729863214.466689,0.144068,3.861691,46.321475,-0.075012,0.003525,0.993652,0.018827,0.005523,0.00918,56.684723,2.219742,-150.156616,,,
729863214.470085,0.149402,3.864162,46.32487,-0.066345,0.005341,0.978195,0.018827,0.005523,0.00918,56.684723,2.219742,-150.156616,,,
729863214.47334,0.153747,3.861712,46.326294,-0.066345,0.005341,0.978195,0.00772,-0.040943,-0.008488,56.684723,2.219742,-150.156616,,,
729863214.476669,0.153747,3.861712,46.326294,-0.066345,0.005341,0.978195,0.00772,-0.040943,-0.008488,56.684723,2.219742,-150.156616,,,
729863214.480012,0.155461,3.850745,46.324815,-0.059509,0.009216,0.971603,0.00772,-0.040943,-0.008488,56.684723,2.219742,-150.156616,,,
729863214.483336,0.155333,3.837632,46.320255,-0.059509,0.009216,0.971603,-0.00303,-0.049616,-0.021743,56.641602,1.980988,-149.677048,,,
729863214.486745,0.155333,3.837632,46.320255,-0.059509,0.009216,0.971603,-0.00303,-0.049616,-0.021743,56.641602,1.980988,-149.677048,,,
729863214.49001,0.153897,3.822569,46.314842,-0.058212,0.011276,0.979614,-0.00303,-0.049616,-0.021743,56.641602,1.980988,-149.677048,,,
729863214.493343,0.150602,3.80914,46.310861,-0.058212,0.011276,0.979614,-0.018481,-0.016387,-0.00905,56.641602,1.980988,-149.677048,,,
729863214.496736,0.150602,3.80914,46.310861,-0.058212,0.011276,0.979614,-0.018481,-0.016387,-0.00905,56.641602,1.980988,-149.677048,,,
729863214.500016,0.145707,3.801924,46.309112,-0.060654,0.003128,0.994858,-0.018481,-0.016387,-0.00905,56.641602,1.980988,-149.677048,,,
729863214.503379,0.139456,3.798054,46.309734,-0.060654,0.003128,0.994858,-0.01639,0.022169,0.006365,56.641602,1.980988,-149.677048,,,
729863214.506677,0.139456,3.798054,46.309734,-0.060654,0.003128,0.994858,-0.01639,0.022169,0.006365,56.641602,1.980988,-149.677048,,,
729863214.510069,0.134401,3.802568,46.311846,-0.06282,0.002167,1.004974,-0.01639,0.022169,0.006365,56.641602,1.980988,-149.677048,,,
729863214.513336,0.128977,3.808631,46.31445,-0.06282,0.002167,1.004974,-0.005339,0.046299,0.005956,56.641602,1.980988,-149.677048,,,
729863214.51669,0.128977,3.808631,46.31445,-0.06282,0.002167,1.004974,-0.005339,0.046299,0.005956,56.641602,1.980988,-149.677048,,,
729863214.520067,0.126923,3.820121,46.316598,-0.064392,0.002441,1.01123,-0.005339,0.046299,0.005956,56.641602,1.980988,-149.677048,,,
729863214.523334,0.124275,3.831849,46.316996,-0.064392,0.002441,1.01123,0.002789,0.039183,-0.005641,56.837875,2.047318,-149.991974,,,
729863214.526683,0.124275,3.831849,46.316996,-0.064392,0.002441,1.01123,0.002789,0.039183,-0.005641,56.837875,2.047318,-149.991974,,,
729863214.530001,0.124854,3.842763,46.315799,-0.065903,0.003342,1.002899,0.002789,0.039183,-0.005641,56.837875,2.047318,-149.991974,,,
729863214.533334,0.124946,3.853328,46.313532,-0.065903,0.003342,1.002899,0.008943,0.017291,-0.008433,56.837875,2.047318,-149.991974,,,
729863214.536759,0.124946,3.853328,46.313532,-0.065903,0.003342,1.002899,0.008943,0.017291,-0.008433,56.837875,2.047318,-149.991974,,,
729863214.539812,0.127069,3.857992,46.311078,-0.073761,0.007294,0.994095,0.008943,0.017291,-0.008433,56.837875,2.047318,-149.991974,,,
729863214.543361,0.129475,3.861144,46.308464,-0.073761,0.007294,0.994095,0.009824,-0.010119,-0.007265,56.837875,2.047318,-149.991974,,,
729863214.546688,0.129475,3.861144,46.308464,-0.073761,0.007294,0.994095,0.009824,-0.010119,-0.007265,56.837875,2.047318,-149.991974,,,
729863214.550036,0.131067,3.858836,46.305928,-0.081833,0.006088,0.990524,0.009824,-0.010119,-0.007265,56.837875,2.047318,-149.991974,,,
729863214.553379,0.134103,3.852984,46.304642,-0.081833,0.006088,0.990524,0.001074,-0.021653,0.005351,56.837875,2.047318,-149.991974,,,
729863214.556679,0.134103,3.852984,46.304642,-0.081833,0.006088,0.990524,0.001074,-0.021653,0.005351,56.837875,2.047318,-149.991974,,,
729863214.560084,0.135691,3.846197,46.305495,-0.085098,0.002411,0.991562,0.001074,-0.021653,0.005351,56.837875,2.047318,-149.991974,,,
729863214.563379,0.138739,3.836993,46.308422,-0.085098,0.002411,0.991562,-0.002598,-0.013464,0.014983,56.837875,2.047318,-149.991974,,,
729863214.566692,0.138739,3.836993,46.308422,-0.085098,0.002411,0.991562,-0.002598,-0.013464,0.014983,56.839905,1.940765,-150.001663,,,
729863214.57008,0.138777,3.831232,46.312432,-0.075516,0.003876,0.992889,-0.002598,-0.013464,0.014983,56.839905,1.940765,-150.001663,,,
729863214.573339,0.139837,3.824563,46.317514,-0.075516,0.003876,0.992889,0.001689,-0.011974,0.017662,56.839905,1.940765,-150.001663,,,
729863214.576738,0.139837,3.824563,46.317514,-0.075516,0.003876,0.992889,0.001689,-0.011974,0.017662,56.839905,1.940765,-150.001663,,,
729863214.580026,0.139531,3.820715,46.323242,-0.065002,0.002548,0.998215,0.001689,-0.011974,0.017662,56.839905,1.940765,-150.001663,,,
729863214.583342,0.140554,3.81537,46.327503,-0.065002,0.002548,0.998215,0.009049,-0.00522,0.005473,56.839905,1.940765,-150.001663,,,
729863214.586721,0.140554,3.81537,46.327503,-0.065002,0.002548,0.998215,0.009049,-0.00522,0.005473,56.839905,1.940765,-150.001663,,,
729863214.590058,0.14246,3.812603,46.329654,-0.058487,0.000717,1.008453,0.009049,-0.00522,0.005473,56.839905,1.940765,-150.001663,,,
729863214.593373,0.14383,3.810199,46.329602,-0.058487,0.000717,1.008453,0.004553,0.006555,-0.011756,56.839905,1.940765,-150.001663,,,
729863214.596685,0.14383,3.810199,46.329602,-0.058487,0.000717,1.008453,0.004553,0.006555,-0.011756,56.839905,1.940765,-150.001663,,,
729863214.600012,0.144514,3.81106,46.327016,-0.054031,0.001694,1.005447,0.004553,0.006555,-0.011756,56.839905,1.940765,-150.001663,,,
729863214.603401,0.144135,3.813422,46.322954,-0.054031,0.001694,1.005447,-0.00462,0.025461,-0.016505,56.839905,1.940765,-150.001663,,,
729863214.606672,0.144135,3.813422,46.322954,-0.054031,0.001694,1.005447,-0.00462,0.025461,-0.016505,56.793945,1.883194,-149.61673,,,
729863214.610079,0.142325,3.819269,46.318734,-0.05278,0.001251,1.000565,-0.00462,0.025461,-0.016505,56.793945,1.883194,-149.61673,,,
729863214.613334,0.140195,3.828405,46.3146,-0.05278,0.001251,1.000565,-0.014933,0.048252,-0.016304,56.793945,1.883194,-149.61673,,,
729863214.61673,0.140195,3.828405,46.3146,-0.05278,0.001251,1.000565,-0.014933,0.048252,-0.016304,56.793945,1.883194,-149.61673,,,
729863214.620038,0.13624,3.840501,46.310782,-0.061768,0.00351,1.002502,-0.014933,0.048252,-0.016304,56.793945,1.883194,-149.61673,,,
729863214.623335,0.132099,3.856658,46.307842,-0.061768,0.00351,1.002502,-0.021175,0.044886,-0.010908,56.793945,1.883194,-149.61673,,,
729863214.626674,0.132099,3.856658,46.307842,-0.061768,0.00351,1.002502,-0.021175,0.044886,-0.010908,56.793945,1.883194,-149.61673,,,
729863214.630067,0.126062,3.869315,46.305528,-0.072433,0.004196,0.99762,-0.021175,0.044886,-0.010908,56.793945,1.883194,-149.61673,,,
729863214.63333,0.120197,3.884997,46.303902,-0.072433,0.004196,0.99762,-0.021974,0.025492,-0.009025,56.793945,1.883194,-149.61673,,,
729863214.636718,0.120197,3.884997,46.303902,-0.072433,0.004196,0.99762,-0.021974,0.025492,-0.009025,56.793945,1.883194,-149.61673,,,
729863214.640018,0.113679,3.891933,46.302681,-0.080399,0.003403,0.997421,-0.021974,0.025492,-0.009025,56.793945,1.883194,-149.61673,,,
729863214.643346,0.109327,3.900087,46.300741,-0.080399,0.003403,0.997421,0.000649,-0.007996,-0.006177,56.793945,1.883194,-149.61673,,,
729863214.646669,0.109327,3.900087,46.300741,-0.080399,0.003403,0.997421,0.000649,-0.007996,-0.006177,56.923157,1.878662,-149.903488,,,
729863214.650028,0.108264,3.898299,46.298963,-0.083405,0.000122,1.005737,0.000649,-0.007996,-0.006177,56.923157,1.878662,-149.903488,,,
729863214.653382,0.112919,3.893741,46.2978,-0.083405,0.000122,1.005737,0.036028,-0.030257,-0.003699,56.923157,1.878662,-149.903488,,,
729863214.656678,0.112919,3.893741,46.2978,-0.083405,0.000122,1.005737,0.036028,-0.030257,-0.003699,56.923157,1.878662,-149.903488,,,
729863214.660096,0.122491,3.884783,46.296699,-0.080231,-0.00473,1.021576,0.036028,-0.030257,-0.003699,56.923157,1.878662,-149.903488,,,
729863214.663335,0.136551,3.872908,46.296102,-0.080231,-0.00473,1.021576,0.064978,-0.030834,0.005056,56.923157,1.878662,-149.903488,,,
729863214.666752,0.136551,3.872908,46.296102,-0.080231,-0.00473,1.021576,0.064978,-0.030834,0.005056,56.923157,1.878662,-149.903488,,,
729863214.67015,0.153967,3.863073,46.296246,-0.076996,-0.004745,1.027786,0.064978,-0.030834,0.005056,56.923157,1.878662,-149.903488,,,
729863214.673339,0.171403,3.851775,46.296941,-0.076996,-0.004745,1.027786,0.05317,-0.006038,0.006067,56.923157,1.878662,-149.903488,,,
729863214.676696,0.171403,3.851775,46.296941,-0.076996,-0.004745,1.027786,0.05317,-0.006038,0.006067,56.923157,1.878662,-149.903488,,,
729863214.680086,0.187613,3.848016,46.298156,-0.068451,0.002075,1.011948,0.05317,-0.006038,0.006067,56.923157,1.878662,-149.903488,,,
729863214.683335,0.200712,3.84486,46.299522,-0.068451,0.002075,1.011948,0.029561,0.029365,0.002786,56.923157,1.878662,-149.903488,,,
729863214.686724,0.200712,3.84486,46.299522,-0.068451,0.002075,1.011948,0.029561,0.029365,0.002786,56.986923,1.976288,-150.029968,,,
729863214.690026,0.210111,3.85141,46.300405,-0.05986,0.006485,1.001999,0.029561,0.029365,0.002786,56.986923,1.976288,-150.029968,,,
729863214.69339,0.216012,3.856866,46.300895,-0.05986,0.006485,1.001999,0.016857,0.037484,-0.000296,56.986923,1.976288,-150.029968,,,
729863214.696684,0.216012,3.856866,46.300895,-0.05986,0.006485,1.001999,0.016857,0.037484,-0.000296,56.986923,1.976288,-150.029968,,,
729863214.70003,0.22049,3.867121,46.301083,-0.062805,0.00769,0.994095,0.016857,0.037484,-0.000296,56.986923,1.976288,-150.029968,,,
729863214.703395,0.223002,3.874516,46.300621,-0.062805,0.00769,0.994095,0.006685,0.016097,-0.000165,56.986923,1.976288,-150.029968,,,
729863214.70676,0.223002,3.874516,46.300621,-0.062805,0.00769,0.994095,0.006685,0.016097,-0.000165,56.986923,1.976288,-150.029968,,,
729863214.710003,0.224748,3.879628,46.300085,-0.07222,0.006607,0.987564,0.006685,0.016097,-0.000165,56.986923,1.976288,-150.029968,,,
729863214.713347,0.22625,3.884829,46.301181,-0.07222,0.006607,0.987564,0.001279,0.008043,0.013659,56.986923,1.976288,-150.029968,,,
729863214.71667,0.22625,3.884829,46.301181,-0.07222,0.006607,0.987564,0.001279,0.008043,0.013659,56.986923,1.976288,-150.029968,,,
729863214.72013,0.227151,3.886367,46.304587,-0.075485,0.002625,0.989059,0.001279,0.008043,0.013659,56.986923,1.976288,-150.029968,,,
729863214.723328,0.2273,3.891676,46.309809,-0.075485,0.002625,0.989059,0.001687,0.006667,0.020339,56.986923,1.976288,-150.029968,,,
729863214.72672,0.2273,3.891676,46.309809,-0.075485,0.002625,0.989059,0.001687,0.006667,0.020339,56.986923,1.976288,-150.029968,,,
729863214.730015,0.227703,3.893365,46.315695,-0.07222,0.003967,0.997284,0.001687,0.006667,0.020339,57.022995,1.987823,-149.762054,,,
729863214.73334,0.227095,3.900738,46.321354,-0.07222,0.003967,0.997284,0.000142,0.016466,0.014602,57.022995,1.987823,-149.762054,,,
729863214.736735,0.227095,3.900738,46.321354,-0.07222,0.003967,0.997284,0.000142,0.016466,0.014602,57.022995,1.987823,-149.762054,,,
729863214.739997,0.227319,3.904677,46.326453,-0.062775,0.00618,0.99791,0.000142,0.016466,0.014602,57.022995,1.987823,-149.762054,,,
729863214.74334,0.224897,3.913171,46.330114,-0.062775,0.00618,0.99791,0.000352,0.028983,0.004097,57.022995,1.987823,-149.762054,,,
729863214.746753,0.224897,3.913171,46.330114,-0.062775,0.00618,0.99791,0.000352,0.028983,0.004097,57.022995,1.987823,-149.762054,,,
729863214.750015,0.225527,3.920723,46.331866,-0.055527,0.008194,0.994095,0.000352,0.028983,0.004097,57.022995,1.987823,-149.762054,,,
729863214.753388,0.225051,3.931766,46.331205,-0.055527,0.008194,0.994095,0.012624,0.037432,-0.012146,57.022995,1.987823,-149.762054,,,
729863214.756685,0.225051,3.931766,46.331205,-0.055527,0.008194,0.994095,0.012624,0.037432,-0.012146,57.022995,1.987823,-149.762054,,,
729863214.760021,0.22825,3.94163,46.328279,-0.055359,0.006729,1.000031,0.012624,0.037432,-0.012146,57.022995,1.987823,-149.762054,,,
729863214.763342,0.234063,3.949114,46.324886,-0.055359,0.006729,1.000031,0.033486,0.020581,-0.009106,57.022995,1.987823,-149.762054,,,
729863214.766693,0.234063,3.949114,46.324886,-0.055359,0.006729,1.000031,0.033486,0.020581,-0.009106,57.022995,1.987823,-149.762054,,,
729863214.770095,0.242708,3.955207,46.32209,-0.066437,-0.001587,1.000534,0.033486,0.020581,-0.009106,56.886749,2.00531,-150.007904,,,
729863214.773388,0.254967,3.955843,46.320609,-0.066437,-0.001587,1.000534,0.044015,0.005447,0.001802,56.886749,2.00531,-150.007904,,,
729863214.776703,0.254967,3.955843,46.320609,-0.066437,-0.001587,1.000534,0.044015,0.005447,0.001802,56.886749,2.00531,-150.007904,,,
729863214.780008,0.268172,3.956609,46.320623,-0.07901,-0.001404,0.996521,0.044015,0.005447,0.001802,56.886749,2.00531,-150.007904,,,
729863214.783342,0.28117,3.953345,46.321345,-0.07901,-0.001404,0.996521,0.034913,-0.017007,0.004044,56.886749,2.00531,-150.007904,,,
729863214.78673,0.28117,3.953345,46.321345,-0.07901,-0.001404,0.996521,0.034913,-0.017007,0.004044,56.886749,2.00531,-150.007904,,,
729863214.790074,0.290973,3.948905,46.321979,-0.073776,0.005157,0.975128,0.034913,-0.017007,0.004044,56.886749,2.00531,-150.007904,,,
729863214.793374,0.296923,3.944685,46.322141,-0.073776,0.005157,0.975128,0.000671,-0.018873,-0.004902,56.886749,2.00531,-150.007904,,,
729863214.796763,0.296923,3.944685,46.322141,-0.073776,0.005157,0.975128,0.000671,-0.018873,-0.004902,56.886749,2.00531,-150.007904,,,
729863214.800052,0.298306,3.93818,46.321844,-0.061737,0.009537,0.963791,0.000671,-0.018873,-0.004902,56.886749,2.00531,-150.007904,,,
729863214.803409,0.295468,3.934727,46.321147,-0.061737,0.009537,0.963791,-0.018339,-0.01223,-0.00707,56.886749,2.00531,-150.007904,,,
729863214.806681,0.295468,3.934727,46.321147,-0.061737,0.009537,0.963791,-0.018339,-0.01223,-0.00707,56.886749,2.00531,-150.007904,,,
729863214.810017,0.290429,3.93008,46.320048,-0.058365,0.006851,0.96637,-0.018339,-0.01223,-0.00707,56.821503,1.824432,-149.549744,,,
729863214.813342,0.283505,3.926931,46.31865,-0.058365,0.006851,0.96637,-0.027289,-0.009284,-0.004821,56.821503,1.824432,-149.549744,,,
729863214.816685,0.283505,3.926931,46.31865,-0.058365,0.006851,0.96637,-0.027289,-0.009284,-0.004821,56.821503,1.824432,-149.549744,,,
729863214.820126,0.275472,3.923841,46.317424,-0.064163,0.007004,0.974731,-0.027289,-0.009284,-0.004821,56.821503,1.824432,-149.549744,,,
729863214.823335,0.266824,3.919036,46.316763,-0.064163,0.007004,0.974731,-0.031202,-0.005738,-0.006933,56.821503,1.824432,-149.549744,,,
729863214.826698,0.266824,3.919036,46.316763,-0.064163,0.007004,0.974731,-0.031202,-0.005738,-0.006933,56.821503,1.824432,-149.549744,,,
729863214.830024,0.257509,3.917146,46.316278,-0.065598,0.004196,0.981079,-0.031202,-0.005738,-0.006933,56.821503,1.824432,-149.549744,,,
729863214.833342,0.251038,3.912008,46.315514,-0.065598,0.004196,0.981079,-0.009623,0.007736,-0.0038,56.821503,1.824432,-149.549744,,,
729863214.836717,0.251038,3.912008,46.315514,-0.065598,0.004196,0.981079,-0.009623,0.007736,-0.0038,56.821503,1.824432,-149.549744,,,
729863214.840023,0.246941,3.913254,46.31502,-0.061539,-0.004333,0.99826,-0.009623,0.007736,-0.0038,56.821503,1.824432,-149.549744,,,
729863214.843343,0.245453,3.913118,46.31454,-0.061539,-0.004333,0.99826,0.001747,0.018957,-0.005867,56.821503,1.824432,-149.549744,,,
729863214.846732,0.245453,3.913118,46.31454,-0.061539,-0.004333,0.99826,0.001747,0.018957,-0.005867,56.821503,1.824432,-149.549744,,,
729863214.850042,0.244702,3.917862,46.313469,-0.065918,-0.006348,1.001266,0.001747,0.018957,-0.005867,56.701797,1.91217,-149.512268,,,
729863214.853397,0.243351,3.924174,46.312514,-0.065918,-0.006348,1.001266,0.007627,0.029673,0.001458,56.701797,1.91217,-149.512268,,,
729863214.856665,0.243351,3.924174,46.312514,-0.065918,-0.006348,1.001266,0.007627,0.029673,0.001458,56.701797,1.91217,-149.512268,,,
729863214.8601,0.245216,3.931346,46.312588,-0.074783,-0.001495,1.002579,0.007627,0.029673,0.001458,56.701797,1.91217,-149.512268,,,
729863214.863331,0.247711,3.941755,46.314172,-0.074783,-0.001495,1.002579,0.015193,0.013534,0.014241,56.701797,1.91217,-149.512268,,,
729863214.866672,0.247711,3.941755,46.314172,-0.074783,-0.001495,1.002579,0.015193,0.013534,0.014241,56.701797,1.91217,-149.512268,,,
729863214.870036,0.251847,3.946128,46.317476,-0.083237,-0.003922,1.000076,0.015193,0.013534,0.014241,56.701797,1.91217,-149.512268,,,
729863214.873346,0.25705,3.947407,46.322413,-0.083237,-0.003922,1.000076,0.014171,-0.021585,0.023336,56.701797,1.91217,-149.512268,,,
729863214.876691,0.25705,3.947407,46.322413,-0.083237,-0.003922,1.000076,0.014171,-0.021585,0.023336,56.701797,1.91217,-149.512268,,,
729863214.880023,0.262108,3.942116,46.328637,-0.088211,-0.000214,0.987045,0.014171,-0.021585,0.023336,56.701797,1.91217,-149.512268,,,
729863214.883343,0.268923,3.928932,46.336139,-0.088211,-0.000214,0.987045,0.020758,-0.060599,0.029564,56.701797,1.91217,-149.512268,,,
729863214.886719,0.268923,3.928932,46.336139,-0.088211,-0.000214,0.987045,0.020758,-0.060599,0.029564,56.701797,1.91217,-149.512268,,,
729863214.890014,0.274616,3.912338,46.344393,-0.081879,0.006607,0.982162,0.020758,-0.060599,0.029564,56.701797,1.91217,-149.512268,,,
729863214.893344,0.280738,3.889478,46.353136,-0.081879,0.006607,0.982162,0.020386,-0.077154,0.033799,56.72287,1.868301,-149.395538,,,
729863214.896743,0.280738,3.889478,46.353136,-0.081879,0.006607,0.982162,0.020386,-0.077154,0.033799,56.72287,1.868301,-149.395538,,,
729863214.900016,0.286818,3.867196,46.362233,-0.064407,0.004761,0.981857,0.020386,-0.077154,0.033799,56.72287,1.868301,-149.395538,,,
729863214.903386,0.292333,3.845018,46.370623,-0.064407,0.004761,0.981857,-0.001066,-0.059796,0.02055,56.72287,1.868301,-149.395538,,,
729863214.906677,0.292333,3.845018,46.370623,-0.064407,0.004761,0.981857,-0.001066,-0.059796,0.02055,56.72287,1.868301,-149.395538,,,
729863214.910081,0.293259,3.826571,46.377434,-0.041946,0.010971,0.978821,-0.001066,-0.059796,0.02055,56.72287,1.868301,-149.395538,,,
729863214.913331,0.289304,3.813073,46.382249,-0.041946,0.010971,0.978821,-0.030823,-0.013631,0.005216,56.72287,1.868301,-149.395538,,,
729863214.916687,0.289304,3.813073,46.382249,-0.041946,0.010971,0.978821,-0.030823,-0.013631,0.005216,56.72287,1.868301,-149.395538,,,
729863214.920055,0.281981,3.806593,46.385073,-0.030533,0.013824,0.980194,-0.030823,-0.013631,0.005216,56.72287,1.868301,-149.395538,,,
729863214.923335,0.268917,3.806455,46.386068,-0.030533,0.013824,0.980194,-0.046593,0.038285,-0.005564,56.72287,1.868301,-149.395538,,,
729863214.926686,0.268917,3.806455,46.386068,-0.030533,0.013824,0.980194,-0.046593,0.038285,-0.005564,56.72287,1.868301,-149.395538,,,
729863214.930005,0.256042,3.815212,46.385761,-0.025818,0.011047,0.992111,-0.046593,0.038285,-0.005564,56.72287,1.868301,-149.395538,,,
729863214.933338,0.239908,3.83062,46.384457,-0.025818,0.011047,0.992111,-0.05105,0.071281,-0.016025,56.832443,1.845291,-149.753128,,,
729863214.936784,0.239908,3.83062,46.384457,-0.025818,0.011047,0.992111,-0.05105,0.071281,-0.016025,56.832443,1.845291,-149.753128,,,
729863214.940025,0.224308,3.849795,46.381878,-0.034439,0.008682,0.997406,-0.05105,0.071281,-0.016025,56.832443,1.845291,-149.753128,,,
729863214.943355,0.207325,3.872208,46.377213,-0.034439,0.008682,0.997406,-0.052493,0.067707,-0.030918,56.832443,1.845291,-149.753128,,,
729863214.946668,0.207325,3.872208,46.377213,-0.034439,0.008682,0.997406,-0.052493,0.067707,-0.030918,56.832443,1.845291,-149.753128,,,
729863214.950078,0.191384,3.890833,46.369899,-0.047043,0.010666,0.995422,-0.052493,0.067707,-0.030918,56.832443,1.845291,-149.753128,,,
729863214.953358,0.191384,3.890833,46.360609,-0.047043,0.010666,0.995422,-0.037963,0.042477,-0.040412,56.832443,1.845291,-149.753128,,,
729863214.956694,0.174237,3.911777,46.360609,-0.047043,0.010666,0.995422,-0.037963,0.042477,-0.040412,56.832443,1.845291,-149.753128,,,
