Time (sec),Pitch (deg),Roll (deg),Yaw(deg),X-Acceleration (g),Y-Acceleration (g),Z-Acceleration (g),Pitch Rate (deg/sec),Roll Rate (deg/sec),Yaw Rate (deg/sec),Magnetic Field in X direction (uT),Magnetic Field in Y direction (uT),Magnetic Field in Z Direction (uT),Latitude (deg),Longitude (deg),Altitude (m)
729861787.357519,0.085925,2.69568,126.779169,-0.050598,-0.005753,1.008484,0.006524,0.047145,-0.015766,68.065338,33.690979,-146.170425,,,
729861787.360851,0.085925,2.69568,126.779169,-0.050598,-0.005753,1.008484,0.006524,0.047145,-0.015766,68.065338,33.690979,-146.170425,,,
729861787.36428,0.08921,2.713297,126.773563,-0.050598,-0.005753,1.008484,0.011131,0.065703,-0.018199,68.065338,33.690979,-146.170425,,,
729861787.367512,0.094776,2.732974,126.767827,-0.048767,-0.002319,1.01001,0.011131,0.065703,-0.018199,68.065338,33.690979,-146.170425,,,
729861787.370858,0.094776,2.732974,126.767827,-0.048767,-0.002319,1.01001,0.011131,0.065703,-0.018199,68.065338,33.690979,-146.170425,,,
729861787.374213,0.101247,2.751283,126.762385,-0.048767,-0.002319,1.01001,0.024934,0.068507,-0.018363,68.065338,33.690979,-146.170425,,,
729861787.377627,0.111,2.76983,126.757838,-0.056473,-0.001541,1.008698,0.024934,0.068507,-0.018363,68.065338,33.690979,-146.170425,,,
729861787.380864,0.111,2.76983,126.757838,-0.056473,-0.001541,1.008698,0.024934,0.068507,-0.018363,68.065338,33.690979,-146.170425,,,
729861787.384198,0.119396,2.786266,126.754739,-0.056473,-0.001541,1.008698,0.030381,0.060986,-0.011123,68.065338,33.690979,-146.170425,,,
729861787.387521,0.130369,2.80231,126.753207,-0.062943,-0.003311,1.003296,0.030381,0.060986,-0.011123,68.065338,33.690979,-146.170425,,,
729861787.390851,0.130369,2.80231,126.753207,-0.062943,-0.003311,1.003296,0.030381,0.060986,-0.011123,68.065338,33.690979,-146.170425,,,
729861787.394196,0.138819,2.81596,126.753179,-0.062943,-0.003311,1.003296,0.032036,0.054674,-0.001818,68.072296,33.622269,-146.383041,,,
729861787.397515,0.146062,2.828335,126.75445,-0.068802,-0.000961,0.993515,0.032036,0.054674,-0.001818,68.072296,33.622269,-146.383041,,,
729861787.400891,0.146062,2.828335,126.75445,-0.068802,-0.000961,0.993515,0.032036,0.054674,-0.001818,68.072296,33.622269,-146.383041,,,
729861787.404187,0.149362,2.837765,126.756466,-0.068802,-0.000961,0.993515,0.015593,0.038848,0.007956,68.072296,33.622269,-146.383041,,,
729861787.407521,0.148115,2.84496,126.758375,-0.06691,0.002563,0.979507,0.015593,0.038848,0.007956,68.072296,33.622269,-146.383041,,,
729861787.41085,0.148115,2.84496,126.758375,-0.06691,0.002563,0.979507,0.015593,0.038848,0.007956,68.072296,33.622269,-146.383041,,,
729861787.414193,0.145433,2.847973,126.75968,-0.06691,0.002563,0.979507,-0.0076,0.015726,0.002452,68.072296,33.622269,-146.383041,,,
729861787.41752,0.139482,2.849379,126.759708,-0.059204,0.006943,0.972046,-0.0076,0.015726,0.002452,68.072296,33.622269,-146.383041,,,
729861787.420847,0.139482,2.849379,126.759708,-0.059204,0.006943,0.972046,-0.0076,0.015726,0.002452,68.072296,33.622269,-146.383041,,,
729861787.424231,0.135758,2.847895,126.758386,-0.059204,0.006943,0.972046,-0.012056,-0.003096,-0.003863,68.072296,33.622269,-146.383041,,,
729861787.427514,0.1307,2.846234,126.755981,-0.054749,0.006317,0.980423,-0.012056,-0.003096,-0.003863,68.072296,33.622269,-146.383041,,,
729861787.430849,0.1307,2.846234,126.755981,-0.054749,0.006317,0.980423,-0.012056,-0.003096,-0.003863,68.072296,33.622269,-146.383041,,,
729861787.434203,0.128711,2.842881,126.75225,-0.054749,0.006317,0.980423,-0.006426,-0.007787,-0.015381,68.094742,33.789917,-146.15097,,,
729861787.437541,0.125638,2.839455,126.748174,-0.051956,0.003922,0.992203,-0.006426,-0.007787,-0.015381,68.094742,33.789917,-146.15097,,,
729861787.440873,0.125638,2.839455,126.748174,-0.051956,0.003922,0.992203,-0.006426,-0.007787,-0.015381,68.094742,33.789917,-146.15097,,,
729861787.444198,0.12504,2.837641,126.74497,-0.051956,0.003922,0.992203,-0.00026,-0.005045,-0.014232,68.094742,33.789917,-146.15097,,,
729861787.447519,0.12406,2.838182,126.742439,-0.047836,0.000229,0.997086,-0.00026,-0.005045,-0.014232,68.094742,33.789917,-146.15097,,,
729861787.450927,0.12406,2.838182,126.742439,-0.047836,0.000229,0.997086,-0.00026,-0.005045,-0.014232,68.094742,33.789917,-146.15097,,,
729861787.454185,0.123537,2.841271,126.741127,-0.047836,0.000229,0.997086,-0.00012,0.009205,-0.006228,68.094742,33.789917,-146.15097,,,
729861787.457515,0.120191,2.851139,126.741041,-0.048782,0.000229,0.998581,-0.00012,0.009205,-0.006228,68.094742,33.789917,-146.15097,,,
729861787.460869,0.120191,2.851139,126.741041,-0.048782,0.000229,0.998581,-0.00012,0.009205,-0.006228,68.094742,33.789917,-146.15097,,,
729861787.464199,0.11639,2.861286,126.741612,-0.048782,0.000229,0.998581,-0.007336,0.038513,0.000287,68.094742,33.789917,-146.15097,,,
729861787.467515,0.110689,2.881397,126.743339,-0.051208,0.002655,0.998047,-0.007336,0.038513,0.000287,68.094742,33.789917,-146.15097,,,
729861787.470868,0.110689,2.881397,126.743339,-0.051208,0.002655,0.998047,-0.007336,0.038513,0.000287,68.094742,33.789917,-146.15097,,,
729861787.474193,0.104706,2.899039,126.746505,-0.051208,0.002655,0.998047,-0.018714,0.061304,0.008018,67.912308,33.74765,-146.17041,,,
729861787.477528,0.096553,2.925349,126.750405,-0.05043,0.005066,0.99649,-0.018714,0.061304,0.008018,67.912308,33.74765,-146.17041,,,
729861787.480862,0.096553,2.925349,126.750405,-0.05043,0.005066,0.99649,-0.018714,0.061304,0.008018,67.912308,33.74765,-146.17041,,,
729861787.4842,0.08699,2.943572,126.755029,-0.05043,0.005066,0.99649,-0.032982,0.068084,0.012733,67.912308,33.74765,-146.17041,,,
729861787.487517,0.075729,2.965602,126.759724,-0.050262,0.007736,0.988586,-0.032982,0.068084,0.012733,67.912308,33.74765,-146.17041,,,
729861787.490863,0.075729,2.965602,126.759724,-0.050262,0.007736,0.988586,-0.032982,0.068084,0.012733,67.912308,33.74765,-146.17041,,,
729861787.494192,0.061602,2.980261,126.763697,-0.050262,0.007736,0.988586,-0.048526,0.05497,0.011211,67.912308,33.74765,-146.17041,,,
729861787.497517,0.047538,2.994207,126.766954,-0.052643,0.009552,0.985382,-0.048526,0.05497,0.011211,67.912308,33.74765,-146.17041,,,
729861787.500847,0.047538,2.994207,126.766954,-0.052643,0.009552,0.985382,-0.048526,0.05497,0.011211,67.912308,33.74765,-146.17041,,,
729861787.504187,0.03095,3.000866,126.769195,-0.052643,0.009552,0.985382,-0.058367,0.030497,0.002622,67.912308,33.74765,-146.17041,,,
729861787.507517,0.015435,3.003535,126.770895,-0.052536,0.006638,0.988998,-0.058367,0.030497,0.002622,67.912308,33.74765,-146.17041,,,
729861787.510868,0.015435,3.003535,126.770895,-0.052536,0.006638,0.988998,-0.058367,0.030497,0.002622,67.912308,33.74765,-146.17041,,,
729861787.514222,-0.001437,3.000744,126.772126,-0.052536,0.006638,0.988998,-0.062432,-0.003403,-0.001664,67.912308,33.74765,-146.17041,,,
729861787.517545,-0.016006,2.993497,126.773003,-0.053864,0.003021,0.998032,-0.062432,-0.003403,-0.001664,67.985031,33.909103,-146.158875,,,
729861787.520768,-0.016006,2.993497,126.773003,-0.053864,0.003021,0.998032,-0.062432,-0.003403,-0.001664,67.985031,33.909103,-146.158875,,,
729861787.524231,-0.027419,2.984354,126.773612,-0.053864,0.003021,0.998032,-0.042655,-0.028638,0.0005,67.985031,33.909103,-146.158875,,,
729861787.527593,-0.034062,2.972703,126.773663,-0.053543,-0.002136,1.013443,-0.042655,-0.028638,0.0005,67.985031,33.909103,-146.158875,,,
729861787.530874,-0.034062,2.972703,126.773663,-0.053543,-0.002136,1.013443,-0.042655,-0.028638,0.0005,67.985031,33.909103,-146.158875,,,
729861787.53421,-0.036838,2.962647,126.773812,-0.053543,-0.002136,1.013443,-0.010756,-0.032734,-0.00283,67.985031,33.909103,-146.158875,,,
729861787.537526,-0.035463,2.952515,126.774169,-0.052612,-0.004166,1.029938,-0.010756,-0.032734,-0.00283,67.985031,33.909103,-146.158875,,,
729861787.54085,-0.035463,2.952515,126.774169,-0.052612,-0.004166,1.029938,-0.010756,-0.032734,-0.00283,67.985031,33.909103,-146.158875,,,
729861787.544203,-0.031422,2.945162,126.77482,-0.052612,-0.004166,1.029938,0.013251,-0.025298,-0.000798,67.985031,33.909103,-146.158875,,,
729861787.54752,-0.024147,2.940642,126.775963,-0.049011,-0.007324,1.031494,0.013251,-0.025298,-0.000798,67.985031,33.909103,-146.158875,,,
729861787.55092,-0.024147,2.940642,126.775963,-0.049011,-0.007324,1.031494,0.013251,-0.025298,-0.000798,67.985031,33.909103,-146.158875,,,
729861787.5542,-0.016599,2.938864,126.777173,-0.049011,-0.007324,1.031494,0.026157,-0.00486,0.001816,67.985031,33.909103,-146.158875,,,
729861787.557525,-0.007366,2.939897,126.77906,-0.049866,-0.007568,1.022629,0.026157,-0.00486,0.001816,67.963104,33.925797,-146.255035,,,
729861787.560849,-0.007366,2.939897,126.77906,-0.049866,-0.007568,1.022629,0.026157,-0.00486,0.001816,67.963104,33.925797,-146.255035,,,
729861787.564192,-0.00024,2.944991,126.782282,-0.049866,-0.007568,1.022629,0.025079,0.016183,0.010429,67.963104,33.925797,-146.255035,,,
729861787.567518,0.008377,2.952848,126.786623,-0.050293,-0.005905,1.012054,0.025079,0.016183,0.010429,67.963104,33.925797,-146.255035,,,
729861787.570866,0.008377,2.952848,126.786623,-0.050293,-0.005905,1.012054,0.025079,0.016183,0.010429,67.963104,33.925797,-146.255035,,,
729861787.574201,0.014335,2.962219,126.792686,-0.050293,-0.005905,1.012054,0.01935,0.037162,0.019377,67.963104,33.925797,-146.255035,,,
729861787.57752,0.022328,2.972904,126.800033,-0.054962,-0.006104,1.000732,0.01935,0.037162,0.019377,67.963104,33.925797,-146.255035,,,
729861787.580849,0.022328,2.972904,126.800033,-0.054962,-0.006104,1.000732,0.01935,0.037162,0.019377,67.963104,33.925797,-146.255035,,,
729861787.584211,0.027623,2.98206,126.807779,-0.054962,-0.006104,1.000732,0.017599,0.037205,0.024822,67.963104,33.925797,-146.255035,,,
729861787.58752,0.033654,2.989373,126.815737,-0.056213,-0.003433,0.992279,0.017599,0.037205,0.024822,67.963104,33.925797,-146.255035,,,
729861787.590938,0.033654,2.989373,126.815737,-0.056213,-0.003433,0.992279,0.017599,0.037205,0.024822,67.963104,33.925797,-146.255035,,,
729861787.594193,0.037331,2.992384,126.823404,-0.056213,-0.003433,0.992279,0.012898,0.018586,0.028029,67.963104,33.925797,-146.255035,,,
729861787.597519,0.039634,2.991016,126.83058,-0.054367,0.001999,0.982086,0.012898,0.018586,0.028029,68.040405,33.912262,-145.923523,,,
729861787.600864,0.039634,2.991016,126.83058,-0.054367,0.001999,0.982086,0.012898,0.018586,0.028029,68.040405,33.912262,-145.923523,,,
729861787.604256,0.039087,2.984192,126.836384,-0.054367,0.001999,0.982086,0.000321,-0.015893,0.019394,68.040405,33.912262,-145.923523,,,
729861787.607513,0.03441,2.974016,126.841265,-0.053223,0.008087,0.971588,0.000321,-0.015893,0.019394,68.040405,33.912262,-145.923523,,,
729861787.610862,0.03441,2.974016,126.841265,-0.053223,0.008087,0.971588,0.000321,-0.015893,0.019394,68.040405,33.912262,-145.923523,,,
729861787.614184,0.028261,2.959589,126.845929,-0.053223,0.008087,0.971588,-0.018163,-0.042885,0.016224,68.040405,33.912262,-145.923523,,,
729861787.617517,0.018529,2.941501,126.850205,-0.048874,0.00679,0.968292,-0.018163,-0.042885,0.016224,68.040405,33.912262,-145.923523,,,
729861787.620861,0.018529,2.941501,126.850205,-0.048874,0.00679,0.968292,-0.018163,-0.042885,0.016224,68.040405,33.912262,-145.923523,,,
729861787.624193,0.008674,2.923134,126.854005,-0.048874,0.00679,0.968292,-0.035283,-0.060424,0.008672,68.040405,33.912262,-145.923523,,,
729861787.627526,-0.003257,2.904222,126.856492,-0.041718,0.004837,0.976868,-0.035283,-0.060424,0.008672,68.040405,33.912262,-145.923523,,,
729861787.630851,-0.003257,2.904222,126.856492,-0.041718,0.004837,0.976868,-0.035283,-0.060424,0.008672,68.040405,33.912262,-145.923523,,,
729861787.634192,-0.010687,2.889722,126.856647,-0.041718,0.004837,0.976868,-0.028362,-0.05227,0.001889,68.040405,33.912262,-145.923523,,,
729861787.637526,-0.016407,2.879002,126.854957,-0.034241,0.002441,0.998505,-0.028362,-0.05227,0.001889,68.117538,33.804123,-146.082672,,,
729861787.640929,-0.016407,2.879002,126.854957,-0.034241,0.002441,0.998505,-0.028362,-0.05227,0.001889,68.117538,33.804123,-146.082672,,,
729861787.644194,-0.016676,2.872554,126.852369,-0.034241,0.002441,0.998505,-0.004924,-0.024643,-0.010833,68.117538,33.804123,-146.082672,,,
729861787.647521,-0.013664,2.87138,126.848876,-0.031601,-0.002563,1.017517,-0.004924,-0.024643,-0.010833,68.117538,33.804123,-146.082672,,,
729861787.650883,-0.013664,2.87138,126.848876,-0.031601,-0.002563,1.017517,-0.004924,-0.024643,-0.010833,68.117538,33.804123,-146.082672,,,
729861787.654248,-0.004363,2.875555,126.845252,-0.031601,-0.002563,1.017517,0.030554,0.01316,-0.013015,68.117538,33.804123,-146.082672,,,
729861787.657511,0.006566,2.887782,126.841956,-0.034302,-0.007843,1.026337,0.030554,0.01316,-0.013015,68.117538,33.804123,-146.082672,,,
729861787.660876,0.006566,2.887782,126.841956,-0.034302,-0.007843,1.026337,0.030554,0.01316,-0.013015,68.117538,33.804123,-146.082672,,,
729861787.6641,0.021049,2.902732,126.839108,-0.034302,-0.007843,1.026337,0.0498,0.051034,-0.009543,68.117538,33.804123,-146.082672,,,
729861787.66754,0.036047,2.923214,126.837119,-0.041809,-0.006973,1.020447,0.0498,0.051034,-0.009543,68.117538,33.804123,-146.082672,,,
729861787.670863,0.036047,2.923214,126.837119,-0.041809,-0.006973,1.020447,0.0498,0.051034,-0.009543,68.117538,33.804123,-146.082672,,,
729861787.674197,0.050543,2.944001,126.835658,-0.041809,-0.006973,1.020447,0.052918,0.073436,-0.00496,68.117538,33.804123,-146.082672,,,
729861787.677526,0.063012,2.967127,126.834365,-0.048782,-0.003143,1.003952,0.052918,0.073436,-0.00496,68.117538,33.804123,-146.082672,,,
729861787.680857,0.063012,2.967127,126.834365,-0.048782,-0.003143,1.003952,0.052918,0.073436,-0.00496,68.042282,33.922165,-145.791077,,,
729861787.684196,0.070097,2.986326,126.833237,-0.048782,-0.003143,1.003952,0.034113,0.072082,-0.003451,68.042282,33.922165,-145.791077,,,
729861787.68752,0.074164,3.002226,126.832529,-0.057037,0.005478,0.980515,0.034113,0.072082,-0.003451,68.042282,33.922165,-145.791077,,,
729861787.69091,0.074164,3.002226,126.832529,-0.057037,0.005478,0.980515,0.034113,0.072082,-0.003451,68.042282,33.922165,-145.791077,,,
729861787.694193,0.072189,3.01322,126.832448,-0.057037,0.005478,0.980515,-0.001401,0.045501,-9.4e-05,68.042282,33.922165,-145.791077,,,
729861787.697522,0.066861,3.016852,126.83269,-0.064606,0.00975,0.963654,-0.001401,0.045501,-9.4e-05,68.042282,33.922165,-145.791077,,,
729861787.700851,0.066861,3.016852,126.83269,-0.064606,0.00975,0.963654,-0.001401,0.045501,-9.4e-05,68.042282,33.922165,-145.791077,,,
729861787.704236,0.056872,3.01757,126.832489,-0.064606,0.00975,0.963654,-0.032467,0.007486,-0.002624,68.042282,33.922165,-145.791077,,,
729861787.707515,0.047147,3.009184,126.831413,-0.065887,0.007599,0.968246,-0.032467,0.007486,-0.002624,68.042282,33.922165,-145.791077,,,
729861787.710852,0.047147,3.009184,126.831413,-0.065887,0.007599,0.968246,-0.032467,0.007486,-0.002624,68.042282,33.922165,-145.791077,,,
729861787.714204,0.036357,3.003053,126.828984,-0.065887,0.007599,0.968246,-0.036238,-0.01827,-0.009131,68.042282,33.922165,-145.791077,,,
729861787.717519,0.026364,2.988463,126.824597,-0.059204,0.007019,0.985931,-0.036238,-0.01827,-0.009131,68.042282,33.922165,-145.791077,,,
729861787.720854,0.026364,2.988463,126.824597,-0.059204,0.007019,0.985931,-0.036238,-0.01827,-0.009131,68.047485,33.925583,-146.036179,,,
729861787.724209,0.018997,2.982185,126.818696,-0.059204,0.007019,0.985931,-0.027553,-0.020971,-0.021178,68.047485,33.925583,-146.036179,,,
729861787.727518,0.018997,2.982185,126.811902,-0.052765,0.002716,1.005722,-0.027553,-0.020971,-0.021178,68.047485,33.925583,-146.036179,,,
729861787.730852,0.014014,2.970328,126.811902,-0.052765,0.002716,1.005722,-0.027553,-0.020971,-0.021178,68.047485,33.925583,-146.036179,,,
729861787.734192,0.015331,2.971254,126.804597,-0.052765,0.002716,1.005722,0.002827,0.001585,-0.025069,68.047485,33.925583,-146.036179,,,
729861787.737518,0.015331,2.972436,126.79829,-0.053391,-0.003571,1.023544,0.002827,0.001585,-0.025069,68.047485,33.925583,-146.036179,,,
729861787.740856,0.020874,2.972436,126.79829,-0.053391,-0.003571,1.023544,0.002827,0.001585,-0.025069,68.047485,33.925583,-146.036179,,,
729861787.744194,0.034189,2.985039,126.793809,-0.053391,-0.003571,1.023544,0.044807,0.042132,-0.015882,68.047485,33.925583,-146.036179,,,
729861787.747576,0.050741,3.000971,126.79156,-0.058029,-0.011902,1.035217,0.044807,0.042132,-0.015882,68.047485,33.925583,-146.036179,,,
729861787.750884,0.050741,3.000971,126.79156,-0.058029,-0.011902,1.035217,0.044807,0.042132,-0.015882,68.047485,33.925583,-146.036179,,,
729861787.754258,0.071565,3.022593,126.792259,-0.058029,-0.011902,1.035217,0.069404,0.077604,0.002816,68.047485,33.925583,-146.036179,,,
729861787.757515,0.092934,3.045683,126.795327,-0.067276,-0.016968,1.030792,0.069404,0.077604,0.002816,68.047485,33.925583,-146.036179,,,
729861787.760904,0.092934,3.045683,126.795327,-0.067276,-0.016968,1.030792,0.069404,0.077604,0.002816,68.135376,33.876038,-145.953156,,,
729861787.764184,0.114676,3.068709,126.800009,-0.067276,-0.016968,1.030792,0.078191,0.083281,0.017099,68.135376,33.876038,-145.953156,,,
729861787.767525,0.114676,3.068709,126.800009,-0.073822,-0.012299,1.006836,0.078191,0.083281,0.017099,68.135376,33.876038,-145.953156,,,
729861787.77087,0.136604,3.090576,126.806101,-0.073822,-0.012299,1.006836,0.078191,0.083281,0.017099,68.135376,33.876038,-145.953156,,,
729861787.774201,0.155205,3.104663,126.813334,-0.073822,-0.012299,1.006836,0.064576,0.058457,0.027851,68.135376,33.876038,-145.953156,,,
729861787.777517,0.155205,3.104663,126.813334,-0.073425,-0.002029,0.985535,0.064576,0.058457,0.027851,68.135376,33.876038,-145.953156,,,
729861787.780951,0.172041,3.117125,126.820486,-0.073425,-0.002029,0.985535,0.064576,0.058457,0.027851,68.135376,33.876038,-145.953156,,,
729861787.784183,0.18373,3.118042,126.826872,-0.073425,-0.002029,0.985535,0.043507,0.012854,0.021896,68.135376,33.876038,-145.953156,,,
729861787.787517,0.18373,3.118042,126.826872,-0.06694,0.008347,0.970474,0.043507,0.012854,0.021896,68.135376,33.876038,-145.953156,,,
729861787.790943,0.192158,3.11585,126.832178,-0.06694,0.008347,0.970474,0.043507,0.012854,0.021896,68.135376,33.876038,-145.953156,,,
729861787.794202,0.194875,3.105326,126.836308,-0.06694,0.008347,0.970474,0.011379,-0.027624,0.0149,68.135376,33.876038,-145.953156,,,
729861787.797667,0.194875,3.105326,126.836308,-0.062332,0.014694,0.963699,0.011379,-0.027624,0.0149,68.135376,33.876038,-145.953156,,,
729861787.800867,0.193605,3.091405,126.839478,-0.062332,0.014694,0.963699,0.011379,-0.027624,0.0149,68.135376,33.876038,-145.953156,,,
729861787.804248,0.187682,3.074031,126.841206,-0.062332,0.014694,0.963699,-0.018672,-0.056515,0.008308,68.138,33.55629,-145.933975,,,
729861787.807507,0.187682,3.074031,126.841206,-0.054153,0.018463,0.966125,-0.018672,-0.056515,0.008308,68.138,33.55629,-145.933975,,,
729861787.810871,0.177298,3.054514,126.841868,-0.054153,0.018463,0.966125,-0.018672,-0.056515,0.008308,68.138,33.55629,-145.933975,,,
729861787.814283,0.164363,3.035415,126.841817,-0.054153,0.018463,0.966125,-0.042033,-0.065323,-0.001846,68.138,33.55629,-145.933975,,,
729861787.817561,0.164363,3.035415,126.841817,-0.054153,0.018463,0.966125,-0.042033,-0.065323,-0.001846,68.138,33.55629,-145.933975,,,
729861787.820901,0.14773,3.017946,126.841218,-0.049316,0.01442,0.971786,-0.042033,-0.065323,-0.001846,68.138,33.55629,-145.933975,,,
729861787.824186,0.13258,3.003598,126.841404,-0.049316,0.01442,0.971786,-0.054188,-0.049647,-0.004956,68.138,33.55629,-145.933975,,,
729861787.827536,0.13258,3.003598,126.841404,-0.049316,0.01442,0.971786,-0.054188,-0.049647,-0.004956,68.138,33.55629,-145.933975,,,
729861787.830854,0.115265,2.995488,126.842795,-0.046097,0.009125,0.986664,-0.054188,-0.049647,-0.004956,68.138,33.55629,-145.933975,,,
729861787.834185,0.102797,2.990738,126.845722,-0.046097,0.009125,0.986664,-0.046249,-0.016939,0.004927,68.138,33.55629,-145.933975,,,
729861787.837533,0.102797,2.990738,126.845722,-0.046097,0.009125,0.986664,-0.046249,-0.016939,0.004927,68.138,33.55629,-145.933975,,,
729861787.840807,0.089558,2.995441,126.851471,-0.049271,-0.00499,1.007507,-0.046249,-0.016939,0.004927,68.138,33.55629,-145.933975,,,
729861787.844197,0.082501,2.999703,126.860409,-0.049271,-0.00499,1.007507,-0.024451,0.014619,0.025194,68.229004,34.070282,-145.906494,,,
729861787.847517,0.082501,2.999703,126.860409,-0.055847,-0.014542,1.018295,-0.024451,0.014619,0.025194,68.229004,34.070282,-145.906494,,,
729861787.850869,0.075898,3.011812,126.871269,-0.055847,-0.014542,1.018295,-0.024451,0.014619,0.025194,68.229004,34.070282,-145.906494,,,
729861787.854289,0.073697,3.01844,126.882733,-0.055847,-0.014542,1.018295,-0.013425,0.028284,0.039597,68.229004,34.070282,-145.906494,,,
729861787.857605,0.073697,3.01844,126.882733,-0.052643,-0.014053,1.020508,-0.013425,0.028284,0.039597,68.229004,34.070282,-145.906494,,,
729861787.860844,0.07386,3.029369,126.893944,-0.052643,-0.014053,1.020508,-0.013425,0.028284,0.039597,68.229004,34.070282,-145.906494,,,
729861787.864198,0.075514,3.031862,126.903604,-0.052643,-0.014053,1.020508,0.005712,0.015357,0.035477,68.229004,34.070282,-145.906494,,,
729861787.867614,0.075514,3.031862,126.903604,-0.052643,-0.014053,1.020508,0.005712,0.015357,0.035477,68.229004,34.070282,-145.906494,,,
729861787.870868,0.080181,3.035398,126.911017,-0.047501,-0.008484,1.012451,0.005712,0.015357,0.035477,68.229004,34.070282,-145.906494,,,
729861787.874188,0.082519,3.03039,126.916053,-0.047501,-0.008484,1.012451,0.008418,-0.010798,0.017299,68.229004,34.070282,-145.906494,,,
729861787.87757,0.082519,3.03039,126.916053,-0.047501,-0.008484,1.012451,0.008418,-0.010798,0.017299,68.229004,34.070282,-145.906494,,,
729861787.88085,0.086967,3.024127,126.919069,-0.040253,-0.00209,0.998627,0.008418,-0.010798,0.017299,68.229004,34.070282,-145.906494,,,
729861787.884184,0.086617,3.011331,126.920563,-0.040253,-0.00209,0.998627,0.002017,-0.039604,0.00665,68.115234,34.005676,-145.7836,,,
729861787.88763,0.086617,3.011331,126.920563,-0.040253,-0.00209,0.998627,0.002017,-0.039604,0.00665,68.115234,34.005676,-145.7836,,,
729861787.890909,0.087509,2.995438,126.92144,-0.038773,0.000763,0.986755,0.002017,-0.039604,0.00665,68.115234,34.005676,-145.7836,,,
729861787.894183,0.081213,2.977476,126.92267,-0.038773,0.000763,0.986755,-0.018217,-0.057889,-0.000572,68.115234,34.005676,-145.7836,,,
729861787.897531,0.081213,2.977476,126.92267,-0.038773,0.000763,0.986755,-0.018217,-0.057889,-0.000572,68.115234,34.005676,-145.7836,,,
729861787.900863,0.07362,2.958066,126.924164,-0.042679,0.002335,0.979355,-0.018217,-0.057889,-0.000572,68.115234,34.005676,-145.7836,,,
729861787.904193,0.060161,2.940541,126.92566,-0.042679,0.002335,0.979355,-0.044878,-0.061658,0.000829,68.115234,34.005676,-145.7836,,,
729861787.907571,0.060161,2.940541,126.92566,-0.042679,0.002335,0.979355,-0.044878,-0.061658,0.000829,68.115234,34.005676,-145.7836,,,
729861787.910886,0.044903,2.922506,126.926861,-0.039673,0.001755,0.98024,-0.044878,-0.061658,0.000829,68.115234,34.005676,-145.7836,,,
729861787.914296,0.026402,2.908352,126.927514,-0.039673,0.001755,0.98024,-0.062901,-0.04892,-0.001427,68.115234,34.005676,-145.7836,,,
729861787.917546,0.026402,2.908352,126.927514,-0.039673,0.001755,0.98024,-0.062901,-0.04892,-0.001427,68.115234,34.005676,-145.7836,,,
729861787.920878,0.004667,2.897193,126.92725,-0.033691,0.002808,0.982834,-0.062901,-0.04892,-0.001427,68.115234,34.005676,-145.7836,,,
729861787.924188,-0.014502,2.889701,126.925616,-0.033691,0.002808,0.982834,-0.066732,-0.026632,-0.00835,67.890717,33.956955,-145.990631,,,
729861787.927643,-0.014502,2.889701,126.925616,-0.033691,0.002808,0.982834,-0.066732,-0.026632,-0.00835,67.890717,33.956955,-145.990631,,,
729861787.930842,-0.036062,2.887878,126.922701,-0.027679,0.001068,0.993988,-0.066732,-0.026632,-0.00835,67.890717,33.956955,-145.990631,,,
729861787.934192,-0.050529,2.888628,126.918982,-0.027679,0.001068,0.993988,-0.052856,0.000507,-0.014864,67.890717,33.956955,-145.990631,,,
729861787.937531,-0.050529,2.888628,126.918982,-0.027679,0.001068,0.993988,-0.052856,0.000507,-0.014864,67.890717,33.956955,-145.990631,,,
729861787.940907,-0.064439,2.892683,126.915095,-0.030869,-0.005661,1.008759,-0.052856,0.000507,-0.014864,67.890717,33.956955,-145.990631,,,
729861787.944186,-0.071086,2.899921,126.911516,-0.030869,-0.005661,1.008759,-0.026941,0.026461,-0.013989,67.890717,33.956955,-145.990631,,,
729861787.947529,-0.071086,2.899921,126.911516,-0.030869,-0.005661,1.008759,-0.026941,0.026461,-0.013989,67.890717,33.956955,-145.990631,,,
729861787.950866,-0.07457,2.907208,126.908084,-0.037247,-0.013779,1.016373,-0.026941,0.026461,-0.013989,67.890717,33.956955,-145.990631,,,
729861787.954192,-0.072672,2.919168,126.905197,-0.037247,-0.013779,1.016373,0.003228,0.042154,-0.009938,67.890717,33.956955,-145.990631,,,
729861787.957529,-0.072672,2.919168,126.905197,-0.037247,-0.013779,1.016373,0.003228,0.042154,-0.009938,67.890717,33.956955,-145.990631,,,
729861787.960867,-0.066682,2.927902,126.902667,-0.049713,-0.015121,1.016617,0.003228,0.042154,-0.009938,67.890717,33.956955,-145.990631,,,
729861787.964203,-0.058267,2.942574,126.899975,-0.049713,-0.015121,1.016617,0.02786,0.052861,-0.010627,67.890717,33.956955,-145.990631,,,
729861787.967637,-0.058267,2.942574,126.899975,-0.049713,-0.015121,1.016617,0.02786,0.052861,-0.010627,68.171021,33.957596,-145.927032,,,
729861787.970856,-0.047663,2.953714,126.897342,-0.056366,-0.01358,1.009399,0.02786,0.052861,-0.010627,68.171021,33.957596,-145.927032,,,
729861787.974191,-0.037322,2.967524,126.894848,-0.056366,-0.01358,1.009399,0.03511,0.054505,-0.007427,68.171021,33.957596,-145.927032,,,
729861787.977361,-0.037322,2.967524,126.894848,-0.056366,-0.01358,1.009399,0.03511,0.054505,-0.007427,68.171021,33.957596,-145.927032,,,
729861787.980879,-0.028287,2.975626,126.892502,-0.064072,-0.005997,0.988724,0.03511,0.054505,-0.007427,68.171021,33.957596,-145.927032,,,
729861787.984188,-0.023995,2.981658,126.891211,-0.064072,-0.005997,0.988724,0.01964,0.028682,-0.006832,68.171021,33.957596,-145.927032,,,
729861787.987532,-0.023995,2.981658,126.891211,-0.064072,-0.005997,0.988724,0.01964,0.028682,-0.006832,68.171021,33.957596,-145.927032,,,
729861787.990927,-0.026487,2.97492,126.891353,-0.076233,0.001373,0.95575,0.01964,0.028682,-0.006832,68.171021,33.957596,-145.927032,,,
729861787.994185,-0.039662,2.964909,126.893027,-0.076233,0.001373,0.95575,-0.037619,-0.022421,-0.000144,68.171021,33.957596,-145.927032,,,
729861787.997518,-0.039662,2.964909,126.893027,-0.076233,0.001373,0.95575,-0.037619,-0.022421,-0.000144,68.171021,33.957596,-145.927032,,,
729861788.000892,-0.063417,2.942272,126.896054,-0.086456,0.007904,0.921066,-0.037619,-0.022421,-0.000144,68.171021,33.957596,-145.927032,,,
729861788.004187,-0.097758,2.915374,126.900058,-0.086456,0.007904,0.921066,-0.110571,-0.085304,0.003532,68.171021,33.957596,-145.927032,,,
729861788.007521,-0.097758,2.915374,126.900058,-0.086456,0.007904,0.921066,-0.110571,-0.085304,0.003532,68.167419,34.085968,-145.765335,,,
729861788.010867,-0.14023,2.878069,126.905103,-0.08638,0.009842,0.908188,-0.110571,-0.085304,0.003532,68.167419,34.085968,-145.765335,,,
729861788.014213,-0.187821,2.839052,126.910273,-0.08638,0.009842,0.908188,-0.164085,-0.129029,0.009029,68.167419,34.085968,-145.765335,,,
729861788.017579,-0.187821,2.839052,126.910273,-0.08638,0.009842,0.908188,-0.164085,-0.129029,0.009029,68.167419,34.085968,-145.765335,,,
729861788.020861,-0.238156,2.794755,126.915093,-0.077774,0.008224,0.931946,-0.164085,-0.129029,0.009029,68.167419,34.085968,-145.765335,,,
729861788.024258,-0.287401,2.753042,126.920338,-0.077774,0.008224,0.931946,-0.175043,-0.143617,0.008124,68.167419,34.085968,-145.765335,,,
729861788.027609,-0.287401,2.753042,126.920338,-0.077774,0.008224,0.931946,-0.175043,-0.143617,0.008124,68.167419,34.085968,-145.765335,,,
729861788.030929,-0.333706,2.714435,126.92622,-0.064072,-0.002029,0.979233,-0.175043,-0.143617,0.008124,68.167419,34.085968,-145.765335,,,
729861788.03418,-0.372517,2.684793,126.932346,-0.064072,-0.002029,0.979233,-0.143504,-0.110693,0.012395,68.167419,34.085968,-145.765335,,,
729861788.037544,-0.372517,2.684793,126.932346,-0.064072,-0.002029,0.979233,-0.143504,-0.110693,0.012395,68.167419,34.085968,-145.765335,,,
729861788.040861,-0.402901,2.665235,126.939022,-0.050385,-0.011993,1.030884,-0.143504,-0.110693,0.012395,68.167419,34.085968,-145.765335,,,
729861788.044184,-0.422297,2.655297,126.947145,-0.050385,-0.011993,1.030884,-0.079063,-0.042432,0.022948,68.167419,34.085968,-145.765335,,,
729861788.047521,-0.422297,2.655297,126.947145,-0.050385,-0.011993,1.030884,-0.079063,-0.042432,0.022948,67.811859,34.037292,-145.984161,,,
729861788.050868,-0.432307,2.65693,126.956658,-0.04071,-0.021439,1.067734,-0.079063,-0.042432,0.022948,67.811859,34.037292,-145.984161,,,
729861788.054188,-0.433521,2.666716,126.966742,-0.04071,-0.021439,1.067734,-0.012948,0.030172,0.033457,67.811859,34.037292,-145.984161,,,
729861788.057616,-0.433521,2.666716,126.966742,-0.04071,-0.021439,1.067734,-0.012948,0.030172,0.033457,67.811859,34.037292,-145.984161,,,
729861788.06087,-0.427307,2.684987,126.976466,-0.036057,-0.023972,1.079941,-0.012948,0.030172,0.033457,67.811859,34.037292,-145.984161,,,
729861788.064194,-0.416072,2.705657,126.984455,-0.036057,-0.023972,1.079941,0.034993,0.07338,0.029437,67.811859,34.037292,-145.984161,,,
729861788.067531,-0.416072,2.705657,126.984455,-0.036057,-0.023972,1.079941,0.034993,0.07338,0.029437,67.811859,34.037292,-145.984161,,,
729861788.070929,-0.400436,2.729484,126.99005,-0.030823,-0.019058,1.065125,0.034993,0.07338,0.029437,67.811859,34.037292,-145.984161,,,
729861788.074186,-0.383125,2.749486,126.993014,-0.030823,-0.019058,1.065125,0.059073,0.074409,0.013445,67.811859,34.037292,-145.984161,,,
729861788.077517,-0.383125,2.749486,126.993014,-0.030823,-0.019058,1.065125,0.059073,0.074409,0.013445,67.811859,34.037292,-145.984161,,,
729861788.080873,-0.364856,2.769139,126.992829,-0.029358,-0.007202,1.032639,0.059073,0.074409,0.013445,67.811859,34.037292,-145.984161,,,
729861788.084193,-0.348321,2.781432,126.990174,-0.029358,-0.007202,1.032639,0.059818,0.051768,-0.008325,67.811859,34.037292,-145.984161,,,
729861788.087524,-0.348321,2.781432,126.990174,-0.029358,-0.007202,1.032639,0.059818,0.051768,-0.008325,67.912155,34.364243,-145.826813,,,
729861788.090872,-0.33411,2.79134,126.986248,-0.032333,-0.001755,1.003464,0.059818,0.051768,-0.008325,67.912155,34.364243,-145.826813,,,
729861788.094193,-0.324806,2.793599,126.981573,-0.032333,-0.001755,1.003464,0.039268,0.016781,-0.015366,67.912155,34.364243,-145.826813,,,
729861788.09752,-0.324806,2.793599,126.981573,-0.032333,-0.001755,1.003464,0.039268,0.016781,-0.015366,67.912155,34.364243,-145.826813,,,
729861788.100865,-0.319675,2.792975,126.976899,-0.039993,0.002289,0.979324,0.039268,0.016781,-0.015366,67.912155,34.364243,-145.826813,,,
729861788.104191,-0.320377,2.786827,126.972248,-0.039993,0.002289,0.979324,0.00706,-0.015795,-0.016991,67.912155,34.364243,-145.826813,,,
729861788.107595,-0.320377,2.786827,126.972248,-0.039993,0.002289,0.979324,0.00706,-0.015795,-0.016991,67.912155,34.364243,-145.826813,,,
729861788.110861,-0.326836,2.778994,126.967112,-0.039536,0.005188,0.966354,0.00706,-0.015795,-0.016991,67.912155,34.364243,-145.826813,,,
729861788.114191,-0.338082,2.769267,126.960839,-0.039536,0.005188,0.966354,-0.033928,-0.031974,-0.02252,67.912155,34.364243,-145.826813,,,
729861788.117536,-0.338082,2.769267,126.960839,-0.039536,0.005188,0.966354,-0.033928,-0.031974,-0.02252,67.912155,34.364243,-145.826813,,,
729861788.120931,-0.353858,2.759101,126.954141,-0.036652,0.008881,0.966293,-0.033928,-0.031974,-0.02252,67.912155,34.364243,-145.826813,,,
729861788.124175,-0.371701,2.750306,126.946912,-0.036652,0.008881,0.966293,-0.061181,-0.031054,-0.027943,67.912155,34.364243,-145.826813,,,
729861788.127531,-0.371701,2.750306,126.946912,-0.036652,0.008881,0.966293,-0.061181,-0.031054,-0.027943,67.912155,34.364243,-145.826813,,,
729861788.130851,-0.389638,2.744281,126.938647,-0.029861,0.01004,0.981812,-0.061181,-0.031054,-0.027943,68.023315,34.34523,-146.148697,,,
729861788.134183,-0.404624,2.743614,126.930345,-0.029861,0.01004,0.981812,-0.055677,-0.00529,-0.032686,68.023315,34.34523,-146.148697,,,
729861788.137525,-0.404624,2.743614,126.930345,-0.029861,0.01004,0.981812,-0.055677,-0.00529,-0.032686,68.023315,34.34523,-146.148697,,,
729861788.140868,-0.415984,2.746829,126.922524,-0.029495,0.001144,1.008591,-0.055677,-0.00529,-0.032686,68.023315,34.34523,-146.148697,,,
729861788.144184,-0.420249,2.757394,126.915205,-0.029495,0.001144,1.008591,-0.020058,0.032109,-0.028882,68.023315,34.34523,-146.148697,,,
729861788.147519,-0.420249,2.757394,126.915205,-0.029495,0.001144,1.008591,-0.020058,0.032109,-0.028882,68.023315,34.34523,-146.148697,,,
729861788.150868,-0.416894,2.773238,126.908465,-0.031326,-0.011337,1.037369,-0.020058,0.032109,-0.028882,68.023315,34.34523,-146.148697,,,
729861788.154181,-0.405741,2.794761,126.902879,-0.031326,-0.011337,1.037369,0.036825,0.074396,-0.018528,68.023315,34.34523,-146.148697,,,
729861788.157583,-0.405741,2.794761,126.902879,-0.031326,-0.011337,1.037369,0.036825,0.074396,-0.018528,68.023315,34.34523,-146.148697,,,
729861788.16085,-0.386998,2.817032,126.898564,-0.039734,-0.023743,1.055984,0.036825,0.074396,-0.018528,68.023315,34.34523,-146.148697,,,
729861788.164187,-0.362287,2.840687,126.895445,-0.039734,-0.023743,1.055984,0.08504,0.086165,-0.010191,68.023315,34.34523,-146.148697,,,
729861788.167513,-0.362287,2.840687,126.895445,-0.039734,-0.023743,1.055984,0.08504,0.086165,-0.010191,68.023315,34.34523,-146.148697,,,
729861788.170919,-0.333292,2.860183,126.893275,-0.049835,-0.02803,1.047729,0.08504,0.086165,-0.010191,67.964203,34.146103,-146.093918,,,
729861788.174173,-0.302676,2.876714,126.890579,-0.049835,-0.02803,1.047729,0.110371,0.063738,-0.002472,67.964203,34.146103,-146.093918,,,
729861788.177524,-0.302676,2.876714,126.890579,-0.049835,-0.02803,1.047729,0.110371,0.063738,-0.002472,67.964203,34.146103,-146.093918,,,
729861788.180875,-0.270832,2.886801,126.886766,-0.050507,-0.020218,1.019394,0.110371,0.063738,-0.002472,67.964203,34.146103,-146.093918,,,
729861788.184182,-0.241193,2.892025,126.881551,-0.050507,-0.020218,1.019394,0.107028,0.024741,-0.013034,67.964203,34.146103,-146.093918,,,
729861788.187529,-0.241193,2.892025,126.881551,-0.050507,-0.020218,1.019394,0.107028,0.024741,-0.013034,67.964203,34.146103,-146.093918,,,
729861788.190862,-0.214564,2.889877,126.87449,-0.04895,-0.005981,0.990479,0.107028,0.024741,-0.013034,67.964203,34.146103,-146.093918,,,
729861788.194182,-0.193952,2.883445,126.866355,-0.04895,-0.005981,0.990479,0.079093,-0.015319,-0.025068,67.964203,34.146103,-146.093918,,,
729861788.197513,-0.193952,2.883445,126.866355,-0.04895,-0.005981,0.990479,0.079093,-0.015319,-0.025068,67.964203,34.146103,-146.093918,,,
729861788.200869,-0.177899,2.87022,126.85753,-0.050079,0.006287,0.968018,0.079093,-0.015319,-0.025068,67.964203,34.146103,-146.093918,,,
729861788.20418,-0.168413,2.854685,126.849005,-0.050079,0.006287,0.968018,0.041229,-0.050086,-0.029095,67.964203,34.146103,-146.093918,,,
729861788.207575,-0.168413,2.854685,126.849005,-0.050079,0.006287,0.968018,0.041229,-0.050086,-0.029095,67.964203,34.146103,-146.093918,,,
729861788.210851,-0.163289,2.833739,126.841328,-0.054733,0.007248,0.963638,0.041229,-0.050086,-0.029095,67.981384,34.100281,-145.974457,,,
729861788.214189,-0.163166,2.814463,126.833774,-0.054733,0.007248,0.963638,0.004818,-0.066407,-0.026711,67.981384,34.100281,-145.974457,,,
729861788.21754,-0.163166,2.814463,126.833774,-0.054733,0.007248,0.963638,0.004818,-0.066407,-0.026711,67.981384,34.100281,-145.974457,,,
729861788.22093,-0.164417,2.793467,126.825627,-0.054413,0.007935,0.976151,0.004818,-0.066407,-0.026711,67.981384,34.100281,-145.974457,,,
729861788.224227,-0.165021,2.778168,126.817326,-0.054413,0.007935,0.976151,-0.003876,-0.05252,-0.03203,67.981384,34.100281,-145.974457,,,
729861788.227492,-0.165021,2.778168,126.817326,-0.054413,0.007935,0.976151,-0.003876,-0.05252,-0.03203,67.981384,34.100281,-145.974457,,,
729861788.230873,-0.166418,2.762887,126.809371,-0.051361,0.004532,0.999451,-0.003876,-0.05252,-0.03203,67.981384,34.100281,-145.974457,,,
729861788.234219,-0.164569,2.754219,126.802111,-0.051361,0.004532,0.999451,0.006097,-0.02833,-0.025118,67.981384,34.100281,-145.974457,,,
729861788.237525,-0.164569,2.754219,126.802111,-0.051361,0.004532,0.999451,0.006097,-0.02833,-0.025118,67.981384,34.100281,-145.974457,,,
729861788.240862,-0.164222,2.747887,126.795997,-0.05127,-0.00209,1.019608,0.006097,-0.02833,-0.025118,67.981384,34.100281,-145.974457,,,
729861788.243949,-0.15874,2.746793,126.790344,-0.05127,-0.00209,1.019608,0.018259,-0.004815,-0.020031,67.981384,34.100281,-145.974457,,,
729861788.247546,-0.15874,2.746793,126.790344,-0.05127,-0.00209,1.019608,0.018259,-0.004815,-0.020031,67.981384,34.100281,-145.974457,,,
729861788.250851,-0.152629,2.750728,126.783944,-0.049652,-0.007172,1.024139,0.018259,-0.004815,-0.020031,67.981384,34.100281,-145.974457,,,
729861788.254186,-0.140595,2.759244,126.776646,-0.049652,-0.007172,1.024139,0.041327,0.031955,-0.02423,68.013931,34.022156,-146.115982,,,
729861788.257516,-0.140595,2.759244,126.776646,-0.049652,-0.007172,1.024139,0.041327,0.031955,-0.02423,68.013931,34.022156,-146.115982,,,
729861788.260864,-0.128102,2.771842,126.769242,-0.049728,-0.007584,1.025818,0.041327,0.031955,-0.02423,68.013931,34.022156,-146.115982,,,
729861788.264185,-0.112824,2.787469,126.76157,-0.049728,-0.007584,1.025818,0.057419,0.055897,-0.024122,68.013931,34.022156,-146.115982,,,
729861788.267531,-0.112824,2.787469,126.76157,-0.049728,-0.007584,1.025818,0.057419,0.055897,-0.024122,68.013931,34.022156,-146.115982,,,
729861788.270949,-0.096118,2.805417,126.754415,-0.054031,-0.006012,1.017242,0.057419,0.055897,-0.024122,68.013931,34.022156,-146.115982,,,
729861788.274194,-0.079153,2.824691,126.749492,-0.054031,-0.006012,1.017242,0.061137,0.070815,-0.016893,68.013931,34.022156,-146.115982,,,
729861788.277593,-0.079153,2.824691,126.749492,-0.054031,-0.006012,1.017242,0.061137,0.070815,-0.016893,68.013931,34.022156,-146.115982,,,
729861788.280894,-0.060555,2.845973,126.746688,-0.064255,-0.006577,1.000183,0.061137,0.070815,-0.016893,68.013931,34.022156,-146.115982,,,
729861788.284198,-0.043088,2.865223,126.746282,-0.064255,-0.006577,1.000183,0.06027,0.073889,-0.002854,68.013931,34.022156,-146.115982,,,
729861788.287542,-0.043088,2.865223,126.746282,-0.064255,-0.006577,1.000183,0.06027,0.073889,-0.002854,68.013931,34.022156,-146.115982,,,
729861788.290868,-0.024072,2.883284,126.748439,-0.075928,-0.008667,0.9879,0.06027,0.073889,-0.002854,68.013931,34.022156,-146.115982,,,
729861788.294196,-0.006046,2.895661,126.752331,-0.075928,-0.008667,0.9879,0.060342,0.051234,0.015079,68.209869,33.946732,-146.122055,,,
729861788.297519,-0.006046,2.895661,126.752331,-0.075928,-0.008667,0.9879,0.060342,0.051234,0.015079,68.209869,33.946732,-146.122055,,,
729861788.300871,0.012589,2.903462,126.757215,-0.079895,-0.00528,0.977051,0.060342,0.051234,0.015079,68.209869,33.946732,-146.122055,,,
729861788.304195,0.028356,2.90338,126.761755,-0.079895,-0.00528,0.977051,0.056595,0.01153,0.019597,68.209869,33.946732,-146.122055,,,
729861788.307584,0.028356,2.90338,126.761755,-0.079895,-0.00528,0.977051,0.056595,0.01153,0.019597,68.209869,33.946732,-146.122055,,,
729861788.310869,0.042257,2.895487,126.765137,-0.075638,0.001907,0.970413,0.056595,0.01153,0.019597,68.209869,33.946732,-146.122055,,,
729861788.314196,0.052837,2.881124,126.766613,-0.075638,0.001907,0.970413,0.041213,-0.040941,0.005782,68.209869,33.946732,-146.122055,,,
729861788.31753,0.052837,2.881124,126.766613,-0.075638,0.001907,0.970413,0.041213,-0.040941,0.005782,68.209869,33.946732,-146.122055,,,
729861788.320674,0.058495,2.86085,126.765747,-0.06691,0.01033,0.963409,0.041213,-0.040941,0.005782,68.209869,33.946732,-146.122055,,,
729861788.324218,0.062676,2.837342,126.762899,-0.06691,0.01033,0.963409,0.017238,-0.078966,-0.010117,68.209869,33.946732,-146.122055,,,
729861788.32753,0.062676,2.837342,126.762899,-0.06691,0.01033,0.963409,0.017238,-0.078966,-0.010117,68.209869,33.946732,-146.122055,,,
729861788.33086,0.062744,2.812778,126.758181,-0.055695,0.016113,0.962677,0.017238,-0.078966,-0.010117,68.209869,33.946732,-146.122055,,,
729861788.334193,0.062416,2.791133,126.752819,-0.055695,0.016113,0.962677,-0.001131,-0.075475,-0.021493,67.692551,33.971298,-146.24408,,,
729861788.337525,0.062416,2.791133,126.752819,-0.055695,0.016113,0.962677,-0.001131,-0.075475,-0.021493,67.692551,33.971298,-146.24408,,,
729861788.340873,0.05782,2.775217,126.748233,-0.050491,0.015366,0.976242,-0.001131,-0.075475,-0.021493,67.692551,33.971298,-146.24408,,,
729861788.344199,0.053513,2.767099,126.745153,-0.050491,0.015366,0.976242,-0.011392,-0.034298,-0.014708,67.692551,33.971298,-146.24408,,,
729861788.347544,0.053513,2.767099,126.745153,-0.050491,0.015366,0.976242,-0.011392,-0.034298,-0.014708,67.692551,33.971298,-146.24408,,,
729861788.350881,0.046557,2.770619,126.744943,-0.051544,0.007889,0.990219,-0.011392,-0.034298,-0.014708,67.692551,33.971298,-146.24408,,,
729861788.354194,0.041144,2.778284,126.74833,-0.051544,0.007889,0.990219,-0.017613,0.022923,0.007637,67.692551,33.971298,-146.24408,,,
729861788.357622,0.041144,2.778284,126.74833,-0.051544,0.007889,0.990219,-0.017613,0.022923,0.007637,67.692551,33.971298,-146.24408,,,
729861788.360863,0.034916,2.799656,126.755236,-0.058807,-0.00351,1.002975,-0.017613,0.022923,0.007637,67.692551,33.971298,-146.24408,,,
729861788.36419,0.033208,2.815407,126.765384,-0.058807,-0.00351,1.002975,-0.008191,0.05639,0.032699,67.692551,33.971298,-146.24408,,,
729861788.367532,0.033208,2.815407,126.765384,-0.058807,-0.00351,1.002975,-0.008191,0.05639,0.032699,67.692551,33.971298,-146.24408,,,
729861788.370934,0.031756,2.844231,126.776702,-0.06041,-0.008545,1.010986,-0.008191,0.05639,0.032699,67.692551,33.971298,-146.24408,,,
729861788.374185,0.036419,2.857458,126.787198,-0.06041,-0.008545,1.010986,0.011646,0.053285,0.037692,68.101288,33.842636,-145.867584,,,
729861788.37753,0.036419,2.857458,126.787198,-0.06041,-0.008545,1.010986,0.011646,0.053285,0.037692,68.101288,33.842636,-145.867584,,,
729861788.380885,0.044671,2.878355,126.795597,-0.052292,-0.00621,1.016861,0.011646,0.053285,0.037692,68.101288,33.842636,-145.867584,,,
729861788.384185,0.058993,2.881249,126.800771,-0.052292,-0.00621,1.016861,0.045481,0.017897,0.020495,68.101288,33.842636,-145.867584,,,
729861788.387542,0.058993,2.881249,126.800771,-0.052292,-0.00621,1.016861,0.045481,0.017897,0.020495,68.101288,33.842636,-145.867584,,,
729861788.390873,0.077828,2.887058,126.802279,-0.042389,-0.001709,1.018723,0.045481,0.017897,0.020495,68.101288,33.842636,-145.867584,,,
729861788.394188,0.098242,2.877234,126.800944,-0.042389,-0.001709,1.018723,0.072137,-0.027864,-0.000358,68.101288,33.842636,-145.867584,,,
729861788.397529,0.098242,2.877234,126.800944,-0.042389,-0.001709,1.018723,0.072137,-0.027864,-0.000358,68.101288,33.842636,-145.867584,,,
729861788.400885,0.123686,2.868781,126.797497,-0.03891,0.000153,1.012665,0.072137,-0.027864,-0.000358,68.101288,33.842636,-145.867584,,,
729861788.40419,0.146032,2.851818,126.792975,-0.03891,0.000153,1.012665,0.081132,-0.056325,-0.013484,68.101288,33.842636,-145.867584,,,
729861788.407604,0.146032,2.851818,126.792975,-0.03891,0.000153,1.012665,0.081132,-0.056325,-0.013484,68.101288,33.842636,-145.867584,,,
729861788.410863,0.172234,2.83721,126.788796,-0.03978,0.000717,1.00618,0.081132,-0.056325,-0.013484,68.101288,33.842636,-145.867584,,,
729861788.414225,0.192227,2.822601,126.785235,-0.03978,0.000717,1.00618,0.071189,-0.052317,-0.010683,68.101288,33.842636,-145.867584,,,
729861788.41753,0.192227,2.822601,126.785235,-0.03978,0.000717,1.00618,0.071189,-0.052317,-0.010683,67.977188,33.868896,-145.913483,,,
729861788.420924,0.213101,2.81268,126.782453,-0.041412,0.001587,1.001755,0.071189,-0.052317,-0.010683,67.977188,33.868896,-145.913483,,,
729861788.424193,0.229908,2.807358,126.780455,-0.041412,0.001587,1.001755,0.061133,-0.02132,-0.007223,67.977188,33.868896,-145.913483,,,
729861788.427534,0.229908,2.807358,126.780455,-0.041412,0.001587,1.001755,0.061133,-0.02132,-0.007223,67.977188,33.868896,-145.913483,,,
729861788.430855,0.243808,2.809908,126.779596,-0.038742,0.002899,1.001282,0.061133,-0.02132,-0.007223,67.977188,33.868896,-145.913483,,,
729861788.43418,0.255445,2.814717,126.779867,-0.038742,0.002899,1.001282,0.042778,0.018131,-0.000621,67.977188,33.868896,-145.913483,,,
729861788.43754,0.255445,2.814717,126.779867,-0.038742,0.002899,1.001282,0.042778,0.018131,-0.000621,67.977188,33.868896,-145.913483,,,
729861788.440748,0.261412,2.828461,126.780728,-0.038696,0.004425,0.997253,0.042778,0.018131,-0.000621,67.977188,33.868896,-145.913483,,,
729861788.444203,0.267342,2.840402,126.78203,-0.038696,0.004425,0.997253,0.023347,0.045819,0.001323,67.977188,33.868896,-145.913483,,,
729861788.447528,0.267342,2.840402,126.78203,-0.038696,0.004425,0.997253,0.023347,0.045819,0.001323,67.977188,33.868896,-145.913483,,,
729861788.450863,0.266342,2.855799,126.783306,-0.041626,0.00647,0.986755,0.023347,0.045819,0.001323,67.977188,33.868896,-145.913483,,,
729861788.454232,0.265893,2.867407,126.784785,-0.041626,0.00647,0.986755,0.000748,0.045904,0.003955,67.977188,33.868896,-145.913483,,,
729861788.457588,0.265893,2.867407,126.784785,-0.041626,0.00647,0.986755,0.000748,0.045904,0.003955,68.119553,33.777679,-146.138397,,,
729861788.460858,0.259963,2.875841,126.785494,-0.04335,0.008102,0.977234,0.000748,0.045904,0.003955,68.119553,33.777679,-146.138397,,,
729861788.464211,0.254532,2.882492,126.784686,-0.04335,0.008102,0.977234,-0.016956,0.028648,-0.003132,68.119553,33.777679,-146.138397,,,
729861788.467543,0.254532,2.882492,126.784686,-0.04335,0.008102,0.977234,-0.016956,0.028648,-0.003132,68.119553,33.777679,-146.138397,,,
729861788.470924,0.2457,2.881078,126.783249,-0.041199,0.008621,0.975372,-0.016956,0.028648,-0.003132,68.119553,33.777679,-146.138397,,,
729861788.474181,0.238252,2.880385,126.780947,-0.041199,0.008621,0.975372,-0.024925,0.005844,-0.009612,68.119553,33.777679,-146.138397,,,
729861788.477532,0.238252,2.880385,126.780947,-0.041199,0.008621,0.975372,-0.024925,0.005844,-0.009612,68.119553,33.777679,-146.138397,,,
729861788.480883,0.23141,2.871711,126.778221,-0.042938,0.004395,0.983887,-0.024925,0.005844,-0.009612,68.119553,33.777679,-146.138397,,,
729861788.484188,0.227676,2.865154,126.775218,-0.042938,0.004395,0.983887,-0.015247,-0.018142,-0.01146,68.119553,33.777679,-146.138397,,,
729861788.487544,0.227676,2.865154,126.775218,-0.042938,0.004395,0.983887,-0.015247,-0.018142,-0.01146,68.119553,33.777679,-146.138397,,,
729861788.490861,0.2261,2.853696,126.771497,-0.043365,-0.001923,0.993881,-0.015247,-0.018142,-0.01146,68.119553,33.777679,-146.138397,,,
729861788.494189,0.229215,2.846022,126.767013,-0.043365,-0.001923,0.993881,0.007712,-0.024346,-0.016397,68.119553,33.777679,-146.138397,,,
729861788.497519,0.229215,2.846022,126.767013,-0.043365,-0.001923,0.993881,0.007712,-0.024346,-0.016397,67.898682,33.766998,-146.010712,,,
729861788.500718,0.236203,2.836432,126.761288,-0.040573,-0.006058,1.007126,0.007712,-0.024346,-0.016397,67.898682,33.766998,-146.010712,,,
729861788.504203,0.248567,2.834628,126.754365,-0.040573,-0.006058,1.007126,0.037666,-0.00781,-0.021704,67.898682,33.766998,-146.010712,,,
729861788.507584,0.248567,2.834628,126.754365,-0.040573,-0.006058,1.007126,0.037666,-0.00781,-0.021704,67.898682,33.766998,-146.010712,,,
729861788.510858,0.265072,2.833042,126.7468,-0.035248,-0.004959,1.01564,0.037666,-0.00781,-0.021704,67.898682,33.766998,-146.010712,,,
729861788.514193,0.285003,2.841607,126.738776,-0.035248,-0.004959,1.01564,0.069575,0.028628,-0.026339,67.898682,33.766998,-146.010712,,,
729861788.517527,0.285003,2.841607,126.738776,-0.035248,-0.004959,1.01564,0.069575,0.028628,-0.026339,67.898682,33.766998,-146.010712,,,
729861788.520935,0.30541,2.852103,126.730926,-0.037964,-0.001541,1.011383,0.069575,0.028628,-0.026339,67.898682,33.766998,-146.010712,,,
729861788.524178,0.324337,2.871492,126.724119,-0.037964,-0.001541,1.011383,0.07199,0.067976,-0.021438,67.898682,33.766998,-146.010712,,,
729861788.527584,0.324337,2.871492,126.724119,-0.037964,-0.001541,1.011383,0.07199,0.067976,-0.021438,67.898682,33.766998,-146.010712,,,
729861788.530867,0.340239,2.892074,126.719289,-0.048233,0.001129,0.988327,0.07199,0.067976,-0.021438,67.898682,33.766998,-146.010712,,,
729861788.534184,0.350702,2.918857,126.716113,-0.048233,0.001129,0.988327,0.045379,0.094138,-0.011379,67.898682,33.766998,-146.010712,,,
729861788.537523,0.350702,2.918857,126.716113,-0.048233,0.001129,0.988327,0.045379,0.094138,-0.011379,67.9487,33.790665,-145.874146,,,
729861788.540853,0.356968,2.94434,126.714032,-0.060196,0.00563,0.962692,0.045379,0.094138,-0.011379,67.9487,33.790665,-145.874146,,,
729861788.54419,0.356958,2.973014,126.713352,-0.060196,0.00563,0.962692,0.004121,0.103082,-0.002713,67.9487,33.790665,-145.874146,,,
729861788.547522,0.356958,2.973014,126.713352,-0.060196,0.00563,0.962692,0.004121,0.103082,-0.002713,67.9487,33.790665,-145.874146,,,
729861788.550854,0.352134,2.996776,126.713791,-0.069382,0.010925,0.946411,0.004121,0.103082,-0.002713,67.9487,33.790665,-145.874146,,,
729861788.554224,0.34145,3.021573,126.714654,-0.069382,0.010925,0.946411,-0.031202,0.095081,0.001044,67.9487,33.790665,-145.874146,,,
729861788.55758,0.34145,3.021573,126.714654,-0.069382,0.010925,0.946411,-0.031202,0.095081,0.001044,67.9487,33.790665,-145.874146,,,
729861788.560856,0.325361,3.039207,126.7157,-0.073502,0.013077,0.94136,-0.031202,0.095081,0.001044,67.9487,33.790665,-145.874146,,,
729861788.56422,0.30627,3.054414,126.71613,-0.073502,0.013077,0.94136,-0.063142,0.057875,-0.00178,67.9487,33.790665,-145.874146,,,
729861788.567539,0.30627,3.054414,126.71613,-0.073502,0.013077,0.94136,-0.063142,0.057875,-0.00178,67.9487,33.790665,-145.874146,,,
729861788.570907,0.282298,3.061432,126.715608,-0.07164,0.013657,0.943207,-0.063142,0.057875,-0.00178,67.9487,33.790665,-145.874146,,,
729861788.574185,0.282298,3.061432,126.715608,-0.07164,0.013657,0.943207,-0.063142,0.057875,-0.00178,67.9487,33.790665,-145.874146,,,
729861788.577544,0.257678,3.065012,126.714555,-0.07164,0.013657,0.943207,-0.086915,0.021334,-0.007819,67.9487,33.790665,-145.874146,,,
729861788.580881,0.231867,3.060026,126.713591,-0.071838,0.010422,0.955658,-0.086915,0.021334,-0.007819,68.282043,33.670837,-145.846649,,,
729861788.584204,0.231867,3.060026,126.713591,-0.071838,0.010422,0.955658,-0.083149,-0.016378,-0.006238,68.282043,33.670837,-145.846649,,,
729861788.587548,0.208115,3.053855,126.713614,-0.071838,0.010422,0.955658,-0.083149,-0.016378,-0.006238,68.282043,33.670837,-145.846649,,,
729861788.590859,0.185121,3.041272,126.715218,-0.071472,0.000107,0.975632,-0.083149,-0.016378,-0.006238,68.282043,33.670837,-145.846649,,,
729861788.59424,0.185121,3.029949,126.718327,-0.071472,0.000107,0.975632,-0.06566,-0.036646,0.004217,68.282043,33.670837,-145.846649,,,
729861788.597517,0.166697,3.029949,126.718327,-0.071472,0.000107,0.975632,-0.06566,-0.036646,0.004217,68.282043,33.670837,-145.846649,,,
729861788.600856,0.151958,3.015325,126.723148,-0.074448,-0.007492,0.998901,-0.06566,-0.036646,0.004217,68.282043,33.670837,-145.846649,,,
729861788.604198,0.151958,3.015325,126.723148,-0.074448,-0.007492,0.998901,-0.037585,-0.040764,0.022764,68.282043,33.670837,-145.846649,,,
729861788.607627,0.141943,3.002113,126.730511,-0.074448,-0.007492,0.998901,-0.037585,-0.040764,0.022764,68.282043,33.670837,-145.846649,,,
729861788.610876,0.136026,2.987676,126.740536,-0.073059,-0.01178,1.013382,-0.037585,-0.040764,0.022764,68.282043,33.670837,-145.846649,,,
729861788.614253,0.136026,2.987676,126.740536,-0.073059,-0.01178,1.013382,-0.01486,-0.047484,0.036621,68.282043,33.670837,-145.846649,,,
729861788.617524,0.132841,2.972245,126.752253,-0.073059,-0.01178,1.013382,-0.01486,-0.047484,0.036621,68.282043,33.670837,-145.846649,,,
729861788.620921,0.132239,2.95979,126.764877,-0.068451,-0.010681,1.017761,-0.01486,-0.047484,0.036621,68.148026,33.879349,-145.820923,,,
729861788.624215,0.132239,2.95979,126.764877,-0.068451,-0.010681,1.017761,-0.01486,-0.047484,0.036621,68.148026,33.879349,-145.820923,,,
729861788.627538,0.13086,2.943014,126.777885,-0.068451,-0.010681,1.017761,-0.005563,-0.056231,0.044493,68.148026,33.879349,-145.820923,,,
729861788.63087,0.129698,2.931133,126.790091,-0.056549,-0.004868,1.010971,-0.005563,-0.056231,0.044493,68.148026,33.879349,-145.820923,,,
729861788.63427,0.129698,2.931133,126.790091,-0.056549,-0.004868,1.010971,-0.005563,-0.056231,0.044493,68.148026,33.879349,-145.820923,,,
729861788.637533,0.125051,2.914614,126.800159,-0.056549,-0.004868,1.010971,-0.014666,-0.057156,0.035384,68.148026,33.879349,-145.820923,,,
729861788.640866,0.119984,2.906361,126.807017,-0.040558,0.005096,1.00824,-0.014666,-0.057156,0.035384,68.148026,33.879349,-145.820923,,,
729861788.644192,0.119984,2.906361,126.807017,-0.040558,0.005096,1.00824,-0.014666,-0.057156,0.035384,68.148026,33.879349,-145.820923,,,
729861788.647532,0.110836,2.895422,126.811152,-0.040558,0.005096,1.00824,-0.031222,-0.040918,0.013355,68.148026,33.879349,-145.820923,,,
729861788.650953,0.101302,2.895237,126.812795,-0.023529,0.010834,1.008392,-0.031222,-0.040918,0.013355,68.148026,33.879349,-145.820923,,,
729861788.654195,0.101302,2.895237,126.812795,-0.023529,0.010834,1.008392,-0.031222,-0.040918,0.013355,68.148026,33.879349,-145.820923,,,
729861788.657593,0.088605,2.896456,126.811724,-0.023529,0.010834,1.008392,-0.044019,0.000841,-0.008397,68.148026,33.879349,-145.820923,,,
729861788.660847,0.075692,2.908801,126.809076,-0.021286,0.010422,1.015396,-0.044019,0.000841,-0.008397,68.137085,33.830017,-145.845627,,,
729861788.664192,0.075692,2.908801,126.809076,-0.021286,0.010422,1.015396,-0.044019,0.000841,-0.008397,68.137085,33.830017,-145.845627,,,
729861788.667523,0.060863,2.922371,126.805978,-0.021286,0.010422,1.015396,-0.051803,0.044331,-0.014695,68.137085,33.830017,-145.845627,,,
729861788.670851,0.044294,2.946304,126.802728,-0.021561,0.008316,1.019409,-0.051803,0.044331,-0.014695,68.137085,33.830017,-145.845627,,,
729861788.674344,0.044294,2.946304,126.802728,-0.021561,0.008316,1.019409,-0.051803,0.044331,-0.014695,68.137085,33.830017,-145.845627,,,
729861788.67736,0.028442,2.96941,126.79971,-0.021561,0.008316,1.019409,-0.056444,0.083796,-0.015462,68.137085,33.830017,-145.845627,,,
729861788.680892,0.012387,2.998394,126.796754,-0.030975,0.005463,1.017746,-0.056444,0.083796,-0.015462,68.137085,33.830017,-145.845627,,,
729861788.684243,0.012387,2.998394,126.796754,-0.030975,0.005463,1.017746,-0.056444,0.083796,-0.015462,68.137085,33.830017,-145.845627,,,
729861788.687395,-0.000468,3.022657,126.793442,-0.030975,0.005463,1.017746,-0.048441,0.090457,-0.013177,68.137085,33.830017,-145.845627,,,
729861788.690877,-0.011186,3.047429,126.79021,-0.036987,-0.000122,1.010132,-0.048441,0.090457,-0.013177,68.137085,33.830017,-145.845627,,,
729861788.694238,-0.011186,3.047429,126.79021,-0.036987,-0.000122,1.010132,-0.048441,0.090457,-0.013177,68.137085,33.830017,-145.845627,,,
729861788.69757,-0.015529,3.064661,126.786549,-0.036987,-0.000122,1.010132,-0.019207,0.067502,-0.011978,68.137085,33.830017,-145.845627,,,
729861788.700856,-0.014789,3.078913,126.782548,-0.046494,-0.003601,1.011154,-0.019207,0.067502,-0.011978,67.967041,33.963455,-145.85733,,,
729861788.704231,-0.014789,3.078913,126.782548,-0.046494,-0.003601,1.011154,-0.019207,0.067502,-0.011978,67.967041,33.963455,-145.85733,,,
729861788.707537,-0.005803,3.084136,126.778905,-0.046494,-0.003601,1.011154,0.026911,0.028531,-0.01296,67.967041,33.963455,-145.85733,,,
729861788.710862,0.008228,3.081821,126.775794,-0.057831,-0.010651,1.0112,0.026911,0.028531,-0.01296,67.967041,33.963455,-145.85733,,,
729861788.714199,0.008228,3.081821,126.775794,-0.057831,-0.010651,1.0112,0.026911,0.028531,-0.01296,67.967041,33.963455,-145.85733,,,
729861788.717547,0.026543,3.073306,126.773291,-0.057831,-0.010651,1.0112,0.064219,-0.019976,-0.007224,67.967041,33.963455,-145.85733,,,
729861788.720861,0.048153,3.049791,126.771451,-0.065475,-0.011032,1.004776,0.064219,-0.019976,-0.007224,67.967041,33.963455,-145.85733,,,
729861788.72431,0.048153,3.049791,126.771451,-0.065475,-0.011032,1.004776,0.064219,-0.019976,-0.007224,67.967041,33.963455,-145.85733,,,
729861788.727526,0.065412,3.029928,126.7705,-0.065475,-0.011032,1.004776,0.063315,-0.063181,-0.0022,67.967041,33.963455,-145.85733,,,
729861788.73086,0.082395,2.993773,126.770016,-0.067307,-0.005051,0.990326,0.063315,-0.063181,-0.0022,67.967041,33.963455,-145.85733,,,
729861788.734251,0.082395,2.993773,126.770016,-0.067307,-0.005051,0.990326,0.063315,-0.063181,-0.0022,67.967041,33.963455,-145.85733,,,
729861788.737585,0.091668,2.970286,126.769495,-0.067307,-0.005051,0.990326,0.0385,-0.081744,-0.001506,67.967041,33.963455,-145.85733,,,
729861788.740847,0.098273,2.935039,126.769159,-0.061035,0.005539,0.980194,0.0385,-0.081744,-0.001506,67.967041,33.963455,-145.85733,,,
729861788.744187,0.098273,2.935039,126.769159,-0.061035,0.005539,0.980194,0.0385,-0.081744,-0.001506,67.986954,34.004379,-145.882355,,,
729861788.747526,0.099575,2.916406,126.769062,-0.061035,0.005539,0.980194,0.006987,-0.068171,-0.00243,67.986954,34.004379,-145.882355,,,
729861788.750856,0.1002,2.891514,126.768735,-0.051178,0.01001,0.990616,0.006987,-0.068171,-0.00243,67.986954,34.004379,-145.882355,,,
729861788.754199,0.1002,2.891514,126.768735,-0.051178,0.01001,0.990616,0.006987,-0.068171,-0.00243,67.986954,34.004379,-145.882355,,,
729861788.757533,0.097947,2.884459,126.767516,-0.051178,0.01001,0.990616,-0.00702,-0.026132,-0.00529,67.986954,34.004379,-145.882355,,,
729861788.760855,0.09712,2.876187,126.765225,-0.041626,0.008957,1.01178,-0.00702,-0.026132,-0.00529,67.986954,34.004379,-145.882355,,,
729861788.764187,0.09712,2.876187,126.765225,-0.041626,0.008957,1.01178,-0.00702,-0.026132,-0.00529,67.986954,34.004379,-145.882355,,,
729861788.767543,0.098537,2.881134,126.761366,-0.041626,0.008957,1.01178,0.003701,0.01728,-0.012381,67.986954,34.004379,-145.882355,,,
729861788.770858,0.101986,2.886835,126.755673,-0.03476,0.008209,1.02858,0.003701,0.01728,-0.012381,67.986954,34.004379,-145.882355,,,
729861788.774254,0.101986,2.886835,126.755673,-0.03476,0.008209,1.02858,0.003701,0.01728,-0.012381,67.986954,34.004379,-145.882355,,,
729861788.777541,0.109224,2.901305,126.748367,-0.03476,0.008209,1.02858,0.025781,0.050662,-0.025263,67.986954,34.004379,-145.882355,,,
729861788.780879,0.116791,2.917475,126.739513,-0.036118,0.007065,1.028183,0.025781,0.050662,-0.025263,67.986954,34.004379,-145.882355,,,
729861788.784208,0.116791,2.917475,126.739513,-0.036118,0.007065,1.028183,0.025781,0.050662,-0.025263,67.999496,33.93071,-145.789108,,,
729861788.787604,0.12872,2.933161,126.729824,-0.036118,0.007065,1.028183,0.042272,0.059451,-0.030115,67.999496,33.93071,-145.789108,,,
729861788.790853,0.137595,2.951191,126.720334,-0.044525,0.00647,1.015106,0.042272,0.059451,-0.030115,67.999496,33.93071,-145.789108,,,
729861788.794218,0.137595,2.951191,126.720334,-0.044525,0.00647,1.015106,0.042272,0.059451,-0.030115,67.999496,33.93071,-145.789108,,,
729861788.797584,0.150318,2.962894,126.711735,-0.044525,0.00647,1.015106,0.046356,0.047817,-0.032166,67.999496,33.93071,-145.789108,,,
729861788.800856,0.158687,2.97871,126.705058,-0.061157,0.00325,0.993286,0.046356,0.047817,-0.032166,67.999496,33.93071,-145.789108,,,
729861788.804191,0.158687,2.97871,126.705058,-0.061157,0.00325,0.993286,0.046356,0.047817,-0.032166,67.999496,33.93071,-145.789108,,,
729861788.807542,0.168615,2.984935,126.701657,-0.061157,0.00325,0.993286,0.036862,0.028763,-0.015646,67.999496,33.93071,-145.789108,,,
