Time (sec),Pitch (deg),Roll (deg),Yaw(deg),X-Acceleration (g),Y-Acceleration (g),Z-Acceleration (g),Pitch Rate (deg/sec),Roll Rate (deg/sec),Yaw Rate (deg/sec),Magnetic Field in X direction (uT),Magnetic Field in Y direction (uT),Magnetic Field in Z Direction (uT),Latitude (deg),Longitude (deg),Altitude (m)
729862920.782031,-1.401363,-1.264706,-162.478336,0.017838,-0.031479,1.006699,0.01946,-0.002824,-0.017965,59.146179,30.922485,-143.170547,,,
729862920.785415,-1.394875,-1.265682,-162.482287,0.006989,-0.025055,0.98851,0.01946,-0.002824,-0.017965,59.146179,30.922485,-143.170547,,,
729862920.788787,-1.394875,-1.265682,-162.482287,0.006989,-0.025055,0.98851,0.01946,-0.002824,-0.017965,59.146179,30.922485,-143.170547,,,
729862920.792043,-1.391976,-1.274527,-162.486819,0.006989,-0.025055,0.98851,-0.008322,-0.024732,-0.015612,59.146179,30.922485,-143.170547,,,
729862920.795422,-1.393652,-1.281647,-162.491265,0.007538,-0.023392,0.986465,-0.008322,-0.024732,-0.015612,59.146179,30.922485,-143.170547,,,
729862920.798702,-1.393652,-1.281647,-162.491265,0.007538,-0.023392,0.986465,-0.008322,-0.024732,-0.015612,59.146179,30.922485,-143.170547,,,
729862920.802062,-1.39539,-1.297271,-162.495354,0.007538,-0.023392,0.986465,-0.016879,-0.021325,-0.015164,58.895187,30.961517,-143.102051,,,
729862920.805373,-1.400745,-1.304187,-162.499262,0.0121,-0.027893,1.002594,-0.016879,-0.021325,-0.015164,58.895187,30.961517,-143.102051,,,
729862920.808716,-1.400745,-1.304187,-162.499262,0.0121,-0.027893,1.002594,-0.016879,-0.021325,-0.015164,58.895187,30.961517,-143.102051,,,
729862920.81208,-1.402945,-1.31984,-162.503606,0.0121,-0.027893,1.002594,-0.008677,-0.007297,-0.01582,58.895187,30.961517,-143.102051,,,
729862920.815372,-1.405958,-1.323498,-162.507278,0.013672,-0.029541,1.01712,-0.008677,-0.007297,-0.01582,58.895187,30.961517,-143.102051,,,
729862920.818716,-1.405958,-1.323498,-162.507278,0.013672,-0.029541,1.01712,-0.008677,-0.007297,-0.01582,58.895187,30.961517,-143.102051,,,
729862920.822046,-1.406004,-1.333498,-162.510469,0.013672,-0.029541,1.01712,0.004119,0.002619,-0.008527,58.895187,30.961517,-143.102051,,,
729862920.825375,-1.404998,-1.333939,-162.513015,0.016449,-0.030167,1.020706,0.004119,0.002619,-0.008527,58.895187,30.961517,-143.102051,,,
729862920.828743,-1.404998,-1.333939,-162.513015,0.016449,-0.030167,1.020706,0.004119,0.002619,-0.008527,58.895187,30.961517,-143.102051,,,
729862920.83204,-1.403058,-1.340547,-162.51499,0.016449,-0.030167,1.020706,0.017392,0.007485,-0.003765,58.895187,30.961517,-143.102051,,,
729862920.835375,-1.39886,-1.339149,-162.515876,0.018112,-0.026398,1.015045,0.017392,0.007485,-0.003765,58.895187,30.961517,-143.102051,,,
729862920.838713,-1.39886,-1.339149,-162.515876,0.018112,-0.026398,1.015045,0.017392,0.007485,-0.003765,58.895187,30.961517,-143.102051,,,
729862920.842124,-1.395068,-1.343479,-162.515906,0.018112,-0.026398,1.015045,0.021068,0.016684,0.004041,58.927689,31.184891,-143.138046,,,
729862920.845403,-1.388761,-1.339639,-162.514551,0.013474,-0.025101,1.006439,0.021068,0.016684,0.004041,58.927689,31.184891,-143.138046,,,
729862920.848718,-1.388761,-1.339639,-162.514551,0.013474,-0.025101,1.006439,0.021068,0.016684,0.004041,58.927689,31.184891,-143.138046,,,
729862920.852057,-1.38409,-1.337798,-162.511822,0.013474,-0.025101,1.006439,0.027104,0.016415,0.011366,58.927689,31.184891,-143.138046,,,
729862920.855369,-1.37652,-1.333365,-162.507952,0.014999,-0.027756,1.003967,0.027104,0.016415,0.011366,58.927689,31.184891,-143.138046,,,
729862920.858711,-1.37652,-1.333365,-162.507952,0.014999,-0.027756,1.003967,0.027104,0.016415,0.011366,58.927689,31.184891,-143.138046,,,
729862920.862082,-1.368891,-1.328658,-162.503985,0.014999,-0.027756,1.003967,0.041108,-0.002587,0.004717,58.927689,31.184891,-143.138046,,,
729862920.86537,-1.35814,-1.329379,-162.501327,0.021774,-0.021683,0.994904,0.041108,-0.002587,0.004717,58.927689,31.184891,-143.138046,,,
729862920.868783,-1.35814,-1.329379,-162.501327,0.021774,-0.021683,0.994904,0.041108,-0.002587,0.004717,58.927689,31.184891,-143.138046,,,
729862920.872029,-1.346701,-1.326702,-162.500017,0.021774,-0.021683,0.994904,0.036533,-0.002237,0.000732,58.927689,31.184891,-143.138046,,,
729862920.875377,-1.335983,-1.328406,-162.498945,0.027298,-0.018326,0.991913,0.036533,-0.002237,0.000732,58.927689,31.184891,-143.138046,,,
729862920.87877,-1.335983,-1.328406,-162.498945,0.027298,-0.018326,0.991913,0.036533,-0.002237,0.000732,58.927689,31.184891,-143.138046,,,
729862920.882045,-1.327372,-1.325006,-162.497327,0.027298,-0.018326,0.991913,0.021377,0.00595,0.005595,59.206161,30.756882,-143.157394,,,
729862920.885377,-1.320932,-1.324365,-162.495113,0.021301,-0.021545,0.985657,0.021377,0.00595,0.005595,59.206161,30.756882,-143.157394,,,
729862920.888709,-1.320932,-1.324365,-162.495113,0.021301,-0.021545,0.985657,0.021377,0.00595,0.005595,59.206161,30.756882,-143.157394,,,
729862920.892101,-1.318257,-1.320673,-162.492881,0.021301,-0.021545,0.985657,-0.00032,0.001075,-0.000891,59.206161,30.756882,-143.157394,,,
729862920.895405,-1.316923,-1.321037,-162.492338,0.026199,-0.018112,0.980759,-0.00032,0.001075,-0.000891,59.206161,30.756882,-143.157394,,,
729862920.8987,-1.316923,-1.321037,-162.492338,0.026199,-0.018112,0.980759,-0.00032,0.001075,-0.000891,59.206161,30.756882,-143.157394,,,
729862920.902039,-1.319648,-1.320717,-162.493848,0.026199,-0.018112,0.980759,-0.015846,-0.010685,-0.013092,59.206161,30.756882,-143.157394,,,
729862920.90537,-1.32314,-1.324096,-162.496792,0.032333,-0.013245,0.978317,-0.015846,-0.010685,-0.013092,59.206161,30.756882,-143.157394,,,
729862920.908721,-1.32314,-1.324096,-162.496792,0.032333,-0.013245,0.978317,-0.015846,-0.010685,-0.013092,59.206161,30.756882,-143.157394,,,
729862920.912123,-1.330176,-1.326353,-162.500805,0.032333,-0.013245,0.978317,-0.029798,-0.009741,-0.016705,59.206161,30.756882,-143.157394,,,
729862920.915357,-1.338387,-1.330492,-162.505422,0.027771,-0.014877,0.978241,-0.029798,-0.009741,-0.016705,59.206161,30.756882,-143.157394,,,
729862920.918773,-1.338387,-1.330492,-162.505422,0.027771,-0.014877,0.978241,-0.029798,-0.009741,-0.016705,59.206161,30.756882,-143.157394,,,
729862920.922034,-1.348659,-1.333507,-162.509391,0.027771,-0.014877,0.978241,-0.035563,-0.014507,-0.010997,59.052597,30.707397,-143.160233,,,
729862920.925382,-1.358795,-1.338827,-162.512668,0.021286,-0.021591,0.986145,-0.035563,-0.014507,-0.010997,59.052597,30.707397,-143.160233,,,
729862920.928754,-1.358795,-1.338827,-162.512668,0.021286,-0.021591,0.986145,-0.035563,-0.014507,-0.010997,59.052597,30.707397,-143.160233,,,
729862920.932038,-1.368423,-1.341296,-162.514841,0.021286,-0.021591,0.986145,-0.015234,-0.024765,-0.007172,59.052597,30.707397,-143.160233,,,
729862920.935373,-1.373984,-1.348101,-162.516119,0.022232,-0.030457,1.001038,-0.015234,-0.024765,-0.007172,59.052597,30.707397,-143.160233,,,
729862920.938727,-1.373984,-1.348101,-162.516119,0.022232,-0.030457,1.001038,-0.015234,-0.024765,-0.007172,59.052597,30.707397,-143.160233,,,
729862920.942104,-1.375382,-1.35423,-162.516931,0.022232,-0.030457,1.001038,0.019744,-0.022387,-0.005489,59.052597,30.707397,-143.160233,,,
729862920.945459,-1.371047,-1.3616,-162.517439,0.028625,-0.03183,1.013901,0.019744,-0.022387,-0.005489,59.052597,30.707397,-143.160233,,,
729862920.948702,-1.371047,-1.3616,-162.517439,0.028625,-0.03183,1.013901,0.019744,-0.022387,-0.005489,59.052597,30.707397,-143.160233,,,
729862920.952035,-1.36175,-1.366748,-162.51723,0.028625,-0.03183,1.013901,0.044386,-0.007161,0.002999,59.052597,30.707397,-143.160233,,,
729862920.955444,-1.34972,-1.369155,-162.51612,0.027527,-0.031921,1.019592,0.044386,-0.007161,0.002999,59.052597,30.707397,-143.160233,,,
729862920.958706,-1.34972,-1.369155,-162.51612,0.027527,-0.031921,1.019592,0.044386,-0.007161,0.002999,59.052597,30.707397,-143.160233,,,
729862920.962089,-1.334001,-1.370294,-162.51397,0.027527,-0.031921,1.019592,0.056874,0.013228,0.010631,59.052597,30.707397,-143.160233,,,
729862920.965432,-1.318205,-1.367989,-162.510732,0.026581,-0.031265,1.008865,0.056874,0.013228,0.010631,58.99617,30.787979,-142.817719,,,
729862920.968769,-1.318205,-1.367989,-162.510732,0.026581,-0.031265,1.008865,0.056874,0.013228,0.010631,58.99617,30.787979,-142.817719,,,
729862920.972052,-1.303135,-1.360657,-162.507062,0.026581,-0.031265,1.008865,0.039738,0.037579,0.008134,58.99617,30.787979,-142.817719,,,
729862920.975369,-1.29108,-1.35087,-162.503888,0.029892,-0.021393,0.993713,0.039738,0.037579,0.008134,58.99617,30.787979,-142.817719,,,
729862920.978758,-1.29108,-1.35087,-162.503888,0.029892,-0.021393,0.993713,0.039738,0.037579,0.008134,58.99617,30.787979,-142.817719,,,
729862920.982039,-1.281947,-1.340777,-162.501689,0.029892,-0.021393,0.993713,0.003998,0.042791,0.001455,58.99617,30.787979,-142.817719,,,
729862920.985389,-1.27963,-1.328328,-162.500316,0.031708,-0.007401,0.971313,0.003998,0.042791,0.001455,58.99617,30.787979,-142.817719,,,
729862920.988713,-1.27963,-1.328328,-162.500316,0.031708,-0.007401,0.971313,0.003998,0.042791,0.001455,58.99617,30.787979,-142.817719,,,
729862920.9921,-1.281206,-1.318895,-162.499726,0.031708,-0.007401,0.971313,-0.038787,0.039723,0.001253,58.99617,30.787979,-142.817719,,,
729862920.995441,-1.291186,-1.307883,-162.499369,0.021164,-0.007339,0.959152,-0.038787,0.039723,0.001253,58.99617,30.787979,-142.817719,,,
729862920.998699,-1.291186,-1.307883,-162.499369,0.021164,-0.007339,0.959152,-0.038787,0.039723,0.001253,58.99617,30.787979,-142.817719,,,
729862921.002042,-1.304272,-1.299103,-162.498949,0.021164,-0.007339,0.959152,-0.060701,0.025418,-0.000673,58.99617,30.787979,-142.817719,,,
729862921.005457,-1.320859,-1.291933,-162.499018,0.016525,-0.012207,0.966919,-0.060701,0.025418,-0.000673,59.063568,30.910263,-142.826141,,,
729862921.00871,-1.320859,-1.291933,-162.499018,0.016525,-0.012207,0.966919,-0.060701,0.025418,-0.000673,59.063568,30.910263,-142.826141,,,
729862921.012091,-1.338308,-1.288435,-162.500131,0.016525,-0.012207,0.966919,-0.059195,-0.010538,-0.010837,59.063568,30.910263,-142.826141,,,
729862921.015405,-1.355165,-1.290994,-162.502559,0.022324,-0.014328,0.976715,-0.059195,-0.010538,-0.010837,59.063568,30.910263,-142.826141,,,
729862921.018777,-1.355165,-1.290994,-162.502559,0.022324,-0.014328,0.976715,-0.059195,-0.010538,-0.010837,59.063568,30.910263,-142.826141,,,
729862921.022039,-1.372905,-1.298383,-162.506196,0.022324,-0.014328,0.976715,-0.049588,-0.036594,-0.017395,59.063568,30.910263,-142.826141,,,
729862921.025434,-1.387318,-1.309044,-162.510926,0.023773,-0.016388,0.984055,-0.049588,-0.036594,-0.017395,59.063568,30.910263,-142.826141,,,
729862921.028753,-1.387318,-1.309044,-162.510926,0.023773,-0.016388,0.984055,-0.049588,-0.036594,-0.017395,59.063568,30.910263,-142.826141,,,
729862921.032037,-1.400905,-1.324042,-162.517014,0.023773,-0.016388,0.984055,-0.028596,-0.053823,-0.023442,59.063568,30.910263,-142.826141,,,
729862921.035408,-1.410029,-1.339656,-162.52349,0.023743,-0.023193,0.997421,-0.028596,-0.053823,-0.023442,59.063568,30.910263,-142.826141,,,
729862921.038717,-1.410029,-1.339656,-162.52349,0.023743,-0.023193,0.997421,-0.028596,-0.053823,-0.023442,59.063568,30.910263,-142.826141,,,
729862921.042103,-1.416325,-1.355085,-162.530049,0.023743,-0.023193,0.997421,0.00678,-0.033025,-0.021439,59.063568,30.910263,-142.826141,,,
729862921.045465,-1.416076,-1.366536,-162.536155,0.026001,-0.030197,1.023788,0.00678,-0.033025,-0.021439,59.012787,30.784439,-142.766052,,,
729862921.048736,-1.416076,-1.366536,-162.536155,0.026001,-0.030197,1.023788,0.00678,-0.033025,-0.021439,59.012787,30.784439,-142.766052,,,
729862921.05207,-1.411226,-1.374158,-162.540153,0.026001,-0.030197,1.023788,0.044999,0.001609,-0.004012,59.012787,30.784439,-142.766052,,,
729862921.055404,-1.411226,-1.375913,-162.541547,0.026001,-0.030197,1.023788,0.044999,0.001609,-0.004012,59.012787,30.784439,-142.766052,,,
729862921.058713,-1.400247,-1.375913,-162.541547,0.018906,-0.03891,1.039551,0.044999,0.001609,-0.004012,59.012787,30.784439,-142.766052,,,
729862921.062091,-1.384272,-1.373314,-162.540479,0.018906,-0.03891,1.039551,0.059905,0.043275,0.013707,59.012787,30.784439,-142.766052,,,
729862921.06537,-1.384272,-1.373314,-162.540479,0.018906,-0.03891,1.039551,0.059905,0.043275,0.013707,59.012787,30.784439,-142.766052,,,
729862921.068807,-1.367692,-1.362847,-162.536689,0.015457,-0.039902,1.035522,0.059905,0.043275,0.013707,59.012787,30.784439,-142.766052,,,
729862921.072048,-1.34877,-1.348539,-162.531084,0.015457,-0.039902,1.035522,0.046462,0.070802,0.017598,59.012787,30.784439,-142.766052,,,
729862921.075512,-1.334908,-1.330157,-162.525155,0.015579,-0.03009,1.017303,0.046462,0.070802,0.017598,59.012787,30.784439,-142.766052,,,
729862921.078752,-1.334908,-1.330157,-162.525155,0.015579,-0.03009,1.017303,0.046462,0.070802,0.017598,59.012787,30.784439,-142.766052,,,
729862921.082039,-1.321504,-1.312112,-162.520013,0.015579,-0.03009,1.017303,0.0318,0.039446,0.009316,59.012787,30.784439,-142.766052,,,
729862921.085373,-1.321504,-1.312112,-162.520013,0.01619,-0.018036,0.991348,0.0318,0.039446,0.009316,59.083206,30.832123,-142.986084,,,
729862921.088697,-1.312928,-1.300086,-162.516603,0.01619,-0.018036,0.991348,0.0318,0.039446,0.009316,59.083206,30.832123,-142.986084,,,
729862921.092038,-1.305137,-1.293608,-162.514185,0.01619,-0.018036,0.991348,0.007698,-0.001809,0.00981,59.083206,30.832123,-142.986084,,,
729862921.095441,-1.305137,-1.293608,-162.514185,0.01619,-0.018036,0.991348,0.007698,-0.001809,0.00981,59.083206,30.832123,-142.986084,,,
729862921.098703,-1.302016,-1.293671,-162.511635,0.009949,-0.016434,0.983078,0.007698,-0.001809,0.00981,59.083206,30.832123,-142.986084,,,
729862921.102037,-1.299851,-1.298456,-162.508453,0.009949,-0.016434,0.983078,-0.007532,-0.027391,0.016098,59.083206,30.832123,-142.986084,,,
729862921.105392,-1.299851,-1.298456,-162.508453,0.009949,-0.016434,0.983078,-0.007532,-0.027391,0.016098,59.083206,30.832123,-142.986084,,,
729862921.108774,-1.301135,-1.30653,-162.50438,0.008804,-0.022186,0.986481,-0.007532,-0.027391,0.016098,59.083206,30.832123,-142.986084,,,
729862921.112084,-1.303034,-1.317701,-162.500221,0.008804,-0.022186,0.986481,-0.012146,-0.045631,0.00759,59.083206,30.832123,-142.986084,,,
729862921.115382,-1.303034,-1.317701,-162.500221,0.008804,-0.022186,0.986481,-0.012146,-0.045631,0.00759,59.083206,30.832123,-142.986084,,,
729862921.118782,-1.30652,-1.331087,-162.497265,0.020508,-0.019577,0.98877,-0.012146,-0.045631,0.00759,59.083206,30.832123,-142.986084,,,
729862921.122044,-1.310811,-1.345507,-162.496413,0.020508,-0.019577,0.98877,-0.015782,-0.04598,-0.008122,59.083206,30.832123,-142.986084,,,
729862921.125498,-1.310811,-1.345507,-162.496413,0.020508,-0.019577,0.98877,-0.015782,-0.04598,-0.008122,59.083206,30.832123,-142.986084,,,
729862921.128823,-1.314817,-1.359177,-162.497691,0.034134,-0.011688,0.992676,-0.015782,-0.04598,-0.008122,58.813248,30.946259,-143.21579,,,
729862921.132092,-1.320101,-1.371237,-162.500578,0.034134,-0.011688,0.992676,-0.00859,-0.023851,-0.013108,58.813248,30.946259,-143.21579,,,
729862921.135418,-1.320101,-1.371237,-162.500578,0.034134,-0.011688,0.992676,-0.00859,-0.023851,-0.013108,58.813248,30.946259,-143.21579,,,
729862921.138708,-1.323174,-1.380081,-162.503687,0.041656,-0.016312,0.999954,-0.00859,-0.023851,-0.013108,58.813248,30.946259,-143.21579,,,
729862921.142125,-1.328079,-1.383983,-162.506506,0.041656,-0.016312,0.999954,0.000984,-0.005028,-0.008882,58.813248,30.946259,-143.21579,,,
729862921.145411,-1.328079,-1.383983,-162.506506,0.041656,-0.016312,0.999954,0.000984,-0.005028,-0.008882,58.813248,30.946259,-143.21579,,,
729862921.148703,-1.328215,-1.386863,-162.509024,0.039352,-0.023743,1.006622,0.000984,-0.005028,-0.008882,58.813248,30.946259,-143.21579,,,
729862921.152035,-1.329255,-1.385282,-162.510681,0.039352,-0.023743,1.006622,0.016218,0.00473,-0.005777,58.813248,30.946259,-143.21579,,,
729862921.155409,-1.329255,-1.385282,-162.510681,0.039352,-0.023743,1.006622,0.016218,0.00473,-0.005777,58.813248,30.946259,-143.21579,,,
729862921.158698,-1.325202,-1.384598,-162.511754,0.0298,-0.02626,1.006027,0.016218,0.00473,-0.005777,58.813248,30.946259,-143.21579,,,
729862921.162079,-1.319184,-1.379876,-162.51163,0.0298,-0.02626,1.006027,0.032863,0.021086,0.007663,58.813248,30.946259,-143.21579,,,
729862921.165374,-1.319184,-1.379876,-162.51163,0.0298,-0.02626,1.006027,0.032863,0.021086,0.007663,58.813248,30.946259,-143.21579,,,
729862921.168703,-1.310537,-1.375326,-162.508983,0.02327,-0.030548,1.006332,0.032863,0.021086,0.007663,59.119278,30.961639,-142.586121,,,
729862921.172036,-1.298917,-1.365953,-162.504044,0.02327,-0.030548,1.006332,0.041429,0.034319,0.019907,59.119278,30.961639,-142.586121,,,
729862921.175367,-1.298917,-1.365953,-162.504044,0.02327,-0.030548,1.006332,0.041429,0.034319,0.019907,59.119278,30.961639,-142.586121,,,
729862921.178749,-1.287903,-1.357205,-162.498258,0.024246,-0.034531,1.011002,0.041429,0.034319,0.019907,59.119278,30.961639,-142.586121,,,
729862921.182037,-1.275356,-1.344932,-162.492803,0.024246,-0.034531,1.011002,0.036511,0.021333,0.007519,59.119278,30.961639,-142.586121,,,
729862921.185374,-1.275356,-1.344932,-162.492803,0.024246,-0.034531,1.011002,0.036511,0.021333,0.007519,59.119278,30.961639,-142.586121,,,
729862921.188723,-1.264848,-1.338563,-162.489278,0.030914,-0.022003,0.998001,0.036511,0.021333,0.007519,59.119278,30.961639,-142.586121,,,
729862921.192041,-1.257374,-1.331035,-162.487628,0.030914,-0.022003,0.998001,0.008949,0.008634,0.004478,59.119278,30.961639,-142.586121,,,
729862921.195417,-1.257374,-1.331035,-162.487628,0.030914,-0.022003,0.998001,0.008949,0.008634,0.004478,59.119278,30.961639,-142.586121,,,
729862921.1987,-1.254134,-1.328945,-162.486429,0.025467,-0.014221,0.979889,0.008949,0.008634,0.004478,59.119278,30.961639,-142.586121,,,
729862921.202045,-1.254446,-1.328667,-162.484441,0.025467,-0.014221,0.979889,-0.022023,-0.002265,0.008205,59.119278,30.961639,-142.586121,,,
729862921.205374,-1.254446,-1.328667,-162.484441,0.025467,-0.014221,0.979889,-0.022023,-0.002265,0.008205,59.119278,30.961639,-142.586121,,,
729862921.208703,-1.259864,-1.329503,-162.48221,0.021454,-0.017456,0.973038,-0.022023,-0.002265,0.008205,59.065918,30.998581,-142.823196,,,
729862921.212079,-1.265827,-1.336223,-162.480581,0.021454,-0.017456,0.973038,-0.026068,-0.022793,0.000337,59.065918,30.998581,-142.823196,,,
729862921.215378,-1.265827,-1.336223,-162.480581,0.021454,-0.017456,0.973038,-0.026068,-0.022793,0.000337,59.065918,30.998581,-142.823196,,,
729862921.218702,-1.274032,-1.342021,-162.480052,0.026672,-0.019684,0.983749,-0.026068,-0.022793,0.000337,59.065918,30.998581,-142.823196,,,
729862921.222037,-1.278835,-1.355628,-162.481569,0.026672,-0.019684,0.983749,-0.005545,-0.038253,-0.009235,59.065918,30.998581,-142.823196,,,
729862921.225377,-1.278835,-1.355628,-162.481569,0.026672,-0.019684,0.983749,-0.005545,-0.038253,-0.009235,59.065918,30.998581,-142.823196,,,
729862921.228742,-1.281622,-1.366323,-162.484337,0.034805,-0.020599,0.999161,-0.005545,-0.038253,-0.009235,59.065918,30.998581,-142.823196,,,
729862921.232039,-1.282533,-1.381628,-162.486899,0.034805,-0.020599,0.999161,0.004209,-0.030512,-0.006174,59.065918,30.998581,-142.823196,,,
729862921.235368,-1.282533,-1.381628,-162.486899,0.034805,-0.020599,0.999161,0.004209,-0.030512,-0.006174,59.065918,30.998581,-142.823196,,,
729862921.238814,-1.281525,-1.392075,-162.48864,0.033401,-0.024506,1.003922,0.004209,-0.030512,-0.006174,59.065918,30.998581,-142.823196,,,
729862921.242038,-1.281443,-1.400419,-162.489782,0.033401,-0.024506,1.003922,0.005427,-0.010169,0.000469,59.065918,30.998581,-142.823196,,,
729862921.245445,-1.281443,-1.400419,-162.489782,0.033401,-0.024506,1.003922,0.005427,-0.010169,0.000469,59.065918,30.998581,-142.823196,,,
729862921.248751,-1.280372,-1.404613,-162.489941,0.026703,-0.023895,1.004242,0.005427,-0.010169,0.000469,59.065918,30.998581,-142.823196,,,
729862921.252044,-1.281939,-1.40558,-162.489682,0.026703,-0.023895,1.004242,0.001047,0.009797,-0.001769,59.114807,30.594376,-143.026459,,,
729862921.255412,-1.281939,-1.40558,-162.489682,0.026703,-0.023895,1.004242,0.001047,0.009797,-0.001769,59.114807,30.594376,-143.026459,,,
729862921.258719,-1.281602,-1.404364,-162.489468,0.027557,-0.020004,0.997665,0.001047,0.009797,-0.001769,59.114807,30.594376,-143.026459,,,
729862921.262091,-1.284712,-1.400646,-162.489224,0.027557,-0.020004,0.997665,-0.005507,0.027336,-0.000558,59.114807,30.594376,-143.026459,,,
729862921.265373,-1.284712,-1.400646,-162.489224,0.027557,-0.020004,0.997665,-0.005507,0.027336,-0.000558,59.114807,30.594376,-143.026459,,,
729862921.268728,-1.286713,-1.394057,-162.489093,0.026382,-0.019363,0.997391,-0.005507,0.027336,-0.000558,59.114807,30.594376,-143.026459,,,
729862921.272042,-1.28767,-1.386994,-162.488484,0.026382,-0.019363,0.997391,-0.000259,0.039116,0.008412,59.114807,30.594376,-143.026459,,,
729862921.275439,-1.28767,-1.386994,-162.488484,0.026382,-0.019363,0.997391,-0.000259,0.039116,0.008412,59.114807,30.594376,-143.026459,,,
729862921.278738,-1.288658,-1.376851,-162.48686,0.021759,-0.025391,1.00592,-0.000259,0.039116,0.008412,59.114807,30.594376,-143.026459,,,
729862921.282037,-1.285868,-1.366464,-162.48462,0.021759,-0.025391,1.00592,0.017743,0.033354,0.009623,59.114807,30.594376,-143.026459,,,
729862921.285372,-1.285868,-1.366464,-162.48462,0.021759,-0.025391,1.00592,0.017743,0.033354,0.009623,59.114807,30.594376,-143.026459,,,
729862921.288793,-1.282203,-1.356806,-162.48258,0.021729,-0.029449,1.013718,0.017743,0.033354,0.009623,59.114807,30.594376,-143.026459,,,
729862921.292034,-1.274414,-1.348815,-162.481215,0.021729,-0.029449,1.013718,0.031701,0.014801,-0.005992,59.13472,30.925751,-142.733246,,,
729862921.295428,-1.274414,-1.348815,-162.481215,0.021729,-0.029449,1.013718,0.031701,0.014801,-0.005992,59.13472,30.925751,-142.733246,,,
729862921.298711,-1.265734,-1.344209,-162.481728,0.026779,-0.022186,1.006317,0.031701,0.014801,-0.005992,59.13472,30.925751,-142.733246,,,
729862921.302044,-1.256227,-1.34394,-162.484514,0.026779,-0.022186,1.006317,0.032331,4.8e-05,-0.012308,59.13472,30.925751,-142.733246,,,
729862921.305392,-1.256227,-1.34394,-162.484514,0.026779,-0.022186,1.006317,0.032331,4.8e-05,-0.012308,59.13472,30.925751,-142.733246,,,
729862921.308718,-1.246883,-1.344021,-162.48786,0.025726,-0.016739,0.996674,0.032331,4.8e-05,-0.012308,59.13472,30.925751,-142.733246,,,
729862921.312082,-1.238001,-1.347556,-162.491001,0.025726,-0.016739,0.996674,0.022291,0.003061,-0.008683,59.13472,30.925751,-142.733246,,,
729862921.31537,-1.238001,-1.347556,-162.491001,0.025726,-0.016739,0.996674,0.022291,0.003061,-0.008683,59.13472,30.925751,-142.733246,,,
729862921.318734,-1.2312,-1.347283,-162.493449,0.019623,-0.017761,0.990295,0.022291,0.003061,-0.008683,59.13472,30.925751,-142.733246,,,
729862921.321884,-1.228184,-1.348332,-162.495433,0.019623,-0.017761,0.990295,-0.000692,0.009054,-0.008114,59.13472,30.925751,-142.733246,,,
729862921.325432,-1.228184,-1.348332,-162.495433,0.019623,-0.017761,0.990295,-0.000692,0.009054,-0.008114,59.13472,30.925751,-142.733246,,,
729862921.328769,-1.22819,-1.346334,-162.497395,0.015732,-0.016235,0.977615,-0.000692,0.009054,-0.008114,59.13472,30.925751,-142.733246,,,
729862921.332043,-1.232255,-1.345143,-162.500033,0.015732,-0.016235,0.977615,-0.027924,0.003255,-0.012206,59.082809,30.838501,-142.833984,,,
729862921.335386,-1.232255,-1.345143,-162.500033,0.015732,-0.016235,0.977615,-0.027924,0.003255,-0.012206,59.082809,30.838501,-142.833984,,,
729862921.338804,-1.239115,-1.344211,-162.503356,0.016205,-0.011993,0.973404,-0.027924,0.003255,-0.012206,59.082809,30.838501,-142.833984,,,
729862921.342072,-1.247923,-1.345738,-162.506666,0.016205,-0.011993,0.973404,-0.031954,-0.001109,-0.004992,59.082809,30.838501,-142.833984,,,
729862921.345473,-1.247923,-1.345738,-162.506666,0.016205,-0.011993,0.973404,-0.031954,-0.001109,-0.004992,59.082809,30.838501,-142.833984,,,
729862921.348718,-1.257694,-1.346299,-162.508623,0.017456,-0.018707,0.983047,-0.031954,-0.001109,-0.004992,59.082809,30.838501,-142.833984,,,
729862921.35204,-1.266917,-1.347564,-162.509077,0.017456,-0.018707,0.983047,-0.030259,-0.001121,0.00343,59.082809,30.838501,-142.833984,,,
729862921.355387,-1.266917,-1.347564,-162.509077,0.017456,-0.018707,0.983047,-0.030259,-0.001121,0.00343,59.082809,30.838501,-142.833984,,,
729862921.358734,-1.276076,-1.348619,-162.50843,0.0103,-0.028885,0.997665,-0.030259,-0.001121,0.00343,59.082809,30.838501,-142.833984,,,
729862921.362105,-1.284987,-1.34914,-162.50648,0.0103,-0.028885,0.997665,-0.01033,-0.00305,0.010327,59.082809,30.838501,-142.833984,,,
729862921.365368,-1.284987,-1.34914,-162.50648,0.0103,-0.028885,0.997665,-0.01033,-0.00305,0.010327,59.082809,30.838501,-142.833984,,,
729862921.368717,-1.289127,-1.35044,-162.503391,0.011978,-0.033234,1.008575,-0.01033,-0.00305,0.010327,59.082809,30.838501,-142.833984,,,
729862921.372036,-1.289645,-1.351822,-162.49964,0.011978,-0.033234,1.008575,0.026967,-0.004123,0.016513,59.157135,30.847885,-142.691772,,,
729862921.375445,-1.289645,-1.351822,-162.49964,0.011978,-0.033234,1.008575,0.026967,-0.004123,0.016513,59.157135,30.847885,-142.691772,,,
729862921.37878,-1.283682,-1.353543,-162.494974,0.020203,-0.037384,1.023941,0.026967,-0.004123,0.016513,59.157135,30.847885,-142.691772,,,
729862921.382034,-1.271689,-1.35531,-162.489526,0.020203,-0.037384,1.023941,0.064093,0.006687,0.018517,59.157135,30.847885,-142.691772,,,
729862921.385383,-1.271689,-1.35531,-162.489526,0.020203,-0.037384,1.023941,0.064093,0.006687,0.018517,59.157135,30.847885,-142.691772,,,
729862921.388784,-1.255487,-1.354651,-162.483488,0.022171,-0.034439,1.028046,0.064093,0.006687,0.018517,59.157135,30.847885,-142.691772,,,
729862921.392036,-1.235694,-1.353237,-162.476573,0.022171,-0.034439,1.028046,0.059985,0.004798,0.024787,59.157135,30.847885,-142.691772,,,
729862921.395424,-1.235694,-1.353237,-162.476573,0.022171,-0.034439,1.028046,0.059985,0.004798,0.024787,59.157135,30.847885,-142.691772,,,
729862921.398702,-1.218556,-1.352016,-162.468705,0.024857,-0.024689,1.005646,0.059985,0.004798,0.024787,59.157135,30.847885,-142.691772,,,
729862921.402039,-1.205151,-1.350026,-162.460792,0.024857,-0.024689,1.005646,0.021042,0.001531,0.019923,59.157135,30.847885,-142.691772,,,
729862921.405374,-1.205151,-1.350026,-162.460792,0.024857,-0.024689,1.005646,0.021042,0.001531,0.019923,59.157135,30.847885,-142.691772,,,
729862921.408701,-1.197548,-1.350079,-162.454187,0.025192,-0.009476,0.972656,0.021042,0.001531,0.019923,59.157135,30.847885,-142.691772,,,
729862921.41208,-1.194102,-1.348882,-162.448499,0.025192,-0.009476,0.972656,-0.008241,-0.004793,0.013407,59.157135,30.847885,-142.691772,,,
729862921.415366,-1.194102,-1.348882,-162.448499,0.025192,-0.009476,0.972656,-0.008241,-0.004793,0.013407,59.073227,30.634155,-142.965836,,,
729862921.418702,-1.195682,-1.35079,-162.443872,0.035034,-0.006149,0.972397,-0.008241,-0.004793,0.013407,59.073227,30.634155,-142.965836,,,
729862921.422044,-1.197786,-1.352568,-162.439746,0.035034,-0.006149,0.972397,-0.020594,-0.016053,0.00885,59.073227,30.634155,-142.965836,,,
729862921.425478,-1.197786,-1.352568,-162.439746,0.035034,-0.006149,0.972397,-0.020594,-0.016053,0.00885,59.073227,30.634155,-142.965836,,,
729862921.428776,-1.203924,-1.357438,-162.436548,0.041321,-0.011429,0.982697,-0.020594,-0.016053,0.00885,59.073227,30.634155,-142.965836,,,
729862921.432044,-1.210939,-1.362111,-162.435826,0.041321,-0.011429,0.982697,-0.023295,-0.033963,-0.007291,59.073227,30.634155,-142.965836,,,
729862921.435394,-1.210939,-1.362111,-162.435826,0.041321,-0.011429,0.982697,-0.023295,-0.033963,-0.007291,59.073227,30.634155,-142.965836,,,
729862921.43877,-1.218367,-1.37151,-162.437411,0.04335,-0.012115,0.985733,-0.023295,-0.033963,-0.007291,59.073227,30.634155,-142.965836,,,
729862921.44204,-1.228898,-1.378924,-162.44042,0.04335,-0.012115,0.985733,-0.035114,-0.04289,-0.015834,59.073227,30.634155,-142.965836,,,
729862921.445428,-1.228898,-1.378924,-162.44042,0.04335,-0.012115,0.985733,-0.035114,-0.04289,-0.015834,59.073227,30.634155,-142.965836,,,
729862921.448706,-1.238097,-1.391552,-162.444451,0.043686,-0.011337,0.986786,-0.035114,-0.04289,-0.015834,59.073227,30.634155,-142.965836,,,
729862921.452044,-1.251055,-1.401828,-162.449203,0.043686,-0.011337,0.986786,-0.0352,-0.042682,-0.01752,59.073227,30.634155,-142.965836,,,
729862921.455394,-1.251055,-1.401828,-162.449203,0.043686,-0.011337,0.986786,-0.0352,-0.042682,-0.01752,58.911194,30.790237,-142.476578,,,
729862921.458723,-1.261238,-1.414475,-162.454714,0.04393,-0.019775,0.99678,-0.0352,-0.042682,-0.01752,58.911194,30.790237,-142.476578,,,
729862921.462087,-1.273148,-1.425973,-162.460592,0.04393,-0.019775,0.99678,-0.024723,-0.037973,-0.02371,58.911194,30.790237,-142.476578,,,
729862921.465369,-1.273148,-1.425973,-162.460592,0.04393,-0.019775,0.99678,-0.024723,-0.037973,-0.02371,58.911194,30.790237,-142.476578,,,
729862921.468735,-1.280366,-1.438277,-162.466826,0.043289,-0.023529,1.002426,-0.024723,-0.037973,-0.02371,58.911194,30.790237,-142.476578,,,
729862921.472042,-1.289163,-1.447211,-162.4731,0.043289,-0.023529,1.002426,-0.013521,-0.015672,-0.021683,58.911194,30.790237,-142.476578,,,
729862921.475448,-1.289163,-1.447211,-162.4731,0.043289,-0.023529,1.002426,-0.013521,-0.015672,-0.021683,58.911194,30.790237,-142.476578,,,
729862921.478503,-1.29378,-1.453555,-162.478639,0.040527,-0.027496,1.006775,-0.013521,-0.015672,-0.021683,58.911194,30.790237,-142.476578,,,
729862921.482065,-1.29517,-1.455984,-162.483596,0.040527,-0.027496,1.006775,0.012549,0.009988,-0.018075,58.911194,30.790237,-142.476578,,,
729862921.485388,-1.29517,-1.455984,-162.483596,0.040527,-0.027496,1.006775,0.012549,0.009988,-0.018075,58.911194,30.790237,-142.476578,,,
729862921.488768,-1.292867,-1.454844,-162.488115,0.039917,-0.033142,1.023834,0.012549,0.009988,-0.018075,58.911194,30.790237,-142.476578,,,
729862921.492029,-1.282301,-1.450589,-162.491785,0.039917,-0.033142,1.023834,0.038165,0.042046,-0.012485,58.911194,30.790237,-142.476578,,,
729862921.495407,-1.282301,-1.450589,-162.491785,0.039917,-0.033142,1.023834,0.038165,0.042046,-0.012485,58.832611,30.726807,-142.986908,,,
729862921.498707,-1.272233,-1.441006,-162.495262,0.033218,-0.038879,1.030045,0.038165,0.042046,-0.012485,58.832611,30.726807,-142.986908,,,
729862921.502038,-1.257299,-1.431428,-162.498957,0.033218,-0.038879,1.030045,0.041702,0.055962,-0.013046,58.832611,30.726807,-142.986908,,,
729862921.505366,-1.257299,-1.431428,-162.498957,0.033218,-0.038879,1.030045,0.041702,0.055962,-0.013046,58.832611,30.726807,-142.986908,,,
729862921.508721,-1.245535,-1.416498,-162.502458,0.028305,-0.031372,1.016357,0.041702,0.055962,-0.013046,58.832611,30.726807,-142.986908,,,
729862921.51214,-1.232461,-1.405587,-162.505945,0.028305,-0.031372,1.016357,0.029517,0.052906,-0.014589,58.832611,30.726807,-142.986908,,,
729862921.515363,-1.232461,-1.405587,-162.505945,0.028305,-0.031372,1.016357,0.029517,0.052906,-0.014589,58.832611,30.726807,-142.986908,,,
729862921.518722,-1.223807,-1.390841,-162.509715,0.019531,-0.025635,0.99614,0.029517,0.052906,-0.014589,58.832611,30.726807,-142.986908,,,
729862921.522053,-1.215734,-1.383952,-162.513802,0.019531,-0.025635,0.99614,0.009773,0.031583,-0.01666,58.832611,30.726807,-142.986908,,,
729862921.525442,-1.215734,-1.383952,-162.513802,0.019531,-0.025635,0.99614,0.009773,0.031583,-0.01666,58.832611,30.726807,-142.986908,,,
729862921.528737,-1.212589,-1.375009,-162.517777,0.008133,-0.022202,0.982315,0.009773,0.031583,-0.01666,58.832611,30.726807,-142.986908,,,
729862921.532037,-1.210183,-1.375918,-162.522152,0.008133,-0.022202,0.982315,-0.01268,-0.000966,-0.01463,58.832611,30.726807,-142.986908,,,
729862921.535374,-1.210183,-1.375918,-162.522152,0.008133,-0.022202,0.982315,-0.01268,-0.000966,-0.01463,58.832611,30.726807,-142.986908,,,
729862921.538763,-1.212871,-1.376252,-162.526386,0.005295,-0.018524,0.973755,-0.01268,-0.000966,-0.01463,58.878281,30.636002,-142.746567,,,
729862921.542036,-1.219223,-1.386325,-162.530708,0.005295,-0.018524,0.973755,-0.032214,-0.025876,-0.016804,58.878281,30.636002,-142.746567,,,
729862921.54542,-1.219223,-1.386325,-162.530708,0.005295,-0.018524,0.973755,-0.032214,-0.025876,-0.016804,58.878281,30.636002,-142.746567,,,
729862921.548701,-1.228489,-1.393986,-162.535405,0.009018,-0.015503,0.972321,-0.032214,-0.025876,-0.016804,58.878281,30.636002,-142.746567,,,
729862921.552037,-1.240927,-1.408819,-162.540858,0.009018,-0.015503,0.972321,-0.049863,-0.03821,-0.021381,58.878281,30.636002,-142.746567,,,
729862921.55538,-1.240927,-1.408819,-162.540858,0.009018,-0.015503,0.972321,-0.049863,-0.03821,-0.021381,58.878281,30.636002,-142.746567,,,
729862921.558713,-1.254572,-1.420423,-162.546802,0.013306,-0.013321,0.977783,-0.049863,-0.03821,-0.021381,58.878281,30.636002,-142.746567,,,
729862921.562075,-1.270095,-1.436414,-162.553221,0.013306,-0.013321,0.977783,-0.041407,-0.032178,-0.02108,58.878281,30.636002,-142.746567,,,
729862921.565366,-1.270095,-1.436414,-162.553221,0.013306,-0.013321,0.977783,-0.041407,-0.032178,-0.02108,58.878281,30.636002,-142.746567,,,
729862921.568719,-1.282387,-1.446525,-162.559224,0.018158,-0.021774,0.992447,-0.041407,-0.032178,-0.02108,58.878281,30.636002,-142.746567,,,
729862921.572042,-1.294501,-1.456741,-162.564467,0.018158,-0.021774,0.992447,-0.012052,-0.006892,-0.010686,58.878281,30.636002,-142.746567,,,
729862921.575429,-1.294501,-1.456741,-162.564467,0.018158,-0.021774,0.992447,-0.012052,-0.006892,-0.010686,58.878281,30.636002,-142.746567,,,
729862921.578737,-1.299552,-1.460065,-162.568179,0.01741,-0.030533,1.019882,-0.012052,-0.006892,-0.010686,59.001892,30.812592,-142.72438,,,
729862921.582087,-1.302329,-1.462071,-162.570241,0.01741,-0.030533,1.019882,0.02566,0.007368,-0.000251,59.001892,30.812592,-142.72438,,,
729862921.585386,-1.302329,-1.462071,-162.570241,0.01741,-0.030533,1.019882,0.02566,0.007368,-0.000251,59.001892,30.812592,-142.72438,,,
729862921.588807,-1.296563,-1.460524,-162.570684,0.016724,-0.036057,1.025909,0.02566,0.007368,-0.000251,59.001892,30.812592,-142.72438,,,
729862921.592047,-1.287962,-1.458496,-162.569745,0.016724,-0.036057,1.025909,0.044248,0.012092,0.002301,59.001892,30.812592,-142.72438,,,
729862921.595422,-1.287962,-1.458496,-162.569745,0.016724,-0.036057,1.025909,0.044248,0.012092,0.002301,59.001892,30.812592,-142.72438,,,
729862921.598748,-1.275555,-1.456148,-162.568475,0.016815,-0.030014,1.011749,0.044248,0.012092,0.002301,59.001892,30.812592,-142.72438,,,
729862921.602043,-1.263535,-1.451654,-162.567435,0.016815,-0.030014,1.011749,0.043211,0.010584,-0.000865,59.001892,30.812592,-142.72438,,,
729862921.605386,-1.263535,-1.451654,-162.567435,0.016815,-0.030014,1.011749,0.043211,0.010584,-0.000865,59.001892,30.812592,-142.72438,,,
729862921.608736,-1.250927,-1.449878,-162.567382,0.020325,-0.020981,0.9935,0.043211,0.010584,-0.000865,59.001892,30.812592,-142.72438,,,
729862921.612082,-1.239157,-1.443132,-162.567663,0.020325,-0.020981,0.9935,0.033681,0.002807,-0.000996,59.001892,30.812592,-142.72438,,,
729862921.615382,-1.239157,-1.443132,-162.567663,0.020325,-0.020981,0.9935,0.033681,0.002807,-0.000996,59.001892,30.812592,-142.72438,,,
729862921.61873,-1.229492,-1.442009,-162.567713,0.01976,-0.01889,0.983765,0.033681,0.002807,-0.000996,58.870621,30.778748,-142.986038,,,
729862921.62204,-1.221726,-1.43602,-162.567197,0.01976,-0.01889,0.983765,0.012301,0.008697,0.003278,58.870621,30.778748,-142.986038,,,
729862921.62532,-1.221726,-1.43602,-162.567197,0.01976,-0.01889,0.983765,0.012301,0.008697,0.003278,58.870621,30.778748,-142.986038,,,
729862921.62876,-1.217583,-1.434642,-162.565947,0.014862,-0.020111,0.978607,0.012301,0.008697,0.003278,58.870621,30.778748,-142.986038,,,
729862921.632076,-1.215198,-1.428092,-162.564544,0.014862,-0.020111,0.978607,-0.01264,0.010111,0.004076,58.870621,30.778748,-142.986038,,,
729862921.635399,-1.215198,-1.428092,-162.564544,0.014862,-0.020111,0.978607,-0.01264,0.010111,0.004076,58.870621,30.778748,-142.986038,,,
729862921.638793,-1.218144,-1.425441,-162.56354,0.01741,-0.014587,0.975555,-0.01264,0.010111,0.004076,58.870621,30.778748,-142.986038,,,
729862921.642037,-1.223254,-1.421187,-162.562238,0.01741,-0.014587,0.975555,-0.038038,0.003018,0.002747,58.870621,30.778748,-142.986038,,,
729862921.645431,-1.223254,-1.421187,-162.562238,0.01741,-0.014587,0.975555,-0.038038,0.003018,0.002747,58.870621,30.778748,-142.986038,,,
729862921.648715,-1.233291,-1.421116,-162.560877,0.023285,-0.013046,0.96814,-0.038038,0.003018,0.002747,58.870621,30.778748,-142.986038,,,
729862921.651888,-1.247343,-1.42032,-162.559773,0.023285,-0.013046,0.96814,-0.056907,-0.002142,0.002946,58.870621,30.778748,-142.986038,,,
729862921.655398,-1.247343,-1.42032,-162.559773,0.023285,-0.013046,0.96814,-0.056907,-0.002142,0.002946,58.870621,30.778748,-142.986038,,,
729862921.658711,-1.263565,-1.421422,-162.559036,0.025223,-0.012161,0.970093,-0.056907,-0.002142,0.002946,58.757202,30.921448,-142.465179,,,
729862921.662087,-1.283951,-1.419917,-162.558054,0.025223,-0.012161,0.970093,-0.064416,0.006079,0.007943,58.757202,30.921448,-142.465179,,,
729862921.665368,-1.283951,-1.419917,-162.558054,0.025223,-0.012161,0.970093,-0.064416,0.006079,0.007943,58.757202,30.921448,-142.465179,,,
729862921.668718,-1.30291,-1.419127,-162.556333,0.028214,-0.017258,0.982849,-0.064416,0.006079,0.007943,58.757202,30.921448,-142.465179,,,
729862921.672045,-1.323122,-1.414273,-162.553326,0.028214,-0.017258,0.982849,-0.046073,0.018302,0.017499,58.757202,30.921448,-142.465179,,,
729862921.675473,-1.323122,-1.414273,-162.553326,0.028214,-0.017258,0.982849,-0.046073,0.018302,0.017499,58.757202,30.921448,-142.465179,,,
729862921.678803,-1.337218,-1.409833,-162.549049,0.028595,-0.029022,1.006851,-0.046073,0.018302,0.017499,58.757202,30.921448,-142.465179,,,
729862921.68204,-1.346816,-1.403783,-162.544235,0.028595,-0.029022,1.006851,-0.00304,0.01206,0.015094,58.757202,30.921448,-142.465179,,,
729862921.685401,-1.346816,-1.403783,-162.544235,0.028595,-0.029022,1.006851,-0.00304,0.01206,0.015094,58.757202,30.921448,-142.465179,,,
729862921.688783,-1.349726,-1.400419,-162.539763,0.032852,-0.032059,1.024338,-0.00304,0.01206,0.015094,58.757202,30.921448,-142.465179,,,
729862921.692036,-1.346242,-1.39809,-162.536293,0.032852,-0.032059,1.024338,0.031401,-0.007485,0.002656,58.757202,30.921448,-142.465179,,,
729862921.695427,-1.346242,-1.39809,-162.536293,0.032852,-0.032059,1.024338,0.031401,-0.007485,0.002656,58.757202,30.921448,-142.465179,,,
729862921.698713,-1.338713,-1.40049,-162.534828,0.038437,-0.026627,1.019043,0.031401,-0.007485,0.002656,58.757202,30.921448,-142.465179,,,
729862921.702042,-1.326408,-1.404748,-162.534685,0.038437,-0.026627,1.019043,0.044522,-0.023135,-0.007428,58.90184,30.747574,-143.064056,,,
729862921.705382,-1.326408,-1.404748,-162.534685,0.038437,-0.026627,1.019043,0.044522,-0.023135,-0.007428,58.90184,30.747574,-143.064056,,,
729862921.708721,-1.313631,-1.411638,-162.535227,0.036392,-0.022247,1.007339,0.044522,-0.023135,-0.007428,58.90184,30.747574,-143.064056,,,
729862921.712081,-1.300547,-1.415861,-162.535668,0.036392,-0.022247,1.007339,0.03707,-0.017775,-0.002626,58.90184,30.747574,-143.064056,,,
729862921.715367,-1.300547,-1.415861,-162.535668,0.036392,-0.022247,1.007339,0.03707,-0.017775,-0.002626,58.90184,30.747574,-143.064056,,,
729862921.718705,-1.290009,-1.4217,-162.535594,0.033463,-0.019745,0.998489,0.03707,-0.017775,-0.002626,58.90184,30.747574,-143.064056,,,
729862921.722036,-1.280772,-1.424774,-162.535422,0.033463,-0.019745,0.998489,0.01029,-0.010114,-0.001863,58.90184,30.747574,-143.064056,,,
729862921.725458,-1.280772,-1.424774,-162.535422,0.033463,-0.019745,0.998489,0.01029,-0.010114,-0.001863,58.90184,30.747574,-143.064056,,,
729862921.728753,-1.27725,-1.428868,-162.535709,0.03421,-0.012451,0.985413,0.01029,-0.010114,-0.001863,58.90184,30.747574,-143.064056,,,
729862921.732037,-1.275832,-1.432284,-162.537266,0.03421,-0.012451,0.985413,-0.016909,-0.00352,-0.014237,58.90184,30.747574,-143.064056,,,
729862921.735401,-1.275832,-1.432284,-162.537266,0.03421,-0.012451,0.985413,-0.016909,-0.00352,-0.014237,58.90184,30.747574,-143.064056,,,
729862921.738782,-1.279941,-1.434772,-162.540116,0.042618,-0.007263,0.983246,-0.016909,-0.00352,-0.014237,58.90184,30.747574,-143.064056,,,
729862921.74203,-1.284805,-1.435677,-162.544145,0.042618,-0.007263,0.983246,-0.034096,0.015685,-0.016163,59.003738,30.782532,-142.916931,,,
729862921.745445,-1.284805,-1.435677,-162.544145,0.042618,-0.007263,0.983246,-0.034096,0.015685,-0.016163,59.003738,30.782532,-142.916931,,,
729862921.748699,-1.29408,-1.433186,-162.548948,0.041534,-0.008728,0.992126,-0.034096,0.015685,-0.016163,59.003738,30.782532,-142.916931,,,
729862921.752035,-1.29408,-1.428462,-162.553385,0.041534,-0.008728,0.992126,-0.036357,0.040415,-0.009005,59.003738,30.782532,-142.916931,,,
729862921.755387,-1.30389,-1.428462,-162.553385,0.041534,-0.008728,0.992126,-0.036357,0.040415,-0.009005,59.003738,30.782532,-142.916931,,,
729862921.758717,-1.314152,-1.418578,-162.556238,0.030151,-0.01947,1.005203,-0.036357,0.040415,-0.009005,59.003738,30.782532,-142.916931,,,
729862921.762089,-1.325603,-1.4064,-162.557534,0.030151,-0.01947,1.005203,-0.032507,0.05594,-0.00487,59.003738,30.782532,-142.916931,,,
729862921.765368,-1.325603,-1.4064,-162.557534,0.030151,-0.01947,1.005203,-0.032507,0.05594,-0.00487,59.003738,30.782532,-142.916931,,,
729862921.768706,-1.33521,-1.39137,-162.558582,0.025742,-0.023254,1.011871,-0.032507,0.05594,-0.00487,59.003738,30.782532,-142.916931,,,
729862921.772075,-1.33521,-1.39137,-162.558582,0.025742,-0.023254,1.011871,-0.024527,0.039019,-0.012342,59.003738,30.782532,-142.916931,,,
729862921.775462,-1.346141,-1.379527,-162.560158,0.025742,-0.023254,1.011871,-0.024527,0.039019,-0.012342,59.003738,30.782532,-142.916931,,,
729862921.778746,-1.354,-1.368333,-162.562574,0.024841,-0.022369,1.003143,-0.024527,0.039019,-0.012342,59.003738,30.782532,-142.916931,,,
729862921.782038,-1.360758,-1.365362,-162.566358,0.024841,-0.022369,1.003143,-0.015566,0.005621,-0.014693,58.89447,30.98497,-142.481735,,,
729862921.785402,-1.360758,-1.365362,-162.566358,0.024841,-0.022369,1.003143,-0.015566,0.005621,-0.014693,58.89447,30.98497,-142.481735,,,
729862921.788714,-1.365412,-1.363563,-162.570288,0.016968,-0.021667,1.002213,-0.015566,0.005621,-0.014693,58.89447,30.98497,-142.481735,,,
729862921.792047,-1.365412,-1.363563,-162.570288,0.016968,-0.021667,1.002213,-0.015566,0.005621,-0.005108,58.89447,30.98497,-142.481735,,,
729862921.79543,-1.36761,-1.36932,-162.57353,0.016968,-0.021667,1.002213,0.003594,-0.023079,-0.005108,58.89447,30.98497,-142.481735,,,
729862921.798697,-1.36747,-1.376051,-162.575071,0.00798,-0.031128,1.007462,0.003594,-0.023079,-0.005108,58.89447,30.98497,-142.481735,,,
729862921.802054,-1.36747,-1.376051,-162.574692,0.00798,-0.031128,1.007462,0.026688,-0.036656,0.00663,58.89447,30.98497,-142.481735,,,
729862921.80541,-1.363108,-1.387412,-162.574692,0.00798,-0.031128,1.007462,0.026688,-0.036656,0.00663,58.89447,30.98497,-142.481735,,,
729862921.808731,-1.356988,-1.397991,-162.572811,0.005585,-0.03537,1.016602,0.026688,-0.036656,0.00663,58.89447,30.98497,-142.481735,,,
729862921.812099,-1.356988,-1.397991,-162.572811,0.005585,-0.03537,1.016602,0.026688,-0.036656,0.00663,58.89447,30.98497,-142.481735,,,
729862921.815378,-1.345587,-1.41339,-162.56984,0.005585,-0.03537,1.016602,0.034587,-0.038971,0.006575,58.89447,30.98497,-142.481735,,,
729862921.818703,-1.336207,-1.425529,-162.566601,0.016342,-0.028244,1.01207,0.034587,-0.038971,0.006575,58.89447,30.98497,-142.481735,,,
729862921.822065,-1.336207,-1.425529,-162.566601,0.016342,-0.028244,1.01207,0.022829,-0.023222,0.001943,58.813538,30.845154,-142.734055,,,
729862921.825441,-1.323597,-1.441217,-162.564415,0.016342,-0.028244,1.01207,0.022829,-0.023222,0.001943,58.813538,30.845154,-142.734055,,,
729862921.828736,-1.316888,-1.449065,-162.562605,0.024323,-0.018127,0.999039,0.022829,-0.023222,0.001943,58.813538,30.845154,-142.734055,,,
729862921.832071,-1.316888,-1.449065,-162.562605,0.024323,-0.018127,0.999039,0.022829,-0.023222,0.001943,58.813538,30.845154,-142.734055,,,
729862921.83541,-1.310204,-1.457463,-162.561249,0.024323,-0.018127,0.999039,0.00327,0.002082,0.001348,58.813538,30.845154,-142.734055,,,
729862921.838732,-1.308544,-1.458843,-162.560244,0.026505,-0.016602,0.991211,0.00327,0.002082,0.001348,58.813538,30.845154,-142.734055,,,
729862921.842077,-1.308544,-1.458843,-162.560244,0.026505,-0.016602,0.991211,0.00327,0.002082,0.001348,58.813538,30.845154,-142.734055,,,
729862921.845425,-1.308479,-1.45827,-162.559568,0.026505,-0.016602,0.991211,-0.016245,0.012233,0.000764,58.813538,30.845154,-142.734055,,,
729862921.848745,-1.311942,-1.455451,-162.559461,0.031067,-0.015411,0.987503,-0.016245,0.012233,0.000764,58.813538,30.845154,-142.734055,,,
729862921.852102,-1.311942,-1.455451,-162.559461,0.031067,-0.015411,0.987503,-0.016245,0.012233,0.000764,58.813538,30.845154,-142.734055,,,
729862921.855475,-1.318827,-1.451696,-162.559641,0.031067,-0.015411,0.987503,-0.035766,0.010633,-0.000989,58.813538,30.845154,-142.734055,,,
729862921.858702,-1.328827,-1.448345,-162.559933,0.024185,-0.015305,0.976898,-0.035766,0.010633,-0.000989,58.813538,30.845154,-142.734055,,,
729862921.862056,-1.328827,-1.448345,-162.559933,0.024185,-0.015305,0.976898,-0.035766,0.010633,-0.000989,58.813538,30.845154,-142.734055,,,
729862921.865391,-1.341129,-1.446471,-162.560234,0.024185,-0.015305,0.976898,-0.053288,0.000871,-0.002134,58.859619,30.873032,-142.848419,,,
729862921.868715,-1.356084,-1.446708,-162.560597,0.020569,-0.017014,0.974884,-0.053288,0.000871,-0.002134,58.859619,30.873032,-142.848419,,,
729862921.872091,-1.356084,-1.446708,-162.560597,0.020569,-0.017014,0.974884,-0.053288,0.000871,-0.002134,58.859619,30.873032,-142.848419,,,
729862921.875382,-1.372215,-1.445323,-162.560205,0.020569,-0.017014,0.974884,-0.0552,-0.009512,0.008531,58.859619,30.873032,-142.848419,,,
729862921.878808,-1.38817,-1.447718,-162.558328,0.019073,-0.026245,0.987625,-0.0552,-0.009512,0.008531,58.859619,30.873032,-142.848419,,,
729862921.882088,-1.38817,-1.447718,-162.558328,0.019073,-0.026245,0.987625,-0.0552,-0.009512,0.008531,58.859619,30.873032,-142.848419,,,
729862921.885388,-1.404213,-1.446334,-162.555463,0.019073,-0.026245,0.987625,-0.030652,-0.018313,0.007799,58.859619,30.873032,-142.848419,,,
729862921.888715,-1.414247,-1.451797,-162.55266,0.022003,-0.032776,1.004578,-0.030652,-0.018313,0.007799,58.859619,30.873032,-142.848419,,,
729862921.892125,-1.414247,-1.451797,-162.55266,0.022003,-0.032776,1.004578,-0.030652,-0.018313,0.007799,58.859619,30.873032,-142.848419,,,
729862921.895425,-1.421237,-1.453586,-162.550094,0.022003,-0.032776,1.004578,0.006777,-0.018989,0.007957,58.859619,30.873032,-142.848419,,,
729862921.898703,-1.420927,-1.460028,-162.547635,0.031372,-0.034378,1.021347,0.006777,-0.018989,0.007957,58.859619,30.873032,-142.848419,,,
729862921.902083,-1.420927,-1.460028,-162.547635,0.031372,-0.034378,1.021347,0.006777,-0.018989,0.007957,58.859619,30.873032,-142.848419,,,
729862921.905424,-1.416262,-1.464003,-162.544539,0.031372,-0.034378,1.021347,0.032556,-0.012351,0.012647,58.611862,30.997101,-142.93811,,,
729862921.908711,-1.407924,-1.468305,-162.540656,0.030151,-0.038635,1.023193,0.032556,-0.012351,0.012647,58.611862,30.997101,-142.93811,,,
729862921.912138,-1.407924,-1.468305,-162.540656,0.030151,-0.038635,1.023193,0.032556,-0.012351,0.012647,58.611862,30.997101,-142.93811,,,
729862921.915363,-1.395613,-1.470238,-162.535776,0.030151,-0.038635,1.023193,0.045465,0.002706,0.017071,58.611862,30.997101,-142.93811,,,
729862921.918708,-1.384009,-1.470368,-162.530554,0.032639,-0.032669,1.017273,0.045465,0.002706,0.017071,58.611862,30.997101,-142.93811,,,
729862921.922077,-1.384009,-1.470368,-162.530554,0.032639,-0.032669,1.017273,0.045465,0.002706,0.017071,58.611862,30.997101,-142.93811,,,
729862921.925386,-1.37166,-1.469678,-162.526185,0.032639,-0.032669,1.017273,0.029628,0.007941,0.007551,58.611862,30.997101,-142.93811,,,
729862921.928744,-1.363626,-1.467104,-162.523519,0.036865,-0.021286,0.999054,0.029628,0.007941,0.007551,58.611862,30.997101,-142.93811,,,
729862921.932044,-1.363626,-1.467104,-162.523519,0.036865,-0.021286,0.999054,0.029628,0.007941,0.007551,58.611862,30.997101,-142.93811,,,
729862921.935379,-1.35667,-1.466297,-162.522364,0.036865,-0.021286,0.999054,0.005762,0.008898,-0.004698,58.611862,30.997101,-142.93811,,,
729862921.938715,-1.354448,-1.464878,-162.522055,0.037796,-0.014648,0.98645,0.005762,0.008898,-0.004698,58.611862,30.997101,-142.93811,,,
729862921.942039,-1.354448,-1.464878,-162.522055,0.037796,-0.014648,0.98645,0.005762,0.008898,-0.004698,58.611862,30.997101,-142.93811,,,
729862921.945433,-1.352624,-1.462756,-162.522293,0.037796,-0.014648,0.98645,-0.00463,0.007029,-0.002415,58.593262,30.876083,-142.839874,,,
729862921.948706,-1.354109,-1.460722,-162.522365,0.032806,-0.019363,0.989853,-0.00463,0.007029,-0.002415,58.593262,30.876083,-142.839874,,,
729862921.952071,-1.354109,-1.460722,-162.522365,0.032806,-0.019363,0.989853,-0.00463,0.007029,-0.002415,58.593262,30.876083,-142.839874,,,
729862921.955433,-1.355755,-1.456818,-162.52222,0.032806,-0.019363,0.989853,-0.008232,0.015715,9.4e-05,58.593262,30.876083,-142.839874,,,
729862921.958712,-1.358924,-1.453198,-162.521892,0.031387,-0.02504,0.998322,-0.008232,0.015715,9.4e-05,58.593262,30.876083,-142.839874,,,
729862921.962096,-1.358924,-1.453198,-162.521892,0.031387,-0.02504,0.998322,-0.008232,0.015715,9.4e-05,58.593262,30.876083,-142.839874,,,
729862921.965372,-1.364056,-1.446206,-162.521049,0.031387,-0.02504,0.998322,-0.011572,0.026097,-0.002149,58.593262,30.876083,-142.839874,,,
729862921.968713,-1.368112,-1.439813,-162.520535,0.033051,-0.022232,0.99855,-0.011572,0.026097,-0.002149,58.593262,30.876083,-142.839874,,,
729862921.972058,-1.368112,-1.439813,-162.520535,0.033051,-0.022232,0.99855,-0.011572,0.026097,-0.002149,58.593262,30.876083,-142.839874,,,
729862921.975395,-1.373147,-1.432743,-162.520533,0.033051,-0.022232,0.99855,-0.005235,0.024777,-0.003047,58.593262,30.876083,-142.839874,,,
729862921.978748,-1.375104,-1.425699,-162.520732,0.03035,-0.023392,1.004303,-0.005235,0.024777,-0.003047,58.593262,30.876083,-142.839874,,,
729862921.982044,-1.375104,-1.425699,-162.520732,0.03035,-0.023392,1.004303,-0.005235,0.024777,-0.003047,58.593262,30.876083,-142.839874,,,
729862921.985382,-1.377149,-1.422607,-162.521276,0.03035,-0.023392,1.004303,0.013587,0.003759,-0.004807,58.716736,30.866592,-143.013077,,,
729862921.988712,-1.373492,-1.421125,-162.521814,0.024857,-0.028381,1.006927,0.013587,0.003759,-0.004807,58.716736,30.866592,-143.013077,,,
729862921.992099,-1.373492,-1.421125,-162.521814,0.024857,-0.028381,1.006927,0.013587,0.003759,-0.004807,58.716736,30.866592,-143.013077,,,
729862921.995409,-1.370061,-1.422488,-162.522025,0.024857,-0.028381,1.006927,0.032082,-0.004159,-0.001058,58.716736,30.866592,-143.013077,,,
729862921.998711,-1.36169,-1.42392,-162.522188,0.023987,-0.029663,1.009995,0.032082,-0.004159,-0.001058,58.716736,30.866592,-143.013077,,,
729862922.002079,-1.36169,-1.42392,-162.522188,0.023987,-0.029663,1.009995,0.032082,-0.004159,-0.001058,58.716736,30.866592,-143.013077,,,
729862922.005486,-1.352183,-1.429102,-162.522792,0.023987,-0.029663,1.009995,0.045867,-0.01152,-0.006022,58.716736,30.866592,-143.013077,,,
729862922.008711,-1.339095,-1.432978,-162.524038,0.028717,-0.023651,1.007599,0.045867,-0.01152,-0.006022,58.716736,30.866592,-143.013077,,,
729862922.012101,-1.339095,-1.432978,-162.524038,0.028717,-0.023651,1.007599,0.045867,-0.01152,-0.006022,58.716736,30.866592,-143.013077,,,
729862922.015379,-1.324516,-1.440802,-162.526213,0.028717,-0.023651,1.007599,0.050108,-0.015143,-0.013002,58.716736,30.866592,-143.013077,,,
729862922.018716,-1.310419,-1.445437,-162.529265,0.031891,-0.020828,1.003189,0.050108,-0.015143,-0.013002,58.716736,30.866592,-143.013077,,,
729862922.022062,-1.310419,-1.445437,-162.529265,0.031891,-0.020828,1.003189,0.050108,-0.015143,-0.013002,58.716736,30.866592,-143.013077,,,
729862922.025399,-1.294479,-1.451788,-162.532894,0.031891,-0.020828,1.003189,0.045989,0.004901,-0.015022,58.716736,30.866592,-143.013077,,,
729862922.028751,-1.280639,-1.451664,-162.536302,0.031403,-0.020203,1.005737,0.045989,0.004901,-0.015022,58.636673,30.740234,-142.904617,,,
729862922.032038,-1.280639,-1.451664,-162.536302,0.031403,-0.020203,1.005737,0.045989,0.004901,-0.015022,58.636673,30.740234,-142.904617,,,
729862922.035397,-1.267839,-1.449876,-162.540239,0.031403,-0.020203,1.005737,0.030621,0.024437,-0.01837,58.636673,30.740234,-142.904617,,,
729862922.038713,-1.258341,-1.444069,-162.545205,0.032898,-0.019989,0.997742,0.030621,0.024437,-0.01837,58.636673,30.740234,-142.904617,,,
729862922.042107,-1.258341,-1.444069,-162.545205,0.032898,-0.019989,0.997742,0.030621,0.024437,-0.01837,58.636673,30.740234,-142.904617,,,
729862922.045413,-1.253117,-1.438377,-162.550964,0.032898,-0.019989,0.997742,0.002007,0.031793,-0.026596,58.636673,30.740234,-142.904617,,,
729862922.048711,-1.250897,-1.430264,-162.557555,0.027283,-0.013184,0.982452,0.002007,0.031793,-0.026596,58.636673,30.740234,-142.904617,,,
729862922.052052,-1.250897,-1.430264,-162.557555,0.027283,-0.013184,0.982452,0.002007,0.031793,-0.026596,58.636673,30.740234,-142.904617,,,
729862922.055439,-1.252424,-1.424366,-162.564848,0.027283,-0.013184,0.982452,-0.010611,0.030072,-0.021527,58.636673,30.740234,-142.904617,,,
729862922.058709,-1.256028,-1.416627,-162.571116,0.018341,-0.016144,0.986008,-0.010611,0.030072,-0.021527,58.636673,30.740234,-142.904617,,,
729862922.0621,-1.256028,-1.416627,-162.571116,0.018341,-0.016144,0.986008,-0.010611,0.030072,-0.021527,58.636673,30.740234,-142.904617,,,
729862922.065375,-1.259928,-1.410656,-162.575349,0.018341,-0.016144,0.986008,-0.007069,0.024503,-0.008882,58.636673,30.740234,-142.904617,,,
729862922.068715,-1.262084,-1.404073,-162.577765,0.007202,-0.029266,0.99794,-0.007069,0.024503,-0.008882,58.746796,30.693893,-143.020401,,,
729862922.072059,-1.262084,-1.404073,-162.577765,0.007202,-0.029266,0.99794,-0.007069,0.024503,-0.008882,58.746796,30.693893,-143.020401,,,
729862922.075399,-1.263875,-1.399115,-162.578609,0.007202,-0.029266,0.99794,0.012926,0.005179,-0.001996,58.746796,30.693893,-143.020401,,,
729862922.078763,-1.261287,-1.397216,-162.578607,0.006683,-0.032303,1.005707,0.012926,0.005179,-0.001996,58.746796,30.693893,-143.020401,,,
729862922.082039,-1.261287,-1.397216,-162.578607,0.006683,-0.032303,1.005707,0.012926,0.005179,-0.001996,58.746796,30.693893,-143.020401,,,
729862922.085402,-1.258204,-1.398773,-162.57884,0.006683,-0.032303,1.005707,0.017783,-0.018483,-0.003434,58.746796,30.693893,-143.020401,,,
729862922.088711,-1.253378,-1.403518,-162.579075,0.01416,-0.024475,0.995712,0.017783,-0.018483,-0.003434,58.746796,30.693893,-143.020401,,,
729862922.092039,-1.253378,-1.403518,-162.579075,0.01416,-0.024475,0.995712,0.017783,-0.018483,-0.003434,58.746796,30.693893,-143.020401,,,
729862922.095435,-1.249734,-1.413123,-162.578763,0.01416,-0.024475,0.995712,0.011571,-0.029806,-0.000794,58.746796,30.693893,-143.020401,,,
729862922.098711,-1.246624,-1.422602,-162.578165,0.016541,-0.020706,0.984894,0.011571,-0.029806,-0.000794,58.746796,30.693893,-143.020401,,,
729862922.102057,-1.246624,-1.422602,-162.578165,0.016541,-0.020706,0.984894,0.011571,-0.029806,-0.000794,58.746796,30.693893,-143.020401,,,
729862922.105458,-1.243888,-1.433685,-162.577239,0.016541,-0.020706,0.984894,0.004016,-0.028399,0.003464,58.746796,30.693893,-143.020401,,,
729862922.10871,-1.242729,-1.442593,-162.575697,0.019699,-0.022293,0.986069,0.004016,-0.028399,0.003464,58.601044,30.753662,-142.937576,,,
729862922.112085,-1.242729,-1.442593,-162.575697,0.019699,-0.022293,0.986069,0.004016,-0.028399,0.003464,58.601044,30.753662,-142.937576,,,
729862922.115373,-1.24147,-1.452239,-162.574096,0.019699,-0.022293,0.986069,0.008006,-0.019889,0.006005,58.601044,30.753662,-142.937576,,,
729862922.118704,-1.239511,-1.458025,-162.572574,0.027283,-0.021378,0.994659,0.008006,-0.019889,0.006005,58.601044,30.753662,-142.937576,,,
729862922.122062,-1.239511,-1.458025,-162.572574,0.027283,-0.021378,0.994659,0.008006,-0.019889,0.006005,58.601044,30.753662,-142.937576,,,
729862922.125382,-1.235761,-1.464665,-162.57122,0.027283,-0.021378,0.994659,0.014118,-0.012762,0.003909,58.601044,30.753662,-142.937576,,,
729862922.128835,-1.232132,-1.469242,-162.569839,0.032791,-0.020554,1.00441,0.014118,-0.012762,0.003909,58.601044,30.753662,-142.937576,,,
729862922.132039,-1.232132,-1.469242,-162.569839,0.032791,-0.020554,1.00441,0.014118,-0.012762,0.003909,58.601044,30.753662,-142.937576,,,
729862922.135405,-1.226245,-1.473199,-162.567826,0.032791,-0.020554,1.00441,0.009676,-0.004893,0.009864,58.601044,30.753662,-142.937576,,,
729862922.138712,-1.224078,-1.475466,-162.565014,0.027313,-0.023697,0.999329,0.009676,-0.004893,0.009864,58.601044,30.753662,-142.937576,,,
729862922.142129,-1.224078,-1.475466,-162.565014,0.027313,-0.023697,0.999329,0.009676,-0.004893,0.009864,58.601044,30.753662,-142.937576,,,
729862922.145418,-1.222766,-1.473206,-162.560892,0.027313,-0.023697,0.999329,-0.000579,0.010346,0.017923,58.601044,30.753662,-142.937576,,,
729862922.148714,-1.222511,-1.471955,-162.555567,0.025238,-0.02182,0.996201,-0.000579,0.010346,0.017923,58.601044,30.753662,-142.937576,,,
729862922.152051,-1.222511,-1.471955,-162.555567,0.025238,-0.02182,0.996201,-0.000579,0.010346,0.017923,58.851471,30.614151,-143.057755,,,
729862922.155441,-1.224857,-1.463926,-162.549908,0.025238,-0.02182,0.996201,-0.000338,0.01773,0.013428,58.851471,30.614151,-143.057755,,,
729862922.158706,-1.224984,-1.459814,-162.545413,0.032944,-0.018814,1.00087,-0.000338,0.01773,0.013428,58.851471,30.614151,-143.057755,,,
729862922.162102,-1.224984,-1.459814,-162.545413,0.032944,-0.018814,1.00087,-0.000338,0.01773,0.013428,58.851471,30.614151,-143.057755,,,
729862922.16537,-1.227386,-1.450572,-162.542354,0.032944,-0.018814,1.00087,-0.00081,0.016866,0.003438,58.851471,30.614151,-143.057755,,,
729862922.168798,-1.227708,-1.446682,-162.540632,0.041336,-0.016769,0.998413,-0.00081,0.016866,0.003438,58.851471,30.614151,-143.057755,,,
729862922.172144,-1.227708,-1.446682,-162.540632,0.041336,-0.016769,0.998413,-0.00081,0.016866,0.003438,58.851471,30.614151,-143.057755,,,
729862922.175398,-1.229198,-1.441266,-162.540295,0.041336,-0.016769,0.998413,-0.006724,0.001634,-0.004793,58.851471,30.614151,-143.057755,,,
729862922.17877,-1.23123,-1.440167,-162.541305,0.036835,-0.01564,0.990692,-0.006724,0.001634,-0.004793,58.851471,30.614151,-143.057755,,,
729862922.182045,-1.23123,-1.440167,-162.541305,0.036835,-0.01564,0.990692,-0.006724,0.001634,-0.004793,58.851471,30.614151,-143.057755,,,
729862922.185382,-1.233429,-1.440145,-162.542774,0.036835,-0.01564,0.990692,-0.012322,-0.020789,-0.008293,58.851471,30.614151,-143.057755,,,
729862922.188715,-1.236697,-1.445597,-162.544558,0.028519,-0.019135,0.98436,-0.012322,-0.020789,-0.008293,58.851471,30.614151,-143.057755,,,
729862922.192146,-1.236697,-1.445597,-162.544558,0.028519,-0.019135,0.98436,-0.012322,-0.020789,-0.008293,58.775757,30.74295,-142.780319,,,
729862922.195427,-1.241349,-1.451933,-162.546967,0.028519,-0.019135,0.98436,-0.019083,-0.029276,-0.011627,58.775757,30.74295,-142.780319,,,
729862922.19871,-1.247132,-1.460642,-162.549703,0.031647,-0.019287,0.984741,-0.019083,-0.029276,-0.011627,58.775757,30.74295,-142.780319,,,
729862922.202053,-1.247132,-1.460642,-162.549703,0.031647,-0.019287,0.984741,-0.019083,-0.029276,-0.011627,58.775757,30.74295,-142.780319,,,
729862922.205461,-1.2535,-1.470897,-162.552872,0.031647,-0.019287,0.984741,-0.021278,-0.025422,-0.017329,58.775757,30.74295,-142.780319,,,
