Time (sec),Pitch (deg),Roll (deg),Yaw(deg),X-Acceleration (g),Y-Acceleration (g),Z-Acceleration (g),Pitch Rate (deg/sec),Roll Rate (deg/sec),Yaw Rate (deg/sec),Magnetic Field in X direction (uT),Magnetic Field in Y direction (uT),Magnetic Field in Z Direction (uT),Latitude (deg),Longitude (deg),Altitude (m)
729860635.383359,-2.412648,-3.386158,-27.358528,0.046295,-0.037109,0.966629,-0.02381,-0.045934,-0.009542,78.190475,5.672333,-148.465378,,,
729860635.38669,-2.419262,-3.402065,-27.362489,0.046295,-0.037109,0.966629,-0.02381,-0.045934,-0.009542,78.190475,5.672333,-148.465378,,,
729860635.390087,-2.422963,-3.424608,-27.367862,0.05188,-0.036972,0.973541,-0.011007,-0.077386,-0.018925,78.190475,5.672333,-148.465378,,,
729860635.393347,-2.422963,-3.424608,-27.367862,0.05188,-0.036972,0.973541,-0.011007,-0.077386,-0.018925,78.190475,5.672333,-148.465378,,,
729860635.396751,-2.423174,-3.449064,-27.373336,0.05188,-0.036972,0.973541,-0.011007,-0.077386,-0.018925,78.190475,5.672333,-148.465378,,,
729860635.40001,-2.417984,-3.476971,-27.379586,0.053406,-0.040695,0.992355,0.018571,-0.093113,-0.025963,78.190475,5.672333,-148.465378,,,
729860635.403357,-2.417984,-3.476971,-27.379586,0.053406,-0.040695,0.992355,0.018571,-0.093113,-0.025963,78.190475,5.672333,-148.465378,,,
729860635.40674,-2.407704,-3.504074,-27.38628,0.053406,-0.040695,0.992355,0.018571,-0.093113,-0.025963,78.190475,5.672333,-148.465378,,,
729860635.410016,-2.392691,-3.531804,-27.392247,0.055527,-0.043503,1.011475,0.058014,-0.090084,-0.025222,78.041321,5.717316,-148.632599,,,
729860635.41336,-2.392691,-3.531804,-27.392247,0.055527,-0.043503,1.011475,0.058014,-0.090084,-0.025222,78.041321,5.717316,-148.632599,,,
729860635.416706,-2.374473,-3.555935,-27.397155,0.055527,-0.043503,1.011475,0.058014,-0.090084,-0.025222,78.041321,5.717316,-148.632599,,,
729860635.420057,-2.354775,-3.577594,-27.400847,0.056213,-0.044022,1.012131,0.067635,-0.069834,-0.017237,78.041321,5.717316,-148.632599,,,
729860635.423387,-2.354775,-3.577594,-27.400847,0.056213,-0.044022,1.012131,0.067635,-0.069834,-0.017237,78.041321,5.717316,-148.632599,,,
729860635.426713,-2.334889,-3.590896,-27.403201,0.056213,-0.044022,1.012131,0.067635,-0.069834,-0.017237,78.041321,5.717316,-148.632599,,,
729860635.430014,-2.315484,-3.602866,-27.405056,0.059616,-0.044266,1.00592,0.066011,-0.033328,-0.013008,78.041321,5.717316,-148.632599,,,
729860635.433438,-2.315484,-3.602866,-27.405056,0.059616,-0.044266,1.00592,0.066011,-0.033328,-0.013008,78.041321,5.717316,-148.632599,,,
729860635.436676,-2.298448,-3.605105,-27.406865,0.059616,-0.044266,1.00592,0.066011,-0.033328,-0.013008,78.041321,5.717316,-148.632599,,,
729860635.440021,-2.283886,-3.608238,-27.409068,0.062592,-0.038055,0.998154,0.048251,-0.003526,-0.010823,78.041321,5.717316,-148.632599,,,
729860635.443363,-2.283886,-3.608238,-27.409068,0.062592,-0.038055,0.998154,0.048251,-0.003526,-0.010823,78.041321,5.717316,-148.632599,,,
729860635.446754,-2.273137,-3.604294,-27.411266,0.062592,-0.038055,0.998154,0.048251,-0.003526,-0.010823,78.041321,5.717316,-148.632599,,,
729860635.450086,-2.265466,-3.605755,-27.414207,0.06369,-0.032455,0.982773,0.022467,-0.000896,-0.015103,77.733749,5.41861,-148.264786,,,
729860635.453356,-2.265466,-3.605755,-27.414207,0.06369,-0.032455,0.982773,0.022467,-0.000896,-0.015103,77.733749,5.41861,-148.264786,,,
729860635.456713,-2.261079,-3.605068,-27.417448,0.06369,-0.032455,0.982773,0.022467,-0.000896,-0.015103,77.733749,5.41861,-148.264786,,,
729860635.460017,-2.259155,-3.612407,-27.421602,0.063354,-0.030167,0.967682,0.005737,-0.024178,-0.014477,77.733749,5.41861,-148.264786,,,
729860635.463341,-2.259155,-3.612407,-27.421602,0.063354,-0.030167,0.967682,0.005737,-0.024178,-0.014477,77.733749,5.41861,-148.264786,,,
729860635.466717,-2.258077,-3.620721,-27.426476,0.063354,-0.030167,0.967682,0.005737,-0.024178,-0.014477,77.733749,5.41861,-148.264786,,,
729860635.470014,-2.256367,-3.636753,-27.432028,0.060684,-0.032394,0.971298,0.006064,-0.054929,-0.021999,77.733749,5.41861,-148.264786,,,
729860635.473384,-2.256367,-3.636753,-27.432028,0.060684,-0.032394,0.971298,0.006064,-0.054929,-0.021999,77.733749,5.41861,-148.264786,,,
729860635.47671,-2.2521,-3.655216,-27.43817,0.060684,-0.032394,0.971298,0.006064,-0.054929,-0.021999,77.733749,5.41861,-148.264786,,,
729860635.480017,-2.243944,-3.680877,-27.445114,0.061462,-0.034637,0.982483,0.031966,-0.089362,-0.02641,77.733749,5.41861,-148.264786,,,
729860635.483436,-2.243944,-3.680877,-27.445114,0.061462,-0.034637,0.982483,0.031966,-0.089362,-0.02641,77.733749,5.41861,-148.264786,,,
729860635.486686,-2.231158,-3.707801,-27.452575,0.061462,-0.034637,0.982483,0.031966,-0.089362,-0.02641,77.733749,5.41861,-148.264786,,,
729860635.490058,-2.212691,-3.739937,-27.460613,0.066193,-0.037781,0.99823,0.066775,-0.109154,-0.033965,77.872421,5.58049,-148.015411,,,
729860635.49335,-2.212691,-3.739937,-27.460613,0.066193,-0.037781,0.99823,0.066775,-0.109154,-0.033965,77.872421,5.58049,-148.015411,,,
729860635.496766,-2.189923,-3.769691,-27.468588,0.066193,-0.037781,0.99823,0.066775,-0.109154,-0.033965,77.872421,5.58049,-148.015411,,,
729860635.500011,-2.162087,-3.800141,-27.476892,0.068985,-0.040161,1.008667,0.099176,-0.102411,-0.037376,77.872421,5.58049,-148.015411,,,
729860635.503358,-2.162087,-3.800141,-27.476892,0.068985,-0.040161,1.008667,0.099176,-0.102411,-0.037376,77.872421,5.58049,-148.015411,,,
729860635.506692,-2.132338,-3.825758,-27.48545,0.068985,-0.040161,1.008667,0.099176,-0.102411,-0.037376,77.872421,5.58049,-148.015411,,,
729860635.510071,-2.099427,-3.850298,-27.493528,0.071381,-0.035339,1.012085,0.114585,-0.076932,-0.038853,77.872421,5.58049,-148.015411,,,
729860635.513341,-2.099427,-3.850298,-27.493528,0.071381,-0.035339,1.012085,0.114585,-0.076932,-0.038853,77.872421,5.58049,-148.015411,,,
729860635.5167,-2.066156,-3.868904,-27.500867,0.071381,-0.035339,1.012085,0.114585,-0.076932,-0.038853,77.872421,5.58049,-148.015411,,,
729860635.520019,-2.032421,-3.884852,-27.508178,0.071884,-0.03215,1.007736,0.115877,-0.049677,-0.034888,77.872421,5.58049,-148.015411,,,
729860635.523428,-2.032421,-3.884852,-27.508178,0.071884,-0.03215,1.007736,0.115877,-0.049677,-0.034888,77.872421,5.58049,-148.015411,,,
729860635.526689,-1.999639,-3.896286,-27.51567,0.071884,-0.03215,1.007736,0.115877,-0.049677,-0.034888,77.872421,5.58049,-148.015411,,,
729860635.530019,-1.968515,-3.906963,-27.523732,0.074554,-0.028275,0.994507,0.10678,-0.028387,-0.03776,77.554352,5.365829,-148.361771,,,
729860635.533358,-1.968515,-3.906963,-27.523732,0.074554,-0.028275,0.994507,0.10678,-0.028387,-0.03776,77.554352,5.365829,-148.361771,,,
729860635.536761,-1.938618,-3.91585,-27.532668,0.074554,-0.028275,0.994507,0.10678,-0.028387,-0.03776,77.554352,5.365829,-148.361771,,,
729860635.540015,-1.910736,-3.925113,-27.542176,0.071045,-0.024826,0.982468,0.092385,-0.028207,-0.040976,77.554352,5.365829,-148.361771,,,
729860635.543359,-1.910736,-3.925113,-27.542176,0.071045,-0.024826,0.982468,0.092385,-0.028207,-0.040976,77.554352,5.365829,-148.361771,,,
729860635.546696,-1.885286,-3.934218,-27.551681,0.071045,-0.024826,0.982468,0.092385,-0.028207,-0.040976,77.554352,5.365829,-148.361771,,,
729860635.550013,-1.863482,-3.948017,-27.560852,0.067596,-0.023712,0.973618,0.073655,-0.048069,-0.03795,77.554352,5.365829,-148.361771,,,
729860635.553433,-1.863482,-3.948017,-27.560852,0.067596,-0.023712,0.973618,0.073655,-0.048069,-0.03795,77.554352,5.365829,-148.361771,,,
729860635.55679,-1.843858,-3.96589,-27.569728,0.067596,-0.023712,0.973618,0.073655,-0.048069,-0.03795,77.554352,5.365829,-148.361771,,,
729860635.560019,-1.82372,-3.992025,-27.579088,0.067505,-0.021545,0.967133,0.067207,-0.091074,-0.040621,77.554352,5.365829,-148.361771,,,
729860635.56336,-1.82372,-3.992025,-27.579088,0.067505,-0.021545,0.967133,0.067207,-0.091074,-0.040621,77.554352,5.365829,-148.361771,,,
729860635.566704,-1.802224,-4.022812,-27.588936,0.067505,-0.021545,0.967133,0.067207,-0.091074,-0.040621,77.554352,5.365829,-148.361771,,,
729860635.570016,-1.774709,-4.060924,-27.599723,0.072388,-0.025085,0.980804,0.099928,-0.134001,-0.045464,77.554352,5.365829,-148.361771,,,
729860635.573352,-1.774709,-4.060924,-27.599723,0.072388,-0.025085,0.980804,0.099928,-0.134001,-0.045464,77.368378,5.189438,-148.008926,,,
729860635.576786,-1.739274,-4.102824,-27.611154,0.072388,-0.025085,0.980804,0.099928,-0.134001,-0.045464,77.368378,5.189438,-148.008926,,,
729860635.580019,-1.690876,-4.147932,-27.622284,0.074905,-0.032181,1.020584,0.175638,-0.153389,-0.053785,77.368378,5.189438,-148.008926,,,
729860635.583376,-1.690876,-4.147932,-27.622284,0.074905,-0.032181,1.020584,0.175638,-0.153389,-0.053785,77.368378,5.189438,-148.008926,,,
729860635.586708,-1.629827,-4.193538,-27.63229,0.074905,-0.032181,1.020584,0.175638,-0.153389,-0.053785,77.368378,5.189438,-148.008926,,,
729860635.590026,-1.551512,-4.240826,-27.639946,0.074127,-0.043106,1.068588,0.285263,-0.1606,-0.048249,77.368378,5.189438,-148.008926,,,
729860635.593378,-1.551512,-4.240826,-27.639946,0.074127,-0.043106,1.068588,0.285263,-0.1606,-0.048249,77.368378,5.189438,-148.008926,,,
729860635.5967,-1.453496,-4.290393,-27.644095,0.074127,-0.043106,1.068588,0.285263,-0.1606,-0.048249,77.368378,5.189438,-148.008926,,,
729860635.600021,-1.331432,-4.346065,-27.644049,0.068069,-0.053787,1.105255,0.447233,-0.197081,-0.033198,77.368378,5.189438,-148.008926,,,
729860635.603414,-1.331432,-4.346065,-27.644049,0.068069,-0.053787,1.105255,0.447233,-0.197081,-0.033198,77.368378,5.189438,-148.008926,,,
729860635.606692,-1.182088,-4.409633,-27.639709,0.068069,-0.053787,1.105255,0.447233,-0.197081,-0.033198,77.368378,5.189438,-148.008926,,,
729860635.610041,-1.003705,-4.482197,-27.632286,0.069824,-0.060654,1.141006,0.646528,-0.261078,-0.022849,77.368378,5.189438,-148.008926,,,
729860635.613369,-1.003705,-4.482197,-27.632286,0.069824,-0.060654,1.141006,0.646528,-0.261078,-0.022849,77.109573,4.27153,-147.803665,,,
729860635.616771,-0.79742,-4.563467,-27.623913,0.069824,-0.060654,1.141006,0.646528,-0.261078,-0.022849,77.109573,4.27153,-147.803665,,,
729860635.620006,-0.564873,-4.652335,-27.616481,0.080917,-0.055161,1.161392,0.833343,-0.314935,-0.041709,77.109573,4.27153,-147.803665,,,
729860635.623374,-0.564873,-4.652335,-27.616481,0.080917,-0.055161,1.161392,0.833343,-0.314935,-0.041709,77.109573,4.27153,-147.803665,,,
729860635.626716,-0.308789,-4.747292,-27.611036,0.080917,-0.055161,1.161392,0.833343,-0.314935,-0.041709,77.109573,4.27153,-147.803665,,,
729860635.630022,-0.030456,-4.848067,-27.608014,0.096283,-0.035538,1.16246,0.987451,-0.35075,-0.078124,77.109573,4.27153,-147.803665,,,
729860635.633368,-0.030456,-4.848067,-27.608014,0.096283,-0.035538,1.16246,0.987451,-0.35075,-0.078124,77.109573,4.27153,-147.803665,,,
729860635.636692,0.269255,-4.953662,-27.607211,0.096283,-0.035538,1.16246,0.987451,-0.35075,-0.078124,77.109573,4.27153,-147.803665,,,
729860635.640027,0.588864,-5.062792,-27.608464,0.10495,-0.022583,1.153854,1.126073,-0.380013,-0.105252,77.109573,4.27153,-147.803665,,,
729860635.643422,0.588864,-5.062792,-27.608464,0.10495,-0.022583,1.153854,1.126073,-0.380013,-0.105252,77.109573,4.27153,-147.803665,,,
729860635.646698,0.926572,-5.174163,-27.610766,0.10495,-0.022583,1.153854,1.126073,-0.380013,-0.105252,77.109573,4.27153,-147.803665,,,
729860635.650021,1.279443,-5.286242,-27.613259,0.102448,-0.017685,1.148636,1.237655,-0.388606,-0.125475,77.109573,4.27153,-147.803665,,,
729860635.653351,1.279443,-5.286242,-27.613259,0.102448,-0.017685,1.148636,1.237655,-0.388606,-0.125475,76.588806,2.180786,-147.172775,,,
729860635.656774,1.644938,-5.397159,-27.615023,0.102448,-0.017685,1.148636,1.237655,-0.388606,-0.125475,76.588806,2.180786,-147.172775,,,
729860635.660004,2.025011,-5.505694,-27.613992,0.094833,-0.010651,1.137543,1.333348,-0.371209,-0.122487,76.588806,2.180786,-147.172775,,,
729860635.663366,2.025011,-5.505694,-27.613992,0.094833,-0.010651,1.137543,1.333348,-0.371209,-0.122487,76.588806,2.180786,-147.172775,,,
729860635.666693,2.421775,-5.611545,-27.609934,0.094833,-0.010651,1.137543,1.333348,-0.371209,-0.122487,76.588806,2.180786,-147.172775,,,
729860635.670015,2.831719,-5.715542,-27.601906,0.084274,-0.003799,1.145401,1.433767,-0.354233,-0.112664,76.588806,2.180786,-147.172775,,,
729860635.673385,2.831719,-5.715542,-27.601906,0.084274,-0.003799,1.145401,1.433767,-0.354233,-0.112664,76.588806,2.180786,-147.172775,,,
729860635.676688,3.249623,-5.819502,-27.589255,0.084274,-0.003799,1.145401,1.433767,-0.354233,-0.112664,76.588806,2.180786,-147.172775,,,
729860635.680023,3.674647,-5.925259,-27.572523,0.077072,0.002686,1.132568,1.484147,-0.362692,-0.094895,76.588806,2.180786,-147.172775,,,
729860635.683431,3.674647,-5.925259,-27.572523,0.077072,0.002686,1.132568,1.484147,-0.362692,-0.094895,76.588806,2.180786,-147.172775,,,
729860635.686699,4.108789,-6.037241,-27.551567,0.077072,0.002686,1.132568,1.484147,-0.362692,-0.094895,76.588806,2.180786,-147.172775,,,
729860635.690085,4.555569,-6.159318,-27.526658,0.078568,0.021515,1.117523,1.570075,-0.424303,-0.080907,76.588806,2.180786,-147.172775,,,
729860635.693365,4.555569,-6.159318,-27.526658,0.078568,0.021515,1.117523,1.570075,-0.424303,-0.080907,75.928146,-0.810349,-146.050476,,,
729860635.696758,5.018807,-6.293442,-27.497474,0.078568,0.021515,1.117523,1.570075,-0.424303,-0.080907,75.928146,-0.810349,-146.050476,,,
729860635.700019,5.501149,-6.44103,-27.464167,0.081528,0.022598,1.133789,1.700943,-0.51138,-0.072715,75.928146,-0.810349,-146.050476,,,
729860635.703353,5.501149,-6.44103,-27.464167,0.081528,0.022598,1.133789,1.700943,-0.51138,-0.072715,75.928146,-0.810349,-146.050476,,,
729860635.70672,6.002622,-6.604113,-27.427356,0.081528,0.022598,1.133789,1.700943,-0.51138,-0.072715,75.928146,-0.810349,-146.050476,,,
729860635.710024,6.520487,-6.78354,-27.387875,0.081177,0.032776,1.148422,1.818298,-0.619156,-0.076351,75.928146,-0.810349,-146.050476,,,
729860635.71337,6.520487,-6.78354,-27.387875,0.081177,0.032776,1.148422,1.818298,-0.619156,-0.076351,75.928146,-0.810349,-146.050476,,,
729860635.716693,7.054849,-6.979054,-27.34617,0.081177,0.032776,1.148422,1.818298,-0.619156,-0.076351,75.928146,-0.810349,-146.050476,,,
729860635.720015,7.607664,-7.188709,-27.302359,0.086441,0.049942,1.145248,1.945385,-0.720394,-0.092946,75.928146,-0.810349,-146.050476,,,
729860635.723423,7.607664,-7.188709,-27.302359,0.086441,0.049942,1.145248,1.945385,-0.720394,-0.092946,75.928146,-0.810349,-146.050476,,,
729860635.72669,8.179744,-7.410744,-27.25538,0.086441,0.049942,1.145248,1.945385,-0.720394,-0.092946,75.928146,-0.810349,-146.050476,,,
729860635.730021,8.770135,-7.643506,-27.203958,0.097641,0.061401,1.156128,2.08068,-0.792098,-0.093055,75.928146,-0.810349,-146.050476,,,
729860635.733359,8.770135,-7.643506,-27.203958,0.097641,0.061401,1.156128,2.08068,-0.792098,-0.093055,75.928146,-0.810349,-146.050476,,,
729860635.736743,9.377077,-7.884937,-27.14766,0.097641,0.061401,1.156128,2.08068,-0.792098,-0.093055,74.523163,-4.65271,-143.981583,,,
729860635.740014,9.998557,-8.131299,-27.087385,0.110901,0.072662,1.152512,2.188009,-0.82219,-0.095785,74.523163,-4.65271,-143.981583,,,
729860635.743355,9.998557,-8.131299,-27.087385,0.110901,0.072662,1.152512,2.188009,-0.82219,-0.095785,74.523163,-4.65271,-143.981583,,,
729860635.746701,10.633619,-8.380033,-27.023911,0.110901,0.072662,1.152512,2.188009,-0.82219,-0.095785,74.523163,-4.65271,-143.981583,,,
729860635.750015,11.283136,-8.628878,-26.957436,0.123444,0.091019,1.143661,2.28697,-0.820895,-0.113598,74.523163,-4.65271,-143.981583,,,
729860635.753358,11.283136,-8.628878,-26.957436,0.123444,0.091019,1.143661,2.28697,-0.820895,-0.113598,74.523163,-4.65271,-143.981583,,,
729860635.756715,11.947263,-8.876302,-26.888581,0.123444,0.091019,1.143661,2.28697,-0.820895,-0.113598,74.523163,-4.65271,-143.981583,,,
729860635.760021,12.626561,-9.121153,-26.817457,0.143402,0.111984,1.132904,2.387642,-0.793463,-0.135914,74.523163,-4.65271,-143.981583,,,
729860635.763448,12.626561,-9.121153,-26.817457,0.143402,0.111984,1.132904,2.387642,-0.793463,-0.135914,74.523163,-4.65271,-143.981583,,,
729860635.766707,13.32333,-9.362228,-26.744519,0.143402,0.111984,1.132904,2.387642,-0.793463,-0.135914,74.523163,-4.65271,-143.981583,,,
729860635.77003,14.041756,-9.598346,-26.669098,0.158676,0.125946,1.135498,2.530362,-0.754184,-0.161876,74.523163,-4.65271,-143.981583,,,
729860635.773406,14.041756,-9.598346,-26.669098,0.158676,0.125946,1.135498,2.530362,-0.754184,-0.161876,74.523163,-4.65271,-143.981583,,,
729860635.776705,14.784848,-9.828736,-26.588476,0.158676,0.125946,1.135498,2.530362,-0.754184,-0.161876,73.369308,-9.09079,-140.81813,,,
729860635.78002,15.550855,-10.049529,-26.501231,0.169907,0.125031,1.167709,2.698683,-0.675841,-0.174046,73.369308,-9.09079,-140.81813,,,
729860635.78337,15.550855,-10.049529,-26.501231,0.169907,0.125031,1.167709,2.698683,-0.675841,-0.174046,73.369308,-9.09079,-140.81813,,,
729860635.786711,16.333612,-10.256982,-26.40633,0.169907,0.125031,1.167709,2.698683,-0.675841,-0.174046,73.369308,-9.09079,-140.81813,,,
729860635.790041,17.125133,-10.447561,-26.303171,0.173523,0.134064,1.155243,2.782239,-0.539964,-0.155286,73.369308,-9.09079,-140.81813,,,
729860635.793362,17.125133,-10.447561,-26.303171,0.173523,0.134064,1.155243,2.782239,-0.539964,-0.155286,73.369308,-9.09079,-140.81813,,,
729860635.796709,17.916526,-10.618598,-26.192077,0.173523,0.134064,1.155243,2.782239,-0.539964,-0.155286,73.369308,-9.09079,-140.81813,,,
729860635.800024,18.699698,-10.767924,-26.074493,0.176056,0.173935,1.063812,2.744074,-0.365328,-0.120417,73.369308,-9.09079,-140.81813,,,
729860635.803364,18.699698,-10.767924,-26.074493,0.176056,0.173935,1.063812,2.744074,-0.365328,-0.120417,73.369308,-9.09079,-140.81813,,,
729860635.806692,19.467261,-10.896769,-25.953585,0.176056,0.173935,1.063812,2.744074,-0.365328,-0.120417,73.369308,-9.09079,-140.81813,,,
729860635.810025,20.217385,-11.008937,-25.833094,0.184601,0.228806,0.94162,2.62149,-0.23162,-0.108825,73.369308,-9.09079,-140.81813,,,
729860635.813371,20.217385,-11.008937,-25.833094,0.184601,0.228806,0.94162,2.62149,-0.23162,-0.108825,73.369308,-9.09079,-140.81813,,,
729860635.816693,20.955314,-11.110299,-25.715534,0.184601,0.228806,0.94162,2.62149,-0.23162,-0.108825,72.921631,-13.693375,-137.670166,,,
729860635.820025,21.689975,-11.203052,-25.60526,0.206345,0.261368,0.879944,2.576706,-0.172519,-0.152708,72.921631,-13.693375,-137.670166,,,
729860635.823354,21.689975,-11.203052,-25.60526,0.206345,0.261368,0.879944,2.576706,-0.172519,-0.152708,72.921631,-13.693375,-137.670166,,,
729860635.826693,22.42805,-11.291133,-25.504209,0.206345,0.261368,0.879944,2.576706,-0.172519,-0.152708,72.921631,-13.693375,-137.670166,,,
729860635.830025,23.172963,-11.378078,-25.412204,0.232407,0.293808,0.917862,2.605478,-0.176919,-0.23205,72.921631,-13.693375,-137.670166,,,
729860635.833369,23.172963,-11.378078,-25.412204,0.232407,0.293808,0.917862,2.605478,-0.176919,-0.23205,72.921631,-13.693375,-137.670166,,,
729860635.836709,23.925744,-11.467546,-25.327769,0.232407,0.293808,0.917862,2.605478,-0.176919,-0.23205,72.921631,-13.693375,-137.670166,,,
729860635.840024,24.687113,-11.559551,-25.248102,0.231934,0.319809,0.939865,2.657142,-0.206189,-0.290327,72.921631,-13.693375,-137.670166,,,
729860635.843418,24.687113,-11.559551,-25.248102,0.231934,0.319809,0.939865,2.657142,-0.206189,-0.290327,72.921631,-13.693375,-137.670166,,,
729860635.846703,25.457001,-11.652832,-25.16972,0.231934,0.319809,0.939865,2.657142,-0.206189,-0.290327,72.921631,-13.693375,-137.670166,,,
729860635.850024,26.233267,-11.744855,-25.089598,0.215408,0.316849,0.950089,2.703557,-0.192033,-0.303267,72.921631,-13.693375,-137.670166,,,
729860635.853363,26.233267,-11.744855,-25.089598,0.215408,0.316849,0.950089,2.703557,-0.192033,-0.303267,72.921631,-13.693375,-137.670166,,,
729860635.856771,27.011239,-11.832008,-25.005706,0.215408,0.316849,0.950089,2.703557,-0.192033,-0.303267,72.880875,-17.594467,-133.647446,,,
729860635.860023,27.784565,-11.907636,-24.918302,0.210999,0.318314,0.937897,2.686201,-0.107912,-0.287417,72.880875,-17.594467,-133.647446,,,
729860635.863379,27.784565,-11.907636,-24.918302,0.210999,0.318314,0.937897,2.686201,-0.107912,-0.287417,72.880875,-17.594467,-133.647446,,,
729860635.866764,28.54489,-11.96679,-24.829135,0.210999,0.318314,0.937897,2.686201,-0.107912,-0.287417,72.880875,-17.594467,-133.647446,,,
729860635.870008,29.286345,-12.005116,-24.741672,0.211426,0.348328,0.872925,2.565398,0.036629,-0.273989,72.880875,-17.594467,-133.647446,,,
729860635.873367,29.286345,-12.005116,-24.741672,0.211426,0.348328,0.872925,2.565398,0.036629,-0.273989,72.880875,-17.594467,-133.647446,,,
729860635.876697,30.006694,-12.023662,-24.656369,0.211426,0.348328,0.872925,2.565398,0.036629,-0.273989,72.880875,-17.594467,-133.647446,,,
729860635.880049,30.708065,-12.026124,-24.573435,0.211029,0.408264,0.796768,2.426377,0.153014,-0.264738,72.880875,-17.594467,-133.647446,,,
729860635.883368,30.708065,-12.026124,-24.573435,0.211029,0.408264,0.796768,2.426377,0.153014,-0.264738,72.880875,-17.594467,-133.647446,,,
729860635.886722,31.392821,-12.017469,-24.494519,0.211029,0.408264,0.796768,2.426377,0.153014,-0.264738,72.880875,-17.594467,-133.647446,,,
729860635.890159,32.062984,-11.999174,-24.421811,0.20874,0.493149,0.761368,2.314866,0.205321,-0.274966,72.880875,-17.594467,-133.647446,,,
729860635.893432,32.062984,-11.999174,-24.421811,0.20874,0.493149,0.761368,2.314866,0.205321,-0.274966,72.880875,-17.594467,-133.647446,,,
729860635.896681,32.719667,-11.971976,-24.355851,0.20874,0.493149,0.761368,2.314866,0.205321,-0.274966,72.880875,-17.594467,-133.647446,,,
729860635.900048,32.719667,-11.971976,-24.297234,0.214996,0.522171,0.744461,2.214446,0.240014,-0.298746,73.527054,-20.975952,-129.859741,,,
729860635.903354,33.362715,-11.936481,-24.297234,0.214996,0.522171,0.744461,2.214446,0.240014,-0.298746,73.527054,-20.975952,-129.859741,,,
729860635.906689,33.992464,-11.894339,-24.24562,0.214996,0.522171,0.744461,2.214446,0.240014,-0.298746,73.527054,-20.975952,-129.859741,,,
729860635.910017,33.992464,-11.894339,-24.24562,0.214996,0.522171,0.744461,2.214446,0.240014,-0.298746,73.527054,-20.975952,-129.859741,,,
729860635.91335,34.608974,-11.846803,-24.200685,0.208466,0.510132,0.725128,2.11584,0.260157,-0.318891,73.527054,-20.975952,-129.859741,,,
729860635.916686,35.210201,-11.797678,-24.161543,0.208466,0.510132,0.725128,2.11584,0.260157,-0.318891,73.527054,-20.975952,-129.859741,,,
729860635.92005,35.210201,-11.797678,-24.161543,0.208466,0.510132,0.725128,1.996747,0.236184,-0.324446,73.527054,-20.975952,-129.859741,,,
729860635.92335,35.794388,-11.748852,-24.128697,0.196518,0.511917,0.689392,1.996747,0.236184,-0.324446,73.527054,-20.975952,-129.859741,,,
729860635.926683,36.361219,-11.708124,-24.103565,0.196518,0.511917,0.689392,1.996747,0.236184,-0.324446,73.527054,-20.975952,-129.859741,,,
729860635.930045,36.361219,-11.708124,-24.103565,0.196518,0.511917,0.689392,1.906877,0.10273,-0.353066,73.527054,-20.975952,-129.859741,,,
729860635.933418,36.918603,-11.68283,-24.086728,0.190735,0.540634,0.634079,1.906877,0.10273,-0.353066,73.527054,-20.975952,-129.859741,,,
729860635.936681,37.476841,-11.670382,-24.076979,0.190735,0.540634,0.634079,1.906877,0.10273,-0.353066,73.527054,-20.975952,-129.859741,,,
729860635.940078,37.476841,-11.670382,-24.076979,0.190735,0.540634,0.634079,1.921989,0.013451,-0.393266,74.35434,-23.42485,-126.67067,,,
729860635.943361,38.03863,-11.666342,-24.073908,0.18457,0.554077,0.671265,1.921989,0.013451,-0.393266,74.35434,-23.42485,-126.67067,,,
729860635.94669,38.601256,-11.670831,-24.076406,0.18457,0.554077,0.671265,1.921989,0.013451,-0.393266,74.35434,-23.42485,-126.67067,,,
729860635.950071,38.601256,-11.670831,-24.076406,0.18457,0.554077,0.671265,1.921989,0.013451,-0.393266,74.35434,-23.42485,-126.67067,,,
729860635.953372,39.163345,-11.684289,-24.082847,0.176056,0.547409,0.71344,1.912214,-0.067401,-0.416918,74.35434,-23.42485,-126.67067,,,
729860635.95643,39.723831,-11.706479,-24.091126,0.176056,0.547409,0.71344,1.912214,-0.067401,-0.416918,74.35434,-23.42485,-126.67067,,,
729860635.960085,39.723831,-11.706479,-24.091126,0.176056,0.547409,0.71344,1.889457,-0.119564,-0.42085,74.35434,-23.42485,-126.67067,,,
729860635.963377,40.280495,-11.734141,-24.100794,0.173813,0.539993,0.687653,1.889457,-0.119564,-0.42085,74.35434,-23.42485,-126.67067,,,
729860635.966698,40.83006,-11.762986,-24.112834,0.173813,0.539993,0.687653,1.889457,-0.119564,-0.42085,74.35434,-23.42485,-126.67067,,,
729860635.970088,40.83006,-11.762986,-24.112834,0.173813,0.539993,0.687653,1.889457,-0.119564,-0.42085,74.35434,-23.42485,-126.67067,,,
729860635.973359,41.370123,-11.787022,-24.128291,0.176132,0.562729,0.662643,1.826267,-0.113294,-0.424623,74.35434,-23.42485,-126.67067,,,
729860635.97676,41.898922,-11.79979,-24.147716,0.176132,0.562729,0.662643,1.826267,-0.113294,-0.424623,74.35434,-23.42485,-126.67067,,,
729860635.980142,41.898922,-11.79979,-24.147716,0.176132,0.562729,0.662643,1.826267,-0.113294,-0.424623,74.833405,-25.581863,-123.192108,,,
729860635.983374,42.415112,-11.794935,-24.17206,0.17482,0.596375,0.644699,1.73619,-0.023449,-0.432707,74.833405,-25.581863,-123.192108,,,
729860635.98669,42.916899,-11.771478,-24.199245,0.17482,0.596375,0.644699,1.73619,-0.023449,-0.432707,74.833405,-25.581863,-123.192108,,,
729860635.990036,42.916899,-11.771478,-24.199245,0.17482,0.596375,0.644699,1.73619,-0.023449,-0.432707,74.833405,-25.581863,-123.192108,,,
729860635.993387,43.402939,-11.730872,-24.227986,0.16864,0.628433,0.629822,1.630434,0.091444,-0.415726,74.833405,-25.581863,-123.192108,,,
729860635.99823,43.87282,-11.675807,-24.258157,0.16864,0.628433,0.629822,1.630434,0.091444,-0.415726,74.833405,-25.581863,-123.192108,,,
729860635.999844,43.87282,-11.675807,-24.258157,0.16864,0.628433,0.629822,1.630434,0.091444,-0.415726,74.833405,-25.581863,-123.192108,,,
729860636.003385,44.327009,-11.610088,-24.288963,0.155594,0.648148,0.599747,1.523789,0.165159,-0.394488,74.833405,-25.581863,-123.192108,,,
729860636.006705,44.766918,-11.54001,-24.320928,0.155594,0.648148,0.599747,1.523789,0.165159,-0.394488,74.833405,-25.581863,-123.192108,,,
729860636.010043,44.766918,-11.54001,-24.320928,0.155594,0.648148,0.599747,1.523789,0.165159,-0.394488,74.833405,-25.581863,-123.192108,,,
729860636.013355,45.192956,-11.473663,-24.356242,0.147079,0.663864,0.568405,1.420758,0.141701,-0.38049,74.833405,-25.581863,-123.192108,,,
729860636.016715,45.6073,-11.417541,-24.396258,0.147079,0.663864,0.568405,1.420758,0.141701,-0.38049,74.833405,-25.581863,-123.192108,,,
729860636.02006,45.6073,-11.417541,-24.396258,0.147079,0.663864,0.568405,1.420758,0.141701,-0.38049,74.833405,-25.581863,-123.192108,,,
729860636.023347,46.014033,-11.372729,-24.443151,0.143066,0.670486,0.530243,1.356171,0.028358,-0.394619,75.812012,-26.99791,-120.573654,,,
729860636.026701,46.418303,-11.339281,-24.497673,0.143066,0.670486,0.530243,1.356171,0.028358,-0.394619,75.812012,-26.99791,-120.573654,,,
729860636.03018,46.418303,-11.339281,-24.497673,0.143066,0.670486,0.530243,1.356171,0.028358,-0.394619,75.812012,-26.99791,-120.573654,,,
729860636.033453,46.824096,-11.315266,-24.55929,0.141464,0.676392,0.550827,1.359679,-0.081619,-0.427008,75.812012,-26.99791,-120.573654,,,
729860636.036687,47.229738,-11.298852,-24.626099,0.141464,0.676392,0.550827,1.359679,-0.081619,-0.427008,75.812012,-26.99791,-120.573654,,,
729860636.04005,47.229738,-11.298852,-24.626099,0.141464,0.676392,0.550827,1.359679,-0.081619,-0.427008,75.812012,-26.99791,-120.573654,,,
729860636.043354,47.629168,-11.289557,-24.695254,0.136658,0.675156,0.585144,1.325552,-0.147414,-0.432778,75.812012,-26.99791,-120.573654,,,
729860636.046702,48.016574,-11.287547,-24.7631,0.136658,0.675156,0.585144,1.325552,-0.147414,-0.432778,75.812012,-26.99791,-120.573654,,,
729860636.050035,48.016574,-11.287547,-24.7631,0.136658,0.675156,0.585144,1.325552,-0.147414,-0.432778,75.812012,-26.99791,-120.573654,,,
729860636.053361,48.387444,-11.290594,-24.828622,0.118546,0.685272,0.549927,1.223367,-0.18062,-0.397609,75.812012,-26.99791,-120.573654,,,
729860636.056801,48.738289,-11.295922,-24.891879,0.118546,0.685272,0.549927,1.223367,-0.18062,-0.397609,75.812012,-26.99791,-120.573654,,,
729860636.060038,48.738289,-11.295922,-24.891879,0.118546,0.685272,0.549927,1.223367,-0.18062,-0.397609,75.812012,-26.99791,-120.573654,,,
729860636.063371,49.065797,-11.298618,-24.954483,0.107864,0.719971,0.499481,1.070629,-0.166643,-0.360228,76.442642,-28.175217,-118.023331,,,
729860636.0667,49.367109,-11.296211,-25.017423,0.107864,0.719971,0.499481,1.070629,-0.166643,-0.360228,76.442642,-28.175217,-118.023331,,,
729860636.069692,49.367109,-11.296211,-25.017423,0.107864,0.719971,0.499481,1.070629,-0.166643,-0.360228,76.442642,-28.175217,-118.023331,,,
729860636.073437,49.641762,-11.290141,-25.081946,0.103348,0.763809,0.456863,0.885067,-0.144783,-0.327511,76.442642,-28.175217,-118.023331,,,
729860636.076697,49.891055,-11.283126,-25.149399,0.103348,0.763809,0.456863,0.885067,-0.144783,-0.327511,76.442642,-28.175217,-118.023331,,,
729860636.080023,49.891055,-11.283126,-25.149399,0.103348,0.763809,0.456863,0.885067,-0.144783,-0.327511,76.442642,-28.175217,-118.023331,,,
729860636.083362,50.117421,-11.27646,-25.2212,0.098938,0.790176,0.43158,0.72181,-0.171485,-0.31227,76.442642,-28.175217,-118.023331,,,
729860636.086719,50.322233,-11.270207,-25.297249,0.098938,0.790176,0.43158,0.72181,-0.171485,-0.31227,76.442642,-28.175217,-118.023331,,,
729860636.090028,50.322233,-11.270207,-25.297249,0.098938,0.790176,0.43158,0.72181,-0.171485,-0.31227,76.442642,-28.175217,-118.023331,,,
729860636.09337,50.505801,-11.26134,-25.376243,0.096237,0.795029,0.438751,0.57353,-0.17414,-0.298915,76.442642,-28.175217,-118.023331,,,
729860636.096698,50.66902,-11.249305,-25.454687,0.096237,0.795029,0.438751,0.57353,-0.17414,-0.298915,76.442642,-28.175217,-118.023331,,,
729860636.10005,50.66902,-11.249305,-25.454687,0.096237,0.795029,0.438751,0.57353,-0.17414,-0.298915,76.442642,-28.175217,-118.023331,,,
729860636.103362,50.813503,-11.235381,-25.529526,0.089996,0.790726,0.462128,0.447129,-0.14504,-0.256029,77.392014,-28.818848,-117.066467,,,
729860636.106701,50.942527,-11.220388,-25.598509,0.089996,0.790726,0.462128,0.447129,-0.14504,-0.256029,77.392014,-28.818848,-117.066467,,,
729860636.110074,50.942527,-11.220388,-25.598509,0.089996,0.790726,0.462128,0.447129,-0.14504,-0.256029,77.392014,-28.818848,-117.066467,,,
729860636.113358,51.060292,-11.203354,-25.65972,0.084396,0.776932,0.499817,0.368397,-0.094537,-0.206614,77.392014,-28.818848,-117.066467,,,
729860636.116705,51.170097,-11.184803,-25.710978,0.084396,0.776932,0.499817,0.368397,-0.094537,-0.206614,77.392014,-28.818848,-117.066467,,,
729860636.120122,51.170097,-11.184803,-25.710978,0.084396,0.776932,0.499817,0.368397,-0.094537,-0.206614,77.392014,-28.818848,-117.066467,,,
729860636.123367,51.27639,-11.166775,-25.752033,0.081253,0.759857,0.557526,0.344336,-0.039514,-0.154918,77.392014,-28.818848,-117.066467,,,
729860636.126702,51.383012,-11.151432,-25.783658,0.081253,0.759857,0.557526,0.344336,-0.039514,-0.154918,77.392014,-28.818848,-117.066467,,,
729860636.130024,51.383012,-11.151432,-25.783658,0.081253,0.759857,0.557526,0.344336,-0.039514,-0.154918,77.392014,-28.818848,-117.066467,,,
729860636.133429,51.492953,-11.139665,-25.806406,0.083939,0.743454,0.604965,0.371901,-0.014926,-0.119395,77.392014,-28.818848,-117.066467,,,
729860636.136703,51.607562,-11.131837,-25.820956,0.083939,0.743454,0.604965,0.371901,-0.014926,-0.119395,77.392014,-28.818848,-117.066467,,,
729860636.140042,51.607562,-11.131837,-25.820956,0.083939,0.743454,0.604965,0.371901,-0.014926,-0.119395,77.392014,-28.818848,-117.066467,,,
729860636.143364,51.727342,-11.129913,-25.827992,0.088455,0.734344,0.637405,0.410495,-0.009694,-0.094399,77.430832,-28.806198,-116.098114,,,
729860636.146696,51.850163,-11.135687,-25.829403,0.088455,0.734344,0.637405,0.410495,-0.009694,-0.094399,77.430832,-28.806198,-116.098114,,,
729860636.150058,51.850163,-11.135687,-25.829403,0.088455,0.734344,0.637405,0.410495,-0.009694,-0.094399,77.430832,-28.806198,-116.098114,,,
729860636.153379,51.972311,-11.150344,-25.828619,0.088181,0.744904,0.628326,0.421267,-0.05195,-0.079616,77.430832,-28.806198,-116.098114,,,
729860636.156765,52.091523,-11.17567,-25.8277,0.088181,0.744904,0.628326,0.421267,-0.05195,-0.079616,77.430832,-28.806198,-116.098114,,,
729860636.160064,52.091523,-11.17567,-25.8277,0.088181,0.744904,0.628326,0.421267,-0.05195,-0.079616,77.430832,-28.806198,-116.098114,,,
729860636.163376,52.203133,-11.210227,-25.82986,0.093613,0.772476,0.574127,0.373549,-0.13543,-0.079888,77.430832,-28.806198,-116.098114,,,
729860636.166698,52.301317,-11.25202,-25.838104,0.093613,0.772476,0.574127,0.373549,-0.13543,-0.079888,77.430832,-28.806198,-116.098114,,,
729860636.170132,52.301317,-11.25202,-25.838104,0.093613,0.772476,0.574127,0.373549,-0.13543,-0.079888,77.430832,-28.806198,-116.098114,,,
729860636.173372,52.382733,-11.295942,-25.855765,0.095673,0.811661,0.49942,0.25488,-0.208796,-0.098392,77.430832,-28.806198,-116.098114,,,
729860636.176706,52.446368,-11.335705,-25.884135,0.095673,0.811661,0.49942,0.25488,-0.208796,-0.098392,77.430832,-28.806198,-116.098114,,,
729860636.180038,52.446368,-11.335705,-25.884135,0.095673,0.811661,0.49942,0.25488,-0.208796,-0.098392,77.430832,-28.806198,-116.098114,,,
729860636.183447,52.492831,-11.366973,-25.921328,0.100647,0.84346,0.464005,0.128126,-0.205129,-0.111014,77.430832,-28.806198,-116.098114,,,
729860636.186697,52.524982,-11.38795,-25.964735,0.100647,0.84346,0.464005,0.128126,-0.205129,-0.111014,77.337601,-29.224731,-115.67218,,,
729860636.190029,52.524982,-11.38795,-25.964735,0.100647,0.84346,0.464005,0.128126,-0.205129,-0.111014,77.337601,-29.224731,-115.67218,,,
729860636.193385,52.547106,-11.400372,-26.009877,0.10025,0.844543,0.497559,0.051188,-0.157199,-0.108577,77.337601,-29.224731,-115.67218,,,
729860636.196703,52.562665,-11.406887,-26.05184,0.10025,0.844543,0.497559,0.051188,-0.157199,-0.108577,77.337601,-29.224731,-115.67218,,,
729860636.200056,52.562665,-11.406887,-26.05184,0.10025,0.844543,0.497559,0.051188,-0.157199,-0.108577,77.337601,-29.224731,-115.67218,,,
729860636.203382,52.575504,-11.407631,-26.088579,0.094315,0.818649,0.558578,0.027415,-0.094576,-0.082584,77.337601,-29.224731,-115.67218,,,
729860636.2067,52.58904,-11.405907,-26.117085,0.094315,0.818649,0.558578,0.027415,-0.094576,-0.082584,77.337601,-29.224731,-115.67218,,,
729860636.210024,52.58904,-11.405907,-26.117085,0.094315,0.818649,0.558578,0.027415,-0.094576,-0.082584,77.337601,-29.224731,-115.67218,,,
729860636.213382,52.605882,-11.404732,-26.134986,0.086441,0.784927,0.608521,0.056356,-0.035031,-0.046759,77.337601,-29.224731,-115.67218,,,
729860636.216698,52.627455,-11.404975,-26.141708,0.086441,0.784927,0.608521,0.056356,-0.035031,-0.046759,77.337601,-29.224731,-115.67218,,,
729860636.220046,52.627455,-11.404975,-26.141708,0.086441,0.784927,0.608521,0.056356,-0.035031,-0.046759,77.337601,-29.224731,-115.67218,,,
729860636.223498,52.65438,-11.408115,-26.137903,0.081512,0.764328,0.638947,0.098848,0.008495,-0.011572,77.337601,-29.224731,-115.67218,,,
729860636.226684,52.686798,-11.416321,-26.126018,0.081512,0.764328,0.638947,0.098848,0.008495,-0.011572,77.373093,-29.11319,-115.722794,,,
729860636.230052,52.686798,-11.416321,-26.126018,0.081512,0.764328,0.638947,0.098848,0.008495,-0.011572,77.373093,-29.11319,-115.722794,,,
729860636.233376,52.72561,-11.432057,-26.109513,0.081299,0.75679,0.639359,0.145508,-0.008799,0.008287,77.373093,-29.11319,-115.722794,,,
729860636.236699,52.773014,-11.458727,-26.090314,0.081299,0.75679,0.639359,0.145508,-0.008799,0.008287,77.373093,-29.11319,-115.722794,,,
729860636.240026,52.773014,-11.458727,-26.090314,0.081299,0.75679,0.639359,0.145508,-0.008799,0.008287,77.373093,-29.11319,-115.722794,,,
729860636.24339,52.829962,-11.497237,-26.071572,0.093216,0.757233,0.632416,0.213262,-0.089567,-0.00463,77.373093,-29.11319,-115.722794,,,
729860636.246697,52.896137,-11.548543,-26.054578,0.093216,0.757233,0.632416,0.213262,-0.089567,-0.00463,77.373093,-29.11319,-115.722794,,,
729860636.250134,52.896137,-11.548543,-26.054578,0.093216,0.757233,0.632416,0.213262,-0.089567,-0.00463,77.373093,-29.11319,-115.722794,,,
729860636.253376,52.968461,-11.61185,-26.040129,0.100922,0.765762,0.624496,0.257576,-0.189055,-0.025733,77.373093,-29.11319,-115.722794,,,
729860636.256715,53.042897,-11.682934,-26.029018,0.100922,0.765762,0.624496,0.257576,-0.189055,-0.025733,77.373093,-29.11319,-115.722794,,,
729860636.26006,53.042897,-11.682934,-26.029018,0.100922,0.765762,0.624496,0.257576,-0.189055,-0.025733,77.373093,-29.11319,-115.722794,,,
729860636.263439,53.11422,-11.755954,-26.021134,0.102264,0.785049,0.589569,0.2423,-0.233775,-0.034644,77.373093,-29.11319,-115.722794,,,
729860636.266771,53.174218,-11.825097,-26.016254,0.102264,0.785049,0.589569,0.2423,-0.233775,-0.034644,77.320114,-29.161728,-115.243958,,,
729860636.270038,53.174218,-11.825097,-26.016254,0.102264,0.785049,0.589569,0.2423,-0.233775,-0.034644,77.320114,-29.161728,-115.243958,,,
729860636.27338,53.215576,-11.883992,-26.014996,0.10051,0.815781,0.529465,0.125698,-0.192914,-0.027441,77.320114,-29.161728,-115.243958,,,
729860636.2767,53.23121,-11.928061,-26.016761,0.10051,0.815781,0.529465,0.125698,-0.192914,-0.027441,77.320114,-29.161728,-115.243958,,,
729860636.280048,53.23121,-11.928061,-26.016761,0.10051,0.815781,0.529465,0.125698,-0.192914,-0.027441,77.320114,-29.161728,-115.243958,,,
729860636.283367,53.216307,-11.953882,-26.020393,0.091339,0.850006,0.447189,-0.079019,-0.082255,0.006991,77.320114,-29.161728,-115.243958,,,
729860636.286695,53.171047,-11.962006,-26.024425,0.091339,0.850006,0.447189,-0.079019,-0.082255,0.006991,77.320114,-29.161728,-115.243958,,,
729860636.290029,53.171047,-11.962006,-26.024425,0.091339,0.850006,0.447189,-0.079019,-0.082255,0.006991,77.320114,-29.161728,-115.243958,,,
729860636.29338,53.10238,-11.957101,-26.027063,0.080582,0.873764,0.410675,-0.253083,0.024181,0.047336,77.320114,-29.161728,-115.243958,,,
729860636.296694,53.021861,-11.942765,-26.026809,0.080582,0.873764,0.410675,-0.253083,0.024181,0.047336,77.320114,-29.161728,-115.243958,,,
729860636.3001,53.021861,-11.942765,-26.026809,0.080582,0.873764,0.410675,-0.253083,0.024181,0.047336,77.320114,-29.161728,-115.243958,,,
729860636.303361,52.939789,-11.926213,-26.021165,0.088501,0.840881,0.488678,-0.278682,0.084079,0.068585,77.320114,-29.161728,-115.243958,,,
729860636.306704,52.863341,-11.909318,-26.014262,0.088501,0.840881,0.488678,-0.278682,0.084079,0.068585,77.374252,-29.212311,-115.406387,,,
729860636.310051,52.863341,-11.909318,-26.014262,0.088501,0.840881,0.488678,-0.278682,0.084079,0.068585,77.374252,-29.212311,-115.406387,,,
729860636.313451,52.801078,-11.904747,-26.00213,0.104355,0.780777,0.602356,-0.195192,0.044903,0.0679,77.374252,-29.212311,-115.406387,,,
729860636.316729,52.757336,-11.917645,-25.987692,0.104355,0.780777,0.602356,-0.195192,0.044903,0.0679,77.374252,-29.212311,-115.406387,,,
729860636.320036,52.757336,-11.917645,-25.987692,0.104355,0.780777,0.602356,-0.195192,0.044903,0.0679,77.374252,-29.212311,-115.406387,,,
729860636.323382,52.73784,-11.956363,-25.969413,0.112991,0.738678,0.671036,-0.038645,-0.102286,0.047561,77.374252,-29.212311,-115.406387,,,
729860636.326699,52.742406,-12.018708,-25.950466,0.112991,0.738678,0.671036,-0.038645,-0.102286,0.047561,77.374252,-29.212311,-115.406387,,,
729860636.330038,52.742406,-12.018708,-25.950466,0.112991,0.738678,0.671036,-0.038645,-0.102286,0.047561,77.374252,-29.212311,-115.406387,,,
729860636.333376,52.768729,-12.103206,-25.930237,0.12059,0.716965,0.702637,0.115879,-0.255111,0.01696,77.374252,-29.212311,-115.406387,,,
729860636.336702,52.811011,-12.203173,-25.910905,0.12059,0.716965,0.702637,0.115879,-0.255111,0.01696,77.374252,-29.212311,-115.406387,,,
729860636.340037,52.811011,-12.203173,-25.910905,0.12059,0.716965,0.702637,0.115879,-0.255111,0.01696,77.374252,-29.212311,-115.406387,,,
729860636.343379,52.862921,-12.315172,-25.889529,0.12326,0.733734,0.687378,0.196579,-0.335735,0.003981,77.374252,-29.212311,-115.406387,,,
729860636.346702,52.917535,-12.430297,-25.866053,0.12326,0.733734,0.687378,0.196579,-0.335735,0.003981,77.374252,-29.212311,-115.406387,,,
729860636.3501,52.917535,-12.430297,-25.866053,0.12326,0.733734,0.687378,0.196579,-0.335735,0.003981,76.788666,-28.870209,-115.396729,,,
729860636.353377,52.967281,-12.541773,-25.839998,0.122971,0.764938,0.635406,0.176291,-0.306318,0.01577,76.788666,-28.870209,-115.396729,,,
729860636.356726,53.006272,-12.640842,-25.81277,0.122971,0.764938,0.635406,0.176291,-0.306318,0.01577,76.788666,-28.870209,-115.396729,,,
729860636.36004,53.006272,-12.640842,-25.81277,0.122971,0.764938,0.635406,0.176291,-0.306318,0.01577,76.788666,-28.870209,-115.396729,,,
729860636.363434,53.026303,-12.720272,-25.785069,0.121887,0.800049,0.566513,0.063787,-0.17898,0.043581,76.788666,-28.870209,-115.396729,,,
729860636.36669,53.026133,-12.773711,-25.75889,0.121887,0.800049,0.566513,0.063787,-0.17898,0.043581,76.788666,-28.870209,-115.396729,,,
729860636.370045,53.026133,-12.773711,-25.75889,0.121887,0.800049,0.566513,0.063787,-0.17898,0.043581,76.788666,-28.870209,-115.396729,,,
729860636.373379,53.000415,-12.798525,-25.734507,0.123993,0.832428,0.503784,-0.097119,0.009437,0.071878,76.788666,-28.870209,-115.396729,,,
729860636.376701,52.952288,-12.793048,-25.71335,0.123993,0.832428,0.503784,-0.097119,0.009437,0.071878,76.788666,-28.870209,-115.396729,,,
729860636.380055,52.952288,-12.793048,-25.71335,0.123993,0.832428,0.503784,-0.097119,0.009437,0.071878,76.788666,-28.870209,-115.396729,,,
729860636.383381,52.881241,-12.760991,-25.694926,0.126236,0.850937,0.478149,-0.252273,0.188202,0.094211,76.788666,-28.870209,-115.396729,,,
729860636.386701,52.792396,-12.708825,-25.679001,0.126236,0.850937,0.478149,-0.252273,0.188202,0.094211,76.788666,-28.870209,-115.396729,,,
729860636.390124,52.792396,-12.708825,-25.679001,0.126236,0.850937,0.478149,-0.252273,0.188202,0.094211,76.81456,-29.137573,-115.673538,,,
729860636.393353,52.692013,-12.647943,-25.665017,0.128357,0.847946,0.493042,-0.343794,0.259964,0.105998,76.81456,-29.137573,-115.673538,,,
729860636.396694,52.587708,-12.58802,-25.65306,0.128357,0.847946,0.493042,-0.343794,0.259964,0.105998,76.81456,-29.137573,-115.673538,,,
729860636.4001,52.587708,-12.58802,-25.65306,0.128357,0.847946,0.493042,-0.343794,0.259964,0.105998,76.81456,-29.137573,-115.673538,,,
729860636.403367,52.486974,-12.538371,-25.643577,0.134216,0.816803,0.53653,-0.334861,0.186512,0.089867,76.81456,-29.137573,-115.673538,,,
729860636.406705,52.399144,-12.504428,-25.639072,0.134216,0.816803,0.53653,-0.334861,0.186512,0.089867,76.81456,-29.137573,-115.673538,,,
729860636.410039,52.399144,-12.504428,-25.639072,0.134216,0.816803,0.53653,-0.334861,0.186512,0.089867,76.81456,-29.137573,-115.673538,,,
729860636.413445,52.331746,-12.488643,-25.640073,0.146439,0.77066,0.617218,-0.210532,0.035418,0.039071,76.81456,-29.137573,-115.673538,,,
729860636.416695,52.288505,-12.491175,-25.646226,0.146439,0.77066,0.617218,-0.210532,0.035418,0.039071,76.81456,-29.137573,-115.673538,,,
729860636.420052,52.288505,-12.491175,-25.646226,0.146439,0.77066,0.617218,-0.210532,0.035418,0.039071,76.81456,-29.137573,-115.673538,,,
729860636.423369,52.270275,-12.510359,-25.656316,0.157913,0.738678,0.696884,-0.043365,-0.110178,-0.014771,76.81456,-29.137573,-115.673538,,,
729860636.426712,52.274642,-12.544335,-25.666922,0.157913,0.738678,0.696884,-0.043365,-0.110178,-0.014771,76.81456,-29.137573,-115.673538,,,
729860636.430031,52.274642,-12.544335,-25.666922,0.157913,0.738678,0.696884,-0.043365,-0.110178,-0.014771,76.626404,-29.046997,-115.611755,,,
729860636.433385,52.298919,-12.590192,-25.673925,0.157806,0.72464,0.731903,0.099358,-0.183399,-0.035243,76.626404,-29.046997,-115.611755,,,
729860636.436702,52.337583,-12.640646,-25.675681,0.157806,0.72464,0.731903,0.099358,-0.183399,-0.035243,76.626404,-29.046997,-115.611755,,,
729860636.440035,52.337583,-12.640646,-25.675681,0.157806,0.72464,0.731903,0.099358,-0.183399,-0.035243,76.626404,-29.046997,-115.611755,,,
729860636.443376,52.38326,-12.688275,-25.670818,0.151413,0.729614,0.723053,0.163386,-0.139744,-0.021391,76.626404,-29.046997,-115.611755,,,
729860636.446703,52.428838,-12.727426,-25.659266,0.151413,0.729614,0.723053,0.163386,-0.139744,-0.021391,76.626404,-29.046997,-115.611755,,,
729860636.450029,52.428838,-12.727426,-25.659266,0.151413,0.729614,0.723053,0.163386,-0.139744,-0.021391,76.626404,-29.046997,-115.611755,,,
729860636.453368,52.466932,-12.75293,-25.643088,0.142059,0.75766,0.666962,0.132067,-0.023153,0.007651,76.626404,-29.046997,-115.611755,,,
729860636.456697,52.494835,-12.762742,-25.624219,0.142059,0.75766,0.666962,0.132067,-0.023153,0.007651,76.626404,-29.046997,-115.611755,,,
729860636.460049,52.494835,-12.762742,-25.624219,0.142059,0.75766,0.666962,0.132067,-0.023153,0.007651,76.626404,-29.046997,-115.611755,,,
729860636.463369,52.507899,-12.75603,-25.60597,0.140823,0.797409,0.586884,0.039196,0.090445,0.028241,76.626404,-29.046997,-115.611755,,,
729860636.466705,52.507862,-12.735382,-25.590017,0.140823,0.797409,0.586884,0.039196,0.090445,0.028241,76.626404,-29.046997,-115.611755,,,
729860636.470044,52.507862,-12.735382,-25.590017,0.140823,0.797409,0.586884,0.039196,0.090445,0.028241,76.626404,-29.046997,-115.611755,,,
729860636.47339,52.494108,-12.703073,-25.578498,0.141113,0.819901,0.536865,-0.053325,0.154347,0.033445,76.695969,-28.841782,-115.690491,,,
729860636.476695,52.470793,-12.665073,-25.570634,0.141113,0.819901,0.536865,-0.053325,0.154347,0.033445,76.695969,-28.841782,-115.690491,,,
729860636.480101,52.470793,-12.665073,-25.570634,0.141113,0.819901,0.536865,-0.053325,0.154347,0.033445,76.695969,-28.841782,-115.690491,,,
729860636.483371,52.439855,-12.626274,-25.566602,0.140579,0.822464,0.525894,-0.109462,0.146457,0.031386,76.695969,-28.841782,-115.690491,,,
729860636.486697,52.40489,-12.591326,-25.565318,0.140579,0.822464,0.525894,-0.109462,0.146457,0.031386,76.695969,-28.841782,-115.690491,,,
729860636.490055,52.40489,-12.591326,-25.565318,0.140579,0.822464,0.525894,-0.109462,0.146457,0.031386,76.695969,-28.841782,-115.690491,,,
729860636.493435,52.368804,-12.561248,-25.566619,0.14003,0.811356,0.542694,-0.121885,0.098311,0.023501,76.695969,-28.841782,-115.690491,,,
729860636.4967,52.333805,-12.538678,-25.569324,0.14003,0.811356,0.542694,-0.121885,0.098311,0.023501,76.695969,-28.841782,-115.690491,,,
729860636.500061,52.333805,-12.538678,-25.569324,0.14003,0.811356,0.542694,-0.121885,0.098311,0.023501,76.695969,-28.841782,-115.690491,,,
729860636.503375,52.304279,-12.525576,-25.573014,0.143631,0.795471,0.581131,-0.096778,0.029853,0.012018,76.695969,-28.841782,-115.690491,,,
729860636.506737,52.281343,-12.523136,-25.57692,0.143631,0.795471,0.581131,-0.096778,0.029853,0.012018,76.695969,-28.841782,-115.690491,,,
729860636.510091,52.281343,-12.523136,-25.57692,0.143631,0.795471,0.581131,-0.096778,0.029853,0.012018,76.695969,-28.841782,-115.690491,,,
729860636.513382,52.269969,-12.531007,-25.580366,0.144745,0.774704,0.623657,-0.029457,-0.043073,-0.00175,76.752487,-29.086945,-115.934357,,,
729860636.516745,52.268246,-12.547872,-25.584002,0.144745,0.774704,0.623657,-0.029457,-0.043073,-0.00175,76.752487,-29.086945,-115.934357,,,
729860636.520099,52.268246,-12.547872,-25.584002,0.144745,0.774704,0.623657,-0.029457,-0.043073,-0.00175,76.752487,-29.086945,-115.934357,,,
729860636.523382,52.278024,-12.57432,-25.587358,0.148712,0.760208,0.65509,0.042103,-0.108024,-0.015669,76.752487,-29.086945,-115.934357,,,
729860636.526748,52.29536,-12.60776,-25.591317,0.148712,0.760208,0.65509,0.042103,-0.108024,-0.015669,76.752487,-29.086945,-115.934357,,,
729860636.530041,52.29536,-12.60776,-25.591317,0.148712,0.760208,0.65509,0.042103,-0.108024,-0.015669,76.752487,-29.086945,-115.934357,,,
729860636.533429,52.320413,-12.644113,-25.596039,0.153549,0.761093,0.655273,0.087882,-0.137452,-0.034373,76.752487,-29.086945,-115.934357,,,
729860636.536728,52.349958,-12.679387,-25.601547,0.153549,0.761093,0.655273,0.087882,-0.137452,-0.034373,76.752487,-29.086945,-115.934357,,,
729860636.540049,52.349958,-12.679387,-25.601547,0.153549,0.761093,0.655273,0.087882,-0.137452,-0.034373,76.752487,-29.086945,-115.934357,,,
729860636.54338,52.381613,-12.710627,-25.607286,0.151947,0.770325,0.646362,0.106123,-0.118367,-0.037258,76.752487,-29.086945,-115.934357,,,
729860636.546715,52.412217,-12.736633,-25.610531,0.151947,0.770325,0.646362,0.106123,-0.118367,-0.037258,76.752487,-29.086945,-115.934357,,,
729860636.550044,52.412217,-12.736633,-25.610531,0.151947,0.770325,0.646362,0.106123,-0.118367,-0.037258,76.752487,-29.086945,-115.934357,,,
729860636.553368,52.437858,-12.75363,-25.612302,0.146561,0.780396,0.624802,0.08209,-0.05312,-0.022799,76.837769,-28.97728,-115.958557,,,
729860636.556729,52.458656,-12.762337,-25.610843,0.146561,0.780396,0.624802,0.08209,-0.05312,-0.022799,76.837769,-28.97728,-115.958557,,,
729860636.560104,52.458656,-12.762337,-25.610843,0.146561,0.780396,0.624802,0.08209,-0.05312,-0.022799,76.837769,-28.97728,-115.958557,,,
729860636.563368,52.471652,-12.760873,-25.607307,0.137177,0.791626,0.599121,0.04119,0.026974,-0.000453,76.837769,-28.97728,-115.958557,,,
729860636.566705,52.479059,-12.751896,-25.600889,0.137177,0.791626,0.599121,0.04119,0.026974,-0.000453,76.837769,-28.97728,-115.958557,,,
729860636.570048,52.479059,-12.751896,-25.600889,0.137177,0.791626,0.599121,0.04119,0.026974,-0.000453,76.837769,-28.97728,-115.958557,,,
729860636.573384,52.478728,-12.734336,-25.594486,0.135971,0.804413,0.584778,-0.002798,0.089513,0.014383,76.837769,-28.97728,-115.958557,,,
729860636.576704,52.472334,-12.712144,-25.587525,0.135971,0.804413,0.584778,-0.002798,0.089513,0.014383,76.837769,-28.97728,-115.958557,,,
729860636.580043,52.472334,-12.712144,-25.587525,0.135971,0.804413,0.584778,-0.002798,0.089513,0.014383,76.837769,-28.97728,-115.958557,,,
729860636.583431,52.460695,-12.685761,-25.582339,0.133484,0.813843,0.573868,-0.041758,0.109793,0.018966,76.837769,-28.97728,-115.958557,,,
729860636.586694,52.44624,-12.658555,-25.577882,0.133484,0.813843,0.573868,-0.041758,0.109793,0.018966,76.837769,-28.97728,-115.958557,,,
729860636.590043,52.44624,-12.658555,-25.577882,0.133484,0.813843,0.573868,-0.041758,0.109793,0.018966,76.837769,-28.97728,-115.958557,,,
729860636.593369,52.43111,-12.632537,-25.574502,0.129639,0.810349,0.576523,-0.051977,0.100652,0.016668,76.785187,-29.247421,-115.85144,,,
729860636.596775,52.413925,-12.611258,-25.571793,0.129639,0.810349,0.576523,-0.051977,0.100652,0.016668,76.785187,-29.247421,-115.85144,,,
729860636.60003,52.413925,-12.611258,-25.571793,0.129639,0.810349,0.576523,-0.051977,0.100652,0.016668,76.785187,-29.247421,-115.85144,,,
729860636.603378,52.400149,-12.595715,-25.570412,0.127151,0.797562,0.588577,-0.042415,0.05642,0.012685,76.785187,-29.247421,-115.85144,,,
729860636.606737,52.387593,-12.588856,-25.568633,0.127151,0.797562,0.588577,-0.042415,0.05642,0.012685,76.785187,-29.247421,-115.85144,,,
729860636.610124,52.387593,-12.588856,-25.568633,0.127151,0.797562,0.588577,-0.042415,0.05642,0.012685,76.785187,-29.247421,-115.85144,,,
729860636.613393,52.382363,-12.590522,-25.566674,0.125488,0.784073,0.598633,-0.013828,-0.007039,0.007364,76.785187,-29.247421,-115.85144,,,
729860636.616717,52.377217,-12.602505,-25.563567,0.125488,0.784073,0.598633,-0.013828,-0.007039,0.007364,76.785187,-29.247421,-115.85144,,,
729860636.62005,52.377217,-12.602505,-25.563567,0.125488,0.784073,0.598633,-0.013828,-0.007039,0.007364,76.785187,-29.247421,-115.85144,,,
729860636.623446,52.376959,-12.622035,-25.561149,0.126251,0.774796,0.605453,0.001895,-0.065037,0.004782,76.785187,-29.247421,-115.85144,,,
729860636.626719,52.378372,-12.650295,-25.556363,0.126251,0.774796,0.605453,0.001895,-0.065037,0.004782,76.785187,-29.247421,-115.85144,,,
729860636.63005,52.378372,-12.650295,-25.556363,0.126251,0.774796,0.605453,0.001895,-0.065037,0.004782,76.785187,-29.247421,-115.85144,,,
729860636.633377,52.386323,-12.682272,-25.550763,0.12883,0.767395,0.612366,0.036862,-0.0953,0.002527,76.785187,-29.247421,-115.85144,,,
729860636.636702,52.386323,-12.682272,-25.550763,0.12883,0.767395,0.612366,0.036862,-0.0953,0.002527,76.676437,-28.984238,-115.811417,,,
729860636.640033,52.397244,-12.7172,-25.542574,0.12883,0.767395,0.612366,0.036862,-0.0953,0.002527,76.676437,-28.984238,-115.811417,,,
729860636.643372,52.41164,-12.749951,-25.532258,0.133453,0.766739,0.631119,0.0567,-0.076522,0.010851,76.676437,-28.984238,-115.811417,,,
729860636.646767,52.428061,-12.778075,-25.518783,0.133453,0.766739,0.631119,0.0567,-0.076522,0.010851,76.676437,-28.984238,-115.811417,,,
729860636.650031,52.428061,-12.778075,-25.518783,0.133453,0.766739,0.631119,0.0567,-0.076522,0.010851,76.676437,-28.984238,-115.811417,,,
729860636.653381,52.443638,-12.798667,-25.503299,0.134674,0.769241,0.633392,0.062239,-0.019532,0.022266,76.676437,-28.984238,-115.811417,,,
729860636.656708,52.443638,-12.798667,-25.503299,0.134674,0.769241,0.633392,0.062239,-0.019532,0.022266,76.676437,-28.984238,-115.811417,,,
729860636.66012,52.460078,-12.814775,-25.482619,0.134674,0.769241,0.633392,0.062239,-0.019532,0.022266,76.676437,-28.984238,-115.811417,,,
729860636.663375,52.471011,-12.823461,-25.459288,0.136612,0.777603,0.619797,0.046665,0.045692,0.039979,76.676437,-28.984238,-115.811417,,,
729860636.666738,52.471011,-12.823461,-25.434908,0.136612,0.777603,0.619797,0.046665,0.045692,0.039979,76.676437,-28.984238,-115.811417,,,
729860636.670041,52.479812,-12.826268,-25.434908,0.136612,0.777603,0.619797,0.046665,0.045692,0.039979,76.676437,-28.984238,-115.811417,,,
729860636.673447,52.479321,-12.825746,-25.410733,0.132446,0.789429,0.585632,0.006079,0.073854,0.048703,76.676437,-28.984238,-115.811417,,,
729860636.676709,52.479321,-12.825746,-25.410733,0.132446,0.789429,0.585632,0.006079,0.073854,0.048703,76.475372,-29.227127,-115.543259,,,
729860636.68006,52.472994,-12.820987,-25.389774,0.132446,0.789429,0.585632,0.006079,0.073854,0.048703,76.475372,-29.227127,-115.543259,,,
729860636.683375,52.458566,-12.81763,-25.370034,0.130951,0.800095,0.547836,-0.044813,0.067177,0.049701,76.475372,-29.227127,-115.543259,,,
729860636.686801,52.439606,-12.813866,-25.355076,0.130951,0.800095,0.547836,-0.044813,0.067177,0.049701,76.475372,-29.227127,-115.543259,,,
729860636.690036,52.439606,-12.813866,-25.355076,0.130951,0.800095,0.547836,-0.044813,0.067177,0.049701,76.475372,-29.227127,-115.543259,,,
729860636.69337,52.419447,-12.815664,-25.341371,0.127609,0.79747,0.538712,-0.060191,0.028463,0.038754,76.475372,-29.227127,-115.543259,,,
729860636.696717,52.419447,-12.815664,-25.341371,0.127609,0.79747,0.538712,-0.060191,0.028463,0.038754,76.475372,-29.227127,-115.543259,,,
729860636.700116,52.400283,-12.819906,-25.332315,0.127609,0.79747,0.538712,-0.060191,0.028463,0.038754,76.475372,-29.227127,-115.543259,,,
729860636.703383,52.387551,-12.833813,-25.321836,0.132843,0.777954,0.567764,-0.032461,-0.025518,0.027922,76.475372,-29.227127,-115.543259,,,
729860636.706717,52.387551,-12.833813,-25.321836,0.132843,0.777954,0.567764,-0.032461,-0.025518,0.027922,76.475372,-29.227127,-115.543259,,,
729860636.710059,52.379794,-12.851058,-25.31388,0.132843,0.777954,0.567764,-0.032461,-0.025518,0.027922,76.475372,-29.227127,-115.543259,,,
729860636.713429,52.3813,-12.877961,-25.30088,0.138184,0.756821,0.607147,0.019792,-0.057656,0.023854,76.475372,-29.227127,-115.543259,,,
729860636.716747,52.3813,-12.877961,-25.30088,0.138184,0.756821,0.607147,0.019792,-0.057656,0.023854,76.183029,-28.994095,-115.610016,,,
729860636.720049,52.386409,-12.906628,-25.285989,0.138184,0.756821,0.607147,0.019792,-0.057656,0.023854,76.183029,-28.994095,-115.610016,,,
729860636.723393,52.401593,-12.942949,-25.263235,0.134277,0.744415,0.632034,0.068705,-0.060168,0.035831,76.183029,-28.994095,-115.610016,,,
729860636.726812,52.401593,-12.942949,-25.263235,0.134277,0.744415,0.632034,0.068705,-0.060168,0.035831,76.183029,-28.994095,-115.610016,,,
729860636.730059,52.418234,-12.981211,-25.236085,0.134277,0.744415,0.632034,0.068705,-0.060168,0.035831,76.183029,-28.994095,-115.610016,,,
729860636.733386,52.44185,-13.026311,-25.200882,0.135361,0.741547,0.629074,0.099369,-0.056665,0.056674,76.183029,-28.994095,-115.610016,,,
729860636.736731,52.44185,-13.026311,-25.200882,0.135361,0.741547,0.629074,0.099369,-0.056665,0.056674,76.183029,-28.994095,-115.610016,,,
729860636.740116,52.462448,-13.070376,-25.164361,0.135361,0.741547,0.629074,0.099369,-0.056665,0.056674,76.183029,-28.994095,-115.610016,,,
729860636.743364,52.482711,-13.115655,-25.125274,0.136703,0.756348,0.599243,0.087413,-0.044809,0.06345,76.183029,-28.994095,-115.610016,,,
729860636.746716,52.482711,-13.115655,-25.125274,0.136703,0.756348,0.599243,0.087413,-0.044809,0.06345,76.183029,-28.994095,-115.610016,,,
729860636.750046,52.496356,-13.156296,-25.088556,0.136703,0.756348,0.599243,0.087413,-0.044809,0.06345,76.183029,-28.994095,-115.610016,,,
729860636.753457,52.502207,-13.19288,-25.054546,0.140152,0.78186,0.552383,0.027702,-0.03283,0.06322,76.183029,-28.994095,-115.610016,,,
729860636.756728,52.502207,-13.19288,-25.054546,0.140152,0.78186,0.552383,0.027702,-0.03283,0.06322,76.437195,-29.268234,-115.727936,,,
729860636.760061,52.498392,-13.22282,-25.026412,0.140152,0.78186,0.552383,0.027702,-0.03283,0.06322,76.437195,-29.268234,-115.727936,,,
729860636.763389,52.479634,-13.245069,-25.004586,0.143036,0.805069,0.50827,-0.065471,-0.013187,0.057195,76.437195,-29.268234,-115.727936,,,
729860636.766787,52.479634,-13.245069,-25.004586,0.143036,0.805069,0.50827,-0.065471,-0.013187,0.057195,76.437195,-29.268234,-115.727936,,,
729860636.770054,52.448209,-13.25951,-24.98927,0.143036,0.805069,0.50827,-0.065471,-0.013187,0.057195,76.437195,-29.268234,-115.727936,,,
729860636.773387,52.401545,-13.265444,-24.980977,0.142227,0.818054,0.48378,-0.163563,0.007139,0.05402,76.437195,-29.268234,-115.727936,,,
729860636.776719,52.401545,-13.265444,-24.980977,0.142227,0.818054,0.48378,-0.163563,0.007139,0.05402,76.437195,-29.268234,-115.727936,,,
729860636.780116,52.345166,-13.263573,-24.979023,0.142227,0.818054,0.48378,-0.163563,0.007139,0.05402,76.437195,-29.268234,-115.727936,,,
729860636.78336,52.278692,-13.255554,-24.982754,0.144455,0.812057,0.494461,-0.235604,0.025803,0.044955,76.437195,-29.268234,-115.727936,,,
729860636.786714,52.278692,-13.255554,-24.982754,0.144455,0.812057,0.494461,-0.235604,0.025803,0.044955,76.437195,-29.268234,-115.727936,,,
729860636.790081,52.203429,-13.243163,-24.990719,0.144455,0.812057,0.494461,-0.235604,0.025803,0.044955,76.437195,-29.268234,-115.727936,,,
729860636.793422,52.123149,-13.230217,-25.000029,0.142502,0.800674,0.516327,-0.283129,0.023706,0.041824,76.437195,-29.268234,-115.727936,,,
729860636.796741,52.123149,-13.230217,-25.000029,0.142502,0.800674,0.516327,-0.283129,0.023706,0.041824,76.437195,-29.268234,-115.727936,,,
729860636.800046,52.038657,-13.21774,-25.010363,0.142502,0.800674,0.516327,-0.283129,0.023706,0.041824,76.265289,-29.154175,-115.991684,,,
729860636.803384,51.954277,-13.20863,-25.01946,0.138733,0.778534,0.548065,-0.288976,0.00824,0.046635,76.265289,-29.154175,-115.991684,,,
729860636.806737,51.954277,-13.20863,-25.01946,0.138733,0.778534,0.548065,-0.288976,0.00824,0.046635,76.265289,-29.154175,-115.991684,,,
729860636.810089,51.86927,-13.20191,-25.027964,0.138733,0.778534,0.548065,-0.288976,0.00824,0.046635,76.265289,-29.154175,-115.991684,,,
729860636.813366,51.786895,-13.199584,-25.034674,0.135498,0.76149,0.578476,-0.283545,-0.00993,0.050672,76.265289,-29.154175,-115.991684,,,
