Time (sec),Pitch (deg),Roll (deg),Yaw(deg),X-Acceleration (g),Y-Acceleration (g),Z-Acceleration (g),Pitch Rate (deg/sec),Roll Rate (deg/sec),Yaw Rate (deg/sec),Magnetic Field in X direction (uT),Magnetic Field in Y direction (uT),Magnetic Field in Z Direction (uT),Latitude (deg),Longitude (deg),Altitude (m)
729863105.192855,0.944909,6.249231,52.036471,-0.110657,0.007401,0.972229,0.04511,0.010627,0.007052,59.440018,4.67952,-148.505142,,,
729863105.196196,0.944909,6.249231,52.036471,-0.110657,0.007401,0.972229,0.04511,0.010627,0.007052,59.272766,4.847076,-148.473053,,,
729863105.199623,0.956387,6.247346,52.037661,-0.110657,0.007401,0.972229,0.02737,-0.008134,0.00276,59.272766,4.847076,-148.473053,,,
729863105.202856,0.963867,6.244925,52.038478,-0.103378,0.011948,0.954819,0.02737,-0.008134,0.00276,59.272766,4.847076,-148.473053,,,
729863105.206209,0.963867,6.244925,52.038478,-0.103378,0.011948,0.954819,0.02737,-0.008134,0.00276,59.272766,4.847076,-148.473053,,,
729863105.209549,0.969141,6.238961,52.038627,-0.103378,0.011948,0.954819,0.006636,-0.012123,-0.005774,59.272766,4.847076,-148.473053,,,
729863105.212859,0.971507,6.23482,52.037901,-0.098907,0.012604,0.954285,0.006636,-0.012123,-0.005774,59.272766,4.847076,-148.473053,,,
729863105.216261,0.971507,6.23482,52.037901,-0.098907,0.012604,0.954285,0.006636,-0.012123,-0.005774,59.272766,4.847076,-148.473053,,,
729863105.219523,0.968652,6.228846,52.036128,-0.098907,0.012604,0.954285,-0.016972,-0.001937,-0.006378,59.272766,4.847076,-148.473053,,,
729863105.222861,0.963513,6.227142,52.034259,-0.097427,0.012878,0.956833,-0.016972,-0.001937,-0.006378,59.272766,4.847076,-148.473053,,,
729863105.226262,0.963513,6.227142,52.034259,-0.097427,0.012878,0.956833,-0.016972,-0.001937,-0.006378,59.272766,4.847076,-148.473053,,,
729863105.229529,0.954998,6.224577,52.033522,-0.097427,0.012878,0.956833,-0.027879,0.015098,-0.004734,59.272766,4.847076,-148.473053,,,
729863105.232851,0.947287,6.227198,52.033867,-0.102066,0.010513,0.966644,-0.027879,0.015098,-0.004734,59.272766,4.847076,-148.473053,,,
729863105.236185,0.947287,6.227198,52.033867,-0.102066,0.010513,0.966644,-0.027879,0.015098,-0.004734,59.270584,4.716156,-148.749237,,,
729863105.239519,0.936186,6.227634,52.035191,-0.102066,0.010513,0.966644,-0.029089,0.024434,0.001284,59.270584,4.716156,-148.749237,,,
729863105.242851,0.927994,6.233224,52.036879,-0.10437,0.006821,0.97699,-0.029089,0.024434,0.001284,59.270584,4.716156,-148.749237,,,
729863105.246196,0.927994,6.233224,52.036879,-0.10437,0.006821,0.97699,-0.029089,0.024434,0.001284,59.270584,4.716156,-148.749237,,,
729863105.249622,0.916611,6.235011,52.038103,-0.10437,0.006821,0.97699,-0.014286,0.017921,-0.004688,59.270584,4.716156,-148.749237,,,
729863105.252917,0.911046,6.240029,52.038139,-0.100952,0.006058,0.982361,-0.014286,0.017921,-0.004688,59.270584,4.716156,-148.749237,,,
729863105.256194,0.911046,6.240029,52.038139,-0.100952,0.006058,0.982361,-0.014286,0.017921,-0.004688,59.270584,4.716156,-148.749237,,,
729863105.259527,0.904701,6.241928,52.036144,-0.100952,0.006058,0.982361,-0.00218,-0.000633,-0.017635,59.270584,4.716156,-148.749237,,,
729863105.262861,0.903427,6.242167,52.031907,-0.103424,0.006638,0.985901,-0.00218,-0.000633,-0.017635,59.270584,4.716156,-148.749237,,,
729863105.266248,0.903427,6.242167,52.031907,-0.103424,0.006638,0.985901,-0.00218,-0.000633,-0.017635,59.270584,4.716156,-148.749237,,,
729863105.269516,0.901002,6.240574,52.0261,-0.103424,0.006638,0.985901,0.007489,-0.014578,-0.022057,59.270584,4.716156,-148.749237,,,
729863105.272856,0.901691,6.23632,52.019243,-0.104202,0.007919,0.982712,0.007489,-0.014578,-0.022057,59.270584,4.716156,-148.749237,,,
729863105.276192,0.901691,6.23632,52.019243,-0.104202,0.007919,0.982712,0.007489,-0.014578,-0.022057,59.417587,4.912796,-148.572678,,,
729863105.279302,0.900917,6.233438,52.012636,-0.104202,0.007919,0.982712,0.006134,-0.013597,-0.021498,59.417587,4.912796,-148.572678,,,
729863105.282918,0.901427,6.229126,52.007205,-0.104691,0.008163,0.979385,0.006134,-0.013597,-0.021498,59.417587,4.912796,-148.572678,,,
729863105.286202,0.901427,6.229126,52.007205,-0.104691,0.008163,0.979385,0.006134,-0.013597,-0.021498,59.417587,4.912796,-148.572678,,,
729863105.289587,0.90085,6.224509,52.002933,-0.104691,0.008163,0.979385,-0.008248,-0.010753,-0.013985,59.417587,4.912796,-148.572678,,,
729863105.292953,0.898814,6.220739,51.999864,-0.107803,0.013702,0.977631,-0.008248,-0.010753,-0.013985,59.417587,4.912796,-148.572678,,,
729863105.296177,0.898814,6.220739,51.999864,-0.107803,0.013702,0.977631,-0.008248,-0.010753,-0.013985,59.417587,4.912796,-148.572678,,,
729863105.299519,0.893847,6.214815,51.997543,-0.107803,0.013702,0.977631,-0.023476,-0.01875,-0.01029,59.417587,4.912796,-148.572678,,,
729863105.302855,0.887151,6.209129,51.995484,-0.105103,0.020264,0.971237,-0.023476,-0.01875,-0.01029,59.417587,4.912796,-148.572678,,,
729863105.306184,0.887151,6.209129,51.995484,-0.105103,0.020264,0.971237,-0.023476,-0.01875,-0.01029,59.417587,4.912796,-148.572678,,,
729863105.309517,0.878094,6.201737,51.993538,-0.105103,0.020264,0.971237,-0.035057,-0.018444,-0.012732,59.417587,4.912796,-148.572678,,,
729863105.312852,0.867675,6.195796,51.991433,-0.097534,0.021332,0.977936,-0.035057,-0.018444,-0.012732,59.417587,4.912796,-148.572678,,,
729863105.31619,0.867675,6.195796,51.991433,-0.097534,0.021332,0.977936,-0.035057,-0.018444,-0.012732,59.417587,4.912796,-148.572678,,,
729863105.31952,0.855346,6.190631,51.989062,-0.097534,0.021332,0.977936,-0.044842,-0.008793,-0.012036,59.407242,4.966003,-148.427261,,,
729863105.322868,0.842909,6.187165,51.986786,-0.095444,0.017914,0.985413,-0.044842,-0.008793,-0.012036,59.407242,4.966003,-148.427261,,,
729863105.326198,0.842909,6.187165,51.986786,-0.095444,0.017914,0.985413,-0.044842,-0.008793,-0.012036,59.407242,4.966003,-148.427261,,,
729863105.329599,0.828802,6.185016,51.985185,-0.095444,0.017914,0.985413,-0.051775,0.001918,-0.012291,59.407242,4.966003,-148.427261,,,
729863105.332936,0.814316,6.185176,51.984271,-0.099533,0.019455,0.986572,-0.051775,0.001918,-0.012291,59.407242,4.966003,-148.427261,,,
729863105.336186,0.814316,6.185176,51.984271,-0.099533,0.019455,0.986572,-0.051775,0.001918,-0.012291,59.407242,4.966003,-148.427261,,,
729863105.339542,0.797993,6.186372,51.98353,-0.099533,0.019455,0.986572,-0.057657,0.019003,-0.010796,59.407242,4.966003,-148.427261,,,
729863105.342872,0.781893,6.190883,51.982721,-0.099258,0.022232,0.991577,-0.057657,0.019003,-0.010796,59.407242,4.966003,-148.427261,,,
729863105.346186,0.781893,6.190883,51.982721,-0.099258,0.022232,0.991577,-0.057657,0.019003,-0.010796,59.407242,4.966003,-148.427261,,,
729863105.349543,0.7646,6.197894,51.981593,-0.099258,0.022232,0.991577,-0.052399,0.032848,-0.017482,59.407242,4.966003,-148.427261,,,
729863105.35287,0.748446,6.206503,51.979273,-0.09726,0.01767,0.999222,-0.052399,0.032848,-0.017482,59.407242,4.966003,-148.427261,,,
729863105.356259,0.748446,6.206503,51.979273,-0.09726,0.01767,0.999222,-0.052399,0.032848,-0.017482,59.407242,4.966003,-148.427261,,,
729863105.35953,0.733736,6.214501,51.975746,-0.09726,0.01767,0.999222,-0.035671,0.030137,-0.019306,59.503754,5.224823,-149.027191,,,
729863105.362913,0.722013,6.222567,51.971603,-0.103073,0.014908,1.006256,-0.035671,0.030137,-0.019306,59.503754,5.224823,-149.027191,,,
729863105.366194,0.722013,6.222567,51.971603,-0.103073,0.014908,1.006256,-0.035671,0.030137,-0.019306,59.503754,5.224823,-149.027191,,,
729863105.369599,0.711026,6.229984,51.966245,-0.103073,0.014908,1.006256,-0.026737,0.020154,-0.024461,59.503754,5.224823,-149.027191,,,
729863105.372896,0.701443,6.235923,51.960006,-0.109406,0.014008,1.005463,-0.026737,0.020154,-0.024461,59.503754,5.224823,-149.027191,,,
729863105.376212,0.701443,6.235923,51.960006,-0.109406,0.014008,1.005463,-0.026737,0.020154,-0.024461,59.503754,5.224823,-149.027191,,,
729863105.379532,0.693872,6.240377,51.954203,-0.109406,0.014008,1.005463,-0.020301,0.009299,-0.019338,59.503754,5.224823,-149.027191,,,
729863105.38291,0.686804,6.243179,51.949495,-0.116379,0.011124,1.006287,-0.020301,0.009299,-0.019338,59.503754,5.224823,-149.027191,,,
729863105.386197,0.686804,6.243179,51.949495,-0.116379,0.011124,1.006287,-0.020301,0.009299,-0.019338,59.503754,5.224823,-149.027191,,,
729863105.389541,0.683258,6.242423,51.946034,-0.116379,0.011124,1.006287,-0.009731,-0.010097,-0.012353,59.503754,5.224823,-149.027191,,,
729863105.392888,0.679242,6.239239,51.943022,-0.123337,0.010788,1.008896,-0.009731,-0.010097,-0.012353,59.503754,5.224823,-149.027191,,,
729863105.396266,0.679242,6.239239,51.943022,-0.123337,0.010788,1.008896,-0.009731,-0.010097,-0.012353,59.503754,5.224823,-149.027191,,,
729863105.399513,0.679728,6.229916,51.94045,-0.123337,0.010788,1.008896,0.009189,-0.028968,-0.00937,59.636612,5.160461,-148.906006,,,
729863105.402886,0.679728,6.229916,51.94045,-0.124771,0.007568,1.023666,0.009189,-0.028968,-0.00937,59.636612,5.160461,-148.906006,,,
729863105.406209,0.681417,6.22205,51.938099,-0.124771,0.007568,1.023666,0.009189,-0.028968,-0.00937,59.636612,5.160461,-148.906006,,,
729863105.409575,0.688059,6.209133,51.936132,-0.124771,0.007568,1.023666,0.030735,-0.036458,-0.002615,59.636612,5.160461,-148.906006,,,
729863105.412862,0.688059,6.209133,51.936132,-0.124771,0.007568,1.023666,0.030735,-0.036458,-0.002615,59.636612,5.160461,-148.906006,,,
729863105.416196,0.695941,6.198829,51.935088,-0.123352,0.003418,1.035431,0.030735,-0.036458,-0.002615,59.636612,5.160461,-148.906006,,,
729863105.419524,0.708023,6.186268,51.934945,-0.123352,0.003418,1.035431,0.042063,-0.031833,0.006799,59.636612,5.160461,-148.906006,,,
729863105.422998,0.719822,6.176292,51.935352,-0.118698,0.010391,1.025238,0.042063,-0.031833,0.006799,59.636612,5.160461,-148.906006,,,
729863105.426273,0.719822,6.176292,51.935352,-0.118698,0.010391,1.025238,0.042063,-0.031833,0.006799,59.636612,5.160461,-148.906006,,,
729863105.429527,0.73341,6.164859,51.93659,-0.118698,0.010391,1.025238,0.03048,-0.014736,0.007343,59.636612,5.160461,-148.906006,,,
729863105.432944,0.73341,6.158634,51.938363,-0.118698,0.010391,1.025238,0.03048,-0.014736,0.007343,59.636612,5.160461,-148.906006,,,
729863105.436251,0.742665,6.158634,51.938363,-0.10997,0.018219,1.011353,0.03048,-0.014736,0.007343,59.636612,5.160461,-148.906006,,,
729863105.439523,0.74926,6.151801,51.940109,-0.10997,0.018219,1.011353,0.003059,-0.001796,0.002003,59.333893,5.117157,-148.676025,,,
729863105.442871,0.74926,6.151801,51.940109,-0.10997,0.018219,1.011353,0.003059,-0.001796,0.002003,59.333893,5.117157,-148.676025,,,
729863105.446191,0.751148,6.15017,51.94153,-0.103165,0.022324,0.993286,0.003059,-0.001796,0.002003,59.333893,5.117157,-148.676025,,,
729863105.449576,0.750203,6.148983,51.942267,-0.103165,0.022324,0.993286,-0.011755,0.003463,-0.002059,59.333893,5.117157,-148.676025,,,
729863105.45288,0.750203,6.148983,51.942267,-0.103165,0.022324,0.993286,-0.011755,0.003463,-0.002059,59.333893,5.117157,-148.676025,,,
729863105.456228,0.747015,6.149477,51.942452,-0.104782,0.027802,0.987259,-0.011755,0.003463,-0.002059,59.333893,5.117157,-148.676025,,,
729863105.45953,0.742081,6.150819,51.942176,-0.104782,0.027802,0.987259,-0.021804,0.009297,-0.004744,59.333893,5.117157,-148.676025,,,
729863105.462935,0.742081,6.150819,51.942176,-0.104782,0.027802,0.987259,-0.021804,0.009297,-0.004744,59.333893,5.117157,-148.676025,,,
729863105.466192,0.736299,6.152316,51.941672,-0.109222,0.021286,0.98996,-0.021804,0.009297,-0.004744,59.333893,5.117157,-148.676025,,,
729863105.469598,0.730809,6.158551,51.941098,-0.109222,0.021286,0.98996,-0.005122,0.018985,-0.001516,59.333893,5.117157,-148.676025,,,
729863105.4729,0.730809,6.158551,51.941098,-0.109222,0.021286,0.98996,-0.005122,0.018985,-0.001516,59.333893,5.117157,-148.676025,,,
729863105.476265,0.727872,6.163029,51.940824,-0.114838,0.016983,1.00029,-0.005122,0.018985,-0.001516,59.333893,5.117157,-148.676025,,,
729863105.479539,0.726904,6.171386,51.941098,-0.114838,0.016983,1.00029,0.017628,0.005869,0.006723,59.333893,5.117157,-148.676025,,,
729863105.48289,0.726904,6.171386,51.941098,-0.114838,0.016983,1.00029,0.017628,0.005869,0.006723,59.592072,5.306808,-148.970169,,,
729863105.486202,0.730914,6.173535,51.9418,-0.119446,0.014969,1.007202,0.017628,0.005869,0.006723,59.592072,5.306808,-148.970169,,,
729863105.489526,0.738885,6.177043,51.942705,-0.119446,0.014969,1.007202,0.055252,-0.004239,0.007888,59.592072,5.306808,-148.970169,,,
729863105.492903,0.738885,6.177043,51.942705,-0.119446,0.014969,1.007202,0.055252,-0.004239,0.007888,59.592072,5.306808,-148.970169,,,
729863105.496195,0.753081,6.175739,51.943376,-0.119339,0.00795,1.016266,0.055252,-0.004239,0.007888,59.592072,5.306808,-148.970169,,,
729863105.499545,0.769901,6.175677,51.943589,-0.119339,0.00795,1.016266,0.0745,-0.005773,0.006588,59.592072,5.306808,-148.970169,,,
729863105.502971,0.769901,6.175677,51.943589,-0.119339,0.00795,1.016266,0.0745,-0.005773,0.006588,59.592072,5.306808,-148.970169,,,
729863105.506192,0.790192,6.173602,51.943824,-0.116592,0.009445,1.015594,0.0745,-0.005773,0.006588,59.592072,5.306808,-148.970169,,,
729863105.509521,0.810278,6.173698,51.944149,-0.116592,0.009445,1.015594,0.062865,0.001523,0.005249,59.592072,5.306808,-148.970169,,,
729863105.512862,0.810278,6.173698,51.944149,-0.116592,0.009445,1.015594,0.062865,0.001523,0.005249,59.592072,5.306808,-148.970169,,,
729863105.516236,0.828077,6.173815,51.944195,-0.109604,0.014465,0.992004,0.062865,0.001523,0.005249,59.592072,5.306808,-148.970169,,,
729863105.519516,0.842616,6.175342,51.944368,-0.109604,0.014465,0.992004,0.024902,0.018819,0.005794,59.592072,5.306808,-148.970169,,,
729863105.52285,0.842616,6.175342,51.944368,-0.109604,0.014465,0.992004,0.024902,0.018819,0.005794,59.37355,5.132141,-148.743393,,,
729863105.526201,0.851423,6.179268,51.945321,-0.103745,0.021576,0.971588,0.024902,0.018819,0.005794,59.37355,5.132141,-148.743393,,,
729863105.52929,0.856166,6.182932,51.947012,-0.103745,0.021576,0.971588,-0.011833,0.012882,0.005525,59.37355,5.132141,-148.743393,,,
729863105.532884,0.856166,6.182932,51.947012,-0.103745,0.021576,0.971588,-0.011833,0.012882,0.005525,59.37355,5.132141,-148.743393,,,
729863105.536199,0.853883,6.186635,51.949384,-0.103424,0.027222,0.957932,-0.011833,0.012882,0.005525,59.37355,5.132141,-148.743393,,,
729863105.53952,0.850664,6.186483,51.952122,-0.103424,0.027222,0.957932,-0.031427,-0.008575,-0.000617,59.37355,5.132141,-148.743393,,,
729863105.542919,0.850664,6.186483,51.952122,-0.103424,0.027222,0.957932,-0.031427,-0.008575,-0.000617,59.37355,5.132141,-148.743393,,,
729863105.546191,0.84183,6.183731,51.953948,-0.103317,0.026566,0.958817,-0.031427,-0.008575,-0.000617,59.37355,5.132141,-148.743393,,,
729863105.549533,0.832704,6.179597,51.954373,-0.103317,0.026566,0.958817,-0.036606,-0.016683,-0.009779,59.37355,5.132141,-148.743393,,,
729863105.552878,0.832704,6.179597,51.954373,-0.103317,0.026566,0.958817,-0.036606,-0.016683,-0.009779,59.37355,5.132141,-148.743393,,,
729863105.556269,0.822318,6.173617,51.95354,-0.098709,0.022537,0.971527,-0.036606,-0.016683,-0.009779,59.37355,5.132141,-148.743393,,,
729863105.559519,0.812042,6.169914,51.951686,-0.098709,0.022537,0.971527,-0.035554,-0.005771,-0.016386,59.37355,5.132141,-148.743393,,,
729863105.56286,0.812042,6.169914,51.951686,-0.098709,0.022537,0.971527,-0.035554,-0.005771,-0.016386,59.314377,4.940842,-148.459549,,,
729863105.566204,0.801579,6.166599,51.949236,-0.093353,0.015137,0.98085,-0.035554,-0.005771,-0.016386,59.314377,4.940842,-148.459549,,,
729863105.569524,0.79078,6.169183,51.946274,-0.093353,0.015137,0.98085,-0.032727,0.019428,-0.01893,59.314377,4.940842,-148.459549,,,
729863105.572872,0.79078,6.169183,51.946274,-0.093353,0.015137,0.98085,-0.032727,0.019428,-0.01893,59.314377,4.940842,-148.459549,,,
729863105.576202,0.780419,6.173019,51.942594,-0.094131,0.014328,0.988556,-0.032727,0.019428,-0.01893,59.314377,4.940842,-148.459549,,,
729863105.579526,0.769737,6.18442,51.937938,-0.094131,0.014328,0.988556,-0.026688,0.049454,-0.019977,59.314377,4.940842,-148.459549,,,
729863105.582934,0.769737,6.18442,51.937938,-0.094131,0.014328,0.988556,-0.026688,0.049454,-0.019977,59.314377,4.940842,-148.459549,,,
729863105.58619,0.761385,6.197227,51.933322,-0.100128,0.010117,1.000885,-0.026688,0.049454,-0.019977,59.314377,4.940842,-148.459549,,,
729863105.589526,0.753026,6.213815,51.929168,-0.100128,0.010117,1.000885,-0.018694,0.055374,-0.013863,59.314377,4.940842,-148.459549,,,
729863105.592878,0.753026,6.213815,51.929168,-0.100128,0.010117,1.000885,-0.018694,0.055374,-0.013863,59.314377,4.940842,-148.459549,,,
729863105.596266,0.746979,6.228876,51.925212,-0.110046,0.002228,0.999405,-0.018694,0.055374,-0.013863,59.314377,4.940842,-148.459549,,,
729863105.599515,0.744108,6.242544,51.921777,-0.110046,0.002228,0.999405,-0.0033,0.038959,-0.010725,59.314377,4.940842,-148.459549,,,
729863105.602863,0.744108,6.242544,51.921777,-0.110046,0.002228,0.999405,-0.0033,0.038959,-0.010725,59.314377,4.940842,-148.459549,,,
729863105.606205,0.742702,6.25358,51.919293,-0.11911,-0.001709,1.001053,-0.0033,0.038959,-0.010725,59.381027,5.089233,-148.385193,,,
729863105.609551,0.746311,6.259839,51.917231,-0.11911,-0.001709,1.001053,0.014703,0.007642,-0.004909,59.381027,5.089233,-148.385193,,,
729863105.612862,0.746311,6.259839,51.917231,-0.11911,-0.001709,1.001053,0.014703,0.007642,-0.004909,59.381027,5.089233,-148.385193,,,
729863105.61621,0.749397,6.262508,51.915502,-0.120834,-0.001816,1.001007,0.014703,0.007642,-0.004909,59.381027,5.089233,-148.385193,,,
729863105.619525,0.757873,6.260452,51.914763,-0.120834,-0.001816,1.001007,0.021645,-0.020106,0.001997,59.381027,5.089233,-148.385193,,,
729863105.622948,0.757873,6.260452,51.914763,-0.120834,-0.001816,1.001007,0.021645,-0.020106,0.001997,59.381027,5.089233,-148.385193,,,
729863105.626197,0.763866,6.254807,51.914715,-0.118225,-0.000961,0.99292,0.021645,-0.020106,0.001997,59.381027,5.089233,-148.385193,,,
729863105.629528,0.772526,6.245563,51.91512,-0.118225,-0.000961,0.99292,0.013227,-0.028627,-0.001834,59.381027,5.089233,-148.385193,,,
729863105.632869,0.772526,6.245563,51.91512,-0.118225,-0.000961,0.99292,0.013227,-0.028627,-0.001834,59.381027,5.089233,-148.385193,,,
729863105.636264,0.776619,6.236591,51.915007,-0.106522,0.004944,0.983887,0.013227,-0.028627,-0.001834,59.381027,5.089233,-148.385193,,,
729863105.63951,0.779963,6.225774,51.913765,-0.106522,0.004944,0.983887,-0.004784,-0.018884,-0.010844,59.381027,5.089233,-148.385193,,,
729863105.642847,0.779963,6.225774,51.913765,-0.106522,0.004944,0.983887,-0.004784,-0.018884,-0.010844,59.381027,5.089233,-148.385193,,,
729863105.646212,0.778897,6.219674,51.911666,-0.096085,0.009705,0.980621,-0.004784,-0.018884,-0.010844,59.353363,4.937195,-148.668381,,,
729863105.649519,0.775983,6.211197,51.908606,-0.096085,0.009705,0.980621,-0.013766,-0.005262,-0.017614,59.353363,4.937195,-148.668381,,,
729863105.652793,0.775983,6.211197,51.908606,-0.096085,0.009705,0.980621,-0.013766,-0.005262,-0.017614,59.353363,4.937195,-148.668381,,,
729863105.65622,0.771623,6.208667,51.904506,-0.095993,0.010117,0.982956,-0.013766,-0.005262,-0.017614,59.353363,4.937195,-148.668381,,,
729863105.659526,0.766531,6.203393,51.899884,-0.095993,0.010117,0.982956,-0.010329,-0.001214,-0.016586,59.353363,4.937195,-148.668381,,,
729863105.662918,0.766531,6.203393,51.899884,-0.095993,0.010117,0.982956,-0.010329,-0.001214,-0.016586,59.353363,4.937195,-148.668381,,,
729863105.666192,0.762258,6.202327,51.895548,-0.099045,0.007675,0.990417,-0.010329,-0.001214,-0.016586,59.353363,4.937195,-148.668381,,,
729863105.669528,0.757254,6.198842,51.891569,-0.099045,0.007675,0.990417,-0.008819,-0.005371,-0.010589,59.353363,4.937195,-148.668381,,,
729863105.672866,0.757254,6.198842,51.891569,-0.099045,0.007675,0.990417,-0.008819,-0.005371,-0.010589,59.353363,4.937195,-148.668381,,,
729863105.676248,0.754173,6.197185,51.88763,-0.105072,0.007019,0.988739,-0.008819,-0.005371,-0.010589,59.353363,4.937195,-148.668381,,,
729863105.679523,0.750355,6.195565,51.884832,-0.105072,0.007019,0.988739,0.004101,-0.010669,-0.007693,59.353363,4.937195,-148.668381,,,
729863105.682867,0.750355,6.195565,51.884832,-0.105072,0.007019,0.988739,0.004101,-0.010669,-0.007693,59.353363,4.937195,-148.668381,,,
729863105.686202,0.751227,6.191502,51.882718,-0.110001,0.008102,0.992889,0.004101,-0.010669,-0.007693,59.39502,5.036942,-148.390549,,,
729863105.689524,0.750791,6.190396,51.880309,-0.110001,0.008102,0.992889,0.017601,-0.014838,-0.007619,59.39502,5.036942,-148.390549,,,
729863105.69287,0.750791,6.190396,51.880309,-0.110001,0.008102,0.992889,0.017601,-0.014838,-0.007619,59.39502,5.036942,-148.390549,,,
729863105.696196,0.754967,6.185979,51.877682,-0.113556,0.009277,0.998779,0.017601,-0.014838,-0.007619,59.39502,5.036942,-148.390549,,,
729863105.699525,0.757114,6.185504,51.874444,-0.113556,0.009277,0.998779,0.021355,-0.010174,-0.009516,59.39502,5.036942,-148.390549,,,
729863105.702912,0.757114,6.185504,51.874444,-0.113556,0.009277,0.998779,0.021355,-0.010174,-0.009516,59.39502,5.036942,-148.390549,,,
729863105.706199,0.763399,6.181484,51.870958,-0.111267,0.010727,0.996826,0.021355,-0.010174,-0.009516,59.39502,5.036942,-148.390549,,,
729863105.709524,0.765778,6.181846,51.867122,-0.111267,0.010727,0.996826,0.015476,0.006673,-0.015043,59.39502,5.036942,-148.390549,,,
729863105.712866,0.765778,6.181846,51.867122,-0.111267,0.010727,0.996826,0.015476,0.006673,-0.015043,59.39502,5.036942,-148.390549,,,
729863105.716244,0.769463,6.182382,51.863055,-0.110718,0.011566,0.997879,0.015476,0.006673,-0.015043,59.39502,5.036942,-148.390549,,,
729863105.719524,0.769539,6.185043,51.859117,-0.110718,0.011566,0.997879,0.002838,0.019614,-0.008529,59.39502,5.036942,-148.390549,,,
729863105.722878,0.769539,6.185043,51.859117,-0.110718,0.011566,0.997879,0.002838,0.019614,-0.008529,59.39502,5.036942,-148.390549,,,
729863105.726192,0.770273,6.190175,51.856458,-0.120529,0.011337,0.9991,0.002838,0.019614,-0.008529,59.444901,4.894638,-148.479187,,,
729863105.729524,0.770241,6.190853,51.856248,-0.120529,0.011337,0.9991,0.00474,0.002321,0.003803,59.444901,4.894638,-148.479187,,,
729863105.732885,0.770241,6.190853,51.856248,-0.120529,0.011337,0.9991,0.00474,0.002321,0.003803,59.444901,4.894638,-148.479187,,,
729863105.736194,0.771379,6.192115,51.857993,-0.131378,0.009354,0.999176,0.00474,0.002321,0.003803,59.444901,4.894638,-148.479187,,,
729863105.739522,0.772714,6.186577,51.861205,-0.131378,0.009354,0.999176,0.006418,-0.020342,0.016638,59.444901,4.894638,-148.479187,,,
729863105.742917,0.772714,6.186577,51.861205,-0.131378,0.009354,0.999176,0.006418,-0.020342,0.016638,59.444901,4.894638,-148.479187,,,
729863105.74619,0.774905,6.181277,51.865634,-0.132095,0.013733,0.992844,0.006418,-0.020342,0.016638,59.444901,4.894638,-148.479187,,,
729863105.749554,0.775121,6.172849,51.870606,-0.132095,0.013733,0.992844,0.001866,-0.020422,0.01868,59.444901,4.894638,-148.479187,,,
729863105.752879,0.775121,6.172849,51.870606,-0.132095,0.013733,0.992844,0.001866,-0.020422,0.01868,59.444901,4.894638,-148.479187,,,
729863105.756287,0.776523,6.166697,51.875957,-0.122925,0.01506,0.992371,0.001866,-0.020422,0.01868,59.444901,4.894638,-148.479187,,,
729863105.759523,0.776784,6.1619,51.881992,-0.122925,0.01506,0.992371,0.005501,0.001877,0.024633,59.444901,4.894638,-148.479187,,,
729863105.762872,0.776784,6.1619,51.881992,-0.122925,0.01506,0.992371,0.005501,0.001877,0.024633,59.444901,4.894638,-148.479187,,,
729863105.766255,0.778895,6.160731,51.888978,-0.114975,0.013168,0.999359,0.005501,0.001877,0.024633,59.563385,4.908829,-148.46788,,,
729863105.769518,0.779999,6.165808,51.897048,-0.114975,0.013168,0.999359,0.004695,0.036917,0.030363,59.563385,4.908829,-148.46788,,,
729863105.772869,0.779999,6.165808,51.897048,-0.114975,0.013168,0.999359,0.004695,0.036917,0.030363,59.563385,4.908829,-148.46788,,,
729863105.776196,0.782257,6.174587,51.905708,-0.110413,0.010208,1.00708,0.004695,0.036917,0.030363,59.563385,4.908829,-148.46788,,,
729863105.779303,0.782938,6.188177,51.914694,-0.110413,0.010208,1.00708,-0.00423,0.04829,0.030037,59.563385,4.908829,-148.46788,,,
729863105.78295,0.782938,6.188177,51.914694,-0.110413,0.010208,1.00708,-0.00423,0.04829,0.030037,59.563385,4.908829,-148.46788,,,
729863105.786186,0.782982,6.201269,51.923743,-0.103302,0.012863,0.994492,-0.00423,0.04829,0.030037,59.563385,4.908829,-148.46788,,,
729863105.789527,0.780402,6.214669,51.931834,-0.103302,0.012863,0.994492,-0.014035,0.03578,0.016571,59.563385,4.908829,-148.46788,,,
729863105.792868,0.780402,6.214669,51.931834,-0.103302,0.012863,0.994492,-0.014035,0.03578,0.016571,59.563385,4.908829,-148.46788,,,
729863105.796256,0.776807,6.225118,51.937765,-0.101822,0.016586,0.983521,-0.014035,0.03578,0.016571,59.563385,4.908829,-148.46788,,,
729863105.79925,0.771455,6.232015,51.941571,-0.101822,0.016586,0.983521,-0.015836,-0.003748,0.007955,59.563385,4.908829,-148.46788,,,
729863105.802907,0.771455,6.232015,51.941571,-0.101822,0.016586,0.983521,-0.015836,-0.003748,0.007955,59.563385,4.908829,-148.46788,,,
729863105.80619,0.766573,6.231739,51.944424,-0.103989,0.012695,0.983383,-0.015836,-0.003748,0.007955,59.563385,4.908829,-148.46788,,,
729863105.809524,0.762879,6.230379,51.947051,-0.103989,0.012695,0.983383,0.004044,-0.036036,0.005455,59.547867,5.051712,-148.310211,,,
729863105.812876,0.762879,6.230379,51.947051,-0.103989,0.012695,0.983383,0.004044,-0.036036,0.005455,59.547867,5.051712,-148.310211,,,
729863105.816188,0.762557,6.220726,51.949238,-0.110245,0.008774,0.996552,0.004044,-0.036036,0.005455,59.547867,5.051712,-148.310211,,,
729863105.819527,0.764066,6.216616,51.950949,-0.110245,0.008774,0.996552,0.011542,-0.038008,0.01199,59.547867,5.051712,-148.310211,,,
729863105.822945,0.764066,6.216616,51.950949,-0.110245,0.008774,0.996552,0.011542,-0.038008,0.01199,59.547867,5.051712,-148.310211,,,
729863105.826203,0.767722,6.20541,51.953563,-0.109848,0.009064,1.006531,0.011542,-0.038008,0.01199,59.547867,5.051712,-148.310211,,,
729863105.829529,0.772749,6.202623,51.957348,-0.109848,0.009064,1.006531,0.022971,-0.01246,0.017894,59.547867,5.051712,-148.310211,,,
729863105.832854,0.772749,6.202623,51.957348,-0.109848,0.009064,1.006531,0.022971,-0.01246,0.017894,59.547867,5.051712,-148.310211,,,
729863105.836263,0.778807,6.197086,51.962096,-0.104416,0.008408,1.0103,0.022971,-0.01246,0.017894,59.547867,5.051712,-148.310211,,,
729863105.839527,0.786662,6.200241,51.967225,-0.104416,0.008408,1.0103,0.029781,0.02231,0.019344,59.547867,5.051712,-148.310211,,,
729863105.842883,0.786662,6.200241,51.967225,-0.104416,0.008408,1.0103,0.029781,0.02231,0.019344,59.547867,5.051712,-148.310211,,,
729863105.84621,0.795088,6.204771,51.972401,-0.100616,0.005966,1.01709,0.029781,0.02231,0.019344,59.547867,5.051712,-148.310211,,,
729863105.84956,0.803492,6.21454,51.976713,-0.100616,0.005966,1.01709,0.029232,0.042063,0.013662,59.568466,5.113358,-148.288528,,,
729863105.852876,0.803492,6.21454,51.976713,-0.100616,0.005966,1.01709,0.029232,0.042063,0.013662,59.568466,5.113358,-148.288528,,,
729863105.856199,0.81229,6.2255,51.980113,-0.099258,0.011032,1.00946,0.029232,0.042063,0.013662,59.568466,5.113358,-148.288528,,,
729863105.859529,0.819851,6.23687,51.983366,-0.099258,0.011032,1.00946,0.019165,0.037099,0.011143,59.568466,5.113358,-148.288528,,,
729863105.862932,0.819851,6.23687,51.983366,-0.099258,0.011032,1.00946,0.019165,0.037099,0.011143,59.568466,5.113358,-148.288528,,,
729863105.866203,0.826382,6.247137,51.986538,-0.103287,0.014923,0.989578,0.019165,0.037099,0.011143,59.568466,5.113358,-148.288528,,,
729863105.869521,0.830634,6.253051,51.989726,-0.103287,0.014923,0.989578,0.006603,0.015302,0.00712,59.568466,5.113358,-148.288528,,,
729863105.872854,0.830634,6.253051,51.989726,-0.103287,0.014923,0.989578,0.006603,0.015302,0.00712,59.568466,5.113358,-148.288528,,,
729863105.876233,0.832949,6.257748,51.993024,-0.110382,0.019257,0.973465,0.006603,0.015302,0.00712,59.568466,5.113358,-148.288528,,,
729863105.879517,0.834394,6.256803,51.99659,-0.110382,0.019257,0.973465,-0.001355,-0.010031,0.01341,59.568466,5.113358,-148.288528,,,
729863105.882867,0.834394,6.256803,51.99659,-0.110382,0.019257,0.973465,-0.001355,-0.010031,0.01341,59.568466,5.113358,-148.288528,,,
729863105.886193,0.834487,6.254071,52.000648,-0.112518,0.018845,0.969513,-0.001355,-0.010031,0.01341,59.568466,5.113358,-148.288528,,,
729863105.889523,0.833163,6.248462,52.004774,-0.112518,0.018845,0.969513,-7.2e-05,-0.022433,0.00953,59.397369,5.090698,-148.252045,,,
729863105.892863,0.833163,6.248462,52.004774,-0.112518,0.018845,0.969513,-7.2e-05,-0.022433,0.00953,59.397369,5.090698,-148.252045,,,
729863105.896213,0.832564,6.24167,52.008226,-0.105698,0.016724,0.981674,-7.2e-05,-0.022433,0.00953,59.397369,5.090698,-148.252045,,,
729863105.899521,0.831794,6.234316,52.011029,-0.105698,0.016724,0.981674,0.010195,-0.028874,0.005528,59.397369,5.090698,-148.252045,,,
729863105.902867,0.831794,6.234316,52.011029,-0.105698,0.016724,0.981674,0.010195,-0.028874,0.005528,59.397369,5.090698,-148.252045,,,
729863105.90621,0.83425,6.226073,52.013059,-0.100174,0.013336,0.99173,0.010195,-0.028874,0.005528,59.397369,5.090698,-148.252045,,,
729863105.909525,0.836588,6.217621,52.014605,-0.100174,0.013336,0.99173,0.019572,-0.013664,0.004659,59.397369,5.090698,-148.252045,,,
729863105.912916,0.836588,6.217621,52.014605,-0.100174,0.013336,0.99173,0.019572,-0.013664,0.004659,59.397369,5.090698,-148.252045,,,
729863105.916197,0.841784,6.21152,52.015889,-0.098648,0.010376,0.998993,0.019572,-0.013664,0.004659,59.397369,5.090698,-148.252045,,,
729863105.919528,0.846269,6.207799,52.017262,-0.098648,0.010376,0.998993,0.021109,0.021625,0.005235,59.397369,5.090698,-148.252045,,,
729863105.922865,0.846269,6.207799,52.017262,-0.098648,0.010376,0.998993,0.021109,0.021625,0.005235,59.397369,5.090698,-148.252045,,,
729863105.926273,0.852374,6.211696,52.01897,-0.094971,0.012451,1.002151,0.021109,0.021625,0.005235,59.397369,5.090698,-148.252045,,,
729863105.929546,0.855425,6.217354,52.020965,-0.094971,0.012451,1.002151,0.008346,0.047268,0.006828,59.397369,5.090698,-148.252045,,,
729863105.932869,0.855425,6.217354,52.020965,-0.094971,0.012451,1.002151,0.008346,0.047268,0.006828,59.460968,5.21373,-148.301132,,,
729863105.936216,0.85812,6.229691,52.023177,-0.092255,0.015808,0.991531,0.008346,0.047268,0.006828,59.460968,5.21373,-148.301132,,,
729863105.939528,0.858288,6.240268,52.02509,-0.092255,0.015808,0.991531,-0.010778,0.048694,-0.002379,59.460968,5.21373,-148.301132,,,
729863105.942882,0.858288,6.240268,52.02509,-0.092255,0.015808,0.991531,-0.010778,0.048694,-0.002379,59.460968,5.21373,-148.301132,,,
729863105.946205,0.856411,6.253407,52.025639,-0.095871,0.02298,0.977417,-0.010778,0.048694,-0.002379,59.460968,5.21373,-148.301132,,,
729863105.949528,0.852199,6.263088,52.025127,-0.095871,0.02298,0.977417,-0.020808,0.018526,-0.009475,59.460968,5.21373,-148.301132,,,
729863105.952928,0.852199,6.263088,52.025127,-0.095871,0.02298,0.977417,-0.020808,0.018526,-0.009475,59.460968,5.21373,-148.301132,,,
729863105.956195,0.846221,6.268668,52.023606,-0.101654,0.024445,0.964264,-0.020808,0.018526,-0.009475,59.460968,5.21373,-148.301132,,,
729863105.959527,0.841412,6.268961,52.020735,-0.101654,0.024445,0.964264,-0.012767,-0.024931,-0.015178,59.460968,5.21373,-148.301132,,,
729863105.962869,0.841412,6.268961,52.020735,-0.101654,0.024445,0.964264,-0.012767,-0.024931,-0.015178,59.460968,5.21373,-148.301132,,,
729863105.966262,0.837052,6.26233,52.017476,-0.109909,0.023056,0.969803,-0.012767,-0.024931,-0.015178,59.460968,5.21373,-148.301132,,,
729863105.969515,0.836372,6.254031,52.014206,-0.109909,0.023056,0.969803,0.006403,-0.033374,-0.008179,59.460968,5.21373,-148.301132,,,
729863105.972879,0.836372,6.254031,52.014206,-0.109909,0.023056,0.969803,0.006403,-0.033374,-0.008179,59.597229,5.249069,-148.174576,,,
729863105.9762,0.837252,6.243736,52.010976,-0.113007,0.019501,0.992325,0.006403,-0.033374,-0.008179,59.597229,5.249069,-148.174576,,,
729863105.979522,0.840021,6.235143,52.008882,-0.113007,0.019501,0.992325,0.008786,-0.003575,-0.001145,59.597229,5.249069,-148.174576,,,
729863105.982866,0.840021,6.235143,52.008882,-0.113007,0.019501,0.992325,0.008786,-0.003575,-0.001145,59.597229,5.249069,-148.174576,,,
729863105.986207,0.842521,6.232282,52.008258,-0.105972,0.017593,1.001968,0.008786,-0.003575,-0.001145,59.597229,5.249069,-148.174576,,,
729863105.989521,0.844114,6.231961,52.008419,-0.105972,0.017593,1.001968,0.005269,0.034092,-0.000511,59.597229,5.249069,-148.174576,,,
729863105.992915,0.844114,6.231961,52.008419,-0.105972,0.017593,1.001968,0.005269,0.034092,-0.000511,59.597229,5.249069,-148.174576,,,
729863105.996188,0.845894,6.239396,52.008634,-0.098663,0.023392,0.998062,0.005269,0.034092,-0.000511,59.597229,5.249069,-148.174576,,,
729863105.999536,0.84497,6.247657,52.007763,-0.098663,0.023392,0.998062,-0.008682,0.052763,-0.007909,59.597229,5.249069,-148.174576,,,
729863106.002868,0.84497,6.247657,52.007763,-0.098663,0.023392,0.998062,-0.008682,0.052763,-0.007909,59.597229,5.249069,-148.174576,,,
729863106.006255,0.842903,6.26222,52.005873,-0.099854,0.024506,0.992996,-0.008682,0.052763,-0.007909,59.597229,5.249069,-148.174576,,,
729863106.009515,0.839792,6.272453,52.004371,-0.099854,0.024506,0.992996,-0.010126,0.051432,-0.007003,59.597229,5.249069,-148.174576,,,
729863106.012862,0.839792,6.272453,52.004371,-0.099854,0.024506,0.992996,-0.010126,0.051432,-0.007003,59.326752,5.078201,-147.979904,,,
729863106.016196,0.836173,6.286252,52.003287,-0.10733,0.022354,0.985962,-0.010126,0.051432,-0.007003,59.326752,5.078201,-147.979904,,,
729863106.019521,0.8327,6.292845,52.003006,-0.10733,0.022354,0.985962,-0.00869,0.028006,-0.000606,59.326752,5.078201,-147.979904,,,
729863106.022868,0.8327,6.292845,52.003006,-0.10733,0.022354,0.985962,-0.00869,0.028006,-0.000606,59.326752,5.078201,-147.979904,,,
729863106.02619,0.828959,6.301255,52.003626,-0.116913,0.020523,0.9888,-0.00869,0.028006,-0.000606,59.326752,5.078201,-147.979904,,,
729863106.029277,0.828959,6.301255,52.003626,-0.116913,0.020523,0.9888,-0.00869,0.028006,-0.000606,59.326752,5.078201,-147.979904,,,
729863106.032989,0.827272,6.302477,52.005707,-0.116913,0.020523,0.9888,-0.016276,-0.001811,0.010358,59.326752,5.078201,-147.979904,,,
729863106.036201,0.822623,6.302841,52.009049,-0.123016,0.019089,0.982254,-0.016276,-0.001811,0.010358,59.326752,5.078201,-147.979904,,,
729863106.03953,0.821042,6.298812,52.013282,-0.123016,0.019089,0.982254,-0.017504,-0.019236,0.013429,59.326752,5.078201,-147.979904,,,
729863106.042865,0.821042,6.298812,52.013282,-0.123016,0.019089,0.982254,-0.017504,-0.019236,0.013429,59.326752,5.078201,-147.979904,,,
729863106.046263,0.816816,6.293569,52.018009,-0.114655,0.019089,0.984497,-0.017504,-0.019236,0.013429,59.326752,5.078201,-147.979904,,,
729863106.049517,0.814283,6.287739,52.021918,-0.114655,0.019089,0.984497,-0.011976,-0.026307,0.006188,59.326752,5.078201,-147.979904,,,
729863106.052867,0.814283,6.287739,52.021918,-0.114655,0.019089,0.984497,-0.011976,-0.026307,0.006188,59.510025,5.216248,-148.455521,,,
729863106.056197,0.810888,6.280067,52.024755,-0.101654,0.016861,0.993225,-0.011976,-0.026307,0.006188,59.510025,5.216248,-148.455521,,,
729863106.059533,0.81012,6.273994,52.026278,-0.101654,0.016861,0.993225,0.003302,-0.013192,-0.002538,59.510025,5.216248,-148.455521,,,
729863106.062869,0.81012,6.273994,52.026278,-0.101654,0.016861,0.993225,0.003302,-0.013192,-0.002538,59.510025,5.216248,-148.455521,,,
729863106.066215,0.81029,6.268329,52.026115,-0.093414,0.01506,1.003616,0.003302,-0.013192,-0.002538,59.510025,5.216248,-148.455521,,,
729863106.069522,0.812248,6.263531,52.024493,-0.093414,0.01506,1.003616,0.007196,0.0041,-0.00777,59.510025,5.216248,-148.455521,,,
729863106.072933,0.812248,6.263531,52.024493,-0.093414,0.01506,1.003616,0.007196,0.0041,-0.00777,59.510025,5.216248,-148.455521,,,
729863106.076248,0.81369,6.263702,52.021647,-0.09288,0.010773,1.003235,0.007196,0.0041,-0.00777,59.510025,5.216248,-148.455521,,,
729863106.079584,0.817484,6.263482,52.017797,-0.09288,0.010773,1.003235,0.006342,0.025169,-0.016234,59.510025,5.216248,-148.455521,,,
729863106.082924,0.817484,6.263482,52.017797,-0.09288,0.010773,1.003235,0.006342,0.025169,-0.016234,59.510025,5.216248,-148.455521,,,
729863106.086304,0.818863,6.269681,52.013267,-0.09552,0.01416,1.003479,0.006342,0.025169,-0.016234,59.510025,5.216248,-148.455521,,,
729863106.089597,0.822386,6.275368,52.008932,-0.09552,0.01416,1.003479,0.008421,0.032642,-0.016769,59.510025,5.216248,-148.455521,,,
729863106.092879,0.822386,6.275368,52.008932,-0.09552,0.01416,1.003479,0.008421,0.032642,-0.016769,59.510025,5.216248,-148.455521,,,
729863106.096221,0.823855,6.284559,52.004686,-0.100815,0.012222,0.999405,0.008421,0.032642,-0.016769,59.432999,5.254974,-148.562927,,,
729863106.099528,0.827604,6.294663,52.000351,-0.100815,0.012222,0.999405,0.010687,0.035985,-0.014868,59.432999,5.254974,-148.562927,,,
729863106.102868,0.827604,6.294663,52.000351,-0.100815,0.012222,0.999405,0.010687,0.035985,-0.014868,59.432999,5.254974,-148.562927,,,
729863106.106227,0.829876,6.304111,51.99625,-0.106628,0.01268,0.995682,0.010687,0.035985,-0.014868,59.432999,5.254974,-148.562927,,,
729863106.109525,0.829876,6.304111,51.99625,-0.106628,0.01268,0.995682,0.004005,0.012841,-0.009261,59.432999,5.254974,-148.562927,,,
729863106.11293,0.832683,6.314584,51.992747,-0.106628,0.01268,0.995682,0.004005,0.012841,-0.009261,59.432999,5.254974,-148.562927,,,
729863106.116182,0.833828,6.31836,51.990325,-0.117538,0.01358,0.987976,0.004005,0.012841,-0.009261,59.432999,5.254974,-148.562927,,,
729863106.119523,0.833828,6.322886,51.988532,-0.117538,0.01358,0.987976,0.003056,-0.002364,-0.006856,59.432999,5.254974,-148.562927,,,
729863106.122876,0.835686,6.322886,51.988532,-0.117538,0.01358,0.987976,0.003056,-0.002364,-0.006856,59.432999,5.254974,-148.562927,,,
729863106.126187,0.836408,6.322015,51.987036,-0.116959,0.014648,0.986832,0.003056,-0.002364,-0.006856,59.432999,5.254974,-148.562927,,,
729863106.129539,0.836408,6.322015,51.987036,-0.116959,0.014648,0.986832,0.008834,-0.004741,-0.006982,59.432999,5.254974,-148.562927,,,
729863106.13286,0.838334,6.32111,51.985107,-0.116959,0.014648,0.986832,0.008834,-0.004741,-0.006982,59.432999,5.254974,-148.562927,,,
729863106.136249,0.839796,6.319459,51.983355,-0.112793,0.010101,0.997101,0.008834,-0.004741,-0.006982,59.374115,4.993652,-148.620193,,,
729863106.139515,0.839796,6.319459,51.983355,-0.112793,0.010101,0.997101,0.006317,-0.005726,-0.005064,59.374115,4.993652,-148.620193,,,
729863106.142866,0.84235,6.314352,51.982479,-0.112793,0.010101,0.997101,0.006317,-0.005726,-0.005064,59.374115,4.993652,-148.620193,,,
729863106.146186,0.844111,6.312743,51.98141,-0.116821,0.011627,0.993851,0.006317,-0.005726,-0.005064,59.374115,4.993652,-148.620193,,,
729863106.149593,0.844111,6.312743,51.98141,-0.116821,0.011627,0.993851,-0.000737,-0.005895,-0.004855,59.374115,4.993652,-148.620193,,,
729863106.152866,0.844462,6.304951,51.980217,-0.116821,0.011627,0.993851,-0.000737,-0.005895,-0.004855,59.374115,4.993652,-148.620193,,,
729863106.156188,0.843915,6.302475,51.979138,-0.111084,0.016907,0.982697,-0.000737,-0.005895,-0.004855,59.374115,4.993652,-148.620193,,,
729863106.159521,0.843915,6.302475,51.979138,-0.111084,0.016907,0.982697,-0.008944,0.001018,-0.004438,59.374115,4.993652,-148.620193,,,
729863106.162956,0.841734,6.295246,51.978321,-0.111084,0.016907,0.982697,-0.008944,0.001018,-0.004438,59.374115,4.993652,-148.620193,,,
729863106.166194,0.83927,6.294667,51.977194,-0.10495,0.015228,0.981506,-0.008944,0.001018,-0.004438,59.374115,4.993652,-148.620193,,,
729863106.169549,0.83927,6.294667,51.977194,-0.10495,0.015228,0.981506,-0.008944,0.001018,-0.004438,59.374115,4.993652,-148.620193,,,
729863106.172865,0.834802,6.291876,51.975627,-0.10495,0.015228,0.981506,-0.024224,0.013431,-0.011762,59.374115,4.993652,-148.620193,,,
729863106.176188,0.828539,6.294585,51.973529,-0.104736,0.016998,0.980072,-0.024224,0.013431,-0.011762,59.584671,5.199936,-148.429138,,,
729863106.17953,0.828539,6.294585,51.973529,-0.104736,0.016998,0.980072,-0.024224,0.013431,-0.011762,59.584671,5.199936,-148.429138,,,
729863106.182865,0.820049,6.295409,51.97075,-0.104736,0.016998,0.980072,-0.024322,0.013017,-0.018066,59.584671,5.199936,-148.429138,,,
729863106.1862,0.811948,6.298685,51.966902,-0.105164,0.017456,0.979919,-0.024322,0.013017,-0.018066,59.584671,5.199936,-148.429138,,,
729863106.189585,0.811948,6.298685,51.966902,-0.105164,0.017456,0.979919,-0.024322,0.013017,-0.018066,59.584671,5.199936,-148.429138,,,
729863106.192852,0.803415,6.303186,51.961842,-0.105164,0.017456,0.979919,-0.024416,0.028419,-0.023502,59.584671,5.199936,-148.429138,,,
729863106.196192,0.794872,6.310451,51.956019,-0.109207,0.011841,0.993668,-0.024416,0.028419,-0.023502,59.584671,5.199936,-148.429138,,,
729863106.199526,0.794872,6.310451,51.956019,-0.109207,0.011841,0.993668,-0.024416,0.028419,-0.023502,59.584671,5.199936,-148.429138,,,
729863106.202971,0.787411,6.323277,51.950359,-0.109207,0.011841,0.993668,-0.019233,0.044381,-0.016237,59.584671,5.199936,-148.429138,,,
729863106.206179,0.781321,6.33506,51.946004,-0.122177,0.007187,1.006332,-0.019233,0.044381,-0.016237,59.584671,5.199936,-148.429138,,,
729863106.209639,0.781321,6.33506,51.946004,-0.122177,0.007187,1.006332,-0.019233,0.044381,-0.016237,59.584671,5.199936,-148.429138,,,
729863106.212847,0.77656,6.348553,51.944189,-0.122177,0.007187,1.006332,-0.007894,0.036406,0.004948,59.584671,5.199936,-148.429138,,,
729863106.216196,0.773691,6.358625,51.945715,-0.135315,0.007416,1.004883,-0.007894,0.036406,0.004948,59.668457,5.215408,-148.438553,,,
729863106.219552,0.773691,6.358625,51.945715,-0.135315,0.007416,1.004883,-0.007894,0.036406,0.004948,59.668457,5.215408,-148.438553,,,
729863106.222859,0.772191,6.366035,51.949798,-0.135315,0.007416,1.004883,0.0073,0.006237,0.019592,59.668457,5.215408,-148.438553,,,
729863106.226195,0.773855,6.368316,51.955559,-0.137375,0.006516,1.004517,0.0073,0.006237,0.019592,59.668457,5.215408,-148.438553,,,
729863106.229547,0.773855,6.368316,51.955559,-0.137375,0.006516,1.004517,0.0073,0.006237,0.019592,59.668457,5.215408,-148.438553,,,
729863106.23287,0.777288,6.367832,51.962414,-0.137375,0.006516,1.004517,0.011641,-0.024017,0.024528,59.668457,5.215408,-148.438553,,,
729863106.236201,0.781262,6.3615,51.969408,-0.128754,0.006348,0.996231,0.011641,-0.024017,0.024528,59.668457,5.215408,-148.438553,,,
729863106.239558,0.781262,6.3615,51.969408,-0.128754,0.006348,0.996231,0.011641,-0.024017,0.024528,59.668457,5.215408,-148.438553,,,
729863106.242925,0.785747,6.351798,51.975817,-0.128754,0.006348,0.996231,0.010432,-0.042476,0.020005,59.668457,5.215408,-148.438553,,,
729863106.24619,0.788929,6.339751,51.981119,-0.113663,0.012863,0.988647,0.010432,-0.042476,0.020005,59.668457,5.215408,-148.438553,,,
729863106.249631,0.788929,6.339751,51.981119,-0.113663,0.012863,0.988647,0.010432,-0.042476,0.020005,59.668457,5.215408,-148.438553,,,
729863106.252876,0.792024,6.325373,51.98533,-0.113663,0.012863,0.988647,0.008896,-0.042973,0.011176,59.668457,5.215408,-148.438553,,,
729863106.256188,0.794599,6.312141,51.988801,-0.106018,0.015106,0.9935,0.008896,-0.042973,0.011176,59.668457,5.215408,-148.438553,,,
729863106.259519,0.794599,6.312141,51.988801,-0.106018,0.015106,0.9935,0.008896,-0.042973,0.011176,59.581161,5.136078,-148.744202,,,
729863106.262881,0.798566,6.298596,51.991597,-0.106018,0.015106,0.9935,0.008276,-0.028657,0.007026,59.581161,5.136078,-148.744202,,,
729863106.266186,0.801543,6.288534,51.993796,-0.102005,0.012863,0.998444,0.008276,-0.028657,0.007026,59.581161,5.136078,-148.744202,,,
729863106.269659,0.801543,6.288534,51.993796,-0.102005,0.012863,0.998444,0.008276,-0.028657,0.007026,59.581161,5.136078,-148.744202,,,
729863106.272869,0.805106,6.281494,51.996023,-0.102005,0.012863,0.998444,0.014264,-0.006626,0.00811,59.581161,5.136078,-148.744202,,,
729863106.2762,0.808943,6.278105,51.998548,-0.098495,0.014679,0.998962,0.014264,-0.006626,0.00811,59.581161,5.136078,-148.744202,,,
729863106.279528,0.808943,6.278105,51.998548,-0.098495,0.014679,0.998962,0.014264,-0.006626,0.00811,59.581161,5.136078,-148.744202,,,
729863106.282923,0.813651,6.276449,52.001138,-0.098495,0.014679,0.998962,0.02874,-0.01024,0.011976,59.581161,5.136078,-148.744202,,,
729863106.286194,0.821369,6.273431,52.003695,-0.102219,0.011093,0.998642,0.02874,-0.01024,0.011976,59.581161,5.136078,-148.744202,,,
729863106.289541,0.821369,6.273431,52.003695,-0.102219,0.011093,0.998642,0.02874,-0.01024,0.011976,59.581161,5.136078,-148.744202,,,
729863106.29288,0.828964,6.27431,52.005932,-0.102219,0.011093,0.998642,0.033843,-0.006964,0.005039,59.581161,5.136078,-148.744202,,,
729863106.296199,0.838625,6.271493,52.007779,-0.102646,0.014297,0.988541,0.033843,-0.006964,0.005039,59.581161,5.136078,-148.744202,,,
729863106.299531,0.838625,6.271493,52.007779,-0.102646,0.014297,0.988541,0.033843,-0.006964,0.005039,59.33519,5.152664,-148.692627,,,
729863106.302873,0.846085,6.278851,52.008659,-0.102646,0.014297,0.988541,0.024291,0.012655,0.001312,59.33519,5.152664,-148.692627,,,
729863106.306199,0.853375,6.280865,52.009431,-0.102386,0.017197,0.983994,0.024291,0.012655,0.001312,59.33519,5.152664,-148.692627,,,
729863106.3096,0.853375,6.280865,52.009431,-0.102386,0.017197,0.983994,0.024291,0.012655,0.001312,59.33519,5.152664,-148.692627,,,
729863106.312861,0.855466,6.293047,52.010179,-0.102386,0.017197,0.983994,-0.004094,0.024248,0.003074,59.33519,5.152664,-148.692627,,,
729863106.316192,0.855791,6.298969,52.01112,-0.104126,0.022797,0.972977,-0.004094,0.024248,0.003074,59.33519,5.152664,-148.692627,,,
729863106.319522,0.855791,6.298969,52.01112,-0.104126,0.022797,0.972977,-0.004094,0.024248,0.003074,59.33519,5.152664,-148.692627,,,
729863106.32286,0.850857,6.310495,52.01225,-0.104126,0.022797,0.972977,-0.021379,0.024894,0.002982,59.33519,5.152664,-148.692627,,,
729863106.326188,0.845032,6.316712,52.01355,-0.111664,0.022446,0.966248,-0.021379,0.024894,0.002982,59.33519,5.152664,-148.692627,,,
729863106.329535,0.845032,6.316712,52.01355,-0.111664,0.022446,0.966248,-0.021379,0.024894,0.002982,59.33519,5.152664,-148.692627,,,
729863106.332861,0.838147,6.320123,52.015391,-0.111664,0.022446,0.966248,-0.01931,-0.01181,0.007966,59.33519,5.152664,-148.692627,,,
729863106.336191,0.832189,6.318108,52.017925,-0.119293,0.016205,0.971039,-0.01931,-0.01181,0.007966,59.33519,5.152664,-148.692627,,,
729863106.339519,0.832189,6.318108,52.017925,-0.119293,0.016205,0.971039,-0.01931,-0.01181,0.007966,59.660675,5.160507,-148.360474,,,
729863106.342877,0.827911,6.310242,52.020978,-0.119293,0.016205,0.971039,-0.01337,-0.036991,0.00648,59.660675,5.160507,-148.360474,,,
729863106.346189,0.82456,6.300122,52.024203,-0.118713,0.015549,0.982132,-0.01337,-0.036991,0.00648,59.660675,5.160507,-148.360474,,,
729863106.349525,0.82456,6.300122,52.024203,-0.118713,0.015549,0.982132,-0.01337,-0.036991,0.00648,59.660675,5.160507,-148.360474,,,
729863106.352869,0.821556,6.283814,52.027533,-0.118713,0.015549,0.982132,-0.009272,-0.050265,0.007047,59.660675,5.160507,-148.360474,,,
729863106.356188,0.819231,6.268884,52.030502,-0.108215,0.015198,0.981094,-0.009272,-0.050265,0.007047,59.660675,5.160507,-148.360474,,,
729863106.359588,0.819231,6.268884,52.030502,-0.108215,0.015198,0.981094,-0.009272,-0.050265,0.007047,59.660675,5.160507,-148.360474,,,
729863106.36286,0.81761,6.25117,52.032289,-0.108215,0.015198,0.981094,0.002537,-0.037907,-0.004874,59.660675,5.160507,-148.360474,,,
729863106.366279,0.817092,6.239257,52.031894,-0.091919,0.017258,0.989334,0.002537,-0.037907,-0.004874,59.660675,5.160507,-148.360474,,,
729863106.369528,0.817092,6.239257,52.031894,-0.091919,0.017258,0.989334,0.002537,-0.037907,-0.004874,59.660675,5.160507,-148.360474,,,
729863106.372929,0.814913,6.228799,52.02925,-0.091919,0.017258,0.989334,-0.013612,-0.010045,-0.020985,59.660675,5.160507,-148.360474,,,
729863106.376192,0.810729,6.223795,52.024746,-0.085281,0.015457,0.986496,-0.013612,-0.010045,-0.020985,59.660675,5.160507,-148.360474,,,
729863106.379582,0.810729,6.223795,52.024746,-0.085281,0.015457,0.986496,-0.013612,-0.010045,-0.020985,59.660675,5.160507,-148.360474,,,
729863106.382869,0.804029,6.221126,52.018655,-0.085281,0.015457,0.986496,-0.029522,0.016878,-0.027736,59.354721,5.185791,-148.628586,,,
729863106.386189,0.794864,6.223817,52.011597,-0.091492,0.017151,0.981995,-0.029522,0.016878,-0.027736,59.354721,5.185791,-148.628586,,,
729863106.389535,0.794864,6.223817,52.011597,-0.091492,0.017151,0.981995,-0.029522,0.016878,-0.027736,59.354721,5.185791,-148.628586,,,
729863106.392865,0.784652,6.227693,52.004669,-0.091492,0.017151,0.981995,-0.044904,0.018426,-0.025278,59.354721,5.185791,-148.628586,,,
729863106.396189,0.771098,6.232571,51.998866,-0.102081,0.017426,0.983063,-0.044904,0.018426,-0.025278,59.354721,5.185791,-148.628586,,,
729863106.399517,0.771098,6.232571,51.998866,-0.102081,0.017426,0.983063,-0.044904,0.018426,-0.025278,59.354721,5.185791,-148.628586,,,
729863106.402868,0.758181,6.234473,51.994003,-0.102081,0.017426,0.983063,-0.050819,-0.004772,-0.020787,59.354721,5.185791,-148.628586,,,
729863106.406193,0.742383,6.2332,51.989863,-0.111084,0.013702,0.977417,-0.050819,-0.004772,-0.020787,59.354721,5.185791,-148.628586,,,
729863106.409521,0.742383,6.2332,51.989863,-0.111084,0.013702,0.977417,-0.050819,-0.004772,-0.020787,59.354721,5.185791,-148.628586,,,
729863106.412873,0.729204,6.230877,51.986383,-0.111084,0.013702,0.977417,-0.042848,-0.027755,-0.015014,59.354721,5.185791,-148.628586,,,
729863106.416192,0.715108,6.223158,51.983193,-0.11853,0.012817,0.988495,-0.042848,-0.027755,-0.015014,59.354721,5.185791,-148.628586,,,
729863106.419536,0.715108,6.223158,51.983193,-0.11853,0.012817,0.988495,-0.042848,-0.027755,-0.015014,59.354721,5.185791,-148.628586,,,
729863106.422942,0.702984,6.217884,51.980417,-0.11853,0.012817,0.988495,-0.033438,-0.038153,-0.0146,59.446716,5.45961,-148.706406,,,
729863106.426192,0.692692,6.206742,51.978105,-0.11171,0.013443,0.997406,-0.033438,-0.038153,-0.0146,59.446716,5.45961,-148.706406,,,
729863106.429541,0.692692,6.206742,51.978105,-0.11171,0.013443,0.997406,-0.033438,-0.038153,-0.0146,59.446716,5.45961,-148.706406,,,
729863106.432868,0.686091,6.198588,51.975283,-0.11171,0.013443,0.997406,-0.006281,-0.028275,-0.015707,59.446716,5.45961,-148.706406,,,
729863106.436208,0.681959,6.188977,51.971641,-0.104706,0.00885,1.014511,-0.006281,-0.028275,-0.015707,59.446716,5.45961,-148.706406,,,
729863106.439561,0.681959,6.188977,51.971641,-0.104706,0.00885,1.014511,-0.006281,-0.028275,-0.015707,59.446716,5.45961,-148.706406,,,
729863106.442916,0.682051,6.182219,51.967542,-0.104706,0.00885,1.014511,0.012241,0.001725,-0.012592,59.446716,5.45961,-148.706406,,,
729863106.446202,0.684089,6.180392,51.964055,-0.106308,0.003555,1.026749,0.012241,0.001725,-0.012592,59.446716,5.45961,-148.706406,,,
729863106.449612,0.684089,6.180392,51.964055,-0.106308,0.003555,1.026749,0.012241,0.001725,-0.012592,59.446716,5.45961,-148.706406,,,
729863106.452875,0.689532,6.17756,51.961877,-0.106308,0.003555,1.026749,0.014674,0.031131,-0.003615,59.446716,5.45961,-148.706406,,,
729863106.456199,0.693826,6.184527,51.960691,-0.110825,0.007523,1.014709,0.014674,0.031131,-0.003615,59.446716,5.45961,-148.706406,,,
729863106.459561,0.693826,6.184527,51.960691,-0.110825,0.007523,1.014709,0.014674,0.031131,-0.003615,59.446716,5.45961,-148.706406,,,
729863106.46292,0.696516,6.188569,51.960438,-0.110825,0.007523,1.014709,-0.004581,0.040685,0.001858,59.804016,5.14621,-148.76207,,,
729863106.466198,0.695654,6.199825,51.960777,-0.111237,0.015518,0.996246,-0.004581,0.040685,0.001858,59.804016,5.14621,-148.76207,,,
729863106.469544,0.695654,6.199825,51.960777,-0.111237,0.015518,0.996246,-0.004581,0.040685,0.001858,59.804016,5.14621,-148.76207,,,
729863106.472962,0.693294,6.205479,51.961174,-0.111237,0.015518,0.996246,-0.020512,0.020011,-0.003247,59.804016,5.14621,-148.76207,,,
729863106.476187,0.687861,6.211721,51.960929,-0.113586,0.016052,0.985886,-0.020512,0.020011,-0.003247,59.804016,5.14621,-148.76207,,,
729863106.479548,0.687861,6.211721,51.960929,-0.113586,0.016052,0.985886,-0.020512,0.020011,-0.003247,59.804016,5.14621,-148.76207,,,
729863106.482867,0.68277,6.212925,51.960891,-0.113586,0.016052,0.985886,-0.019089,-0.015949,-0.001329,59.804016,5.14621,-148.76207,,,
729863106.486193,0.6772,6.208914,51.96159,-0.120682,0.009674,0.995728,-0.019089,-0.015949,-0.001329,59.804016,5.14621,-148.76207,,,
729863106.489523,0.6772,6.208914,51.96159,-0.120682,0.009674,0.995728,-0.019089,-0.015949,-0.001329,59.804016,5.14621,-148.76207,,,
729863106.492866,0.673704,6.20058,51.963553,-0.120682,0.009674,0.995728,-0.001358,-0.058502,0.012002,59.804016,5.14621,-148.76207,,,
729863106.49619,0.672833,6.18476,51.967294,-0.128281,0.006638,1.003967,-0.001358,-0.058502,0.012002,59.804016,5.14621,-148.76207,,,
729863106.499529,0.672833,6.18476,51.967294,-0.128281,0.006638,1.003967,-0.001358,-0.058502,0.012002,59.804016,5.14621,-148.76207,,,
729863106.502861,0.677084,6.168634,51.972189,-0.128281,0.006638,1.003967,0.032134,-0.066783,0.025347,59.573608,5.164154,-148.435165,,,
729863106.506264,0.68578,6.148786,51.978066,-0.11879,0.00473,1.021744,0.032134,-0.066783,0.025347,59.573608,5.164154,-148.435165,,,
729863106.509517,0.68578,6.148786,51.978066,-0.11879,0.00473,1.021744,0.032134,-0.066783,0.025347,59.573608,5.164154,-148.435165,,,
729863106.512881,0.697849,6.132183,51.983974,-0.11879,0.00473,1.021744,0.044439,-0.034038,0.017145,59.573608,5.164154,-148.435165,,,
729863106.516189,0.710839,6.119675,51.988488,-0.100128,0.005295,1.02594,0.044439,-0.034038,0.017145,59.573608,5.164154,-148.435165,,,
729863106.51952,0.710839,6.119675,51.988488,-0.100128,0.005295,1.02594,0.044439,-0.034038,0.017145,59.573608,5.164154,-148.435165,,,
729863106.522928,0.721785,6.111702,51.99138,-0.100128,0.005295,1.02594,0.034261,0.004047,0.006948,59.573608,5.164154,-148.435165,,,
729863106.526176,0.732055,6.110702,51.993197,-0.086517,0.012115,1.007065,0.034261,0.004047,0.006948,59.573608,5.164154,-148.435165,,,
729863106.529349,0.732055,6.110702,51.993197,-0.086517,0.012115,1.007065,0.034261,0.004047,0.006948,59.573608,5.164154,-148.435165,,,
729863106.532913,0.738799,6.113179,51.994238,-0.086517,0.012115,1.007065,0.023822,0.023861,0.003727,59.573608,5.164154,-148.435165,,,
729863106.536197,0.746329,6.119107,51.994872,-0.091583,0.016113,0.990692,0.023822,0.023861,0.003727,59.573608,5.164154,-148.435165,,,
729863106.539546,0.746329,6.119107,51.994872,-0.091583,0.016113,0.990692,0.023822,0.023861,0.003727,59.573608,5.164154,-148.435165,,,
729863106.542895,0.751646,6.127202,51.995984,-0.091583,0.016113,0.990692,0.015015,0.026563,0.008369,59.573608,5.164154,-148.435165,,,
729863106.546195,0.755927,6.134151,51.998022,-0.10141,0.013428,0.986053,0.015015,0.026563,0.008369,59.470154,5.091415,-148.632034,,,
729863106.549601,0.755927,6.134151,51.998022,-0.10141,0.013428,0.986053,0.015015,0.026563,0.008369,59.470154,5.091415,-148.632034,,,
729863106.552875,0.758666,6.140806,52.000714,-0.10141,0.013428,0.986053,-0.007163,0.006883,0.010013,59.470154,5.091415,-148.632034,,,
729863106.556192,0.757866,6.142933,52.003651,-0.104034,0.016663,0.969086,-0.007163,0.006883,0.010013,59.470154,5.091415,-148.632034,,,
729863106.559536,0.757866,6.142933,52.003651,-0.104034,0.016663,0.969086,-0.007163,0.006883,0.010013,59.470154,5.091415,-148.632034,,,
729863106.562921,0.754961,6.143928,52.006219,-0.104034,0.016663,0.969086,-0.01566,-0.014866,0.000818,59.470154,5.091415,-148.632034,,,
729863106.56618,0.750491,6.139084,52.00767,-0.097626,0.018936,0.970566,-0.01566,-0.014866,0.000818,59.470154,5.091415,-148.632034,,,
729863106.569536,0.750491,6.139084,52.00767,-0.097626,0.018936,0.970566,-0.01566,-0.014866,0.000818,59.470154,5.091415,-148.632034,,,
729863106.572875,0.74446,6.137539,52.00716,-0.097626,0.018936,0.970566,-0.014329,-0.019667,-0.012324,59.470154,5.091415,-148.632034,,,
729863106.57619,0.739496,6.131058,52.004907,-0.095779,0.011459,0.987885,-0.014329,-0.019667,-0.012324,59.470154,5.091415,-148.632034,,,
729863106.579545,0.739496,6.131058,52.004907,-0.095779,0.011459,0.987885,-0.014329,-0.019667,-0.012324,59.470154,5.091415,-148.632034,,,
729863106.582864,0.734425,6.130788,52.001059,-0.095779,0.011459,0.987885,-0.003565,-0.016224,-0.018637,59.470154,5.091415,-148.632034,,,
729863106.58619,0.732346,6.125819,51.996344,-0.096954,0.009674,0.997559,-0.003565,-0.016224,-0.018637,59.407959,5.17392,-148.917725,,,
729863106.589608,0.732346,6.125819,51.996344,-0.096954,0.009674,0.997559,-0.003565,-0.016224,-0.018637,59.407959,5.17392,-148.917725,,,
729863106.592869,0.729441,6.124487,51.991193,-0.096954,0.009674,0.997559,0.003923,0.008015,-0.01861,59.407959,5.17392,-148.917725,,,
729863106.596197,0.73004,6.125493,51.986033,-0.101593,0.008545,1.002472,0.003923,0.008015,-0.01861,59.407959,5.17392,-148.917725,,,
729863106.599552,0.73004,6.125493,51.986033,-0.101593,0.008545,1.002472,0.003923,0.008015,-0.01861,59.407959,5.17392,-148.917725,,,
729863106.602961,0.73025,6.126373,51.981518,-0.101593,0.008545,1.002472,0.005499,0.038527,-0.011961,59.407959,5.17392,-148.917725,,,
729863106.605939,0.731484,6.136084,51.978376,-0.10759,0.007217,1.00177,0.005499,0.038527,-0.011961,59.407959,5.17392,-148.917725,,,
729863106.609573,0.731484,6.136084,51.978376,-0.10759,0.007217,1.00177,0.005499,0.038527,-0.011961,59.407959,5.17392,-148.917725,,,
729863106.6129,0.732577,6.142062,51.977254,-0.10759,0.007217,1.00177,0.001198,0.048084,0.003847,59.407959,5.17392,-148.917725,,,
729863106.616188,0.733235,6.154523,51.977801,-0.116592,0.010483,0.988724,0.001198,0.048084,0.003847,59.407959,5.17392,-148.917725,,,
729863106.619537,0.733235,6.154523,51.977801,-0.116592,0.010483,0.988724,0.001198,0.048084,0.003847,59.407959,5.17392,-148.917725,,,
729863106.622872,0.733794,6.16172,51.98021,-0.116592,0.010483,0.988724,-0.004668,0.027561,0.011803,59.407959,5.17392,-148.917725,,,
729863106.626195,0.732844,6.169311,51.983553,-0.116425,0.015152,0.972382,-0.004668,0.027561,0.011803,59.350098,5.363281,-148.656631,,,
729863106.629547,0.732844,6.169311,51.983553,-0.116425,0.015152,0.972382,-0.004668,0.027561,0.011803,59.350098,5.363281,-148.656631,,,
729863106.632863,0.731101,6.172469,51.986804,-0.116425,0.015152,0.972382,-0.015744,-0.000236,0.000683,59.350098,5.363281,-148.656631,,,
729863106.636286,0.726788,6.172903,51.988797,-0.111969,0.018112,0.967575,-0.015744,-0.000236,0.000683,59.350098,5.363281,-148.656631,,,
729863106.639578,0.726788,6.172903,51.988797,-0.111969,0.018112,0.967575,-0.015744,-0.000236,0.000683,59.350098,5.363281,-148.656631,,,
729863106.642871,0.721374,6.168897,51.989694,-0.111969,0.018112,0.967575,-0.030373,-0.020988,-0.005488,59.350098,5.363281,-148.656631,,,
729863106.646198,0.713268,6.16276,51.990193,-0.109421,0.018341,0.966904,-0.030373,-0.020988,-0.005488,59.350098,5.363281,-148.656631,,,
729863106.64954,0.713268,6.16276,51.990193,-0.109421,0.018341,0.966904,-0.030373,-0.020988,-0.005488,59.350098,5.363281,-148.656631,,,
729863106.652862,0.705132,6.151787,51.989809,-0.109421,0.018341,0.966904,-0.032213,-0.032418,-0.009569,59.350098,5.363281,-148.656631,,,
729863106.656216,0.695738,6.142553,51.988238,-0.105865,0.018433,0.975388,-0.032213,-0.032418,-0.009569,59.350098,5.363281,-148.656631,,,
729863106.65954,0.695738,6.142553,51.988238,-0.105865,0.018433,0.975388,-0.032213,-0.032418,-0.009569,59.350098,5.363281,-148.656631,,,
729863106.662872,0.685879,6.130144,51.986493,-0.105865,0.018433,0.975388,-0.033405,-0.022526,-0.010662,59.350098,5.363281,-148.656631,,,
729863106.6662,0.675999,6.122422,51.984858,-0.104706,0.01207,0.988892,-0.033405,-0.022526,-0.010662,59.561035,5.257599,-148.843964,,,
729863106.669538,0.675999,6.122422,51.984858,-0.104706,0.01207,0.988892,-0.033405,-0.022526,-0.010662,59.561035,5.257599,-148.843964,,,
