Time (sec),Pitch (deg),Roll (deg),Yaw(deg),X-Acceleration (g),Y-Acceleration (g),Z-Acceleration (g),Pitch Rate (deg/sec),Roll Rate (deg/sec),Yaw Rate (deg/sec),Magnetic Field in X direction (uT),Magnetic Field in Y direction (uT),Magnetic Field in Z Direction (uT),Latitude (deg),Longitude (deg),Altitude (m)
729860340.847989,-0.547472,-6.346703,-25.72686,0.114349,-0.003555,0.968338,0.014075,0.00132,-0.004661,75.037628,3.797073,-147.33252,,,
729860340.851325,-0.547472,-6.346703,-25.72686,0.114349,-0.003555,0.968338,0.014075,0.00132,-0.004661,75.037628,3.797073,-147.33252,,,
729860340.85469,-0.547108,-6.348585,-25.727914,0.114349,-0.003555,0.968338,0.014075,0.00132,-0.004661,75.037628,3.797073,-147.33252,,,
729860340.857966,-0.547729,-6.352258,-25.729225,0.111984,-0.004761,0.963379,-0.001577,-0.013154,-0.005732,75.037628,3.797073,-147.33252,,,
729860340.861357,-0.547729,-6.352258,-25.729225,0.111984,-0.004761,0.963379,-0.001577,-0.013154,-0.005732,75.037628,3.797073,-147.33252,,,
729860340.864639,-0.550383,-6.35761,-25.731315,0.111984,-0.004761,0.963379,-0.001577,-0.013154,-0.005732,75.037628,3.797073,-147.33252,,,
729860340.868056,-0.551262,-6.363984,-25.733653,0.113678,-0.006317,0.972855,-0.002762,-0.022031,-0.00897,75.037628,3.797073,-147.33252,,,
729860340.871299,-0.551262,-6.363984,-25.733653,0.113678,-0.006317,0.972855,-0.002762,-0.022031,-0.00897,75.050339,3.549713,-147.449707,,,
729860340.874637,-0.553834,-6.370583,-25.73592,0.113678,-0.006317,0.972855,-0.002762,-0.022031,-0.00897,75.050339,3.549713,-147.449707,,,
729860340.87806,-0.553728,-6.375696,-25.738541,0.114395,-0.013184,0.990265,0.001679,-0.014395,-0.011314,75.050339,3.549713,-147.449707,,,
729860340.881405,-0.553728,-6.375696,-25.738541,0.114395,-0.013184,0.990265,0.001679,-0.014395,-0.011314,75.050339,3.549713,-147.449707,,,
729860340.884634,-0.554049,-6.380164,-25.740671,0.114395,-0.013184,0.990265,0.001679,-0.014395,-0.011314,75.050339,3.549713,-147.449707,,,
729860340.888,-0.550026,-6.382973,-25.741704,0.10878,-0.014023,1.00148,0.015494,-0.004801,-0.004865,75.050339,3.549713,-147.449707,,,
729860340.891319,-0.550026,-6.382973,-25.741704,0.10878,-0.014023,1.00148,0.015494,-0.004801,-0.004865,75.050339,3.549713,-147.449707,,,
729860340.89466,-0.544822,-6.385498,-25.741889,0.10878,-0.014023,1.00148,0.015494,-0.004801,-0.004865,75.050339,3.549713,-147.449707,,,
729860340.897979,-0.544822,-6.385365,-25.741452,0.10878,-0.014023,1.00148,0.015494,-0.004801,-0.004865,75.050339,3.549713,-147.449707,,,
729860340.901321,-0.535242,-6.385365,-25.741452,0.106857,-0.015091,1.007095,0.039938,0.005217,-0.002164,75.050339,3.549713,-147.449707,,,
729860340.904632,-0.523359,-6.385551,-25.740379,0.106857,-0.015091,1.007095,0.039938,0.005217,-0.002164,75.050339,3.549713,-147.449707,,,
729860340.907985,-0.523359,-6.385551,-25.740379,0.106857,-0.015091,1.007095,0.051735,0.010085,-0.002291,75.050339,3.549713,-147.449707,,,
729860340.911399,-0.509133,-6.383774,-25.739008,0.106522,-0.012589,1.009216,0.051735,0.010085,-0.002291,74.987671,3.591858,-147.698792,,,
729860340.914626,-0.493959,-6.383217,-25.737454,0.106522,-0.012589,1.009216,0.051735,0.010085,-0.002291,74.987671,3.591858,-147.698792,,,
729860340.917972,-0.493959,-6.383217,-25.737454,0.106522,-0.012589,1.009216,0.051735,0.010085,-0.002291,74.987671,3.591858,-147.698792,,,
729860340.921307,-0.479255,-6.380709,-25.735974,0.106155,-0.009949,0.998138,0.049684,0.010952,-0.002815,74.987671,3.591858,-147.698792,,,
729860340.924633,-0.467262,-6.379348,-25.735009,0.106155,-0.009949,0.998138,0.049684,0.010952,-0.002815,74.987671,3.591858,-147.698792,,,
729860340.928064,-0.459489,-6.376474,-25.734626,0.10701,-0.005951,0.981857,0.02481,0.012915,-0.002695,74.987671,3.591858,-147.698792,,,
729860340.931328,-0.459489,-6.376474,-25.734626,0.10701,-0.005951,0.981857,0.02481,0.012915,-0.002695,74.987671,3.591858,-147.698792,,,
729860340.934647,-0.455302,-6.373658,-25.735052,0.10701,-0.005951,0.981857,0.02481,0.012915,-0.002695,74.987671,3.591858,-147.698792,,,
729860340.938018,-0.455302,-6.373658,-25.735052,0.10701,-0.005951,0.981857,0.02481,0.012915,-0.002695,74.987671,3.591858,-147.698792,,,
729860340.941307,-0.455702,-6.369416,-25.735971,0.107162,-0.002762,0.972061,-0.003706,0.016879,-0.004295,74.987671,3.591858,-147.698792,,,
729860340.944703,-0.458637,-6.366038,-25.737451,0.107162,-0.002762,0.972061,-0.003706,0.016879,-0.004295,74.987671,3.591858,-147.698792,,,
729860340.948034,-0.458637,-6.366038,-25.737451,0.107162,-0.002762,0.972061,-0.003706,0.016879,-0.004295,74.987671,3.591858,-147.698792,,,
729860340.951325,-0.463873,-6.362116,-25.739469,0.104568,-0.003723,0.974136,-0.01953,0.016106,-0.006489,74.987671,3.591858,-147.698792,,,
729860340.954636,-0.469959,-6.36012,-25.741107,0.104568,-0.003723,0.974136,-0.01953,0.016106,-0.006489,75.099503,3.703033,-147.959702,,,
729860340.958034,-0.469959,-6.36012,-25.741107,0.104568,-0.003723,0.974136,-0.01953,0.016106,-0.006489,75.099503,3.703033,-147.959702,,,
729860340.961319,-0.475051,-6.35862,-25.742008,0.100677,-0.006683,0.98201,-0.017725,0.007966,-0.002205,75.099503,3.703033,-147.959702,,,
729860340.964642,-0.480575,-6.358737,-25.742221,0.100677,-0.006683,0.98201,-0.017725,0.007966,-0.002205,75.099503,3.703033,-147.959702,,,
729860340.968048,-0.480575,-6.358737,-25.742221,0.100677,-0.006683,0.98201,-0.017725,0.007966,-0.002205,75.099503,3.703033,-147.959702,,,
729860340.971376,-0.484698,-6.360972,-25.741457,0.098633,-0.011047,0.987549,-0.011264,-0.007103,0.004967,75.099503,3.703033,-147.959702,,,
729860340.974625,-0.489137,-6.363963,-25.739577,0.098633,-0.011047,0.987549,-0.011264,-0.007103,0.004967,75.099503,3.703033,-147.959702,,,
729860340.978075,-0.489137,-6.363963,-25.739577,0.098633,-0.011047,0.987549,-0.011264,-0.007103,0.004967,75.099503,3.703033,-147.959702,,,
729860340.981333,-0.493092,-6.368729,-25.737434,0.099686,-0.010147,0.987488,-0.013146,-0.015648,0.00815,75.099503,3.703033,-147.959702,,,
729860340.984638,-0.497862,-6.372175,-25.735712,0.099686,-0.010147,0.987488,-0.013146,-0.015648,0.00815,75.099503,3.703033,-147.959702,,,
729860340.988055,-0.497862,-6.372175,-25.735712,0.099686,-0.010147,0.987488,-0.013146,-0.015648,0.00815,75.099503,3.703033,-147.959702,,,
729860340.991308,-0.502102,-6.375721,-25.733947,0.105286,-0.011124,0.990234,-0.014383,-0.009616,0.006569,75.099503,3.703033,-147.959702,,,
729860340.994655,-0.507159,-6.376496,-25.732297,0.105286,-0.011124,0.990234,-0.014383,-0.009616,0.006569,75.101334,3.724777,-147.631088,,,
729860340.998009,-0.507159,-6.376496,-25.732297,0.105286,-0.011124,0.990234,-0.014383,-0.009616,0.006569,75.101334,3.724777,-147.631088,,,
729860341.001358,-0.512291,-6.376017,-25.731325,0.11261,-0.010498,0.994583,-0.01838,0.006683,0.002578,75.101334,3.724777,-147.631088,,,
729860341.004752,-0.518573,-6.371906,-25.731379,0.11261,-0.010498,0.994583,-0.01838,0.006683,0.002578,75.101334,3.724777,-147.631088,,,
729860341.008029,-0.518573,-6.371906,-25.731379,0.11261,-0.010498,0.994583,-0.01838,0.006683,0.002578,75.101334,3.724777,-147.631088,,,
729860341.011383,-0.52616,-6.365277,-25.732483,0.115112,-0.011017,0.996048,-0.022911,0.028023,-0.003254,75.101334,3.724777,-147.631088,,,
729860341.014568,-0.53341,-6.355761,-25.734203,0.115112,-0.011017,0.996048,-0.022911,0.028023,-0.003254,75.101334,3.724777,-147.631088,,,
729860341.018014,-0.53341,-6.355761,-25.734203,0.115112,-0.011017,0.996048,-0.022911,0.028023,-0.003254,75.101334,3.724777,-147.631088,,,
729860341.021409,-0.542307,-6.343637,-25.736552,0.11348,-0.009766,0.997391,-0.031887,0.045325,-0.004438,75.101334,3.724777,-147.631088,,,
729860341.024691,-0.551047,-6.329101,-25.739609,0.11348,-0.009766,0.997391,-0.031887,0.045325,-0.004438,75.101334,3.724777,-147.631088,,,
729860341.028167,-0.551047,-6.329101,-25.739609,0.11348,-0.009766,0.997391,-0.031887,0.045325,-0.004438,75.101334,3.724777,-147.631088,,,
729860341.031306,-0.561081,-6.31498,-25.74293,0.109177,-0.010178,0.998291,-0.032957,0.053343,-0.009484,75.101334,3.724777,-147.631088,,,
729860341.034644,-0.569825,-6.29995,-25.74611,0.109177,-0.010178,0.998291,-0.032957,0.053343,-0.009484,75.073166,3.807449,-147.902039,,,
729860341.038043,-0.569825,-6.29995,-25.74611,0.109177,-0.010178,0.998291,-0.032957,0.053343,-0.009484,75.073166,3.807449,-147.902039,,,
729860341.041312,-0.577622,-6.287563,-25.748825,0.104019,-0.009674,0.998413,-0.027193,0.045206,-0.00702,75.073166,3.807449,-147.902039,,,
729860341.04468,-0.584482,-6.276415,-25.751076,0.104019,-0.009674,0.998413,-0.027193,0.045206,-0.00702,75.073166,3.807449,-147.902039,,,
729860341.048011,-0.584482,-6.276415,-25.751076,0.104019,-0.009674,0.998413,-0.027193,0.045206,-0.00702,75.073166,3.807449,-147.902039,,,
729860341.051332,-0.591577,-6.270886,-25.753459,0.09819,-0.010727,0.997238,-0.027233,0.018883,-0.00634,75.073166,3.807449,-147.902039,,,
729860341.054642,-0.599188,-6.267566,-25.756135,0.09819,-0.010727,0.997238,-0.027233,0.018883,-0.00634,75.073166,3.807449,-147.902039,,,
729860341.058094,-0.599188,-6.267566,-25.756135,0.09819,-0.010727,0.997238,-0.027233,0.018883,-0.00634,75.073166,3.807449,-147.902039,,,
729860341.061299,-0.605784,-6.268791,-25.758511,0.095032,-0.008728,0.990189,-0.022469,-0.003985,-0.008625,75.073166,3.807449,-147.902039,,,
729860341.064645,-0.609528,-6.270215,-25.760491,0.095032,-0.008728,0.990189,-0.022469,-0.003985,-0.008625,75.073166,3.807449,-147.902039,,,
729860341.067996,-0.609528,-6.270215,-25.760491,0.095032,-0.008728,0.990189,-0.022469,-0.003985,-0.008625,75.073166,3.807449,-147.902039,,,
729860341.071301,-0.609992,-6.272831,-25.761697,0.096115,-0.011383,1.001572,0.000275,-0.003757,-0.0074,75.073166,3.807449,-147.902039,,,
729860341.074638,-0.607165,-6.274883,-25.761349,0.096115,-0.011383,1.001572,0.000275,-0.003757,-0.0074,75.291275,3.705704,-147.735306,,,
729860341.077981,-0.607165,-6.274883,-25.761349,0.096115,-0.011383,1.001572,0.000275,-0.003757,-0.0074,75.291275,3.705704,-147.735306,,,
729860341.081334,-0.602025,-6.2745,-25.759335,0.094238,-0.014328,1.016891,0.021037,0.00518,0.003893,75.291275,3.705704,-147.735306,,,
729860341.084635,-0.596426,-6.273381,-25.755472,0.094238,-0.014328,1.016891,0.021037,0.00518,0.003893,75.291275,3.705704,-147.735306,,,
729860341.087984,-0.596426,-6.273381,-25.755472,0.094238,-0.014328,1.016891,0.021037,0.00518,0.003893,75.291275,3.705704,-147.735306,,,
729860341.091327,-0.591406,-6.269402,-25.750267,0.096878,-0.013763,1.011673,0.018162,0.02062,0.015125,75.291275,3.705704,-147.735306,,,
729860341.094653,-0.587544,-6.263857,-25.744719,0.096878,-0.013763,1.011673,0.018162,0.02062,0.015125,75.291275,3.705704,-147.735306,,,
729860341.097972,-0.587544,-6.263857,-25.744719,0.096878,-0.013763,1.011673,0.018162,0.02062,0.015125,75.291275,3.705704,-147.735306,,,
729860341.101313,-0.585683,-6.255858,-25.739552,0.099991,-0.011093,0.999847,0.006699,0.032576,0.017221,75.291275,3.705704,-147.735306,,,
729860341.104644,-0.586166,-6.246637,-25.735489,0.099991,-0.011093,0.999847,0.006699,0.032576,0.017221,75.291275,3.705704,-147.735306,,,
729860341.108043,-0.586166,-6.246637,-25.735489,0.099991,-0.011093,0.999847,0.006699,0.032576,0.017221,75.291275,3.705704,-147.735306,,,
729860341.11131,-0.589028,-6.236318,-25.732503,0.10556,-0.008179,0.991745,-0.012177,0.041691,0.007731,75.291275,3.705704,-147.735306,,,
729860341.114665,-0.594256,-6.226256,-25.730804,0.10556,-0.008179,0.991745,-0.012177,0.041691,0.007731,75.291275,3.705704,-147.735306,,,
729860341.118006,-0.594256,-6.226256,-25.730804,0.10556,-0.008179,0.991745,-0.012177,0.041691,0.007731,75.322845,3.695724,-147.962448,,,
729860341.121411,-0.601359,-6.219394,-25.730352,0.108398,-0.008194,0.984406,-0.02396,0.023465,0.001809,75.322845,3.695724,-147.962448,,,
729860341.124643,-0.608582,-6.215232,-25.730763,0.108398,-0.008194,0.984406,-0.02396,0.023465,0.001809,75.322845,3.695724,-147.962448,,,
729860341.128031,-0.608582,-6.215232,-25.730763,0.108398,-0.008194,0.984406,-0.02396,0.023465,0.001809,75.322845,3.695724,-147.962448,,,
729860341.131342,-0.615111,-6.217049,-25.73193,0.10878,-0.009903,0.981766,-0.021927,-0.007324,-0.001863,75.322845,3.695724,-147.962448,,,
729860341.134648,-0.620866,-6.221187,-25.733458,0.10878,-0.009903,0.981766,-0.021927,-0.007324,-0.001863,75.322845,3.695724,-147.962448,,,
729860341.137997,-0.620866,-6.221187,-25.733458,0.10878,-0.009903,0.981766,-0.021927,-0.007324,-0.001863,75.322845,3.695724,-147.962448,,,
729860341.141328,-0.625967,-6.231451,-25.735598,0.106613,-0.010193,0.982452,-0.015054,-0.036817,-0.005761,75.322845,3.695724,-147.962448,,,
729860341.144669,-0.629861,-6.242529,-25.737522,0.106613,-0.010193,0.982452,-0.015054,-0.036817,-0.005761,75.322845,3.695724,-147.962448,,,
729860341.147982,-0.629861,-6.242529,-25.737522,0.106613,-0.010193,0.982452,-0.015054,-0.036817,-0.005761,75.322845,3.695724,-147.962448,,,
729860341.151333,-0.632431,-6.257779,-25.738584,0.106506,-0.011642,0.981232,-0.008424,-0.05152,-0.003549,75.322845,3.695724,-147.962448,,,
729860341.154639,-0.634343,-6.269916,-25.739246,0.106506,-0.011642,0.981232,-0.008424,-0.05152,-0.003549,75.322845,3.695724,-147.962448,,,
729860341.157975,-0.634343,-6.269916,-25.739246,0.106506,-0.011642,0.981232,-0.008424,-0.05152,-0.003549,75.059448,3.66507,-148.007187,,,
729860341.161399,-0.633846,-6.283527,-25.73893,0.104736,-0.012848,0.988129,0.005319,-0.042806,0.001488,75.059448,3.66507,-148.007187,,,
729860341.164649,-0.630515,-6.290582,-25.737,0.104736,-0.012848,0.988129,0.005319,-0.042806,0.001488,75.059448,3.66507,-148.007187,,,
729860341.167988,-0.630515,-6.290582,-25.737,0.104736,-0.012848,0.988129,0.005319,-0.042806,0.001488,75.059448,3.66507,-148.007187,,,
729860341.17139,-0.624032,-6.295932,-25.733675,0.105652,-0.014648,1.000275,0.027967,-0.012531,0.007736,75.059448,3.66507,-148.007187,,,
729860341.174636,-0.614815,-6.294072,-25.7285,0.105652,-0.014648,1.000275,0.027967,-0.012531,0.007736,75.059448,3.66507,-148.007187,,,
729860341.177979,-0.614815,-6.294072,-25.7285,0.105652,-0.014648,1.000275,0.027967,-0.012531,0.007736,75.059448,3.66507,-148.007187,,,
729860341.181332,-0.60282,-6.289443,-25.722411,0.108826,-0.015732,1.011108,0.046259,0.022617,0.016813,75.059448,3.66507,-148.007187,,,
729860341.184642,-0.589132,-6.279015,-25.716167,0.108826,-0.015732,1.011108,0.046259,0.022617,0.016813,75.059448,3.66507,-148.007187,,,
729860341.187995,-0.589132,-6.279015,-25.716167,0.108826,-0.015732,1.011108,0.046259,0.022617,0.016813,75.059448,3.66507,-148.007187,,,
729860341.191324,-0.574953,-6.265422,-25.710699,0.116882,-0.012405,1.002319,0.05261,0.054259,0.011212,75.059448,3.66507,-148.007187,,,
729860341.194722,-0.561157,-6.24903,-25.707303,0.116882,-0.012405,1.002319,0.05261,0.054259,0.011212,75.059448,3.66507,-148.007187,,,
729860341.197981,-0.561157,-6.24903,-25.707303,0.116882,-0.012405,1.002319,0.05261,0.054259,0.011212,75.262497,3.762039,-147.761917,,,
729860341.201334,-0.550153,-6.231559,-25.706232,0.123611,-0.001205,0.983765,0.035583,0.063826,-0.003695,75.262497,3.762039,-147.761917,,,
729860341.20464,-0.542787,-6.214424,-25.707776,0.123611,-0.001205,0.983765,0.035583,0.063826,-0.003695,75.262497,3.762039,-147.761917,,,
729860341.20797,-0.542787,-6.214424,-25.707776,0.123611,-0.001205,0.983765,0.035583,0.063826,-0.003695,75.262497,3.762039,-147.761917,,,
729860341.211374,-0.5399,-6.198738,-25.711841,0.121948,0.001694,0.962372,0.004243,0.058569,-0.018633,75.262497,3.762039,-147.761917,,,
729860341.214634,-0.54139,-6.185326,-25.717454,0.121948,0.001694,0.962372,0.004243,0.058569,-0.018633,75.262497,3.762039,-147.761917,,,
729860341.218035,-0.54139,-6.185326,-25.717454,0.121948,0.001694,0.962372,0.004243,0.058569,-0.018633,75.262497,3.762039,-147.761917,,,
729860341.221373,-0.5469,-6.174265,-25.723366,0.113434,0.001068,0.952194,-0.024686,0.039714,-0.020766,75.262497,3.762039,-147.761917,,,
729860341.224664,-0.556595,-6.166933,-25.728731,0.113434,0.001068,0.952194,-0.024686,0.039714,-0.020766,75.262497,3.762039,-147.761917,,,
729860341.228007,-0.556595,-6.166933,-25.728731,0.113434,0.001068,0.952194,-0.024686,0.039714,-0.020766,75.262497,3.762039,-147.761917,,,
729860341.231316,-0.569175,-6.163656,-25.732883,0.104538,-0.00528,0.947281,-0.046911,0.012118,-0.009379,75.262497,3.762039,-147.761917,,,
729860341.234642,-0.584984,-6.163671,-25.735752,0.104538,-0.00528,0.947281,-0.046911,0.012118,-0.009379,75.262497,3.762039,-147.761917,,,
729860341.237995,-0.584984,-6.163671,-25.735752,0.104538,-0.00528,0.947281,-0.046911,0.012118,-0.009379,75.262497,3.762039,-147.761917,,,
729860341.241306,-0.602074,-6.167772,-25.737641,0.099075,-0.008636,0.953827,-0.056446,-0.015473,0.001037,75.291519,3.700912,-147.404953,,,
729860341.24464,-0.618989,-6.175242,-25.738946,0.099075,-0.008636,0.953827,-0.056446,-0.015473,0.001037,75.291519,3.700912,-147.404953,,,
729860341.248034,-0.618989,-6.175242,-25.738946,0.099075,-0.008636,0.953827,-0.056446,-0.015473,0.001037,75.291519,3.700912,-147.404953,,,
729860341.251328,-0.633825,-6.18664,-25.739977,0.102356,-0.01123,0.965317,-0.049417,-0.040436,0.00078,75.291519,3.700912,-147.404953,,,
729860341.254684,-0.646385,-6.201261,-25.740576,0.102356,-0.01123,0.965317,-0.049417,-0.040436,0.00078,75.291519,3.700912,-147.404953,,,
729860341.258052,-0.646385,-6.201261,-25.740576,0.102356,-0.01123,0.965317,-0.049417,-0.040436,0.00078,75.291519,3.700912,-147.404953,,,
729860341.26137,-0.654657,-6.218502,-25.741142,0.10556,-0.01413,0.979507,-0.025005,-0.060713,-0.001666,75.291519,3.700912,-147.404953,,,
729860341.26465,-0.658887,-6.237488,-25.742019,0.10556,-0.01413,0.979507,-0.025005,-0.060713,-0.001666,75.291519,3.700912,-147.404953,,,
729860341.268004,-0.658887,-6.237488,-25.742019,0.10556,-0.01413,0.979507,-0.025005,-0.060713,-0.001666,75.291519,3.700912,-147.404953,,,
729860341.271336,-0.658814,-6.255088,-25.743401,0.11261,-0.015488,0.996597,0.00637,-0.05565,-0.00568,75.291519,3.700912,-147.404953,,,
729860341.274667,-0.655106,-6.271661,-25.744821,0.11261,-0.015488,0.996597,0.00637,-0.05565,-0.00568,75.291519,3.700912,-147.404953,,,
729860341.278009,-0.655106,-6.271661,-25.744821,0.11261,-0.015488,0.996597,0.00637,-0.05565,-0.00568,75.291519,3.700912,-147.404953,,,
729860341.281324,-0.650814,-6.282556,-25.746244,0.117523,-0.015671,1.004135,0.017939,-0.030105,-0.004205,75.182648,3.865646,-147.825714,,,
729860341.284655,-0.645872,-6.290698,-25.747928,0.117523,-0.015671,1.004135,0.017939,-0.030105,-0.004205,75.182648,3.865646,-147.825714,,,
729860341.287985,-0.645872,-6.290698,-25.747928,0.117523,-0.015671,1.004135,0.017939,-0.030105,-0.004205,75.182648,3.865646,-147.825714,,,
729860341.291314,-0.644885,-6.290915,-25.749912,0.117966,-0.011337,0.99556,0.002367,0.007388,-0.00893,75.182648,3.865646,-147.825714,,,
729860341.294757,-0.646855,-6.288104,-25.752613,0.117966,-0.011337,0.99556,0.002367,0.007388,-0.00893,75.182648,3.865646,-147.825714,,,
729860341.298034,-0.646855,-6.288104,-25.752613,0.117966,-0.011337,0.99556,0.002367,0.007388,-0.00893,75.182648,3.865646,-147.825714,,,
729860341.301344,-0.655353,-6.279122,-25.755832,0.119522,-0.008789,0.981216,-0.03376,0.037879,-0.009705,75.182648,3.865646,-147.825714,,,
729860341.304649,-0.667627,-6.267694,-25.760281,0.119522,-0.008789,0.981216,-0.03376,0.037879,-0.009705,75.182648,3.865646,-147.825714,,,
729860341.307998,-0.667627,-6.267694,-25.760281,0.119522,-0.008789,0.981216,-0.03376,0.037879,-0.009705,75.182648,3.865646,-147.825714,,,
729860341.311316,-0.685313,-6.254708,-25.765351,0.117752,-0.00589,0.970078,-0.066445,0.047962,-0.011833,75.182648,3.865646,-147.825714,,,
729860341.314651,-0.705697,-6.242532,-25.771041,0.117752,-0.00589,0.970078,-0.066445,0.047962,-0.011833,75.182648,3.865646,-147.825714,,,
729860341.317974,-0.705697,-6.242532,-25.771041,0.117752,-0.00589,0.970078,-0.066445,0.047962,-0.011833,75.182648,3.865646,-147.825714,,,
729860341.321313,-0.728435,-6.234145,-25.777463,0.112854,-0.009277,0.96759,-0.083052,0.032457,-0.014614,75.209427,4.007507,-147.88501,,,
729860341.32465,-0.751712,-6.22919,-25.783992,0.112854,-0.009277,0.96759,-0.083052,0.032457,-0.014614,75.209427,4.007507,-147.88501,,,
729860341.327977,-0.751712,-6.22919,-25.783992,0.112854,-0.009277,0.96759,-0.083052,0.032457,-0.014614,75.209427,4.007507,-147.88501,,,
729860341.331312,-0.774176,-6.229262,-25.791,0.103958,-0.013535,0.9711,-0.077091,-0.000671,-0.017296,75.209427,4.007507,-147.88501,,,
729860341.334652,-0.793987,-6.234075,-25.797939,0.103958,-0.013535,0.9711,-0.077091,-0.000671,-0.017296,75.209427,4.007507,-147.88501,,,
729860341.337979,-0.793987,-6.234075,-25.797939,0.103958,-0.013535,0.9711,-0.077091,-0.000671,-0.017296,75.209427,4.007507,-147.88501,,,
729860341.341311,-0.809854,-6.243606,-25.803877,0.099121,-0.017715,0.986343,-0.053281,-0.034353,-0.017945,75.209427,4.007507,-147.88501,,,
729860341.344652,-0.820936,-6.257286,-25.80867,0.099121,-0.017715,0.986343,-0.053281,-0.034353,-0.017945,75.209427,4.007507,-147.88501,,,
729860341.348033,-0.820936,-6.257286,-25.80867,0.099121,-0.017715,0.986343,-0.053281,-0.034353,-0.017945,75.209427,4.007507,-147.88501,,,
729860341.351327,-0.827305,-6.274665,-25.812685,0.099258,-0.022369,1.002457,-0.020545,-0.061497,-0.012257,75.209427,4.007507,-147.88501,,,
729860341.354644,-0.830231,-6.294684,-25.815897,0.099258,-0.022369,1.002457,-0.020545,-0.061497,-0.012257,75.209427,4.007507,-147.88501,,,
729860341.357987,-0.830231,-6.294684,-25.815897,0.099258,-0.022369,1.002457,-0.020545,-0.061497,-0.012257,75.209427,4.007507,-147.88501,,,
729860341.361322,-0.829875,-6.313336,-25.818484,0.105301,-0.023148,1.007355,0.001056,-0.062039,-0.010646,75.032501,4.148987,-147.692581,,,
729860341.364653,-0.827841,-6.330141,-25.821767,0.105301,-0.023148,1.007355,0.001056,-0.062039,-0.010646,75.032501,4.148987,-147.692581,,,
729860341.367996,-0.827841,-6.330141,-25.821767,0.105301,-0.023148,1.007355,0.001056,-0.062039,-0.010646,75.032501,4.148987,-147.692581,,,
729860341.371329,-0.826512,-6.341229,-25.826458,0.113403,-0.017197,1.010193,0.00469,-0.033294,-0.016434,75.032501,4.148987,-147.692581,,,
729860341.374648,-0.825684,-6.348089,-25.832139,0.113403,-0.017197,1.010193,0.00469,-0.033294,-0.016434,75.032501,4.148987,-147.692581,,,
729860341.378068,-0.825684,-6.348089,-25.832139,0.113403,-0.017197,1.010193,0.00469,-0.033294,-0.016434,75.032501,4.148987,-147.692581,,,
729860341.381315,-0.82795,-6.347644,-25.838132,0.116058,-0.012146,1.000549,-0.012803,0.010578,-0.021593,75.032501,4.148987,-147.692581,,,
729860341.384644,-0.833382,-6.342566,-25.844732,0.116058,-0.012146,1.000549,-0.012803,0.010578,-0.021593,75.032501,4.148987,-147.692581,,,
729860341.388032,-0.833382,-6.342566,-25.844732,0.116058,-0.012146,1.000549,-0.012803,0.010578,-0.021593,75.032501,4.148987,-147.692581,,,
729860341.391298,-0.844519,-6.328884,-25.851614,0.113037,-0.008987,0.99231,-0.045061,0.056212,-0.020102,75.032501,4.148987,-147.692581,,,
729860341.394671,-0.858501,-6.311214,-25.857767,0.113037,-0.008987,0.99231,-0.045061,0.056212,-0.020102,75.032501,4.148987,-147.692581,,,
729860341.397998,-0.858501,-6.311214,-25.857767,0.113037,-0.008987,0.99231,-0.045061,0.056212,-0.020102,75.032501,4.148987,-147.692581,,,
729860341.401372,-0.876659,-6.288351,-25.863074,0.106766,-0.012161,0.989685,-0.066886,0.084381,-0.012777,75.032501,4.148987,-147.692581,,,
729860341.404632,-0.896718,-6.264453,-25.867293,0.106766,-0.012161,0.989685,-0.066886,0.084381,-0.012777,75.326538,4.31189,-147.84993,,,
729860341.407986,-0.896718,-6.264453,-25.867293,0.106766,-0.012161,0.989685,-0.066886,0.084381,-0.012777,75.326538,4.31189,-147.84993,,,
729860341.411307,-0.917418,-6.242699,-25.869635,0.099808,-0.01915,0.991089,-0.069175,0.075398,0.001042,75.326538,4.31189,-147.84993,,,
729860341.414642,-0.936705,-6.224664,-25.870602,0.099808,-0.01915,0.991089,-0.069175,0.075398,0.001042,75.326538,4.31189,-147.84993,,,
729860341.417725,-0.936705,-6.224664,-25.870602,0.099808,-0.01915,0.991089,-0.069175,0.075398,0.001042,75.326538,4.31189,-147.84993,,,
729860341.421354,-0.954567,-6.214332,-25.871285,0.094131,-0.021606,0.991531,-0.060395,0.033293,0.002577,75.326538,4.31189,-147.84993,,,
729860341.424686,-0.971639,-6.210512,-25.872597,0.094131,-0.021606,0.991531,-0.060395,0.033293,0.002577,75.326538,4.31189,-147.84993,,,
729860341.428057,-0.971639,-6.210512,-25.872597,0.094131,-0.021606,0.991531,-0.060395,0.033293,0.002577,75.326538,4.31189,-147.84993,,,
729860341.431282,-0.986585,-6.216955,-25.875442,0.099884,-0.017258,0.989151,-0.054377,-0.026188,-0.005057,75.326538,4.31189,-147.84993,,,
729860341.434593,-1.000663,-6.229086,-25.880332,0.099884,-0.017258,0.989151,-0.054377,-0.026188,-0.005057,75.326538,4.31189,-147.84993,,,
729860341.437952,-1.000663,-6.229086,-25.880332,0.099884,-0.017258,0.989151,-0.054377,-0.026188,-0.005057,75.326538,4.31189,-147.84993,,,
729860341.441344,-1.010938,-6.247814,-25.886849,0.104782,-0.012695,0.995224,-0.033965,-0.066204,-0.022197,75.326538,4.31189,-147.84993,,,
729860341.444688,-1.017562,-6.269989,-25.894375,0.104782,-0.012695,0.995224,-0.033965,-0.066204,-0.022197,75.219254,4.310852,-148.030319,,,
729860341.448026,-1.017562,-6.269989,-25.894375,0.104782,-0.012695,0.995224,-0.033965,-0.066204,-0.022197,75.219254,4.310852,-148.030319,,,
729860341.451383,-1.019998,-6.293438,-25.902215,0.106308,-0.018555,1.011459,-0.008971,-0.074914,-0.028123,75.219254,4.310852,-148.030319,,,
729860341.454644,-1.019245,-6.317531,-25.90916,0.106308,-0.018555,1.011459,-0.008971,-0.074914,-0.028123,75.219254,4.310852,-148.030319,,,
729860341.457979,-1.019245,-6.317531,-25.90916,0.106308,-0.018555,1.011459,-0.008971,-0.074914,-0.028123,75.219254,4.310852,-148.030319,,,
729860341.461323,-1.017052,-6.338733,-25.914378,0.102264,-0.020218,1.018997,0.006934,-0.066223,-0.019326,75.219254,4.310852,-148.030319,,,
729860341.464704,-1.012135,-6.356429,-25.917413,0.102264,-0.020218,1.018997,0.006934,-0.066223,-0.019326,75.219254,4.310852,-148.030319,,,
729860341.468012,-1.012135,-6.356429,-25.917413,0.102264,-0.020218,1.018997,0.006934,-0.066223,-0.019326,75.219254,4.310852,-148.030319,,,
729860341.471346,-1.007586,-6.367463,-25.918589,0.103088,-0.023438,1.019897,0.017384,-0.031454,-0.007329,75.219254,4.310852,-148.030319,,,
729860341.474648,-1.001334,-6.371955,-25.918058,0.103088,-0.023438,1.019897,0.017384,-0.031454,-0.007329,75.219254,4.310852,-148.030319,,,
729860341.478004,-1.001334,-6.371955,-25.918058,0.103088,-0.023438,1.019897,0.017384,-0.031454,-0.007329,75.219254,4.310852,-148.030319,,,
729860341.481322,-0.995367,-6.371599,-25.916015,0.1035,-0.022369,1.022324,0.023714,0.00777,0.00547,75.219254,4.310852,-148.030319,,,
729860341.484736,-0.98948,-6.366208,-25.913357,0.1035,-0.022369,1.022324,0.023714,0.00777,0.00547,74.867554,4.438248,-147.951233,,,
729860341.488061,-0.98948,-6.366208,-25.913357,0.1035,-0.022369,1.022324,0.023714,0.00777,0.00547,74.867554,4.438248,-147.951233,,,
729860341.491313,-0.984467,-6.35976,-25.911142,0.108109,-0.020218,1.010788,0.020994,0.02653,0.003722,74.867554,4.438248,-147.951233,,,
729860341.494687,-0.979787,-6.349074,-25.909513,0.108109,-0.020218,1.010788,0.020994,0.02653,0.003722,74.867554,4.438248,-147.951233,,,
729860341.49801,-0.979787,-6.349074,-25.909513,0.108109,-0.020218,1.010788,0.020994,0.02653,0.003722,74.867554,4.438248,-147.951233,,,
729860341.501401,-0.974776,-6.341936,-25.909334,0.114243,-0.016846,1.000443,0.016559,0.030383,-0.004119,74.867554,4.438248,-147.951233,,,
729860341.504689,-0.971762,-6.33328,-25.910744,0.114243,-0.016846,1.000443,0.016559,0.030383,-0.004119,74.867554,4.438248,-147.951233,,,
729860341.508009,-0.971762,-6.33328,-25.910744,0.114243,-0.016846,1.000443,0.016559,0.030383,-0.004119,74.867554,4.438248,-147.951233,,,
729860341.511437,-0.969589,-6.328073,-25.913695,0.114151,-0.012634,0.991013,0.007371,0.019929,-0.012747,74.867554,4.438248,-147.951233,,,
729860341.514655,-0.967787,-6.323237,-25.917949,0.114151,-0.012634,0.991013,0.007371,0.019929,-0.012747,74.867554,4.438248,-147.951233,,,
729860341.517995,-0.967787,-6.323237,-25.917949,0.114151,-0.012634,0.991013,0.007371,0.019929,-0.012747,74.867554,4.438248,-147.951233,,,
729860341.521341,-0.967292,-6.321606,-25.922368,0.11377,-0.013733,0.985886,-0.002663,0.006755,-0.017414,74.867554,4.438248,-147.951233,,,
729860341.524678,-0.967292,-6.320893,-25.926328,0.11377,-0.013733,0.985886,-0.002663,0.006755,-0.017414,75.108871,4.106659,-147.912415,,,
729860341.528137,-0.967804,-6.320893,-25.926328,0.11377,-0.013733,0.985886,-0.002663,0.006755,-0.017414,75.108871,4.106659,-147.912415,,,
729860341.531319,-0.969412,-6.322584,-25.929167,0.108963,-0.015778,0.985596,-0.00724,-0.003844,-0.011176,75.108871,4.106659,-147.912415,,,
729860341.534668,-0.972124,-6.325059,-25.931325,0.108963,-0.015778,0.985596,-0.00724,-0.003844,-0.011176,75.108871,4.106659,-147.912415,,,
729860341.538078,-0.972124,-6.325059,-25.931325,0.108963,-0.015778,0.985596,-0.00724,-0.003844,-0.011176,75.108871,4.106659,-147.912415,,,
729860341.541341,-0.97448,-6.331105,-25.933397,0.105011,-0.017105,0.981949,-0.00997,-0.017814,-0.00671,75.108871,4.106659,-147.912415,,,
729860341.544724,-0.976512,-6.336301,-25.935081,0.105011,-0.017105,0.981949,-0.00997,-0.017814,-0.00671,75.108871,4.106659,-147.912415,,,
729860341.547974,-0.976512,-6.336301,-25.935081,0.105011,-0.017105,0.981949,-0.00997,-0.017814,-0.00671,75.108871,4.106659,-147.912415,,,
729860341.551416,-0.976765,-6.344263,-25.936799,0.10936,-0.019135,0.986023,-0.000411,-0.026362,-0.00792,75.108871,4.106659,-147.912415,,,
729860341.554688,-0.977115,-6.350814,-25.938411,0.10936,-0.019135,0.986023,-0.000411,-0.026362,-0.00792,75.108871,4.106659,-147.912415,,,
729860341.557994,-0.977115,-6.350814,-25.938411,0.10936,-0.019135,0.986023,-0.000411,-0.026362,-0.00792,75.108871,4.106659,-147.912415,,,
729860341.561394,-0.976284,-6.358376,-25.940501,0.113876,-0.019821,0.992279,0.004018,-0.020701,-0.010052,75.108871,4.106659,-147.912415,,,
729860341.564696,-0.975365,-6.36287,-25.943059,0.113876,-0.019821,0.992279,0.004018,-0.020701,-0.010052,75.108871,4.106659,-147.912415,,,
729860341.568009,-0.975365,-6.36287,-25.943059,0.113876,-0.019821,0.992279,0.004018,-0.020701,-0.010052,75.13678,4.158539,-147.947952,,,
729860341.571334,-0.974288,-6.366119,-25.945504,0.117096,-0.021042,0.994339,0.003614,-0.005199,-0.00922,75.13678,4.158539,-147.947952,,,
729860341.574686,-0.974022,-6.365759,-25.948218,0.117096,-0.021042,0.994339,0.003614,-0.005199,-0.00922,75.13678,4.158539,-147.947952,,,
729860341.578094,-0.974022,-6.365759,-25.948218,0.117096,-0.021042,0.994339,0.003614,-0.005199,-0.00922,75.13678,4.158539,-147.947952,,,
729860341.581315,-0.97388,-6.36164,-25.951233,0.118896,-0.021393,0.997253,-0.002556,0.019858,-0.012121,75.13678,4.158539,-147.947952,,,
729860341.584582,-0.97388,-6.36164,-25.954553,0.118896,-0.021393,0.997253,-0.002556,0.019858,-0.012121,75.13678,4.158539,-147.947952,,,
729860341.588015,-0.973308,-6.355588,-25.954553,0.118896,-0.021393,0.997253,-0.002556,0.019858,-0.012121,75.13678,4.158539,-147.947952,,,
729860341.591313,-0.97258,-6.345464,-25.958671,0.122177,-0.019928,0.996429,0.00165,0.041917,-0.01623,75.13678,4.158539,-147.947952,,,
729860341.594729,-0.971276,-6.332992,-25.963906,0.122177,-0.019928,0.996429,0.00165,0.041917,-0.01623,75.13678,4.158539,-147.947952,,,
729860341.597991,-0.971276,-6.332992,-25.963906,0.122177,-0.019928,0.996429,0.00165,0.041917,-0.01623,75.13678,4.158539,-147.947952,,,
729860341.601319,-0.970876,-6.317389,-25.969279,0.120163,-0.019455,0.994568,-0.000999,0.059976,-0.020626,75.13678,4.158539,-147.947952,,,
729860341.604709,-0.971034,-6.301361,-25.97412,0.120163,-0.019455,0.994568,-0.000999,0.059976,-0.020626,75.13678,4.158539,-147.947952,,,
729860341.608008,-0.971034,-6.301361,-25.97412,0.120163,-0.019455,0.994568,-0.000999,0.059976,-0.020626,75.096313,4.284149,-147.891739,,,
729860341.611342,-0.973936,-6.285983,-25.978273,0.110092,-0.020203,0.987564,-0.010594,0.053612,-0.011244,75.096313,4.284149,-147.891739,,,
729860341.614752,-0.979267,-6.271926,-25.981041,0.110092,-0.020203,0.987564,-0.010594,0.053612,-0.011244,75.096313,4.284149,-147.891739,,,
729860341.617993,-0.979267,-6.271926,-25.981041,0.110092,-0.020203,0.987564,-0.010594,0.053612,-0.011244,75.096313,4.284149,-147.891739,,,
729860341.621353,-0.986324,-6.260817,-25.982336,0.103348,-0.022385,0.973053,-0.02496,0.039982,-0.001322,75.096313,4.284149,-147.891739,,,
729860341.624698,-0.986324,-6.251709,-25.98322,0.103348,-0.022385,0.973053,-0.02496,0.039982,-0.001322,75.096313,4.284149,-147.891739,,,
729860341.628002,-0.995121,-6.251709,-25.98322,0.103348,-0.022385,0.973053,-0.02496,0.039982,-0.001322,75.096313,4.284149,-147.891739,,,
729860341.631323,-1.004942,-6.244672,-25.984674,0.102325,-0.019272,0.974014,-0.033383,0.025597,-0.002517,75.096313,4.284149,-147.891739,,,
729860341.634692,-1.016326,-6.240647,-25.986352,0.102325,-0.019272,0.974014,-0.033383,0.025597,-0.002517,75.096313,4.284149,-147.891739,,,
729860341.63807,-1.016326,-6.240647,-25.986352,0.102325,-0.019272,0.974014,-0.033383,0.025597,-0.002517,75.096313,4.284149,-147.891739,,,
729860341.641328,-1.028459,-6.238351,-25.988763,0.106522,-0.018768,0.977356,-0.045639,0.010025,-0.006899,75.096313,4.284149,-147.891739,,,
729860341.644669,-1.028459,-6.238351,-25.988763,0.106522,-0.018768,0.977356,-0.045639,0.010025,-0.006899,75.096313,4.284149,-147.891739,,,
729860341.647991,-1.041301,-6.239673,-25.993072,0.106522,-0.018768,0.977356,-0.045639,0.010025,-0.006899,75.123825,4.196854,-148.008713,,,
729860341.651405,-1.053848,-6.241438,-25.998699,0.110992,-0.018616,0.978958,-0.044362,-0.004745,-0.013799,75.123825,4.196854,-148.008713,,,
729860341.654677,-1.053848,-6.245428,-26.00496,0.110992,-0.018616,0.978958,-0.044362,-0.004745,-0.013799,75.123825,4.196854,-148.008713,,,
729860341.657993,-1.065133,-6.245428,-26.00496,0.110992,-0.018616,0.978958,-0.044362,-0.004745,-0.013799,75.123825,4.196854,-148.008713,,,
729860341.661349,-1.072523,-6.247189,-26.011642,0.110779,-0.021088,0.993225,-0.023662,-0.000995,-0.024993,75.123825,4.196854,-148.008713,,,
729860341.664695,-1.072523,-6.247189,-26.011642,0.110779,-0.021088,0.993225,-0.023662,-0.000995,-0.024993,75.123825,4.196854,-148.008713,,,
729860341.668,-1.076754,-6.248855,-26.018493,0.110779,-0.021088,0.993225,-0.023662,-0.000995,-0.024993,75.123825,4.196854,-148.008713,,,
729860341.671337,-1.078539,-6.245939,-26.024573,0.106995,-0.024002,1.01088,-0.005666,0.014839,-0.022271,75.123825,4.196854,-148.008713,,,
729860341.674433,-1.078539,-6.245939,-26.024573,0.106995,-0.024002,1.01088,-0.005666,0.014839,-0.022271,75.123825,4.196854,-148.008713,,,
729860341.678112,-1.078526,-6.243388,-26.029164,0.106995,-0.024002,1.01088,-0.005666,0.014839,-0.022271,75.123825,4.196854,-148.008713,,,
729860341.681306,-1.076703,-6.236497,-26.032607,0.102936,-0.024979,1.00946,0.004627,0.029705,-0.014022,75.123825,4.196854,-148.008713,,,
729860341.684671,-1.076703,-6.236497,-26.032607,0.102936,-0.024979,1.00946,0.004627,0.029705,-0.014022,75.123825,4.196854,-148.008713,,,
729860341.688064,-1.074765,-6.228282,-26.035155,0.102936,-0.024979,1.00946,0.004627,0.029705,-0.014022,75.354416,4.212265,-147.977463,,,
729860341.691338,-1.073957,-6.216975,-26.037359,0.1008,-0.021683,0.998825,0.002781,0.040934,-0.010652,75.354416,4.212265,-147.977463,,,
729860341.694789,-1.075147,-6.204726,-26.039138,0.1008,-0.021683,0.998825,0.002781,0.040934,-0.010652,75.354416,4.212265,-147.977463,,,
729860341.697996,-1.075147,-6.204726,-26.039138,0.1008,-0.021683,0.998825,0.002781,0.040934,-0.010652,75.354416,4.212265,-147.977463,,,
729860341.701402,-1.07721,-6.193281,-26.039937,0.097336,-0.020294,0.988007,-0.008966,0.043215,-0.002144,75.354416,4.212265,-147.977463,,,
729860341.704664,-1.07721,-6.193281,-26.039937,0.097336,-0.020294,0.988007,-0.008966,0.043215,-0.002144,75.354416,4.212265,-147.977463,,,
729860341.707987,-1.081309,-6.182678,-26.040689,0.097336,-0.020294,0.988007,-0.008966,0.043215,-0.002144,75.354416,4.212265,-147.977463,,,
729860341.711363,-1.08748,-6.174818,-26.04156,0.095154,-0.018448,0.97673,-0.022803,0.026619,0.001356,75.354416,4.212265,-147.977463,,,
729860341.714749,-1.08748,-6.174818,-26.04156,0.095154,-0.018448,0.97673,-0.022803,0.026619,0.001356,75.354416,4.212265,-147.977463,,,
729860341.718003,-1.09646,-6.169904,-26.042377,0.095154,-0.018448,0.97673,-0.022803,0.026619,0.001356,75.354416,4.212265,-147.977463,,,
729860341.721325,-1.108029,-6.168201,-26.042563,0.094193,-0.017044,0.969772,-0.039043,0.006976,0.001009,75.354416,4.212265,-147.977463,,,
729860341.724671,-1.108029,-6.168201,-26.042563,0.094193,-0.017044,0.969772,-0.039043,0.006976,0.001009,75.354416,4.212265,-147.977463,,,
729860341.727997,-1.120545,-6.16887,-26.042311,0.094193,-0.017044,0.969772,-0.039043,0.006976,0.001009,75.354416,4.212265,-147.977463,,,
729860341.731323,-1.133204,-6.170133,-26.042399,0.094681,-0.019516,0.978622,-0.045923,-0.006558,0.00233,75.360764,4.120132,-147.91272,,,
729860341.734652,-1.133204,-6.170133,-26.042399,0.094681,-0.019516,0.978622,-0.045923,-0.006558,0.00233,75.360764,4.120132,-147.91272,,,
729860341.738058,-1.145857,-6.173647,-26.042177,0.094681,-0.019516,0.978622,-0.045923,-0.006558,0.00233,75.360764,4.120132,-147.91272,,,
729860341.741327,-1.157479,-6.177107,-26.041166,0.097168,-0.024673,0.994965,-0.037376,-0.010554,0.006897,75.360764,4.120132,-147.91272,,,
729860341.744659,-1.157479,-6.177107,-26.041166,0.097168,-0.024673,0.994965,-0.037376,-0.010554,0.006897,75.360764,4.120132,-147.91272,,,
729860341.747992,-1.167178,-6.181187,-26.040158,0.097168,-0.024673,0.994965,-0.037376,-0.010554,0.006897,75.360764,4.120132,-147.91272,,,
729860341.751316,-1.172794,-6.186042,-26.038806,0.101685,-0.030243,1.007233,-0.015266,-0.014822,0.008083,75.360764,4.120132,-147.91272,,,
729860341.754748,-1.172794,-6.186042,-26.038806,0.101685,-0.030243,1.007233,-0.015266,-0.014822,0.008083,75.360764,4.120132,-147.91272,,,
729860341.758005,-1.174764,-6.190183,-26.036417,0.101685,-0.030243,1.007233,-0.015266,-0.014822,0.008083,75.360764,4.120132,-147.91272,,,
729860341.761354,-1.172648,-6.194949,-26.034318,0.106812,-0.030823,1.01532,0.009286,-0.01122,0.0032,75.360764,4.120132,-147.91272,,,
729860341.76466,-1.172648,-6.194949,-26.034318,0.106812,-0.030823,1.01532,0.009286,-0.01122,0.0032,75.360764,4.120132,-147.91272,,,
729860341.768014,-1.167287,-6.197396,-26.033209,0.106812,-0.030823,1.01532,0.009286,-0.01122,0.0032,75.360764,4.120132,-147.91272,,,
729860341.771325,-1.15835,-6.199085,-26.032773,0.110229,-0.028732,1.017761,0.033603,-0.001297,-0.005508,75.268677,4.300583,-148.03476,,,
729860341.77466,-1.15835,-6.199085,-26.032773,0.110229,-0.028732,1.017761,0.033603,-0.001297,-0.005508,75.268677,4.300583,-148.03476,,,
729860341.778134,-1.147232,-6.196508,-26.03262,0.110229,-0.028732,1.017761,0.033603,-0.001297,-0.005508,75.268677,4.300583,-148.03476,,,
729860341.781315,-1.135404,-6.19294,-26.032896,0.113586,-0.023911,1.010101,0.041491,0.016685,-0.007395,75.268677,4.300583,-148.03476,,,
729860341.784685,-1.135404,-6.19294,-26.032896,0.113586,-0.023911,1.010101,0.041491,0.016685,-0.007395,75.268677,4.300583,-148.03476,,,
729860341.788087,-1.124014,-6.185429,-26.032694,0.113586,-0.023911,1.010101,0.041491,0.016685,-0.007395,75.268677,4.300583,-148.03476,,,
729860341.791313,-1.113794,-6.178036,-26.031642,0.106689,-0.022125,0.993805,0.037111,0.029952,-0.000297,75.268677,4.300583,-148.03476,,,
729860341.794658,-1.113794,-6.178036,-26.031642,0.106689,-0.022125,0.993805,0.037111,0.029952,-0.000297,75.268677,4.300583,-148.03476,,,
729860341.798018,-1.105682,-6.167299,-26.029699,0.106689,-0.022125,0.993805,0.037111,0.029952,-0.000297,75.268677,4.300583,-148.03476,,,
729860341.801318,-1.101135,-6.158109,-26.026901,0.101074,-0.019836,0.976974,0.014759,0.035883,0.007436,75.268677,4.300583,-148.03476,,,
729860341.80469,-1.101135,-6.158109,-26.026901,0.101074,-0.019836,0.976974,0.014759,0.035883,0.007436,75.268677,4.300583,-148.03476,,,
729860341.807993,-1.100604,-6.147799,-26.024313,0.101074,-0.019836,0.976974,0.014759,0.035883,0.007436,75.268677,4.300583,-148.03476,,,
729860341.811372,-1.103982,-6.141605,-26.022387,0.097321,-0.01738,0.964996,-0.012187,0.023215,0.007244,75.301636,4.125229,-147.973602,,,
729860341.814653,-1.103982,-6.141605,-26.022387,0.097321,-0.01738,0.964996,-0.012187,0.023215,0.007244,75.301636,4.125229,-147.973602,,,
729860341.818001,-1.109671,-6.136722,-26.020893,0.097321,-0.01738,0.964996,-0.012187,0.023215,0.007244,75.301636,4.125229,-147.973602,,,
729860341.821317,-1.114658,-6.137049,-26.019829,0.098282,-0.016861,0.963287,-0.01279,-0.002833,0.006879,75.301636,4.125229,-147.973602,,,
729860341.824706,-1.114658,-6.137049,-26.019829,0.098282,-0.016861,0.963287,-0.01279,-0.002833,0.006879,75.301636,4.125229,-147.973602,,,
729860341.828024,-1.119561,-6.139758,-26.018984,0.098282,-0.016861,0.963287,-0.01279,-0.002833,0.006879,75.301636,4.125229,-147.973602,,,
729860341.831346,-1.121601,-6.148248,-26.018438,0.099854,-0.01767,0.970673,-0.003993,-0.03093,0.001973,75.301636,4.125229,-147.973602,,,
729860341.83466,-1.121601,-6.148248,-26.018438,0.099854,-0.01767,0.970673,-0.003993,-0.03093,0.001973,75.301636,4.125229,-147.973602,,,
729860341.837989,-1.122644,-6.159715,-26.017504,0.099854,-0.01767,0.970673,-0.003993,-0.03093,0.001973,75.301636,4.125229,-147.973602,,,
729860341.841328,-1.118661,-6.174939,-26.015816,0.098343,-0.021378,0.980194,0.018431,-0.051352,0.003244,75.301636,4.125229,-147.973602,,,
729860341.844679,-1.118661,-6.174939,-26.015816,0.098343,-0.021378,0.980194,0.018431,-0.051352,0.003244,75.301636,4.125229,-147.973602,,,
729860341.848084,-1.11257,-6.19161,-26.013634,0.098343,-0.021378,0.980194,0.018431,-0.051352,0.003244,75.301636,4.125229,-147.973602,,,
729860341.851321,-1.102307,-6.208989,-26.011028,0.102341,-0.022339,0.991241,0.039678,-0.058982,0.005371,75.301636,4.125229,-147.973602,,,
729860341.854651,-1.102307,-6.208989,-26.011028,0.102341,-0.022339,0.991241,0.039678,-0.058982,0.005371,75.452744,4.03772,-147.917526,,,
729860341.85801,-1.091168,-6.225849,-26.008164,0.102341,-0.022339,0.991241,0.039678,-0.058982,0.005371,75.452744,4.03772,-147.917526,,,
729860341.861346,-1.079321,-6.239772,-26.005686,0.107407,-0.020889,0.99295,0.040634,-0.045227,0.002976,75.452744,4.03772,-147.917526,,,
729860341.864652,-1.079321,-6.239772,-26.005686,0.107407,-0.020889,0.99295,0.040634,-0.045227,0.002976,75.452744,4.03772,-147.917526,,,
729860341.868014,-1.070525,-6.250519,-26.003932,0.107407,-0.020889,0.99295,0.040634,-0.045227,0.002976,75.452744,4.03772,-147.917526,,,
729860341.871324,-1.064741,-6.256489,-26.002641,0.111694,-0.015274,0.980545,0.017981,-0.014314,-0.00042,75.452744,4.03772,-147.917526,,,
729860341.874739,-1.064741,-6.256489,-26.002641,0.111694,-0.015274,0.980545,0.017981,-0.014314,-0.00042,75.452744,4.03772,-147.917526,,,
729860341.878027,-1.062678,-6.256441,-26.001891,0.111694,-0.015274,0.980545,0.017981,-0.014314,-0.00042,75.452744,4.03772,-147.917526,,,
729860341.881333,-1.064003,-6.253224,-26.001804,0.113068,-0.013199,0.974289,-0.007381,0.019198,-0.002515,75.452744,4.03772,-147.917526,,,
729860341.884667,-1.064003,-6.253224,-26.001804,0.113068,-0.013199,0.974289,-0.007381,0.019198,-0.002515,75.452744,4.03772,-147.917526,,,
729860341.888074,-1.069588,-6.244871,-26.001737,0.113068,-0.013199,0.974289,-0.007381,0.019198,-0.002515,75.452744,4.03772,-147.917526,,,
729860341.891312,-1.079077,-6.23461,-26.002058,0.11171,-0.013275,0.970215,-0.03593,0.040904,0.00135,75.452744,4.03772,-147.917526,,,
729860341.894685,-1.079077,-6.23461,-26.002058,0.11171,-0.013275,0.970215,-0.03593,0.040904,0.00135,75.386902,4.113113,-147.909653,,,
729860341.897997,-1.09183,-6.221546,-26.002295,0.11171,-0.013275,0.970215,-0.03593,0.040904,0.00135,75.386902,4.113113,-147.909653,,,
729860341.901324,-1.10747,-6.210448,-26.002134,0.104355,-0.014465,0.965698,-0.056271,0.041959,0.006866,75.386902,4.113113,-147.909653,,,
729860341.90467,-1.10747,-6.210448,-26.002134,0.104355,-0.014465,0.965698,-0.056271,0.041959,0.006866,75.386902,4.113113,-147.909653,,,
729860341.908014,-1.12513,-6.200807,-26.001889,0.104355,-0.014465,0.965698,-0.056271,0.041959,0.006866,75.386902,4.113113,-147.909653,,,
729860341.911364,-1.143775,-6.196565,-26.001605,0.101791,-0.014694,0.967453,-0.065355,0.015457,0.007318,75.386902,4.113113,-147.909653,,,
729860341.914653,-1.143775,-6.196565,-26.001605,0.101791,-0.014694,0.967453,-0.065355,0.015457,0.007318,75.386902,4.113113,-147.909653,,,
729860341.918014,-1.16224,-6.196182,-26.001876,0.101791,-0.014694,0.967453,-0.065355,0.015457,0.007318,75.386902,4.113113,-147.909653,,,
729860341.921363,-1.179979,-6.202509,-26.002754,0.103424,-0.019135,0.973953,-0.060805,-0.026625,0.002054,75.386902,4.113113,-147.909653,,,
729860341.924715,-1.179979,-6.202509,-26.002754,0.103424,-0.019135,0.973953,-0.060805,-0.026625,0.002054,75.386902,4.113113,-147.909653,,,
729860341.928027,-1.196118,-6.213664,-26.004345,0.103424,-0.019135,0.973953,-0.060805,-0.026625,0.002054,75.386902,4.113113,-147.909653,,,
729860341.931321,-1.209094,-6.229863,-26.007146,0.10733,-0.019424,0.985916,-0.040698,-0.057056,-0.007934,75.386902,4.113113,-147.909653,,,
729860341.934659,-1.209094,-6.229863,-26.007146,0.10733,-0.019424,0.985916,-0.040698,-0.057056,-0.007934,75.308456,4.284149,-147.86026,,,
729860341.938085,-1.218256,-6.248007,-26.010919,0.10733,-0.019424,0.985916,-0.040698,-0.057056,-0.007934,75.308456,4.284149,-147.86026,,,
729860341.941326,-1.223425,-6.266889,-26.015372,0.110504,-0.022003,1.003815,-0.015072,-0.061681,-0.015713,75.308456,4.284149,-147.86026,,,
729860341.944693,-1.223425,-6.266889,-26.015372,0.110504,-0.022003,1.003815,-0.015072,-0.061681,-0.015713,75.308456,4.284149,-147.86026,,,
729860341.948026,-1.224346,-6.285146,-26.019333,0.110504,-0.022003,1.003815,-0.015072,-0.061681,-0.015713,75.308456,4.284149,-147.86026,,,
729860341.951326,-1.222681,-6.300817,-26.021567,0.10936,-0.02597,1.019608,0.009088,-0.047177,-0.00768,75.308456,4.284149,-147.86026,,,
729860341.954666,-1.222681,-6.300817,-26.021567,0.10936,-0.02597,1.019608,0.009088,-0.047177,-0.00768,75.308456,4.284149,-147.86026,,,
729860341.958006,-1.218017,-6.313539,-26.021619,0.10936,-0.02597,1.019608,0.009088,-0.047177,-0.00768,75.308456,4.284149,-147.86026,,,
729860341.961346,-1.212855,-6.321502,-26.019193,0.108185,-0.028824,1.020554,0.020524,-0.020315,0.008116,75.308456,4.284149,-147.86026,,,
729860341.964654,-1.212855,-6.321502,-26.019193,0.108185,-0.028824,1.020554,0.020524,-0.020315,0.008116,75.308456,4.284149,-147.86026,,,
729860341.968053,-1.206119,-6.324896,-26.015417,0.108185,-0.028824,1.020554,0.020524,-0.020315,0.008116,75.308456,4.284149,-147.86026,,,
729860341.971421,-1.200917,-6.321167,-26.010675,0.112274,-0.027344,1.015747,0.018198,0.018601,0.015806,75.308456,4.284149,-147.86026,,,
729860341.97469,-1.200917,-6.321167,-26.010675,0.112274,-0.027344,1.015747,0.018198,0.018601,0.015806,75.102997,4.578278,-147.530228,,,
729860341.978096,-1.194909,-6.313274,-26.005291,0.112274,-0.027344,1.015747,0.018198,0.018601,0.015806,75.102997,4.578278,-147.530228,,,
729860341.981362,-1.189916,-6.303281,-26.000444,0.116196,-0.022736,1.010437,0.02002,0.04128,0.013546,75.102997,4.578278,-147.530228,,,
729860341.984673,-1.189916,-6.303281,-26.000444,0.116196,-0.022736,1.010437,0.02002,0.04128,0.013546,75.102997,4.578278,-147.530228,,,
729860341.988077,-1.18504,-6.292631,-25.996802,0.116196,-0.022736,1.010437,0.02002,0.04128,0.013546,75.102997,4.578278,-147.530228,,,
729860341.991378,-1.181907,-6.285366,-25.995226,0.116638,-0.018494,1.000366,0.013493,0.02425,0.002147,75.102997,4.578278,-147.530228,,,
729860341.994719,-1.181907,-6.285366,-25.995226,0.116638,-0.018494,1.000366,0.013493,0.02425,0.002147,75.102997,4.578278,-147.530228,,,
729860341.998029,-1.178766,-6.28164,-25.995722,0.116638,-0.018494,1.000366,0.013493,0.02425,0.002147,75.102997,4.578278,-147.530228,,,
729860342.001333,-1.174535,-6.284386,-25.997942,0.11705,-0.016037,0.990921,0.016364,-0.012747,-0.010936,75.102997,4.578278,-147.530228,,,
729860342.004696,-1.174535,-6.284386,-25.997942,0.11705,-0.016037,0.990921,0.016364,-0.012747,-0.010936,75.102997,4.578278,-147.530228,,,
729860342.008013,-1.167694,-6.292905,-26.001713,0.11705,-0.016037,0.990921,0.016364,-0.012747,-0.010936,75.102997,4.578278,-147.530228,,,
729860342.011538,-1.157573,-6.307339,-26.006456,0.115219,-0.0215,0.995132,0.0358,-0.050642,-0.019397,75.102997,4.578278,-147.530228,,,
729860342.01464,-1.157573,-6.307339,-26.006456,0.115219,-0.0215,0.995132,0.0358,-0.050642,-0.019397,75.102997,4.578278,-147.530228,,,
729860342.018016,-1.144606,-6.325503,-26.011154,0.115219,-0.0215,0.995132,0.0358,-0.050642,-0.019397,74.991898,4.448181,-147.421204,,,
729860342.021323,-1.129236,-6.346468,-26.015179,0.11203,-0.027802,1.006531,0.053734,-0.071154,-0.020572,74.991898,4.448181,-147.421204,,,
729860342.024684,-1.129236,-6.346468,-26.015179,0.11203,-0.027802,1.006531,0.053734,-0.071154,-0.020572,74.991898,4.448181,-147.421204,,,
729860342.028121,-1.111559,-6.368202,-26.017799,0.11203,-0.027802,1.006531,0.053734,-0.071154,-0.020572,74.991898,4.448181,-147.421204,,,
729860342.03133,-1.091438,-6.389356,-26.018366,0.106583,-0.026825,1.012329,0.070842,-0.067123,-0.009147,74.991898,4.448181,-147.421204,,,
729860342.034691,-1.091438,-6.389356,-26.018366,0.106583,-0.026825,1.012329,0.070842,-0.067123,-0.009147,74.991898,4.448181,-147.421204,,,
729860342.038098,-1.070987,-6.406397,-26.016856,0.106583,-0.026825,1.012329,0.070842,-0.067123,-0.009147,74.991898,4.448181,-147.421204,,,
729860342.041325,-1.048011,-6.420667,-26.014006,0.108521,-0.025955,1.01445,0.079621,-0.042692,0.001678,74.991898,4.448181,-147.421204,,,
729860342.044696,-1.048011,-6.420667,-26.014006,0.108521,-0.025955,1.01445,0.079621,-0.042692,0.001678,74.991898,4.448181,-147.421204,,,
729860342.048021,-1.025739,-6.429711,-26.010858,0.108521,-0.025955,1.01445,0.079621,-0.042692,0.001678,74.991898,4.448181,-147.421204,,,
729860342.051328,-1.002105,-6.435484,-26.008344,0.116211,-0.019623,1.01355,0.083491,-0.014879,-0.001145,74.991898,4.448181,-147.421204,,,
729860342.054695,-1.002105,-6.435484,-26.008344,0.116211,-0.019623,1.01355,0.083491,-0.014879,-0.001145,74.991898,4.448181,-147.421204,,,
729860342.058019,-0.979756,-6.438873,-26.006753,0.116211,-0.019623,1.01355,0.083491,-0.014879,-0.001145,75.133514,4.12587,-147.482773,,,
729860342.061439,-0.956952,-6.441317,-26.006541,0.120804,-0.014084,1.000671,0.078332,-0.004249,-0.010953,75.133514,4.12587,-147.482773,,,
729860342.064657,-0.956952,-6.441317,-26.006541,0.120804,-0.014084,1.000671,0.078332,-0.004249,-0.010953,75.133514,4.12587,-147.482773,,,
729860342.068013,-0.9345,-6.44472,-26.008644,0.120804,-0.014084,1.000671,0.078332,-0.004249,-0.010953,75.133514,4.12587,-147.482773,,,
729860342.071333,-0.912098,-6.4494,-26.013078,0.125137,-0.010315,0.990921,0.075918,-0.015075,-0.027137,75.133514,4.12587,-147.482773,,,
729860342.07475,-0.912098,-6.4494,-26.013078,0.125137,-0.010315,0.990921,0.075918,-0.015075,-0.027137,75.133514,4.12587,-147.482773,,,
729860342.077982,-0.890064,-6.457972,-26.019515,0.125137,-0.010315,0.990921,0.075918,-0.015075,-0.027137,75.133514,4.12587,-147.482773,,,
729860342.08133,-0.867679,-6.468286,-26.02738,0.121948,-0.013489,0.983353,0.074759,-0.034988,-0.040291,75.133514,4.12587,-147.482773,,,
729860342.084675,-0.867679,-6.468286,-26.02738,0.121948,-0.013489,0.983353,0.074759,-0.034988,-0.040291,75.133514,4.12587,-147.482773,,,
729860342.08805,-0.845348,-6.480226,-26.036299,0.121948,-0.013489,0.983353,0.074759,-0.034988,-0.040291,75.133514,4.12587,-147.482773,,,
729860342.091315,-0.821787,-6.4913,-26.045235,0.11586,-0.015121,0.985168,0.080618,-0.033698,-0.041701,75.133514,4.12587,-147.482773,,,
729860342.094654,-0.821787,-6.4913,-26.045235,0.11586,-0.015121,0.985168,0.080618,-0.033698,-0.041701,75.133514,4.12587,-147.482773,,,
729860342.098007,-0.798566,-6.501366,-26.052496,0.11586,-0.015121,0.985168,0.080618,-0.033698,-0.041701,74.932343,3.985382,-147.636292,,,
729860342.101317,-0.772797,-6.511221,-26.05768,0.108658,-0.020889,0.998505,0.088636,-0.028995,-0.026781,74.932343,3.985382,-147.636292,,,
729860342.104618,-0.772797,-6.511221,-26.05768,0.108658,-0.020889,0.998505,0.088636,-0.028995,-0.026781,74.932343,3.985382,-147.636292,,,
729860342.107999,-0.746724,-6.519638,-26.060643,0.108658,-0.020889,0.998505,0.088636,-0.028995,-0.026781,74.932343,3.985382,-147.636292,,,
729860342.111328,-0.716502,-6.529753,-26.06177,0.104767,-0.023468,1.003815,0.10464,-0.033077,-0.017818,74.932343,3.985382,-147.636292,,,
729860342.114733,-0.716502,-6.529753,-26.06177,0.104767,-0.023468,1.003815,0.10464,-0.033077,-0.017818,74.932343,3.985382,-147.636292,,,
729860342.117992,-0.683931,-6.538527,-26.062426,0.104767,-0.023468,1.003815,0.10464,-0.033077,-0.017818,74.932343,3.985382,-147.636292,,,
729860342.121329,-0.643913,-6.54854,-26.064111,0.110672,-0.022079,1.013214,0.140525,-0.033613,-0.026862,74.932343,3.985382,-147.636292,,,
729860342.124656,-0.643913,-6.54854,-26.064111,0.110672,-0.022079,1.013214,0.140525,-0.033613,-0.026862,74.932343,3.985382,-147.636292,,,
729860342.128002,-0.601305,-6.557735,-26.067437,0.110672,-0.022079,1.013214,0.140525,-0.033613,-0.026862,74.932343,3.985382,-147.636292,,,
729860342.131325,-0.554044,-6.567008,-26.071933,0.117645,-0.016159,1.022339,0.163391,-0.027727,-0.037458,74.932343,3.985382,-147.636292,,,
729860342.134653,-0.554044,-6.567008,-26.071933,0.117645,-0.016159,1.022339,0.163391,-0.027727,-0.037458,74.932343,3.985382,-147.636292,,,
729860342.138087,-0.5063,-6.57623,-26.077437,0.117645,-0.016159,1.022339,0.163391,-0.027727,-0.037458,74.848328,3.84404,-147.403366,,,
729860342.141318,-0.45912,-6.584162,-26.083906,0.119888,-0.010025,1.007721,0.161313,-0.025031,-0.044831,74.848328,3.84404,-147.403366,,,
729860342.144662,-0.45912,-6.584162,-26.083906,0.119888,-0.010025,1.007721,0.161313,-0.025031,-0.044831,74.848328,3.84404,-147.403366,,,
729860342.147989,-0.415783,-6.593297,-26.090721,0.119888,-0.010025,1.007721,0.161313,-0.025031,-0.044831,74.848328,3.84404,-147.403366,,,
729860342.151319,-0.376983,-6.601094,-26.097934,0.113342,-0.006897,0.983093,0.128688,-0.023527,-0.040689,74.848328,3.84404,-147.403366,,,
729860342.154675,-0.376983,-6.601094,-26.097934,0.113342,-0.006897,0.983093,0.128688,-0.023527,-0.040689,74.848328,3.84404,-147.403366,,,
729860342.158005,-0.344131,-6.612372,-26.105532,0.113342,-0.006897,0.983093,0.128688,-0.023527,-0.040689,74.848328,3.84404,-147.403366,,,
729860342.16144,-0.313858,-6.626155,-26.114513,0.11319,-0.005737,0.969284,0.098762,-0.047968,-0.046167,74.848328,3.84404,-147.403366,,,
729860342.164641,-0.313858,-6.626155,-26.114513,0.11319,-0.005737,0.969284,0.098762,-0.047968,-0.046167,74.848328,3.84404,-147.403366,,,
729860342.168011,-0.282326,-6.648614,-26.126391,0.11319,-0.005737,0.969284,0.098762,-0.047968,-0.046167,74.848328,3.84404,-147.403366,,,
729860342.171321,-0.238289,-6.680974,-26.14192,0.12532,-0.009399,0.989807,0.15812,-0.118899,-0.077121,74.848328,3.84404,-147.403366,,,
729860342.174724,-0.238289,-6.680974,-26.14192,0.12532,-0.009399,0.989807,0.15812,-0.118899,-0.077121,74.848328,3.84404,-147.403366,,,
729860342.177994,-0.175033,-6.72482,-26.162015,0.12532,-0.009399,0.989807,0.15812,-0.118899,-0.077121,74.848328,3.84404,-147.403366,,,
729860342.181324,-0.079484,-6.782924,-26.186545,0.142914,-0.02623,1.067047,0.347664,-0.212649,-0.133215,74.722046,3.31427,-147.304138,,,
729860342.184669,-0.079484,-6.782924,-26.186545,0.142914,-0.02623,1.067047,0.347664,-0.212649,-0.133215,74.722046,3.31427,-147.304138,,,
729860342.188084,0.054149,-6.853368,-26.214054,0.142914,-0.02623,1.067047,0.347664,-0.212649,-0.133215,74.722046,3.31427,-147.304138,,,
729860342.191321,0.233197,-6.935756,-26.24159,0.145264,-0.051575,1.174622,0.649854,-0.293207,-0.175212,74.722046,3.31427,-147.304138,,,
729860342.194677,0.233197,-6.935756,-26.24159,0.145264,-0.051575,1.174622,0.649854,-0.293207,-0.175212,74.722046,3.31427,-147.304138,,,
729860342.197769,0.45553,-7.026146,-26.265796,0.145264,-0.051575,1.174622,0.649854,-0.293207,-0.175212,74.722046,3.31427,-147.304138,,,
729860342.201359,0.71583,-7.120891,-26.283475,0.130234,-0.071381,1.255219,0.923812,-0.331226,-0.172217,74.722046,3.31427,-147.304138,,,
729860342.204651,0.71583,-7.120891,-26.283475,0.130234,-0.071381,1.255219,0.923812,-0.331226,-0.172217,74.722046,3.31427,-147.304138,,,
729860342.207998,1.004163,-7.214554,-26.292603,0.130234,-0.071381,1.255219,0.923812,-0.331226,-0.172217,74.722046,3.31427,-147.304138,,,
729860342.211342,1.311342,-7.303092,-26.292577,0.121552,-0.066162,1.241516,1.075267,-0.300002,-0.129972,74.722046,3.31427,-147.304138,,,
729860342.214804,1.311342,-7.303092,-26.292577,0.121552,-0.066162,1.241516,1.075267,-0.300002,-0.129972,74.722046,3.31427,-147.304138,,,
729860342.217975,1.629175,-7.38281,-26.2852,0.121552,-0.066162,1.241516,1.075267,-0.300002,-0.129972,74.722046,3.31427,-147.304138,,,
729860342.221324,1.955621,-7.450898,-26.273727,0.126892,-0.032135,1.170334,1.141976,-0.223282,-0.105767,74.126053,1.506424,-146.86467,,,
729860342.224667,1.955621,-7.450898,-26.273727,0.126892,-0.032135,1.170334,1.141976,-0.223282,-0.105767,74.126053,1.506424,-146.86467,,,
729860342.228025,2.294176,-7.507127,-26.261167,0.126892,-0.032135,1.170334,1.141976,-0.223282,-0.105767,74.126053,1.506424,-146.86467,,,
729860342.231325,2.651076,-7.553622,-26.251171,0.143799,0.00206,1.136826,1.252976,-0.150057,-0.135304,74.126053,1.506424,-146.86467,,,
729860342.234669,2.651076,-7.553622,-26.251171,0.143799,0.00206,1.136826,1.252976,-0.150057,-0.135304,74.126053,1.506424,-146.86467,,,
729860342.238011,3.030417,-7.594306,-26.246566,0.143799,0.00206,1.136826,1.252976,-0.150057,-0.135304,74.126053,1.506424,-146.86467,,,
729860342.241323,3.432584,-7.633298,-26.248152,0.164246,0.018326,1.160934,1.407518,-0.134079,-0.201589,74.126053,1.506424,-146.86467,,,
729860342.244678,3.432584,-7.633298,-26.248152,0.164246,0.018326,1.160934,1.407518,-0.134079,-0.201589,74.126053,1.506424,-146.86467,,,
729860342.247994,3.854994,-7.673753,-26.255094,0.164246,0.018326,1.160934,1.407518,-0.134079,-0.201589,74.126053,1.506424,-146.86467,,,
729860342.251324,4.292297,-7.718216,-26.264881,0.162628,0.018127,1.157547,1.515734,-0.159354,-0.243959,74.126053,1.506424,-146.86467,,,
729860342.25474,4.292297,-7.718216,-26.264881,0.162628,0.018127,1.157547,1.515734,-0.159354,-0.243959,74.126053,1.506424,-146.86467,,,
729860342.258001,4.73854,-7.767191,-26.273834,0.162628,0.018127,1.157547,1.515734,-0.159354,-0.243959,74.126053,1.506424,-146.86467,,,
729860342.261328,5.188896,-7.818567,-26.278312,0.139664,0.024841,1.110291,1.554767,-0.179227,-0.224055,74.08017,-1.090958,-145.308685,,,
729860342.264678,5.188896,-7.818567,-26.278312,0.139664,0.024841,1.110291,1.554767,-0.179227,-0.224055,74.08017,-1.090958,-145.308685,,,
729860342.267998,5.639884,-7.870109,-26.276076,0.139664,0.024841,1.110291,1.554767,-0.179227,-0.224055,74.08017,-1.090958,-145.308685,,,
729860342.271331,6.088336,-7.919983,-26.267136,0.118408,0.036942,1.063293,1.547865,-0.165133,-0.180359,74.08017,-1.090958,-145.308685,,,
729860342.27467,6.088336,-7.919983,-26.267136,0.118408,0.036942,1.063293,1.547865,-0.165133,-0.180359,74.08017,-1.090958,-145.308685,,,
729860342.278015,6.5314,-7.967193,-26.252628,0.118408,0.036942,1.063293,1.547865,-0.165133,-0.180359,74.08017,-1.090958,-145.308685,,,
729860342.281332,6.966516,-8.01303,-26.234137,0.109985,0.061783,1.022064,1.499185,-0.147943,-0.144797,74.08017,-1.090958,-145.308685,,,
729860342.284706,6.966516,-8.01303,-26.234137,0.109985,0.061783,1.022064,1.499185,-0.147943,-0.144797,74.08017,-1.090958,-145.308685,,,
729860342.288004,7.393601,-8.060677,-26.213828,0.109985,0.061783,1.022064,1.499185,-0.147943,-0.144797,74.08017,-1.090958,-145.308685,,,
729860342.291468,7.814759,-8.112321,-26.193461,0.105927,0.095139,0.979355,1.454913,-0.169163,-0.1393,74.08017,-1.090958,-145.308685,,,
729860342.294736,7.814759,-8.112321,-26.193461,0.105927,0.095139,0.979355,1.454913,-0.169163,-0.1393,74.08017,-1.090958,-145.308685,,,
