Time (sec),Pitch (deg),Roll (deg),Yaw(deg),X-Acceleration (g),Y-Acceleration (g),Z-Acceleration (g),Pitch Rate (deg/sec),Roll Rate (deg/sec),Yaw Rate (deg/sec),Magnetic Field in X direction (uT),Magnetic Field in Y direction (uT),Magnetic Field in Z Direction (uT),Latitude (deg),Longitude (deg),Altitude (m)
729860240.119555,-1.473883,-2.422356,-19.140587,0.042633,-0.026535,1.008469,0.058305,0.014536,-0.002471,76.173248,4.016296,-148.192337,,,
729860240.122824,-1.465138,-2.406533,-19.138553,0.040985,-0.024567,0.995239,0.028314,0.063142,0.004559,76.173248,4.016296,-148.192337,,,
729860240.126174,-1.465138,-2.406533,-19.138553,0.040985,-0.024567,0.995239,0.028314,0.063142,0.004559,76.173248,4.016296,-148.192337,,,
729860240.129483,-1.461765,-2.383368,-19.135678,0.040985,-0.024567,0.995239,0.028314,0.063142,0.004559,76.173248,4.016296,-148.192337,,,
729860240.132816,-1.462946,-2.358724,-19.131886,0.037491,-0.023026,0.976868,-0.004658,0.090607,0.014159,76.173248,4.016296,-148.192337,,,
729860240.136159,-1.462946,-2.358724,-19.131886,0.037491,-0.023026,0.976868,-0.004658,0.090607,0.014159,76.173248,4.016296,-148.192337,,,
729860240.139356,-1.467339,-2.328964,-19.126831,0.037491,-0.023026,0.976868,-0.004658,0.090607,0.014159,76.173248,4.016296,-148.192337,,,
729860240.142833,-1.472934,-2.303183,-19.119967,0.027481,-0.024841,0.971527,-0.020804,0.09308,0.023982,76.173248,4.016296,-148.192337,,,
729860240.146237,-1.472934,-2.303183,-19.119967,0.027481,-0.024841,0.971527,-0.020804,0.09308,0.023982,76.173248,4.016296,-148.192337,,,
729860240.149483,-1.479354,-2.279537,-19.111071,0.027481,-0.024841,0.971527,-0.020804,0.09308,0.023982,76.776443,3.642365,-148.293198,,,
729860240.152807,-1.48585,-2.26362,-19.100836,0.022415,-0.032074,0.974121,-0.021742,0.052776,0.035748,76.776443,3.642365,-148.293198,,,
729860240.156175,-1.48585,-2.26362,-19.100836,0.022415,-0.032074,0.974121,-0.021742,0.052776,0.035748,76.776443,3.642365,-148.293198,,,
729860240.159547,-1.492769,-2.255763,-19.089599,0.022415,-0.032074,0.974121,-0.021742,0.052776,0.035748,76.776443,3.642365,-148.293198,,,
729860240.162809,-1.499127,-2.257656,-19.078122,0.022736,-0.03157,0.971725,-0.018548,-0.014365,0.03867,76.776443,3.642365,-148.293198,,,
729860240.166167,-1.499127,-2.257656,-19.078122,0.022736,-0.03157,0.971725,-0.018548,-0.014365,0.03867,76.776443,3.642365,-148.293198,,,
729860240.169501,-1.505123,-2.269023,-19.067755,0.022736,-0.03157,0.971725,-0.018548,-0.014365,0.03867,76.776443,3.642365,-148.293198,,,
729860240.172807,-1.509127,-2.289634,-19.059369,0.033493,-0.026978,0.972321,-0.012373,-0.078077,0.027431,76.776443,3.642365,-148.293198,,,
729860240.176145,-1.509127,-2.289634,-19.059369,0.033493,-0.026978,0.972321,-0.012373,-0.078077,0.027431,76.776443,3.642365,-148.293198,,,
729860240.179478,-1.51215,-2.316057,-19.052937,0.033493,-0.026978,0.972321,-0.012373,-0.078077,0.027431,76.776443,3.642365,-148.293198,,,
729860240.182904,-1.513129,-2.345266,-19.048235,0.045334,-0.025726,0.980682,-0.001354,-0.100801,0.013241,76.776443,3.642365,-148.293198,,,
729860240.18616,-1.513129,-2.345266,-19.048235,0.045334,-0.025726,0.980682,-0.001354,-0.100801,0.013241,76.776443,3.642365,-148.293198,,,
729860240.189486,-1.513158,-2.374352,-19.045264,0.045334,-0.025726,0.980682,-0.001354,-0.100801,0.013241,76.174118,3.774094,-148.328033,,,
729860240.192814,-1.511527,-2.399712,-19.04329,0.054535,-0.024384,0.995132,0.008761,-0.078647,0.005,76.174118,3.774094,-148.328033,,,
729860240.196223,-1.511527,-2.399712,-19.04329,0.054535,-0.024384,0.995132,0.008761,-0.078647,0.005,76.174118,3.774094,-148.328033,,,
729860240.199492,-1.506938,-2.416384,-19.041568,0.054535,-0.024384,0.995132,0.008761,-0.078647,0.005,76.174118,3.774094,-148.328033,,,
729860240.20281,-1.499018,-2.42133,-19.039151,0.059891,-0.031357,1.020462,0.029214,-0.00499,0.008086,76.174118,3.774094,-148.328033,,,
729860240.206166,-1.499018,-2.42133,-19.039151,0.059891,-0.031357,1.020462,0.029214,-0.00499,0.008086,76.174118,3.774094,-148.328033,,,
729860240.209536,-1.487816,-2.413011,-19.035795,0.059891,-0.031357,1.020462,0.029214,-0.00499,0.008086,76.174118,3.774094,-148.328033,,,
729860240.212802,-1.475177,-2.392159,-19.031888,0.060043,-0.036301,1.04306,0.045632,0.084027,0.014145,76.174118,3.774094,-148.328033,,,
729860240.21615,-1.475177,-2.392159,-19.031888,0.060043,-0.036301,1.04306,0.045632,0.084027,0.014145,76.174118,3.774094,-148.328033,,,
729860240.219506,-1.46208,-2.359777,-19.026535,0.060043,-0.036301,1.04306,0.045632,0.084027,0.014145,76.174118,3.774094,-148.328033,,,
729860240.222602,-1.450508,-2.321046,-19.020334,0.056503,-0.034546,1.033493,0.041982,0.141491,0.019531,76.174118,3.774094,-148.328033,,,
729860240.226199,-1.450508,-2.321046,-19.020334,0.056503,-0.034546,1.033493,0.041982,0.141491,0.019531,76.174118,3.774094,-148.328033,,,
729860240.229473,-1.441839,-2.276282,-19.014423,0.056503,-0.034546,1.033493,0.041982,0.141491,0.019531,76.174118,3.774094,-148.328033,,,
729860240.232811,-1.435006,-2.233151,-19.009067,0.049103,-0.027832,1.007065,0.024305,0.150289,0.017602,76.246811,4.024948,-148.461517,,,
729860240.236235,-1.435006,-2.233151,-19.009067,0.049103,-0.027832,1.007065,0.024305,0.150289,0.017602,76.246811,4.024948,-148.461517,,,
729860240.239492,-1.43096,-2.192109,-19.004571,0.049103,-0.027832,1.007065,0.024305,0.150289,0.017602,76.246811,4.024948,-148.461517,,,
729860240.24282,-1.427597,-2.160225,-19.000782,0.037094,-0.0224,0.986191,0.010983,0.108165,0.011454,76.246811,4.024948,-148.461517,,,
729860240.246164,-1.427597,-2.160225,-19.000782,0.037094,-0.0224,0.986191,0.010983,0.108165,0.011454,76.246811,4.024948,-148.461517,,,
729860240.249561,-1.425936,-2.137321,-18.99681,0.037094,-0.0224,0.986191,0.010983,0.108165,0.011454,76.246811,4.024948,-148.461517,,,
729860240.252811,-1.42521,-2.126903,-18.992567,0.025909,-0.022171,0.974899,0.002551,0.02968,0.013983,76.246811,4.024948,-148.461517,,,
729860240.256162,-1.42521,-2.126903,-18.992567,0.025909,-0.022171,0.974899,0.002551,0.02968,0.013983,76.246811,4.024948,-148.461517,,,
729860240.259493,-1.426917,-2.12977,-18.988697,0.025909,-0.022171,0.974899,0.002551,0.02968,0.013983,76.246811,4.024948,-148.461517,,,
729860240.262818,-1.43105,-2.144006,-18.985441,0.022247,-0.019531,0.959473,-0.013742,-0.056025,0.008143,76.246811,4.024948,-148.461517,,,
729860240.266176,-1.43105,-2.144006,-18.985441,0.022247,-0.019531,0.959473,-0.013742,-0.056025,0.008143,76.246811,4.024948,-148.461517,,,
729860240.26951,-1.437636,-2.169767,-18.983421,0.022247,-0.019531,0.959473,-0.013742,-0.056025,0.008143,76.246811,4.024948,-148.461517,,,
729860240.272895,-1.445527,-2.20217,-18.983446,0.02977,-0.015701,0.955261,-0.025854,-0.117722,-0.002908,76.313522,3.751144,-148.509369,,,
729860240.276204,-1.445527,-2.20217,-18.983446,0.02977,-0.015701,0.955261,-0.025854,-0.117722,-0.002908,76.313522,3.751144,-148.509369,,,
729860240.279483,-1.45382,-2.242294,-18.985762,0.02977,-0.015701,0.955261,-0.025854,-0.117722,-0.002908,76.313522,3.751144,-148.509369,,,
729860240.282814,-1.461329,-2.283578,-18.989729,0.041382,-0.015427,0.970535,-0.024053,-0.14133,-0.017081,76.313522,3.751144,-148.509369,,,
729860240.286165,-1.461329,-2.283578,-18.989729,0.041382,-0.015427,0.970535,-0.024053,-0.14133,-0.017081,76.313522,3.751144,-148.509369,,,
729860240.289562,-1.46774,-2.32592,-18.994861,0.041382,-0.015427,0.970535,-0.024053,-0.14133,-0.017081,76.313522,3.751144,-148.509369,,,
729860240.292893,-1.471271,-2.362762,-19.000715,0.047501,-0.02182,0.996979,-0.009987,-0.120761,-0.019816,76.313522,3.751144,-148.509369,,,
729860240.296136,-1.471271,-2.362762,-19.000715,0.047501,-0.02182,0.996979,-0.009987,-0.120761,-0.019816,76.313522,3.751144,-148.509369,,,
729860240.299509,-1.473105,-2.394628,-19.006149,0.047501,-0.02182,0.996979,-0.009987,-0.120761,-0.019816,76.313522,3.751144,-148.509369,,,
729860240.302818,-1.471272,-2.41636,-19.009829,0.04985,-0.028397,1.020096,0.009619,-0.063007,-0.01184,76.313522,3.751144,-148.509369,,,
729860240.306186,-1.471272,-2.41636,-19.009829,0.04985,-0.028397,1.020096,0.009619,-0.063007,-0.01184,76.313522,3.751144,-148.509369,,,
729860240.309506,-1.466744,-2.428573,-19.011169,0.04985,-0.028397,1.020096,0.009619,-0.063007,-0.01184,76.313522,3.751144,-148.509369,,,
729860240.312832,-1.458025,-2.428799,-19.010344,0.048279,-0.033524,1.040115,0.034323,0.012307,0.001499,76.067154,3.746155,-148.417633,,,
729860240.316217,-1.458025,-2.428799,-19.010344,0.048279,-0.033524,1.040115,0.034323,0.012307,0.001499,76.067154,3.746155,-148.417633,,,
729860240.319471,-1.445506,-2.418237,-19.007178,0.048279,-0.033524,1.040115,0.034323,0.012307,0.001499,76.067154,3.746155,-148.417633,,,
729860240.322823,-1.430905,-2.399084,-19.002334,0.04689,-0.033112,1.043121,0.050878,0.077505,0.012436,76.067154,3.746155,-148.417633,,,
729860240.326169,-1.430905,-2.399084,-19.002334,0.04689,-0.033112,1.043121,0.050878,0.077505,0.012436,76.067154,3.746155,-148.417633,,,
729860240.329522,-1.416544,-2.373437,-18.997403,0.04689,-0.033112,1.043121,0.050878,0.077505,0.012436,76.067154,3.746155,-148.417633,,,
729860240.332813,-1.404972,-2.346221,-18.99279,0.047165,-0.026718,1.018036,0.041969,0.099374,0.015335,76.067154,3.746155,-148.417633,,,
729860240.336158,-1.404972,-2.346221,-18.99279,0.047165,-0.026718,1.018036,0.041969,0.099374,0.015335,76.067154,3.746155,-148.417633,,,
729860240.339503,-1.396539,-2.318612,-18.988322,0.047165,-0.026718,1.018036,0.041969,0.099374,0.015335,76.067154,3.746155,-148.417633,,,
729860240.342812,-1.392109,-2.295838,-18.984835,0.041794,-0.018646,0.983627,0.012705,0.078982,0.009481,76.067154,3.746155,-148.417633,,,
729860240.346138,-1.392109,-2.295838,-18.984835,0.041794,-0.018646,0.983627,0.012705,0.078982,0.009481,76.067154,3.746155,-148.417633,,,
729860240.349515,-1.391541,-2.277832,-18.982603,0.041794,-0.018646,0.983627,0.012705,0.078982,0.009481,76.067154,3.746155,-148.417633,,,
729860240.352814,-1.395486,-2.268327,-18.981388,0.035736,-0.013229,0.956451,-0.014947,0.03019,0.002956,76.255737,3.542465,-148.14032,,,
729860240.356254,-1.395486,-2.268327,-18.981388,0.035736,-0.013229,0.956451,-0.014947,0.03019,0.002956,76.255737,3.542465,-148.14032,,,
729860240.359495,-1.402634,-2.267322,-18.981577,0.035736,-0.013229,0.956451,-0.014947,0.03019,0.002956,76.255737,3.542465,-148.14032,,,
729860240.362823,-1.413426,-2.273966,-18.982717,0.035919,-0.013947,0.948288,-0.03986,-0.024642,-0.003243,76.255737,3.542465,-148.14032,,,
729860240.366147,-1.413426,-2.273966,-18.982717,0.035919,-0.013947,0.948288,-0.03986,-0.024642,-0.003243,76.255737,3.542465,-148.14032,,,
729860240.369486,-1.425577,-2.286765,-18.984648,0.035919,-0.013947,0.948288,-0.03986,-0.024642,-0.003243,76.255737,3.542465,-148.14032,,,
729860240.372819,-1.436993,-2.303818,-18.986833,0.035172,-0.019104,0.964676,-0.035586,-0.060438,-0.006116,76.255737,3.542465,-148.14032,,,
729860240.376167,-1.436993,-2.303818,-18.986833,0.035172,-0.019104,0.964676,-0.035586,-0.060438,-0.006116,76.255737,3.542465,-148.14032,,,
729860240.379488,-1.44532,-2.325094,-18.98829,0.035172,-0.019104,0.964676,-0.035586,-0.060438,-0.006116,76.255737,3.542465,-148.14032,,,
729860240.382819,-1.449418,-2.347504,-18.988807,0.034424,-0.028763,0.992172,-0.01132,-0.076521,-0.002058,76.255737,3.542465,-148.14032,,,
729860240.386169,-1.449418,-2.347504,-18.988807,0.034424,-0.028763,0.992172,-0.01132,-0.076521,-0.002058,76.255737,3.542465,-148.14032,,,
729860240.389503,-1.449263,-2.37035,-18.988261,0.034424,-0.028763,0.992172,-0.01132,-0.076521,-0.002058,76.255737,3.542465,-148.14032,,,
729860240.392855,-1.44398,-2.390413,-18.987063,0.039413,-0.034241,1.017456,0.024814,-0.06465,0.003586,76.255737,3.542465,-148.14032,,,
729860240.396221,-1.44398,-2.390413,-18.987063,0.039413,-0.034241,1.017456,0.024814,-0.06465,0.003586,76.077103,3.805786,-148.328934,,,
729860240.399493,-1.434963,-2.405863,-18.985772,0.039413,-0.034241,1.017456,0.024814,-0.06465,0.003586,76.077103,3.805786,-148.328934,,,
729860240.402816,-1.422761,-2.415608,-18.984959,0.047638,-0.032516,1.028687,0.04552,-0.026571,-0.000319,76.077103,3.805786,-148.328934,,,
729860240.406158,-1.422761,-2.415608,-18.984959,0.047638,-0.032516,1.028687,0.04552,-0.026571,-0.000319,76.077103,3.805786,-148.328934,,,
729860240.409564,-1.410147,-2.419336,-18.985324,0.047638,-0.032516,1.028687,0.04552,-0.026571,-0.000319,76.077103,3.805786,-148.328934,,,
729860240.412812,-1.398495,-2.416756,-18.986247,0.053543,-0.026001,1.021469,0.041852,0.014636,-0.005094,76.077103,3.805786,-148.328934,,,
729860240.416148,-1.398495,-2.416756,-18.986247,0.053543,-0.026001,1.021469,0.041852,0.014636,-0.005094,76.077103,3.805786,-148.328934,,,
729860240.419493,-1.38917,-2.409826,-18.987294,0.053543,-0.026001,1.021469,0.041852,0.014636,-0.005094,76.077103,3.805786,-148.328934,,,
729860240.42282,-1.383689,-2.399228,-18.9891,0.053726,-0.019562,0.999588,0.014411,0.044852,-0.008406,76.077103,3.805786,-148.328934,,,
729860240.426161,-1.383689,-2.399228,-18.9891,0.053726,-0.019562,0.999588,0.014411,0.044852,-0.008406,76.077103,3.805786,-148.328934,,,
729860240.429503,-1.382101,-2.386271,-18.991741,0.053726,-0.019562,0.999588,0.014411,0.044852,-0.008406,76.077103,3.805786,-148.328934,,,
729860240.432821,-1.385361,-2.373302,-18.994672,0.048325,-0.016937,0.976959,-0.015505,0.047218,-0.011266,76.077103,3.805786,-148.328934,,,
729860240.43622,-1.385361,-2.373302,-18.994672,0.048325,-0.016937,0.976959,-0.015505,0.047218,-0.011266,75.920685,3.906784,-148.325836,,,
729860240.439488,-1.391536,-2.36186,-18.997547,0.048325,-0.016937,0.976959,-0.015505,0.047218,-0.011266,75.920685,3.906784,-148.325836,,,
729860240.442816,-1.401236,-2.354837,-19.000675,0.040253,-0.017548,0.96402,-0.036452,0.023884,-0.012007,75.920685,3.906784,-148.325836,,,
729860240.446142,-1.401236,-2.354837,-19.000675,0.040253,-0.017548,0.96402,-0.036452,0.023884,-0.012007,75.920685,3.906784,-148.325836,,,
729860240.449571,-1.411886,-2.353579,-19.004299,0.040253,-0.017548,0.96402,-0.036452,0.023884,-0.012007,75.920685,3.906784,-148.325836,,,
729860240.452808,-1.422789,-2.359951,-19.008351,0.036072,-0.021179,0.963165,-0.037968,-0.024015,-0.014699,75.920685,3.906784,-148.325836,,,
729860240.456165,-1.422789,-2.359951,-19.008351,0.036072,-0.021179,0.963165,-0.037968,-0.024015,-0.014699,75.920685,3.906784,-148.325836,,,
729860240.459493,-1.432033,-2.373151,-19.012921,0.036072,-0.021179,0.963165,-0.037968,-0.024015,-0.014699,75.920685,3.906784,-148.325836,,,
729860240.46282,-1.438671,-2.392821,-19.017602,0.034286,-0.027328,0.976135,-0.019772,-0.071389,-0.01694,75.920685,3.906784,-148.325836,,,
729860240.466156,-1.438671,-2.392821,-19.017602,0.034286,-0.027328,0.976135,-0.019772,-0.071389,-0.01694,75.920685,3.906784,-148.325836,,,
729860240.469514,-1.442993,-2.416878,-19.02171,0.034286,-0.027328,0.976135,-0.019772,-0.071389,-0.01694,75.920685,3.906784,-148.325836,,,
729860240.47282,-1.443785,-2.443228,-19.025284,0.03685,-0.033234,0.9935,0.000679,-0.088594,-0.013463,75.920685,3.906784,-148.325836,,,
729860240.476147,-1.443785,-2.443228,-19.025284,0.03685,-0.033234,0.9935,0.000679,-0.088594,-0.013463,76.025986,4.013382,-148.330627,,,
729860240.47948,-1.441389,-2.467514,-19.028006,0.03685,-0.033234,0.9935,0.000679,-0.088594,-0.013463,76.025986,4.013382,-148.330627,,,
729860240.482813,-1.434618,-2.486853,-19.029284,0.038239,-0.033707,1.016541,0.028512,-0.059262,-0.005813,76.025986,4.013382,-148.330627,,,
729860240.486181,-1.434618,-2.486853,-19.029284,0.038239,-0.033707,1.016541,0.028512,-0.059262,-0.005813,76.025986,4.013382,-148.330627,,,
729860240.489602,-1.425408,-2.500512,-19.028965,0.038239,-0.033707,1.016541,0.028512,-0.059262,-0.005813,76.025986,4.013382,-148.330627,,,
729860240.492666,-1.414352,-2.505548,-19.027927,0.044357,-0.0345,1.030396,0.042012,-0.008029,0.001227,76.025986,4.013382,-148.330627,,,
729860240.496241,-1.414352,-2.505548,-19.027927,0.044357,-0.0345,1.030396,0.042012,-0.008029,0.001227,76.025986,4.013382,-148.330627,,,
729860240.499486,-1.402161,-2.504101,-19.026775,0.044357,-0.0345,1.030396,0.042012,-0.008029,0.001227,76.025986,4.013382,-148.330627,,,
729860240.502875,-1.390075,-2.495994,-19.02553,0.049316,-0.029648,1.023804,0.04205,0.039222,0.001748,76.025986,4.013382,-148.330627,,,
729860240.506156,-1.390075,-2.495994,-19.02553,0.049316,-0.029648,1.023804,0.04205,0.039222,0.001748,76.025986,4.013382,-148.330627,,,
729860240.509515,-1.378741,-2.483907,-19.025048,0.049316,-0.029648,1.023804,0.04205,0.039222,0.001748,76.025986,4.013382,-148.330627,,,
729860240.512816,-1.370883,-2.468284,-19.026239,0.049988,-0.022949,1.004517,0.026557,0.057547,-0.006449,76.025986,4.013382,-148.330627,,,
729860240.51619,-1.370883,-2.468284,-19.026239,0.049988,-0.022949,1.004517,0.026557,0.057547,-0.006449,76.0121,3.912796,-148.429474,,,
729860240.519483,-1.365819,-2.451645,-19.029132,0.049988,-0.022949,1.004517,0.026557,0.057547,-0.006449,76.0121,3.912796,-148.429474,,,
729860240.522817,-1.36538,-2.435927,-19.03332,0.049667,-0.018433,0.985229,-0.002358,0.055695,-0.018946,76.0121,3.912796,-148.429474,,,
729860240.526252,-1.36538,-2.435927,-19.03332,0.049667,-0.018433,0.985229,-0.002358,0.055695,-0.018946,76.0121,3.912796,-148.429474,,,
729860240.5295,-1.368646,-2.422252,-19.038232,0.049667,-0.018433,0.985229,-0.002358,0.055695,-0.018946,76.0121,3.912796,-148.429474,,,
729860240.532827,-1.376656,-2.412875,-19.04351,0.041504,-0.016724,0.97113,-0.032749,0.032717,-0.017556,76.0121,3.912796,-148.429474,,,
729860240.536167,-1.376656,-2.412875,-19.04351,0.041504,-0.016724,0.97113,-0.032749,0.032717,-0.017556,76.0121,3.912796,-148.429474,,,
729860240.539559,-1.389709,-2.407361,-19.048743,0.041504,-0.016724,0.97113,-0.032749,0.032717,-0.017556,76.0121,3.912796,-148.429474,,,
729860240.542816,-1.406683,-2.406239,-19.053469,0.032776,-0.017929,0.963593,-0.062365,0.00608,-0.015438,76.0121,3.912796,-148.429474,,,
729860240.546165,-1.406683,-2.406239,-19.053469,0.032776,-0.017929,0.963593,-0.062365,0.00608,-0.015438,76.0121,3.912796,-148.429474,,,
729860240.549491,-1.426733,-2.407818,-19.057889,0.032776,-0.017929,0.963593,-0.062365,0.00608,-0.015438,76.0121,3.912796,-148.429474,,,
729860240.5529,-1.446258,-2.413961,-19.061465,0.026962,-0.02153,0.975266,-0.067141,-0.02211,-0.00999,76.0121,3.912796,-148.429474,,,
729860240.556151,-1.446258,-2.413961,-19.061465,0.026962,-0.02153,0.975266,-0.067141,-0.02211,-0.00999,76.0121,3.912796,-148.429474,,,
729860240.559486,-1.464875,-2.423399,-19.064016,0.026962,-0.02153,0.975266,-0.067141,-0.02211,-0.00999,76.175919,4.090393,-148.380768,,,
729860240.562817,-1.478168,-2.436886,-19.065712,0.022552,-0.028992,0.999054,-0.039034,-0.047353,-0.002866,76.175919,4.090393,-148.380768,,,
729860240.566189,-1.478168,-2.436886,-19.065712,0.022552,-0.028992,0.999054,-0.039034,-0.047353,-0.002866,76.175919,4.090393,-148.380768,,,
729860240.569491,-1.485513,-2.452128,-19.066351,0.022552,-0.028992,0.999054,-0.039034,-0.047353,-0.002866,76.175919,4.090393,-148.380768,,,
729860240.572819,-1.483508,-2.46802,-19.066039,0.025192,-0.037048,1.028229,0.015865,-0.054433,-0.000332,76.175919,4.090393,-148.380768,,,
729860240.576158,-1.483508,-2.46802,-19.066039,0.025192,-0.037048,1.028229,0.015865,-0.054433,-0.000332,76.175919,4.090393,-148.380768,,,
729860240.579493,-1.473723,-2.482905,-19.065038,0.025192,-0.037048,1.028229,0.015865,-0.054433,-0.000332,76.175919,4.090393,-148.380768,,,
729860240.582868,-1.456421,-2.493733,-19.063023,0.03125,-0.03894,1.052002,0.067632,-0.034195,0.002939,76.175919,4.090393,-148.380768,,,
729860240.586165,-1.456421,-2.493733,-19.063023,0.03125,-0.03894,1.052002,0.067632,-0.034195,0.002939,76.175919,4.090393,-148.380768,,,
729860240.589492,-1.433878,-2.500279,-19.060214,0.03125,-0.03894,1.052002,0.067632,-0.034195,0.002939,76.175919,4.090393,-148.380768,,,
729860240.592888,-1.408802,-2.501571,-19.057161,0.037979,-0.035309,1.051804,0.089262,0.00518,0.006097,76.175919,4.090393,-148.380768,,,
729860240.596157,-1.408802,-2.501571,-19.057161,0.037979,-0.035309,1.051804,0.089262,0.00518,0.006097,76.175919,4.090393,-148.380768,,,
729860240.599484,-1.384462,-2.498108,-19.053435,0.037979,-0.035309,1.051804,0.089262,0.00518,0.006097,75.916473,4.065826,-148.355225,,,
729860240.602814,-1.384462,-2.498108,-19.053435,0.04068,-0.025116,1.028152,0.073628,0.03816,0.009704,75.916473,4.065826,-148.355225,,,
729860240.606226,-1.36367,-2.489333,-19.049458,0.04068,-0.025116,1.028152,0.073628,0.03816,0.009704,75.916473,4.065826,-148.355225,,,
729860240.609482,-1.346947,-2.477544,-19.045512,0.04068,-0.025116,1.028152,0.073628,0.03816,0.009704,75.916473,4.065826,-148.355225,,,
729860240.612884,-1.346947,-2.477544,-19.041658,0.04068,-0.025116,0.995697,0.031032,0.049285,0.011546,75.916473,4.065826,-148.355225,,,
729860240.616174,-1.336881,-2.464307,-19.041658,0.039215,-0.016281,0.995697,0.031032,0.049285,0.011546,75.916473,4.065826,-148.355225,,,
729860240.619493,-1.332231,-2.451243,-19.038352,0.039215,-0.016281,0.995697,0.031032,0.049285,0.011546,75.916473,4.065826,-148.355225,,,
729860240.622849,-1.332231,-2.451243,-19.038352,0.032822,-0.011627,0.968857,-0.010314,0.03187,0.006946,75.916473,4.065826,-148.355225,,,
729860240.626171,-1.334034,-2.441919,-19.03536,0.032822,-0.011627,0.968857,-0.010314,0.03187,0.006946,75.916473,4.065826,-148.355225,,,
729860240.629494,-1.342246,-2.437144,-19.032563,0.032822,-0.011627,0.968857,-0.010314,0.03187,0.006946,75.916473,4.065826,-148.355225,,,
729860240.63286,-1.342246,-2.437144,-19.032563,0.032822,-0.012115,0.954147,-0.047954,-0.008245,0.010254,75.916473,4.065826,-148.355225,,,
729860240.636185,-1.355673,-2.43879,-19.030418,0.029114,-0.012115,0.954147,-0.047954,-0.008245,0.010254,75.916473,4.065826,-148.355225,,,
729860240.639483,-1.37199,-2.444152,-19.028647,0.029114,-0.012115,0.954147,-0.047954,-0.008245,0.010254,75.949554,4.05687,-148.47641,,,
729860240.642825,-1.37199,-2.444152,-19.028647,0.029114,-0.012115,0.954147,-0.047954,-0.008245,0.010254,75.949554,4.05687,-148.47641,,,
729860240.646212,-1.38974,-2.455308,-19.02644,0.030197,-0.017044,0.963165,-0.061108,-0.042196,0.012256,75.949554,4.05687,-148.47641,,,
729860240.649481,-1.407552,-2.469268,-19.023041,0.030197,-0.017044,0.963165,-0.061108,-0.042196,0.012256,75.949554,4.05687,-148.47641,,,
729860240.652868,-1.407552,-2.469268,-19.023041,0.030197,-0.017044,0.963165,-0.061108,-0.042196,0.012256,75.949554,4.05687,-148.47641,,,
729860240.656162,-1.421379,-2.486837,-19.019124,0.031052,-0.02153,0.987167,-0.042927,-0.060615,0.01384,75.949554,4.05687,-148.47641,,,
729860240.659485,-1.430538,-2.504481,-19.015444,0.031052,-0.02153,0.987167,-0.042927,-0.060615,0.01384,75.949554,4.05687,-148.47641,,,
729860240.662857,-1.430538,-2.504481,-19.015444,0.031052,-0.02153,0.987167,-0.042927,-0.060615,0.01384,75.949554,4.05687,-148.47641,,,
729860240.666162,-1.431352,-2.523614,-19.011549,0.040497,-0.027176,1.017593,0.003058,-0.064025,0.013728,75.949554,4.05687,-148.47641,,,
729860240.669491,-1.424226,-2.541026,-19.007455,0.040497,-0.027176,1.017593,0.003058,-0.064025,0.013728,75.949554,4.05687,-148.47641,,,
729860240.672885,-1.424226,-2.541026,-19.007455,0.040497,-0.027176,1.017593,0.003058,-0.064025,0.013728,75.949554,4.05687,-148.47641,,,
729860240.676163,-1.409078,-2.556187,-19.003311,0.048828,-0.0336,1.041107,0.058954,-0.048697,0.008929,75.949554,4.05687,-148.47641,,,
729860240.679484,-1.38896,-2.567277,-18.9995,0.048828,-0.0336,1.041107,0.058954,-0.048697,0.008929,75.8535,4.127319,-148.306702,,,
729860240.682887,-1.38896,-2.567277,-18.9995,0.048828,-0.0336,1.041107,0.058954,-0.048697,0.008929,75.8535,4.127319,-148.306702,,,
729860240.686221,-1.365535,-2.573528,-18.996689,0.055389,-0.031479,1.03833,0.084235,-0.013597,0.006114,75.8535,4.127319,-148.306702,,,
729860240.689483,-1.340897,-2.573353,-18.994464,0.055389,-0.031479,1.03833,0.084235,-0.013597,0.006114,75.8535,4.127319,-148.306702,,,
729860240.692903,-1.340897,-2.573353,-18.994464,0.055389,-0.031479,1.03833,0.084235,-0.013597,0.006114,75.8535,4.127319,-148.306702,,,
729860240.696146,-1.317767,-2.566493,-18.992453,0.057877,-0.025101,1.021088,0.077075,0.03266,0.004471,75.8535,4.127319,-148.306702,,,
729860240.699485,-1.29714,-2.551727,-18.990518,0.057877,-0.025101,1.021088,0.077075,0.03266,0.004471,75.8535,4.127319,-148.306702,,,
729860240.702832,-1.29714,-2.551727,-18.990518,0.057877,-0.025101,1.021088,0.077075,0.03266,0.004471,75.8535,4.127319,-148.306702,,,
729860240.70616,-1.280582,-2.5317,-18.988306,0.055344,-0.019394,1.002396,0.055023,0.078031,0.005747,75.8535,4.127319,-148.306702,,,
729860240.709486,-1.268197,-2.507495,-18.985356,0.055344,-0.019394,1.002396,0.055023,0.078031,0.005747,75.8535,4.127319,-148.306702,,,
729860240.712881,-1.268197,-2.507495,-18.985356,0.055344,-0.019394,1.002396,0.055023,0.078031,0.005747,75.8535,4.127319,-148.306702,,,
729860240.71616,-1.262074,-2.483921,-18.982265,0.050354,-0.01593,0.982224,0.01995,0.083887,0.006584,75.8535,4.127319,-148.306702,,,
729860240.719485,-1.260006,-2.462867,-18.980047,0.050354,-0.01593,0.982224,0.01995,0.083887,0.006584,75.8535,4.127319,-148.306702,,,
729860240.722855,-1.260006,-2.462867,-18.980047,0.050354,-0.01593,0.982224,0.01995,0.083887,0.006584,76.010193,3.761719,-148.397247,,,
729860240.726237,-1.26254,-2.448516,-18.979213,0.045776,-0.014008,0.962646,-0.011296,0.050012,0.002409,76.010193,3.761719,-148.397247,,,
729860240.729485,-1.268107,-2.441631,-18.979926,0.045776,-0.014008,0.962646,-0.011296,0.050012,0.002409,76.010193,3.761719,-148.397247,,,
729860240.732876,-1.268107,-2.441631,-18.979926,0.045776,-0.014008,0.962646,-0.011296,0.050012,0.002409,76.010193,3.761719,-148.397247,,,
729860240.736159,-1.275317,-2.444074,-18.982026,0.042435,-0.013107,0.954071,-0.024425,-0.013102,-0.010876,76.010193,3.761719,-148.397247,,,
729860240.739493,-1.282704,-2.454105,-18.985065,0.042435,-0.013107,0.954071,-0.024425,-0.013102,-0.010876,76.010193,3.761719,-148.397247,,,
729860240.742861,-1.282704,-2.454105,-18.985065,0.042435,-0.013107,0.954071,-0.024425,-0.013102,-0.010876,76.010193,3.761719,-148.397247,,,
729860240.746159,-1.288535,-2.47128,-18.988628,0.042175,-0.017761,0.965988,-0.017834,-0.065253,-0.01375,76.010193,3.761719,-148.397247,,,
729860240.749497,-1.29258,-2.493385,-18.991496,0.042175,-0.017761,0.965988,-0.017834,-0.065253,-0.01375,76.010193,3.761719,-148.397247,,,
729860240.752927,-1.29258,-2.493385,-18.991496,0.042175,-0.017761,0.965988,-0.017834,-0.065253,-0.01375,76.010193,3.761719,-148.397247,,,
729860240.756175,-1.293146,-2.518069,-18.993098,0.038834,-0.025528,0.988098,-0.000251,-0.08401,-0.006253,76.010193,3.761719,-148.397247,,,
729860240.759497,-1.291288,-2.543381,-18.99317,0.038834,-0.025528,0.988098,-0.000251,-0.08401,-0.006253,76.010193,3.761719,-148.397247,,,
729860240.762823,-1.291288,-2.543381,-18.99317,0.038834,-0.025528,0.988098,-0.000251,-0.08401,-0.006253,76.006378,3.86647,-148.083298,,,
729860240.766229,-1.285111,-2.564934,-18.991353,0.039642,-0.033463,1.009445,0.027276,-0.067526,0.006411,76.006378,3.86647,-148.083298,,,
729860240.769491,-1.275789,-2.581581,-18.987789,0.039642,-0.033463,1.009445,0.027276,-0.067526,0.006411,76.006378,3.86647,-148.083298,,,
729860240.772842,-1.275789,-2.581581,-18.987789,0.039642,-0.033463,1.009445,0.027276,-0.067526,0.006411,76.006378,3.86647,-148.083298,,,
729860240.776162,-1.264523,-2.589989,-18.983382,0.045746,-0.032181,1.026779,0.042153,-0.021001,0.014472,76.006378,3.86647,-148.083298,,,
729860240.77949,-1.252698,-2.591524,-18.979394,0.045746,-0.032181,1.026779,0.042153,-0.021001,0.014472,76.006378,3.86647,-148.083298,,,
729860240.78284,-1.252698,-2.591524,-18.979394,0.045746,-0.032181,1.026779,0.042153,-0.021001,0.014472,76.006378,3.86647,-148.083298,,,
729860240.786162,-1.241839,-2.585578,-18.976571,0.0578,-0.025208,1.025558,0.039102,0.029039,0.008809,76.006378,3.86647,-148.083298,,,
729860240.789493,-1.23254,-2.574122,-18.975684,0.0578,-0.025208,1.025558,0.039102,0.029039,0.008809,76.006378,3.86647,-148.083298,,,
729860240.792896,-1.23254,-2.574122,-18.975684,0.0578,-0.025208,1.025558,0.039102,0.029039,0.008809,76.006378,3.86647,-148.083298,,,
729860240.796164,-1.226201,-2.557587,-18.977131,0.066925,-0.016663,1.008469,0.019516,0.060728,-0.008468,76.006378,3.86647,-148.083298,,,
729860240.799495,-1.222164,-2.539683,-18.981552,0.066925,-0.016663,1.008469,0.019516,0.060728,-0.008468,76.006378,3.86647,-148.083298,,,
729860240.80282,-1.222164,-2.539683,-18.981552,0.066925,-0.016663,1.008469,0.019516,0.060728,-0.008468,76.07193,3.783585,-148.287674,,,
729860240.806254,-1.220802,-2.521797,-18.988335,0.06781,-0.012115,0.98996,0.000658,0.0659,-0.026088,76.07193,3.783585,-148.287674,,,
729860240.809524,-1.221401,-2.505726,-18.996075,0.06781,-0.012115,0.98996,0.000658,0.0659,-0.026088,76.07193,3.783585,-148.287674,,,
729860240.81285,-1.221401,-2.505726,-18.996075,0.06781,-0.012115,0.98996,0.000658,0.0659,-0.026088,76.07193,3.783585,-148.287674,,,
729860240.816173,-1.224231,-2.492731,-19.003469,0.052979,-0.015915,0.978653,-0.011958,0.045835,-0.025787,76.07193,3.783585,-148.287674,,,
729860240.819496,-1.226999,-2.484282,-19.009805,0.052979,-0.015915,0.978653,-0.011958,0.045835,-0.025787,76.07193,3.783585,-148.287674,,,
729860240.822832,-1.226999,-2.484282,-19.009805,0.052979,-0.015915,0.978653,-0.011958,0.045835,-0.025787,76.07193,3.783585,-148.287674,,,
729860240.826175,-1.230863,-2.480201,-19.014725,0.034668,-0.024155,0.978302,-0.013175,0.011066,-0.017236,76.07193,3.783585,-148.287674,,,
729860240.82953,-1.233965,-2.480471,-19.017797,0.034668,-0.024155,0.978302,-0.013175,0.011066,-0.017236,76.07193,3.783585,-148.287674,,,
729860240.832821,-1.233965,-2.480471,-19.017797,0.034668,-0.024155,0.978302,-0.013175,0.011066,-0.017236,76.07193,3.783585,-148.287674,,,
729860240.83618,-1.234552,-2.48542,-19.019238,0.026535,-0.030777,0.98558,0.000238,-0.017877,-0.006745,76.07193,3.783585,-148.287674,,,
729860240.839493,-1.233106,-2.493878,-19.019403,0.026535,-0.030777,0.98558,0.000238,-0.017877,-0.006745,76.07193,3.783585,-148.287674,,,
729860240.842855,-1.233106,-2.493878,-19.019403,0.026535,-0.030777,0.98558,0.000238,-0.017877,-0.006745,76.07193,3.783585,-148.287674,,,
729860240.846226,-1.226172,-2.506313,-19.018703,0.026489,-0.032104,0.997467,0.0268,-0.042386,0.001197,76.091034,3.870773,-148.416092,,,
729860240.849488,-1.216377,-2.520347,-19.01741,0.026489,-0.032104,0.997467,0.0268,-0.042386,0.001197,76.091034,3.870773,-148.416092,,,
729860240.852824,-1.216377,-2.520347,-19.01741,0.026489,-0.032104,0.997467,0.0268,-0.042386,0.001197,76.091034,3.870773,-148.416092,,,
729860240.856196,-1.2015,-2.53567,-19.01558,0.029861,-0.028671,1.007416,0.056988,-0.05133,0.005523,76.091034,3.870773,-148.416092,,,
729860240.859489,-1.184771,-2.552091,-19.013785,0.029861,-0.028671,1.007416,0.056988,-0.05133,0.005523,76.091034,3.870773,-148.416092,,,
729860240.862823,-1.184771,-2.552091,-19.013785,0.029861,-0.028671,1.007416,0.056988,-0.05133,0.005523,76.091034,3.870773,-148.416092,,,
729860240.866179,-1.16509,-2.565779,-19.012764,0.038971,-0.020813,1.006271,0.071897,-0.043335,-0.001846,76.091034,3.870773,-148.416092,,,
729860240.869487,-1.14478,-2.579142,-19.013183,0.038971,-0.020813,1.006271,0.071897,-0.043335,-0.001846,76.091034,3.870773,-148.416092,,,
729860240.872819,-1.14478,-2.579142,-19.013183,0.038971,-0.020813,1.006271,0.071897,-0.043335,-0.001846,76.091034,3.870773,-148.416092,,,
729860240.876177,-1.125662,-2.585879,-19.014432,0.046204,-0.014435,0.997025,0.06648,-0.017132,-0.006714,76.091034,3.870773,-148.416092,,,
729860240.879493,-1.107879,-2.591794,-19.016314,0.046204,-0.014435,0.997025,0.06648,-0.017132,-0.006714,76.091034,3.870773,-148.416092,,,
729860240.882909,-1.107879,-2.591794,-19.016314,0.046204,-0.014435,0.997025,0.06648,-0.017132,-0.006714,76.091034,3.870773,-148.416092,,,
729860240.886168,-1.094499,-2.591098,-19.01841,0.046707,-0.010376,0.98378,0.044469,0.006258,-0.010512,75.991608,3.463013,-147.994797,,,
729860240.889492,-1.084049,-2.591692,-19.020382,0.046707,-0.010376,0.98378,0.044469,0.006258,-0.010512,75.991608,3.463013,-147.994797,,,
729860240.892844,-1.084049,-2.591692,-19.020382,0.046707,-0.010376,0.98378,0.044469,0.006258,-0.010512,75.991608,3.463013,-147.994797,,,
729860240.896228,-1.078083,-2.589222,-19.022553,0.043427,-0.008499,0.962296,0.016625,0.012955,-0.009794,75.991608,3.463013,-147.994797,,,
729860240.899485,-1.076259,-2.586959,-19.024398,0.043427,-0.008499,0.962296,0.016625,0.012955,-0.009794,75.991608,3.463013,-147.994797,,,
729860240.902845,-1.076259,-2.586959,-19.024398,0.043427,-0.008499,0.962296,0.016625,0.012955,-0.009794,75.991608,3.463013,-147.994797,,,
729860240.906166,-1.077707,-2.586908,-19.025122,0.035522,-0.009949,0.951233,-0.005926,0.000716,-0.003519,75.991608,3.463013,-147.994797,,,
729860240.909497,-1.0843,-2.586297,-19.025052,0.035522,-0.009949,0.951233,-0.005926,0.000716,-0.003519,75.991608,3.463013,-147.994797,,,
729860240.912847,-1.0843,-2.586297,-19.025052,0.035522,-0.009949,0.951233,-0.005926,0.000716,-0.003519,75.991608,3.463013,-147.994797,,,
729860240.916184,-1.093505,-2.589355,-19.024382,0.030258,-0.009872,0.948456,-0.033104,-0.01154,0.003082,75.991608,3.463013,-147.994797,,,
729860240.919506,-1.107844,-2.592215,-19.023438,0.030258,-0.009872,0.948456,-0.033104,-0.01154,0.003082,75.991608,3.463013,-147.994797,,,
729860240.922825,-1.107844,-2.592215,-19.023438,0.030258,-0.009872,0.948456,-0.033104,-0.01154,0.003082,75.991608,3.463013,-147.994797,,,
729860240.926186,-1.123308,-2.598569,-19.022411,0.033188,-0.009781,0.951477,-0.060785,-0.0184,0.003407,75.977631,3.530823,-147.883728,,,
729860240.929487,-1.141858,-2.602884,-19.021185,0.033188,-0.009781,0.951477,-0.060785,-0.0184,0.003407,75.977631,3.530823,-147.883728,,,
729860240.932906,-1.141858,-2.602884,-19.021185,0.033188,-0.009781,0.951477,-0.060785,-0.0184,0.003407,75.977631,3.530823,-147.883728,,,
729860240.936156,-1.161294,-2.607441,-19.019876,0.036057,-0.01358,0.969788,-0.067691,-0.011093,0.006503,75.977631,3.530823,-147.883728,,,
729860240.93949,-1.182133,-2.60882,-19.018639,0.036057,-0.01358,0.969788,-0.067691,-0.011093,0.006503,75.977631,3.530823,-147.883728,,,
729860240.942941,-1.182133,-2.60882,-19.018639,0.036057,-0.01358,0.969788,-0.067691,-0.011093,0.006503,75.977631,3.530823,-147.883728,,,
729860240.946218,-1.204149,-2.60914,-19.018038,0.039032,-0.016327,0.987473,-0.076741,0.002952,0.007224,75.977631,3.530823,-147.883728,,,
729860240.949518,-1.227114,-2.608822,-19.018006,0.039032,-0.016327,0.987473,-0.076741,0.002952,0.007224,75.977631,3.530823,-147.883728,,,
729860240.95288,-1.227114,-2.608822,-19.018006,0.039032,-0.016327,0.987473,-0.076741,0.002952,0.007224,75.977631,3.530823,-147.883728,,,
729860240.956183,-1.250511,-2.609153,-19.018505,0.04158,-0.017761,0.994736,-0.081368,0.00257,0.000746,75.977631,3.530823,-147.883728,,,
729860240.959501,-1.272055,-2.611553,-19.020075,0.04158,-0.017761,0.994736,-0.081368,0.00257,0.000746,75.977631,3.530823,-147.883728,,,
729860240.962847,-1.272055,-2.611553,-19.020075,0.04158,-0.017761,0.994736,-0.081368,0.00257,0.000746,75.977631,3.530823,-147.883728,,,
729860240.966162,-1.291465,-2.617867,-19.023079,0.045135,-0.021606,1.003326,-0.063355,-0.021691,-0.009242,76.040741,3.723465,-148.5849,,,
729860240.969497,-1.305931,-2.629387,-19.027125,0.045135,-0.021606,1.003326,-0.063355,-0.021691,-0.009242,76.040741,3.723465,-148.5849,,,
729860240.972934,-1.305931,-2.629387,-19.027125,0.045135,-0.021606,1.003326,-0.063355,-0.021691,-0.009242,76.040741,3.723465,-148.5849,,,
729860240.976178,-1.316759,-2.645639,-19.031435,0.042603,-0.028,1.012421,-0.033041,-0.059008,-0.015851,76.040741,3.723465,-148.5849,,,
729860240.979492,-1.322062,-2.665482,-19.034975,0.042603,-0.028,1.012421,-0.033041,-0.059008,-0.015851,76.040741,3.723465,-148.5849,,,
729860240.98284,-1.322062,-2.665482,-19.034975,0.042603,-0.028,1.012421,-0.033041,-0.059008,-0.015851,76.040741,3.723465,-148.5849,,,
729860240.986237,-1.324532,-2.688498,-19.037648,0.039276,-0.035706,1.01918,-0.007016,-0.078652,-0.010462,76.040741,3.723465,-148.5849,,,
729860240.98949,-1.321774,-2.709159,-19.039049,0.039276,-0.035706,1.01918,-0.007016,-0.078652,-0.010462,76.040741,3.723465,-148.5849,,,
729860240.992839,-1.321774,-2.709159,-19.039049,0.039276,-0.035706,1.01918,-0.007016,-0.078652,-0.010462,76.040741,3.723465,-148.5849,,,
729860240.996191,-1.316964,-2.727959,-19.03881,0.043106,-0.036957,1.02919,0.021892,-0.059903,0.000892,76.040741,3.723465,-148.5849,,,
729860240.999511,-1.308845,-2.74002,-19.03708,0.043106,-0.036957,1.02919,0.021892,-0.059903,0.000892,76.040741,3.723465,-148.5849,,,
729860241.002931,-1.308845,-2.74002,-19.03708,0.043106,-0.036957,1.02919,0.021892,-0.059903,0.000892,76.040741,3.723465,-148.5849,,,
729860241.006164,-1.301704,-2.747181,-19.034877,0.052841,-0.033203,1.035446,0.024439,-0.015586,0.00596,76.040741,3.723465,-148.5849,,,
729860241.009496,-1.295691,-2.746875,-19.032887,0.052841,-0.033203,1.035446,0.024439,-0.015586,0.00596,75.83046,3.874863,-148.465118,,,
729860241.012915,-1.295691,-2.746875,-19.032887,0.052841,-0.033203,1.035446,0.024439,-0.015586,0.00596,75.83046,3.874863,-148.465118,,,
729860241.016166,-1.294093,-2.741703,-19.031492,0.061157,-0.025482,1.020187,0.004738,0.024935,0.002447,75.83046,3.874863,-148.465118,,,
729860241.01949,-1.296462,-2.730713,-19.031092,0.061157,-0.025482,1.020187,0.004738,0.024935,0.002447,75.83046,3.874863,-148.465118,,,
729860241.022842,-1.296462,-2.730713,-19.031092,0.061157,-0.025482,1.020187,0.004738,0.024935,0.002447,75.83046,3.874863,-148.465118,,,
729860241.026168,-1.305305,-2.716223,-19.031819,0.064713,-0.019058,0.998413,-0.034466,0.055629,-0.003993,75.83046,3.874863,-148.465118,,,
729860241.029626,-1.318874,-2.698352,-19.032984,0.064713,-0.019058,0.998413,-0.034466,0.055629,-0.003993,75.83046,3.874863,-148.465118,,,
729860241.032857,-1.318874,-2.698352,-19.032984,0.064713,-0.019058,0.998413,-0.034466,0.055629,-0.003993,75.83046,3.874863,-148.465118,,,
729860241.036155,-1.33489,-2.680065,-19.034067,0.056931,-0.018707,0.989975,-0.057641,0.06422,-0.00315,75.83046,3.874863,-148.465118,,,
729860241.039608,-1.351452,-2.663858,-19.034727,0.056931,-0.018707,0.989975,-0.057641,0.06422,-0.00315,75.83046,3.874863,-148.465118,,,
729860241.042848,-1.351452,-2.663858,-19.034727,0.056931,-0.018707,0.989975,-0.057641,0.06422,-0.00315,75.83046,3.874863,-148.465118,,,
729860241.046175,-1.36781,-2.653743,-19.034528,0.045868,-0.026459,0.995255,-0.059556,0.031057,0.001288,75.83046,3.874863,-148.465118,,,
729860241.04951,-1.381489,-2.652134,-19.034355,0.045868,-0.026459,0.995255,-0.059556,0.031057,0.001288,75.735397,3.881897,-148.220856,,,
729860241.052932,-1.381489,-2.652134,-19.034355,0.045868,-0.026459,0.995255,-0.059556,0.031057,0.001288,75.735397,3.881897,-148.220856,,,
729860241.056178,-1.39012,-2.659924,-19.035674,0.041443,-0.032318,1.001526,-0.026365,-0.033244,-0.004398,75.735397,3.881897,-148.220856,,,
729860241.059505,-1.393106,-2.675325,-19.038796,0.041443,-0.032318,1.001526,-0.026365,-0.033244,-0.004398,75.735397,3.881897,-148.220856,,,
729860241.062931,-1.393106,-2.675325,-19.038796,0.041443,-0.032318,1.001526,-0.026365,-0.033244,-0.004398,75.735397,3.881897,-148.220856,,,
729860241.066175,-1.388698,-2.698735,-19.043829,0.046402,-0.033432,1.01973,0.023571,-0.082536,-0.022027,75.735397,3.881897,-148.220856,,,
729860241.069481,-1.379062,-2.726393,-19.050764,0.046402,-0.033432,1.01973,0.023571,-0.082536,-0.022027,75.735397,3.881897,-148.220856,,,
729860241.07285,-1.379062,-2.726393,-19.050764,0.046402,-0.033432,1.01973,0.023571,-0.082536,-0.022027,75.735397,3.881897,-148.220856,,,
729860241.076175,-1.363945,-2.757278,-19.059398,0.054398,-0.031921,1.030762,0.053061,-0.104864,-0.037887,75.735397,3.881897,-148.220856,,,
729860241.079496,-1.348971,-2.786905,-19.069393,0.054398,-0.031921,1.030762,0.053061,-0.104864,-0.037887,75.735397,3.881897,-148.220856,,,
729860241.082849,-1.348971,-2.786905,-19.069393,0.054398,-0.031921,1.030762,0.053061,-0.104864,-0.037887,75.735397,3.881897,-148.220856,,,
729860241.086181,-1.332332,-2.811648,-19.079818,0.058258,-0.026535,1.025604,0.05457,-0.076981,-0.041184,75.735397,3.881897,-148.220856,,,
729860241.089496,-1.317298,-2.828782,-19.089566,0.058258,-0.026535,1.025604,0.05457,-0.076981,-0.041184,75.71373,3.828949,-148.155182,,,
729860241.092828,-1.317298,-2.828782,-19.089566,0.058258,-0.026535,1.025604,0.05457,-0.076981,-0.041184,75.71373,3.828949,-148.155182,,,
729860241.096176,-1.303737,-2.834447,-19.097762,0.05484,-0.02562,1.027695,0.045293,-0.008358,-0.031855,75.71373,3.828949,-148.155182,,,
729860241.099491,-1.292299,-2.829952,-19.10429,0.05484,-0.02562,1.027695,0.045293,-0.008358,-0.031855,75.71373,3.828949,-148.155182,,,
729860241.102928,-1.292299,-2.829952,-19.10429,0.05484,-0.02562,1.027695,0.045293,-0.008358,-0.031855,75.71373,3.828949,-148.155182,,,
729860241.106172,-1.283879,-2.813054,-19.108445,0.047943,-0.026993,1.025787,0.027078,0.071964,-0.01333,75.71373,3.828949,-148.155182,,,
729860241.109505,-1.277569,-2.787094,-19.109135,0.047943,-0.026993,1.025787,0.027078,0.071964,-0.01333,75.71373,3.828949,-148.155182,,,
729860241.112843,-1.277569,-2.787094,-19.109135,0.047943,-0.026993,1.025787,0.027078,0.071964,-0.01333,75.71373,3.828949,-148.155182,,,
729860241.116243,-1.273922,-2.751921,-19.106932,0.036621,-0.026901,1.018311,0.013272,0.130555,0.008522,75.71373,3.828949,-148.155182,,,
729860241.119498,-1.27278,-2.712345,-19.102748,0.036621,-0.026901,1.018311,0.013272,0.130555,0.008522,75.71373,3.828949,-148.155182,,,
729860241.122842,-1.27278,-2.712345,-19.102748,0.036621,-0.026901,1.018311,0.013272,0.130555,0.008522,75.71373,3.828949,-148.155182,,,
729860241.126185,-1.272382,-2.671165,-19.096545,0.028854,-0.02478,1.005417,-0.001256,0.149016,0.022579,75.71373,3.828949,-148.155182,,,
729860241.129504,-1.273221,-2.630818,-19.088643,0.028854,-0.02478,1.005417,-0.001256,0.149016,0.022579,75.71373,3.828949,-148.155182,,,
729860241.132845,-1.273221,-2.630818,-19.088643,0.028854,-0.02478,1.005417,-0.001256,0.149016,0.022579,75.963852,3.876221,-148.469803,,,
729860241.136176,-1.273905,-2.59603,-19.080168,0.0215,-0.02449,0.993591,0.001342,0.120138,0.027564,75.963852,3.876221,-148.469803,,,
729860241.139537,-1.275296,-2.569677,-19.071772,0.0215,-0.02449,0.993591,0.001342,0.120138,0.027564,75.963852,3.876221,-148.469803,,,
729860241.142839,-1.275296,-2.569677,-19.071772,0.0215,-0.02449,0.993591,0.001342,0.120138,0.027564,75.963852,3.876221,-148.469803,,,
729860241.146177,-1.274551,-2.554688,-19.064556,0.02211,-0.025192,0.981262,0.007935,0.04245,0.020506,75.963852,3.876221,-148.469803,,,
729860241.1495,-1.27205,-2.553899,-19.05962,0.02211,-0.025192,0.981262,0.007935,0.04245,0.020506,75.963852,3.876221,-148.469803,,,
729860241.152898,-1.27205,-2.553899,-19.05962,0.02211,-0.025192,0.981262,0.007935,0.04245,0.020506,75.963852,3.876221,-148.469803,,,
729860241.156168,-1.264831,-2.566415,-19.056877,0.026474,-0.025146,0.976822,0.029739,-0.053355,0.00627,75.963852,3.876221,-148.469803,,,
729860241.159629,-1.254815,-2.593427,-19.056551,0.026474,-0.025146,0.976822,0.029739,-0.053355,0.00627,75.963852,3.876221,-148.469803,,,
729860241.162849,-1.254815,-2.593427,-19.056551,0.026474,-0.025146,0.976822,0.029739,-0.053355,0.00627,75.963852,3.876221,-148.469803,,,
729860241.166241,-1.240607,-2.629564,-19.057977,0.030273,-0.0242,0.984467,0.052442,-0.132178,-0.008812,75.963852,3.876221,-148.469803,,,
729860241.16951,-1.224782,-2.674447,-19.060589,0.030273,-0.0242,0.984467,0.052442,-0.132178,-0.008812,75.963852,3.876221,-148.469803,,,
729860241.172848,-1.224782,-2.674447,-19.060589,0.030273,-0.0242,0.984467,0.052442,-0.132178,-0.008812,75.800278,3.737854,-148.167618,,,
729860241.176177,-1.207728,-2.72152,-19.063781,0.035995,-0.024185,0.990967,0.062779,-0.166652,-0.013135,75.800278,3.737854,-148.167618,,,
729860241.179512,-1.191538,-2.768669,-19.066321,0.035995,-0.024185,0.990967,0.062779,-0.166652,-0.013135,75.800278,3.737854,-148.167618,,,
729860241.182858,-1.191538,-2.768669,-19.066321,0.035995,-0.024185,0.990967,0.062779,-0.166652,-0.013135,75.800278,3.737854,-148.167618,,,
729860241.186182,-1.176482,-2.81102,-19.067898,0.040985,-0.024445,0.99469,0.051186,-0.142924,-0.008381,75.800278,3.737854,-148.167618,,,
729860241.18956,-1.165276,-2.843286,-19.069098,0.040985,-0.024445,0.99469,0.051186,-0.142924,-0.008381,75.800278,3.737854,-148.167618,,,
729860241.192827,-1.165276,-2.843286,-19.069098,0.040985,-0.024445,0.99469,0.051186,-0.142924,-0.008381,75.800278,3.737854,-148.167618,,,
729860241.196183,-1.157594,-2.864386,-19.069295,0.046844,-0.021423,0.996155,0.023273,-0.059242,-0.002356,75.800278,3.737854,-148.167618,,,
729860241.19951,-1.154912,-2.867996,-19.067559,0.046844,-0.021423,0.996155,0.023273,-0.059242,-0.002356,75.800278,3.737854,-148.167618,,,
729860241.202844,-1.154912,-2.867996,-19.067559,0.046844,-0.021423,0.996155,0.023273,-0.059242,-0.002356,75.800278,3.737854,-148.167618,,,
729860241.206233,-1.15574,-2.859648,-19.063612,0.053833,-0.0224,1.003891,-0.003934,0.043074,0.014883,75.800278,3.737854,-148.167618,,,
729860241.209593,-1.161366,-2.833825,-19.05715,0.053833,-0.0224,1.003891,-0.003934,0.043074,0.014883,75.800278,3.737854,-148.167618,,,
729860241.212844,-1.161366,-2.833825,-19.05715,0.053833,-0.0224,1.003891,-0.003934,0.043074,0.014883,75.66362,3.498444,-148.382141,,,
729860241.216185,-1.169762,-2.801107,-19.048316,0.052368,-0.022278,0.999786,-0.028936,0.12608,0.033442,75.66362,3.498444,-148.382141,,,
729860241.219542,-1.181068,-2.756923,-19.037633,0.052368,-0.022278,0.999786,-0.028936,0.12608,0.033442,75.66362,3.498444,-148.382141,,,
729860241.222878,-1.181068,-2.756923,-19.037633,0.052368,-0.022278,0.999786,-0.028936,0.12608,0.033442,75.66362,3.498444,-148.382141,,,
729860241.226181,-1.192413,-2.713378,-19.026366,0.048737,-0.022156,0.989655,-0.037655,0.155701,0.043232,75.66362,3.498444,-148.382141,,,
729860241.229495,-1.204313,-2.666968,-19.014769,0.048737,-0.022156,0.989655,-0.037655,0.155701,0.043232,75.66362,3.498444,-148.382141,,,
729860241.232899,-1.204313,-2.666968,-19.014769,0.048737,-0.022156,0.989655,-0.037655,0.155701,0.043232,75.66362,3.498444,-148.382141,,,
729860241.236173,-1.214846,-2.62831,-19.003094,0.044647,-0.021759,0.985214,-0.033637,0.133028,0.042667,75.66362,3.498444,-148.382141,,,
729860241.23952,-1.22397,-2.594619,-18.991403,0.044647,-0.021759,0.985214,-0.033637,0.133028,0.042667,75.66362,3.498444,-148.382141,,,
729860241.242835,-1.22397,-2.594619,-18.991403,0.044647,-0.021759,0.985214,-0.033637,0.133028,0.042667,75.66362,3.498444,-148.382141,,,
729860241.246239,-1.23009,-2.57404,-18.98078,0.038345,-0.0224,0.980392,-0.016821,0.062012,0.037595,75.66362,3.498444,-148.382141,,,
729860241.249489,-1.234094,-2.56454,-18.97212,0.038345,-0.0224,0.980392,-0.016821,0.062012,0.037595,75.66362,3.498444,-148.382141,,,
729860241.25288,-1.234094,-2.56454,-18.97212,0.038345,-0.0224,0.980392,-0.016821,0.062012,0.037595,75.880035,3.555328,-148.383057,,,
729860241.256167,-1.235172,-2.570858,-18.966031,0.042267,-0.021469,0.973068,0.001997,-0.03235,0.01831,75.880035,3.555328,-148.383057,,,
729860241.259539,-1.233057,-2.590274,-18.962963,0.042267,-0.021469,0.973068,0.001997,-0.03235,0.01831,75.880035,3.555328,-148.383057,,,
729860241.262847,-1.233057,-2.590274,-18.962963,0.042267,-0.021469,0.973068,0.001997,-0.03235,0.01831,75.880035,3.555328,-148.383057,,,
729860241.266173,-1.226467,-2.621009,-18.964091,0.056229,-0.018158,0.973419,0.026332,-0.113711,-0.009922,75.880035,3.555328,-148.383057,,,
729860241.269513,-1.216821,-2.658,-18.968562,0.056229,-0.018158,0.973419,0.026332,-0.113711,-0.009922,75.880035,3.555328,-148.383057,,,
729860241.272902,-1.216821,-2.658,-18.968562,0.056229,-0.018158,0.973419,0.026332,-0.113711,-0.009922,75.880035,3.555328,-148.383057,,,
729860241.276172,-1.205913,-2.697702,-18.974932,0.060913,-0.019104,0.984497,0.036857,-0.13882,-0.027445,75.880035,3.555328,-148.383057,,,
729860241.279511,-1.195807,-2.735615,-18.981964,0.060913,-0.019104,0.984497,0.036857,-0.13882,-0.027445,75.880035,3.555328,-148.383057,,,
729860241.282834,-1.195807,-2.735615,-18.981964,0.060913,-0.019104,0.984497,0.036857,-0.13882,-0.027445,75.880035,3.555328,-148.383057,,,
729860241.28622,-1.187837,-2.766185,-18.987866,0.064972,-0.018204,0.992599,0.02844,-0.096784,-0.02171,75.880035,3.555328,-148.383057,,,
729860241.289508,-1.183885,-2.786586,-18.992504,0.064972,-0.018204,0.992599,0.02844,-0.096784,-0.02171,75.880035,3.555328,-148.383057,,,
729860241.292873,-1.183885,-2.786586,-18.992504,0.064972,-0.018204,0.992599,0.02844,-0.096784,-0.02171,75.880035,3.555328,-148.383057,,,
729860241.296269,-1.185226,-2.791901,-18.994947,0.063232,-0.01828,0.995773,-0.010052,-0.004463,-0.006387,75.613495,3.608948,-148.280914,,,
729860241.299582,-1.192876,-2.781999,-18.994762,0.063232,-0.01828,0.995773,-0.010052,-0.004463,-0.006387,75.613495,3.608948,-148.280914,,,
729860241.302826,-1.192876,-2.781999,-18.994762,0.063232,-0.01828,0.995773,-0.010052,-0.004463,-0.006387,75.613495,3.608948,-148.280914,,,
729860241.306169,-1.205714,-2.756472,-18.992577,0.059555,-0.019547,0.99617,-0.048023,0.104883,0.011712,75.613495,3.608948,-148.280914,,,
729860241.309526,-1.224115,-2.718301,-18.988372,0.059555,-0.019547,0.99617,-0.048023,0.104883,0.011712,75.613495,3.608948,-148.280914,,,
729860241.312912,-1.224115,-2.718301,-18.988372,0.059555,-0.019547,0.99617,-0.048023,0.104883,0.011712,75.613495,3.608948,-148.280914,,,
729860241.316174,-1.247062,-2.672814,-18.982443,0.054779,-0.018494,0.992325,-0.081125,0.167728,0.023469,75.613495,3.608948,-148.280914,,,
729860241.319558,-1.27261,-2.623724,-18.976077,0.054779,-0.018494,0.992325,-0.081125,0.167728,0.023469,75.613495,3.608948,-148.280914,,,
729860241.322845,-1.27261,-2.623724,-18.976077,0.054779,-0.018494,0.992325,-0.081125,0.167728,0.023469,75.613495,3.608948,-148.280914,,,
729860241.326245,-1.298617,-2.577825,-18.970203,0.052277,-0.017838,0.984909,-0.088924,0.161364,0.024885,75.613495,3.608948,-148.280914,,,
729860241.329538,-1.322898,-2.53852,-18.965213,0.052277,-0.017838,0.984909,-0.088924,0.161364,0.024885,75.613495,3.608948,-148.280914,,,
729860241.332839,-1.322898,-2.53852,-18.965213,0.052277,-0.017838,0.984909,-0.088924,0.161364,0.024885,75.613495,3.608948,-148.280914,,,
729860241.336189,-1.34202,-2.512007,-18.962042,0.044891,-0.019241,0.984406,-0.063851,0.081745,0.010863,76.005478,3.680634,-148.320389,,,
729860241.339582,-1.353806,-2.501803,-18.960951,0.044891,-0.019241,0.984406,-0.063851,0.081745,0.010863,76.005478,3.680634,-148.320389,,,
729860241.342829,-1.353806,-2.501803,-18.960951,0.044891,-0.019241,0.984406,-0.063851,0.081745,0.010863,76.005478,3.680634,-148.320389,,,
729860241.346195,-1.35904,-2.505126,-18.961668,0.03862,-0.022156,0.990173,-0.009612,-0.022274,-0.002503,76.005478,3.680634,-148.320389,,,
729860241.349504,-1.35904,-2.505126,-18.961668,0.03862,-0.022156,0.990173,-0.009612,-0.022274,-0.002503,76.005478,3.680634,-148.320389,,,
729860241.352908,-1.356661,-2.524906,-18.963821,0.03862,-0.022156,0.990173,-0.009612,-0.022274,-0.002503,76.005478,3.680634,-148.320389,,,
729860241.356168,-1.349234,-2.553458,-18.967284,0.038879,-0.022308,0.998459,0.030701,-0.105537,-0.016363,76.005478,3.680634,-148.320389,,,
729860241.359498,-1.349234,-2.553458,-18.967284,0.038879,-0.022308,0.998459,0.030701,-0.105537,-0.016363,76.005478,3.680634,-148.320389,,,
729860241.362837,-1.338226,-2.591921,-18.97196,0.038879,-0.022308,0.998459,0.030701,-0.105537,-0.016363,76.005478,3.680634,-148.320389,,,
729860241.36622,-1.326799,-2.63026,-18.976811,0.0439,-0.018723,0.99707,0.040014,-0.131529,-0.019667,76.005478,3.680634,-148.320389,,,
729860241.369505,-1.326799,-2.63026,-18.976811,0.0439,-0.018723,0.99707,0.040014,-0.131529,-0.019667,76.005478,3.680634,-148.320389,,,
729860241.372842,-1.315736,-2.669411,-18.981867,0.0439,-0.018723,0.99707,0.040014,-0.131529,-0.019667,76.005478,3.680634,-148.320389,,,
729860241.376167,-1.307914,-2.699214,-18.986693,0.049088,-0.016678,0.998352,0.024825,-0.094352,-0.019332,75.681824,3.822662,-148.045685,,,
729860241.379498,-1.307914,-2.699214,-18.986693,0.049088,-0.016678,0.998352,0.024825,-0.094352,-0.019332,75.681824,3.822662,-148.045685,,,
729860241.382842,-1.303064,-2.721372,-18.99075,0.049088,-0.016678,0.998352,0.024825,-0.094352,-0.019332,75.681824,3.822662,-148.045685,,,
729860241.386184,-1.302273,-2.729155,-18.993727,0.05455,-0.017685,1.004761,0.002155,-0.01511,-0.010183,75.681824,3.822662,-148.045685,,,
729860241.389554,-1.302273,-2.729155,-18.993727,0.05455,-0.017685,1.004761,0.002155,-0.01511,-0.010183,75.681824,3.822662,-148.045685,,,
729860241.392838,-1.304237,-2.725606,-18.995245,0.05455,-0.017685,1.004761,0.002155,-0.01511,-0.010183,75.681824,3.822662,-148.045685,,,
729860241.396174,-1.309876,-2.708331,-18.99503,0.053528,-0.01828,1.012207,-0.024493,0.073787,0.001674,75.681824,3.822662,-148.045685,,,
729860241.399499,-1.309876,-2.708331,-18.99503,0.053528,-0.01828,1.012207,-0.024493,0.073787,0.001674,75.681824,3.822662,-148.045685,,,
729860241.402917,-1.317927,-2.682353,-18.992969,0.053528,-0.01828,1.012207,-0.024493,0.073787,0.001674,75.681824,3.822662,-148.045685,,,
729860241.406176,-1.329638,-2.648563,-18.989541,0.050949,-0.020187,1.010025,-0.04018,0.127794,0.012784,75.681824,3.822662,-148.045685,,,
729860241.409511,-1.329638,-2.648563,-18.989541,0.050949,-0.020187,1.010025,-0.04018,0.127794,0.012784,75.681824,3.822662,-148.045685,,,
729860241.412864,-1.342499,-2.61143,-18.985483,0.050949,-0.020187,1.010025,-0.04018,0.127794,0.012784,75.681824,3.822662,-148.045685,,,
729860241.416219,-1.356889,-2.574209,-18.981066,0.048737,-0.019882,0.999481,-0.04816,0.130457,0.016613,76.127808,3.79718,-148.415039,,,
729860241.419498,-1.356889,-2.574209,-18.981066,0.048737,-0.019882,0.999481,-0.04816,0.130457,0.016613,76.127808,3.79718,-148.415039,,,
729860241.42286,-1.370861,-2.539713,-18.976748,0.048737,-0.019882,0.999481,-0.04816,0.130457,0.016613,76.127808,3.79718,-148.415039,,,
729860241.426189,-1.384219,-2.512204,-18.973268,0.041016,-0.018417,0.99382,-0.044694,0.093592,0.011695,76.127808,3.79718,-148.415039,,,
729860241.429561,-1.384219,-2.512204,-18.973268,0.041016,-0.018417,0.99382,-0.044694,0.093592,0.011695,76.127808,3.79718,-148.415039,,,
729860241.432851,-1.39596,-2.492663,-18.970815,0.041016,-0.018417,0.99382,-0.044694,0.093592,0.011695,76.127808,3.79718,-148.415039,,,
729860241.436172,-1.405757,-2.484782,-18.969452,0.038696,-0.020691,0.988785,-0.031681,0.020391,0.000583,76.127808,3.79718,-148.415039,,,
729860241.439497,-1.405757,-2.484782,-18.969452,0.038696,-0.020691,0.988785,-0.031681,0.020391,0.000583,76.127808,3.79718,-148.415039,,,
729860241.44291,-1.412157,-2.488172,-18.970189,0.038696,-0.020691,0.988785,-0.031681,0.020391,0.000583,76.127808,3.79718,-148.415039,,,
729860241.446162,-1.41565,-2.501976,-18.974186,0.043411,-0.019836,0.987976,-0.007744,-0.054275,-0.01672,76.127808,3.79718,-148.415039,,,
729860241.449498,-1.41565,-2.501976,-18.974186,0.043411,-0.019836,0.987976,-0.007744,-0.054275,-0.01672,76.127808,3.79718,-148.415039,,,
729860241.452857,-1.414198,-2.524387,-18.980532,0.043411,-0.019836,0.987976,-0.007744,-0.054275,-0.01672,76.127808,3.79718,-148.415039,,,
729860241.456171,-1.410888,-2.551342,-18.988324,0.047607,-0.022003,0.998993,0.011272,-0.093712,-0.032732,76.127808,3.79718,-148.415039,,,
729860241.459513,-1.410888,-2.551342,-18.988324,0.047607,-0.022003,0.998993,0.011272,-0.093712,-0.032732,75.937378,4.047607,-148.102722,,,
729860241.462852,-1.404593,-2.581899,-18.997925,0.047607,-0.022003,0.998993,0.011272,-0.093712,-0.032732,75.937378,4.047607,-148.102722,,,
729860241.466212,-1.39862,-2.610326,-19.008542,0.055374,-0.023056,1.008301,0.020511,-0.094314,-0.039222,75.937378,4.047607,-148.102722,,,
729860241.469495,-1.39862,-2.610326,-19.008542,0.055374,-0.023056,1.008301,0.020511,-0.094314,-0.039222,75.937378,4.047607,-148.102722,,,
729860241.472843,-1.392252,-2.636142,-19.019361,0.055374,-0.023056,1.008301,0.020511,-0.094314,-0.039222,75.937378,4.047607,-148.102722,,,
729860241.476174,-1.388471,-2.653789,-19.028966,0.055435,-0.026871,1.016937,0.00902,-0.053547,-0.033352,75.937378,4.047607,-148.102722,,,
729860241.479542,-1.388471,-2.653789,-19.028966,0.055435,-0.026871,1.016937,0.00902,-0.053547,-0.033352,75.937378,4.047607,-148.102722,,,
729860241.482835,-1.386911,-2.6631,-19.036373,0.055435,-0.026871,1.016937,0.00902,-0.053547,-0.033352,75.937378,4.047607,-148.102722,,,
729860241.486173,-1.388574,-2.661076,-19.041311,0.0504,-0.030685,1.022476,-0.009081,0.019531,-0.016478,75.937378,4.047607,-148.102722,,,
729860241.489515,-1.388574,-2.661076,-19.041311,0.0504,-0.030685,1.022476,-0.009081,0.019531,-0.016478,75.937378,4.047607,-148.102722,,,
729860241.492922,-1.391619,-2.649263,-19.043643,0.0504,-0.030685,1.022476,-0.009081,0.019531,-0.016478,75.937378,4.047607,-148.102722,,,
729860241.496161,-1.396423,-2.628815,-19.043333,0.042068,-0.030975,1.024429,-0.017695,0.082121,0.001524,75.937378,4.047607,-148.102722,,,
729860241.4995,-1.396423,-2.628815,-19.043333,0.042068,-0.030975,1.024429,-0.017695,0.082121,0.001524,75.873627,3.989151,-148.178009,,,
729860241.50285,-1.40097,-2.601575,-19.041562,0.042068,-0.030975,1.024429,-0.017695,0.082121,0.001524,75.873627,3.989151,-148.178009,,,
729860241.506171,-1.405681,-2.570319,-19.038982,0.040604,-0.027908,1.016495,-0.012686,0.116588,0.009113,75.873627,3.989151,-148.178009,,,
729860241.509528,-1.405681,-2.570319,-19.038982,0.040604,-0.027908,1.016495,-0.012686,0.116588,0.009113,75.873627,3.989151,-148.178009,,,
729860241.512859,-1.407136,-2.53611,-19.036101,0.040604,-0.027908,1.016495,-0.012686,0.116588,0.009113,75.873627,3.989151,-148.178009,,,
729860241.516239,-1.405387,-2.503395,-19.034106,0.038742,-0.023987,1.015701,0.011204,0.116767,0.006911,75.873627,3.989151,-148.178009,,,
729860241.519511,-1.405387,-2.503395,-19.034106,0.038742,-0.023987,1.015701,0.011204,0.116767,0.006911,75.873627,3.989151,-148.178009,,,
729860241.522848,-1.399153,-2.47437,-19.032934,0.038742,-0.023987,1.015701,0.011204,0.116767,0.006911,75.873627,3.989151,-148.178009,,,
729860241.526176,-1.389268,-2.451548,-19.032597,0.03537,-0.02507,1.01445,0.037229,0.078074,-0.003115,75.873627,3.989151,-148.178009,,,
729860241.529573,-1.389268,-2.451548,-19.032597,0.03537,-0.02507,1.01445,0.037229,0.078074,-0.003115,75.873627,3.989151,-148.178009,,,
729860241.532845,-1.375274,-2.435553,-19.033691,0.03537,-0.02507,1.01445,0.037229,0.078074,-0.003115,75.873627,3.989151,-148.178009,,,
729860241.536176,-1.358805,-2.424674,-19.03648,0.036209,-0.025146,1.005524,0.060211,0.035808,-0.015528,75.873627,3.989151,-148.178009,,,
729860241.539505,-1.358805,-2.424674,-19.03648,0.036209,-0.025146,1.005524,0.060211,0.035808,-0.015528,76.092026,3.884003,-148.373505,,,
729860241.542906,-1.340228,-2.420841,-19.040179,0.036209,-0.025146,1.005524,0.060211,0.035808,-0.015528,76.092026,3.884003,-148.373505,,,
729860241.546169,-1.320497,-2.419759,-19.043993,0.031601,-0.025558,1.00145,0.07186,0.002221,-0.015485,76.092026,3.884003,-148.373505,,,
729860241.549505,-1.320497,-2.419759,-19.043993,0.031601,-0.025558,1.00145,0.07186,0.002221,-0.015485,76.092026,3.884003,-148.373505,,,
729860241.552857,-1.300398,-2.424833,-19.04733,0.031601,-0.025558,1.00145,0.07186,0.002221,-0.015485,76.092026,3.884003,-148.373505,,,
729860241.556173,-1.280191,-2.43235,-19.049552,0.023926,-0.026993,0.999283,0.07021,-0.027564,-0.009494,76.092026,3.884003,-148.373505,,,
729860241.559504,-1.280191,-2.43235,-19.049552,0.023926,-0.026993,0.999283,0.07021,-0.027564,-0.009494,76.092026,3.884003,-148.373505,,,
729860241.562858,-1.261119,-2.443993,-19.050889,0.023926,-0.026993,0.999283,0.07021,-0.027564,-0.009494,76.092026,3.884003,-148.373505,,,
729860241.566175,-1.241241,-2.45574,-19.051178,0.022156,-0.02742,0.992554,0.070437,-0.040763,-0.00517,76.092026,3.884003,-148.373505,,,
729860241.569577,-1.241241,-2.45574,-19.051178,0.022156,-0.02742,0.992554,0.070437,-0.040763,-0.00517,76.092026,3.884003,-148.373505,,,
