Time (sec),Pitch (deg),Roll (deg),Yaw(deg),X-Acceleration (g),Y-Acceleration (g),Z-Acceleration (g),Pitch Rate (deg/sec),Roll Rate (deg/sec),Yaw Rate (deg/sec),Magnetic Field in X direction (uT),Magnetic Field in Y direction (uT),Magnetic Field in Z Direction (uT),Latitude (deg),Longitude (deg),Altitude (m)
729861936.218378,1.754075,2.153005,124.374391,-0.032776,0.033752,0.981476,-0.017366,-0.024603,0.015374,66.905441,31.811478,-146.351837,,,
729861936.221634,1.748647,2.149574,124.379337,-0.035294,0.03009,0.994461,-0.017366,-0.024603,0.015374,66.905441,31.811478,-146.351837,,,
729861936.224777,1.748647,2.149574,124.379337,-0.035294,0.03009,0.994461,-0.017366,-0.024603,0.015374,66.905441,31.811478,-146.351837,,,
729861936.228348,1.741947,2.139716,124.384539,-0.035294,0.03009,0.994461,-0.021873,-0.030202,0.017495,66.905441,31.811478,-146.351837,,,
729861936.231636,1.734173,2.136421,124.389512,-0.035141,0.032776,0.998581,-0.021873,-0.030202,0.017495,66.905441,31.811478,-146.351837,,,
729861936.23497,1.734173,2.136421,124.389512,-0.035141,0.032776,0.998581,-0.021873,-0.030202,0.017495,66.905441,31.811478,-146.351837,,,
729861936.238313,1.726148,2.127999,124.394604,-0.035141,0.032776,0.998581,-0.027983,-0.02862,0.017425,66.854904,31.798203,-146.544403,,,
729861936.241685,1.717296,2.125876,124.399381,-0.030029,0.032974,1.004303,-0.027983,-0.02862,0.017425,66.854904,31.798203,-146.544403,,,
729861936.244968,1.717296,2.125876,124.399381,-0.030029,0.032974,1.004303,-0.027983,-0.02862,0.017425,66.854904,31.798203,-146.544403,,,
729861936.248327,1.709959,2.118893,124.404411,-0.030029,0.032974,1.004303,-0.028551,-0.022188,0.015462,66.854904,31.798203,-146.544403,,,
729861936.251638,1.704078,2.116284,124.408555,-0.026733,0.033112,1.014053,-0.028551,-0.022188,0.015462,66.854904,31.798203,-146.544403,,,
729861936.255077,1.704078,2.116284,124.408555,-0.026733,0.033112,1.014053,-0.028551,-0.022188,0.015462,66.854904,31.798203,-146.544403,,,
729861936.258358,1.699631,2.112023,124.411387,-0.026733,0.033112,1.014053,-0.01644,-0.016268,0.009,66.854904,31.798203,-146.544403,,,
729861936.26164,1.697773,2.113037,124.413161,-0.019516,0.03186,1.020569,-0.01644,-0.016268,0.009,66.854904,31.798203,-146.544403,,,
729861936.264987,1.697773,2.113037,124.413161,-0.019516,0.03186,1.020569,-0.01644,-0.016268,0.009,66.854904,31.798203,-146.544403,,,
729861936.268376,1.697207,2.115338,124.414053,-0.019516,0.03186,1.020569,-0.004966,0.007303,0.002128,66.854904,31.798203,-146.544403,,,
729861936.271632,1.699386,2.122048,124.41398,-0.019669,0.028717,1.03067,-0.004966,0.007303,0.002128,66.854904,31.798203,-146.544403,,,
729861936.275029,1.699386,2.122048,124.41398,-0.019669,0.028717,1.03067,-0.004966,0.007303,0.002128,66.854904,31.798203,-146.544403,,,
729861936.278301,1.703245,2.130383,124.413959,-0.019669,0.028717,1.03067,0.015119,0.028729,0.002216,66.823196,32.090714,-146.315231,,,
729861936.28164,1.710958,2.139371,124.414715,-0.024628,0.026703,1.03302,0.015119,0.028729,0.002216,66.823196,32.090714,-146.315231,,,
729861936.284987,1.710958,2.139371,124.414715,-0.024628,0.026703,1.03302,0.015119,0.028729,0.002216,66.823196,32.090714,-146.315231,,,
729861936.288321,1.719636,2.150574,124.416323,-0.024628,0.026703,1.03302,0.032017,0.042223,0.006312,66.823196,32.090714,-146.315231,,,
729861936.291459,1.730557,2.160381,124.418125,-0.032776,0.023895,1.02594,0.032017,0.042223,0.006312,66.823196,32.090714,-146.315231,,,
729861936.295016,1.730557,2.160381,124.418125,-0.032776,0.023895,1.02594,0.032017,0.042223,0.006312,66.823196,32.090714,-146.315231,,,
729861936.298327,1.741207,2.171124,124.419091,-0.032776,0.023895,1.02594,0.039204,0.041291,0.004612,66.823196,32.090714,-146.315231,,,
729861936.301643,1.751198,2.179808,124.418896,-0.034378,0.027863,1.013184,0.039204,0.041291,0.004612,66.823196,32.090714,-146.315231,,,
729861936.305069,1.751198,2.179808,124.418896,-0.034378,0.027863,1.013184,0.039204,0.041291,0.004612,66.823196,32.090714,-146.315231,,,
729861936.308081,1.759011,2.187322,124.417101,-0.034378,0.027863,1.013184,0.031829,0.031608,-0.003245,66.823196,32.090714,-146.315231,,,
729861936.311665,1.76347,2.189804,124.41405,-0.035812,0.0354,0.991928,0.031829,0.031608,-0.003245,66.823196,32.090714,-146.315231,,,
729861936.314978,1.76347,2.189804,124.41405,-0.035812,0.0354,0.991928,0.031829,0.031608,-0.003245,66.823196,32.090714,-146.315231,,,
729861936.318381,1.762581,2.190939,124.410063,-0.035812,0.0354,0.991928,0.003047,0.008854,-0.014247,66.823196,32.090714,-146.315231,,,
729861936.321633,1.75751,2.185126,124.406202,-0.040024,0.03894,0.971268,0.003047,0.008854,-0.014247,66.747665,31.974716,-146.189117,,,
729861936.324812,1.75751,2.185126,124.406202,-0.040024,0.03894,0.971268,0.003047,0.008854,-0.014247,66.747665,31.974716,-146.189117,,,
729861936.328337,1.747518,2.180097,124.402526,-0.040024,0.03894,0.971268,-0.032463,-0.013906,-0.014697,66.747665,31.974716,-146.189117,,,
729861936.331639,1.733865,2.16823,124.39927,-0.045395,0.037842,0.965179,-0.032463,-0.013906,-0.014697,66.747665,31.974716,-146.189117,,,
729861936.334972,1.733865,2.16823,124.39927,-0.045395,0.037842,0.965179,-0.032463,-0.013906,-0.014697,66.747665,31.974716,-146.189117,,,
729861936.338328,1.718799,2.161804,124.396418,-0.045395,0.037842,0.965179,-0.053044,-0.018443,-0.013781,66.747665,31.974716,-146.189117,,,
729861936.341437,1.705097,2.149777,124.394988,-0.049286,0.031784,0.977753,-0.053044,-0.018443,-0.013781,66.747665,31.974716,-146.189117,,,
729861936.345072,1.705097,2.149777,124.394988,-0.049286,0.031784,0.977753,-0.053044,-0.018443,-0.013781,66.747665,31.974716,-146.189117,,,
729861936.348311,1.694527,2.147201,124.3946,-0.049286,0.031784,0.977753,-0.038626,-0.009645,-0.004259,66.747665,31.974716,-146.189117,,,
729861936.351641,1.68765,2.139809,124.395901,-0.049347,0.025177,1.005386,-0.038626,-0.009645,-0.004259,66.747665,31.974716,-146.189117,,,
729861936.354968,1.68765,2.139809,124.395901,-0.049347,0.025177,1.005386,-0.038626,-0.009645,-0.004259,66.747665,31.974716,-146.189117,,,
729861936.35819,1.684707,2.139423,124.399419,-0.049347,0.025177,1.005386,-0.013122,0.00176,0.008403,66.747665,31.974716,-146.189117,,,
729861936.361651,1.684005,2.135113,124.405494,-0.05455,0.020889,1.018066,-0.013122,0.00176,0.008403,66.76442,31.955658,-146.103699,,,
729861936.364989,1.684005,2.135113,124.405494,-0.05455,0.020889,1.018066,-0.013122,0.00176,0.008403,66.76442,31.955658,-146.103699,,,
729861936.368315,1.687427,2.134599,124.413581,-0.05455,0.020889,1.018066,0.011526,0.001282,0.024547,66.76442,31.955658,-146.103699,,,
729861936.371639,1.692519,2.131227,124.423703,-0.057877,0.017731,1.015945,0.011526,0.001282,0.024547,66.76442,31.955658,-146.103699,,,
729861936.374764,1.692519,2.131227,124.423703,-0.057877,0.017731,1.015945,0.011526,0.001282,0.024547,66.76442,31.955658,-146.103699,,,
729861936.378359,1.700467,2.127651,124.434833,-0.057877,0.017731,1.015945,0.025678,-0.00747,0.04008,66.76442,31.955658,-146.103699,,,
729861936.381638,1.709939,2.120641,124.446293,-0.054291,0.018646,1.004898,0.025678,-0.00747,0.04008,66.76442,31.955658,-146.103699,,,
729861936.385061,1.709939,2.120641,124.446293,-0.054291,0.018646,1.004898,0.025678,-0.00747,0.04008,66.76442,31.955658,-146.103699,,,
729861936.388316,1.72072,2.113248,124.457707,-0.054291,0.018646,1.004898,0.034377,-0.021069,0.03941,66.76442,31.955658,-146.103699,,,
729861936.391466,1.73365,2.104393,124.46815,-0.046524,0.025314,0.998627,0.034377,-0.021069,0.03941,66.76442,31.955658,-146.103699,,,
729861936.395002,1.73365,2.104393,124.46815,-0.046524,0.025314,0.998627,0.034377,-0.021069,0.03941,66.76442,31.955658,-146.103699,,,
729861936.398378,1.743795,2.093568,124.476332,-0.046524,0.025314,0.998627,0.037963,-0.031697,0.030667,66.76442,31.955658,-146.103699,,,
729861936.401641,1.753707,2.085188,124.481847,-0.033951,0.028564,0.98822,0.037963,-0.031697,0.030667,66.743118,31.794968,-146.243042,,,
729861936.404986,1.753707,2.085188,124.481847,-0.033951,0.028564,0.98822,0.037963,-0.031697,0.030667,66.743118,31.794968,-146.243042,,,
729861936.408357,1.75873,2.074198,124.485162,-0.033951,0.028564,0.98822,0.021682,-0.035478,0.011934,66.743118,31.794968,-146.243042,,,
729861936.41164,1.760449,2.06854,124.48611,-0.02771,0.0345,0.975143,0.021682,-0.035478,0.011934,66.743118,31.794968,-146.243042,,,
729861936.414994,1.760449,2.06854,124.48611,-0.02771,0.0345,0.975143,0.021682,-0.035478,0.011934,66.743118,31.794968,-146.243042,,,
729861936.418313,1.756089,2.058892,124.485572,-0.02771,0.0345,0.975143,-0.00964,-0.032131,-0.001526,66.743118,31.794968,-146.243042,,,
729861936.421658,1.746832,2.055177,124.484077,-0.026993,0.041412,0.968384,-0.00964,-0.032131,-0.001526,66.743118,31.794968,-146.243042,,,
729861936.42505,1.746832,2.055177,124.484077,-0.026993,0.041412,0.968384,-0.00964,-0.032131,-0.001526,66.743118,31.794968,-146.243042,,,
729861936.428301,1.732635,2.049119,124.48241,-0.026993,0.041412,0.968384,-0.044552,-0.021394,-0.008986,66.743118,31.794968,-146.243042,,,
729861936.431647,1.713221,2.051069,124.48034,-0.029617,0.04126,0.965988,-0.044552,-0.021394,-0.008986,66.743118,31.794968,-146.243042,,,
729861936.434997,1.713221,2.051069,124.48034,-0.029617,0.04126,0.965988,-0.044552,-0.021394,-0.008986,66.743118,31.794968,-146.243042,,,
729861936.438366,1.692798,2.050401,124.478589,-0.029617,0.04126,0.965988,-0.071718,-0.001079,-0.009731,66.743118,31.794968,-146.243042,,,
729861936.441679,1.669044,2.059694,124.477414,-0.033173,0.037415,0.975021,-0.071718,-0.001079,-0.009731,66.953796,31.773544,-146.087082,,,
729861936.444976,1.669044,2.059694,124.477414,-0.033173,0.037415,0.975021,-0.071718,-0.001079,-0.009731,66.953796,31.773544,-146.087082,,,
729861936.448324,1.648139,2.063883,124.477935,-0.033173,0.037415,0.975021,-0.075944,0.019064,-0.00737,66.953796,31.773544,-146.087082,,,
729861936.451637,1.627888,2.077983,124.479986,-0.039841,0.02861,0.989243,-0.075944,0.019064,-0.00737,66.953796,31.773544,-146.087082,,,
729861936.454974,1.627888,2.077983,124.479986,-0.039841,0.02861,0.989243,-0.075944,0.019064,-0.00737,66.953796,31.773544,-146.087082,,,
729861936.458168,1.614219,2.085937,124.484243,-0.039841,0.02861,0.989243,-0.051301,0.028837,0.010208,66.953796,31.773544,-146.087082,,,
729861936.461689,1.603977,2.100371,124.49032,-0.046234,0.016434,1.009293,-0.051301,0.028837,0.010208,66.953796,31.773544,-146.087082,,,
729861936.464789,1.603977,2.100371,124.49032,-0.046234,0.016434,1.009293,-0.051301,0.028837,0.010208,66.953796,31.773544,-146.087082,,,
729861936.468355,1.600483,2.107611,124.49851,-0.046234,0.016434,1.009293,-0.019418,0.030575,0.02568,66.953796,31.773544,-146.087082,,,
729861936.471639,1.60075,2.115177,124.507711,-0.046875,0.012115,1.018921,-0.019418,0.030575,0.02568,66.953796,31.773544,-146.087082,,,
729861936.474891,1.60075,2.115177,124.507711,-0.046875,0.012115,1.018921,-0.019418,0.030575,0.02568,66.953796,31.773544,-146.087082,,,
729861936.478343,1.603935,2.118004,124.517375,-0.046875,0.012115,1.018921,0.010943,0.016315,0.031255,66.953796,31.773544,-146.087082,,,
729861936.481641,1.610134,2.114311,124.526931,-0.043793,0.012665,1.018066,0.010943,0.016315,0.031255,66.953796,31.773544,-146.087082,,,
729861936.48501,1.610134,2.114311,124.526931,-0.043793,0.012665,1.018066,0.010943,0.016315,0.031255,66.86908,32.153839,-146.445587,,,
729861936.488374,1.61697,2.108324,124.535063,-0.043793,0.012665,1.018066,0.021179,-0.014723,0.026714,66.86908,32.153839,-146.445587,,,
729861936.491453,1.625844,2.093927,124.541601,-0.036819,0.018005,1.006805,0.021179,-0.014723,0.026714,66.86908,32.153839,-146.445587,,,
729861936.495067,1.625844,2.093927,124.541601,-0.036819,0.018005,1.006805,0.021179,-0.014723,0.026714,66.86908,32.153839,-146.445587,,,
729861936.498385,1.632365,2.079237,124.545912,-0.036819,0.018005,1.006805,0.022699,-0.043973,0.01679,66.86908,32.153839,-146.445587,,,
729861936.501661,1.641261,2.059436,124.54844,-0.029663,0.026077,1.00087,0.022699,-0.043973,0.01679,66.86908,32.153839,-146.445587,,,
729861936.504997,1.641261,2.059436,124.54844,-0.029663,0.026077,1.00087,0.022699,-0.043973,0.01679,66.86908,32.153839,-146.445587,,,
729861936.508147,1.646127,2.041409,124.549934,-0.029663,0.026077,1.00087,0.020068,-0.060485,0.006094,66.86908,32.153839,-146.445587,,,
729861936.511676,1.651481,2.022695,124.550627,-0.025543,0.029495,0.996674,0.020068,-0.060485,0.006094,66.86908,32.153839,-146.445587,,,
729861936.515075,1.651481,2.022695,124.550627,-0.025543,0.029495,0.996674,0.020068,-0.060485,0.006094,66.86908,32.153839,-146.445587,,,
729861936.518312,1.651866,2.007947,124.550572,-0.025543,0.029495,0.996674,0.00645,-0.051196,-0.002661,66.86908,32.153839,-146.445587,,,
729861936.521646,1.651688,1.996864,124.550561,-0.022873,0.031982,0.992996,0.00645,-0.051196,-0.002661,66.86908,32.153839,-146.445587,,,
729861936.524806,1.651688,1.996864,124.550561,-0.022873,0.031982,0.992996,0.00645,-0.051196,-0.002661,66.620361,32.200989,-146.241623,,,
729861936.528362,1.647446,1.988502,124.550719,-0.022873,0.031982,0.992996,-0.013567,-0.028322,-0.003049,66.620361,32.200989,-146.241623,,,
729861936.531638,1.638279,1.986154,124.550387,-0.021866,0.032425,0.99176,-0.013567,-0.028322,-0.003049,66.620361,32.200989,-146.241623,,,
729861936.534994,1.638279,1.986154,124.550387,-0.021866,0.032425,0.99176,-0.013567,-0.028322,-0.003049,66.620361,32.200989,-146.241623,,,
729861936.538323,1.625755,1.982924,124.549349,-0.021866,0.032425,0.99176,-0.039357,-0.00952,-0.006221,66.620361,32.200989,-146.241623,,,
729861936.54149,1.606668,1.985159,124.547423,-0.020493,0.034515,0.984879,-0.039357,-0.00952,-0.006221,66.620361,32.200989,-146.241623,,,
729861936.545017,1.606668,1.985159,124.547423,-0.020493,0.034515,0.984879,-0.039357,-0.00952,-0.006221,66.620361,32.200989,-146.241623,,,
729861936.548324,1.587578,1.982646,124.54445,-0.020493,0.034515,0.984879,-0.06351,-0.006402,-0.013219,66.620361,32.200989,-146.241623,,,
729861936.551645,1.56426,1.984836,124.539643,-0.020828,0.034698,0.979858,-0.06351,-0.006402,-0.013219,66.620361,32.200989,-146.241623,,,
729861936.555049,1.56426,1.984836,124.539643,-0.020828,0.034698,0.979858,-0.06351,-0.006402,-0.013219,66.620361,32.200989,-146.241623,,,
729861936.558159,1.544987,1.983694,124.533694,-0.020828,0.034698,0.979858,-0.070497,-0.003334,-0.020975,66.620361,32.200989,-146.241623,,,
729861936.561669,1.525638,1.985257,124.526984,-0.022797,0.029648,0.99408,-0.070497,-0.003334,-0.020975,66.620361,32.200989,-146.241623,,,
729861936.564988,1.525638,1.985257,124.526984,-0.022797,0.029648,0.99408,-0.070497,-0.003334,-0.020975,66.778732,31.977875,-146.325378,,,
729861936.568388,1.511915,1.985753,124.520387,-0.022797,0.029648,0.99408,-0.045464,0.003645,-0.025442,66.778732,31.977875,-146.325378,,,
729861936.571633,1.500653,1.987671,124.514662,-0.02565,0.019943,1.007965,-0.045464,0.003645,-0.025442,66.778732,31.977875,-146.325378,,,
729861936.575044,1.500653,1.987671,124.514662,-0.02565,0.019943,1.007965,-0.045464,0.003645,-0.025442,66.778732,31.977875,-146.325378,,,
729861936.578315,1.495037,1.991722,124.509742,-0.02565,0.019943,1.007965,-0.020993,0.014703,-0.021991,66.778732,31.977875,-146.325378,,,
729861936.581637,1.494417,1.994561,124.505864,-0.034103,0.014114,1.013641,-0.020993,0.014703,-0.021991,66.778732,31.977875,-146.325378,,,
729861936.584978,1.494417,1.994561,124.505864,-0.034103,0.014114,1.013641,-0.020993,0.014703,-0.021991,66.778732,31.977875,-146.325378,,,
729861936.588322,1.498404,2.001705,124.503628,-0.034103,0.014114,1.013641,0.012344,0.025977,-0.010356,66.778732,31.977875,-146.325378,,,
729861936.591707,1.507246,2.005701,124.503515,-0.0448,0.009659,1.014374,0.012344,0.025977,-0.010356,66.778732,31.977875,-146.325378,,,
729861936.595059,1.507246,2.005701,124.503515,-0.0448,0.009659,1.014374,0.012344,0.025977,-0.010356,66.778732,31.977875,-146.325378,,,
729861936.598323,1.516974,2.013308,124.505331,-0.0448,0.009659,1.014374,0.035049,0.029249,0.005244,66.778732,31.977875,-146.325378,,,
729861936.601643,1.528446,2.014704,124.508816,-0.051865,0.010101,0.998581,0.035049,0.029249,0.005244,66.778732,31.977875,-146.325378,,,
729861936.604989,1.528446,2.014704,124.508816,-0.051865,0.010101,0.998581,0.035049,0.029249,0.005244,66.778732,31.977875,-146.325378,,,
729861936.608456,1.537425,2.019304,124.513432,-0.051865,0.010101,0.998581,0.03423,0.022417,0.012546,66.759811,32.024261,-146.097015,,,
729861936.611633,1.544313,2.014962,124.519291,-0.052414,0.016098,0.97702,0.03423,0.022417,0.012546,66.759811,32.024261,-146.097015,,,
729861936.614997,1.544313,2.014962,124.519291,-0.052414,0.016098,0.97702,0.03423,0.022417,0.012546,66.759811,32.024261,-146.097015,,,
729861936.618311,1.545686,2.010292,124.525329,-0.052414,0.016098,0.97702,0.00859,-0.008424,0.01878,66.759811,32.024261,-146.097015,,,
729861936.621671,1.54317,1.992681,124.531582,-0.055161,0.02066,0.957047,0.00859,-0.008424,0.01878,66.759811,32.024261,-146.097015,,,
729861936.625046,1.54317,1.992681,124.531582,-0.055161,0.02066,0.957047,0.00859,-0.008424,0.01878,66.759811,32.024261,-146.097015,,,
729861936.6283,1.534019,1.974166,124.537296,-0.055161,0.02066,0.957047,-0.02864,-0.056134,0.019073,66.759811,32.024261,-146.097015,,,
729861936.631649,1.522409,1.945481,124.541749,-0.051437,0.028214,0.947388,-0.02864,-0.056134,0.019073,66.759811,32.024261,-146.097015,,,
729861936.635063,1.522409,1.945481,124.541749,-0.051437,0.028214,0.947388,-0.02864,-0.056134,0.019073,66.759811,32.024261,-146.097015,,,
729861936.638323,1.506822,1.918399,124.544272,-0.051437,0.028214,0.947388,-0.05486,-0.091493,0.006817,66.759811,32.024261,-146.097015,,,
729861936.641486,1.490114,1.886178,124.544913,-0.038895,0.033554,0.961929,-0.05486,-0.091493,0.006817,66.759811,32.024261,-146.097015,,,
729861936.645039,1.490114,1.886178,124.544913,-0.038895,0.033554,0.961929,-0.05486,-0.091493,0.006817,66.759811,32.024261,-146.097015,,,
729861936.648315,1.474036,1.85969,124.543297,-0.038895,0.033554,0.961929,-0.057164,-0.094533,-0.007429,66.640625,32.160339,-146.225861,,,
729861936.651644,1.458042,1.836395,124.540016,-0.024628,0.032974,0.986191,-0.057164,-0.094533,-0.007429,66.640625,32.160339,-146.225861,,,
729861936.655013,1.458042,1.836395,124.540016,-0.024628,0.032974,0.986191,-0.057164,-0.094533,-0.007429,66.640625,32.160339,-146.225861,,,
729861936.658249,1.44566,1.821698,124.535574,-0.024628,0.032974,0.986191,-0.045968,-0.058191,-0.01627,66.640625,32.160339,-146.225861,,,
729861936.66165,1.432968,1.818062,124.530954,-0.017822,0.029648,1.008469,-0.045968,-0.058191,-0.01627,66.640625,32.160339,-146.225861,,,
729861936.664983,1.432968,1.818062,124.530954,-0.017822,0.029648,1.008469,-0.045968,-0.058191,-0.01627,66.640625,32.160339,-146.225861,,,
729861936.668329,1.424401,1.821868,124.527217,-0.017822,0.029648,1.008469,-0.02953,0.007767,-0.015761,66.640625,32.160339,-146.225861,,,
729861936.671643,1.414549,1.841108,124.524413,-0.017715,0.023224,1.015305,-0.02953,0.007767,-0.015761,66.640625,32.160339,-146.225861,,,
729861936.674767,1.414549,1.841108,124.524413,-0.017715,0.023224,1.015305,-0.02953,0.007767,-0.015761,66.640625,32.160339,-146.225861,,,
729861936.678355,1.408809,1.862356,124.523132,-0.017715,0.023224,1.015305,-0.019511,0.069519,-0.006971,66.640625,32.160339,-146.225861,,,
729861936.681638,1.401487,1.898182,124.522973,-0.023453,0.019669,1.008377,-0.019511,0.069519,-0.006971,66.640625,32.160339,-146.225861,,,
729861936.68508,1.401487,1.898182,124.522973,-0.023453,0.019669,1.008377,-0.019511,0.069519,-0.006971,66.640625,32.160339,-146.225861,,,
729861936.688312,1.398305,1.931373,124.524181,-0.023453,0.019669,1.008377,-0.010761,0.113086,0.001772,66.676605,32.063721,-146.246811,,,
729861936.691476,1.395938,1.97483,124.526463,-0.031601,0.021286,0.996445,-0.010761,0.113086,0.001772,66.676605,32.063721,-146.246811,,,
729861936.695006,1.395938,1.97483,124.526463,-0.031601,0.021286,0.996445,-0.010761,0.113086,0.001772,66.676605,32.063721,-146.246811,,,
729861936.698368,1.395885,2.009009,124.530173,-0.031601,0.021286,0.996445,0.001284,0.128036,0.01056,66.676605,32.063721,-146.246811,,,
729861936.701639,1.396151,2.049113,124.534272,-0.038162,0.01918,0.986816,0.001284,0.128036,0.01056,66.676605,32.063721,-146.246811,,,
729861936.704984,1.396151,2.049113,124.534272,-0.038162,0.01918,0.986816,0.001284,0.128036,0.01056,66.676605,32.063721,-146.246811,,,
729861936.708126,1.395205,2.075094,124.538342,-0.038162,0.01918,0.986816,-0.001483,0.098438,0.013366,66.676605,32.063721,-146.246811,,,
729861936.71171,1.39322,2.099308,124.541647,-0.042465,0.023911,0.970871,-0.001483,0.098438,0.013366,66.676605,32.063721,-146.246811,,,
729861936.714983,1.39322,2.099308,124.541647,-0.042465,0.023911,0.970871,-0.001483,0.098438,0.013366,66.676605,32.063721,-146.246811,,,
729861936.718319,1.386604,2.110542,124.543968,-0.042465,0.023911,0.970871,-0.017153,0.048201,0.007887,66.676605,32.063721,-146.246811,,,
729861936.721642,1.378033,2.112263,124.54469,-0.044724,0.028198,0.959351,-0.017153,0.048201,0.007887,66.676605,32.063721,-146.246811,,,
729861936.724836,1.378033,2.112263,124.54469,-0.044724,0.028198,0.959351,-0.017153,0.048201,0.007887,66.676605,32.063721,-146.246811,,,
729861936.728347,1.365002,2.107417,124.544265,-0.044724,0.028198,0.959351,-0.044493,-0.007974,-0.005497,66.65921,32.280167,-146.366257,,,
729861936.731638,1.35157,2.092611,124.543138,-0.045258,0.032684,0.960846,-0.044493,-0.007974,-0.005497,66.65921,32.280167,-146.366257,,,
729861936.735035,1.35157,2.092611,124.543138,-0.045258,0.032684,0.960846,-0.044493,-0.007974,-0.005497,66.65921,32.280167,-146.366257,,,
729861936.738314,1.336469,2.078355,124.541061,-0.045258,0.032684,0.960846,-0.050777,-0.045765,-0.010774,66.65921,32.280167,-146.366257,,,
729861936.74144,1.336469,2.078355,124.541061,-0.042435,0.03067,0.97728,-0.050777,-0.045765,-0.010774,66.65921,32.280167,-146.366257,,,
729861936.74501,1.320919,2.059544,124.538718,-0.042435,0.03067,0.97728,-0.050777,-0.045765,-0.010774,66.65921,32.280167,-146.366257,,,
729861936.748354,1.305627,2.047226,124.536299,-0.042435,0.03067,0.97728,-0.053043,-0.042793,-0.009582,66.65921,32.280167,-146.366257,,,
729861936.751636,1.290651,2.035819,124.534429,-0.037048,0.024765,0.997894,-0.053043,-0.042793,-0.009582,66.65921,32.280167,-146.366257,,,
729861936.754995,1.290651,2.035819,124.534429,-0.037048,0.024765,0.997894,-0.053043,-0.042793,-0.009582,66.65921,32.280167,-146.366257,,,
729861936.75835,1.275875,2.034233,124.533835,-0.037048,0.024765,0.997894,-0.05231,-0.007934,-0.007712,66.65921,32.280167,-146.366257,,,
729861936.761642,1.26237,2.037203,124.535259,-0.031754,0.021667,1.015259,-0.05231,-0.007934,-0.007712,66.65921,32.280167,-146.366257,,,
729861936.765003,1.26237,2.037203,124.535259,-0.031754,0.021667,1.015259,-0.05231,-0.007934,-0.007712,66.65921,32.280167,-146.366257,,,
729861936.768313,1.252022,2.048664,124.538133,-0.031754,0.021667,1.015259,-0.038971,0.036365,0.004581,66.65921,32.280167,-146.366257,,,
729861936.771642,1.244853,2.064661,124.5419,-0.031342,0.017899,1.031937,-0.038971,0.036365,0.004581,66.867508,32.379486,-146.366531,,,
729861936.775084,1.244853,2.064661,124.5419,-0.031342,0.017899,1.031937,-0.038971,0.036365,0.004581,66.867508,32.379486,-146.366531,,,
729861936.778302,1.241884,2.084818,124.545746,-0.031342,0.017899,1.031937,-0.014625,0.069555,0.013541,66.867508,32.379486,-146.366531,,,
729861936.781644,1.242984,2.10715,124.548321,-0.02774,0.015305,1.047043,-0.014625,0.069555,0.013541,66.867508,32.379486,-146.366531,,,
729861936.784973,1.242984,2.10715,124.548321,-0.02774,0.015305,1.047043,-0.014625,0.069555,0.013541,66.867508,32.379486,-146.366531,,,
729861936.788381,1.247697,2.127842,124.549325,-0.02774,0.015305,1.047043,0.015465,0.076892,0.002363,66.867508,32.379486,-146.366531,,,
729861936.791679,1.255931,2.148402,124.548634,-0.024353,0.017746,1.043182,0.015465,0.076892,0.002363,66.867508,32.379486,-146.366531,,,
729861936.794979,1.255931,2.148402,124.548634,-0.024353,0.017746,1.043182,0.015465,0.076892,0.002363,66.867508,32.379486,-146.366531,,,
729861936.79843,1.265817,2.164895,124.54699,-0.024353,0.017746,1.043182,0.033169,0.063831,-0.006467,66.867508,32.379486,-146.366531,,,
729861936.801629,1.265817,2.164895,124.54699,-0.02507,0.022552,1.029129,0.033169,0.063831,-0.006467,66.867508,32.379486,-146.366531,,,
729861936.805004,1.276956,2.180376,124.544244,-0.02507,0.022552,1.029129,0.033169,0.063831,-0.006467,66.867508,32.379486,-146.366531,,,
729861936.808369,1.285529,2.19108,124.540504,-0.02507,0.022552,1.029129,0.031458,0.039584,-0.013293,66.867508,32.379486,-146.366531,,,
729861936.813713,1.293658,2.201018,124.536804,-0.029922,0.024994,1.011887,0.031458,0.039584,-0.013293,66.995514,32.362839,-146.338028,,,
729861936.814723,1.293658,2.201018,124.536804,-0.029922,0.024994,1.011887,0.031458,0.039584,-0.013293,66.995514,32.362839,-146.338028,,,
729861936.818353,1.298891,2.207013,124.533541,-0.029922,0.024994,1.011887,0.021551,0.024598,-0.012209,66.995514,32.362839,-146.338028,,,
729861936.821666,1.298891,2.207013,124.533541,-0.03537,0.027298,1.001205,0.021551,0.024598,-0.012209,66.995514,32.362839,-146.338028,,,
729861936.825046,1.302609,2.211894,124.530643,-0.03537,0.027298,1.001205,0.021551,0.024598,-0.012209,66.995514,32.362839,-146.338028,,,
729861936.828322,1.303432,2.214565,124.527955,-0.03537,0.027298,1.001205,0.006615,0.013403,-0.010223,66.995514,32.362839,-146.338028,,,
729861936.831702,1.303432,2.214565,124.527955,-0.038025,0.028091,0.995499,0.006615,0.013403,-0.010223,66.995514,32.362839,-146.338028,,,
729861936.834993,1.301982,2.215116,124.524922,-0.038025,0.028091,0.995499,0.006615,0.013403,-0.010223,66.995514,32.362839,-146.338028,,,
729861936.838374,1.298145,2.215322,124.521219,-0.038025,0.028091,0.995499,-0.011493,0.005393,-0.012563,66.995514,32.362839,-146.338028,,,
729861936.841534,1.298145,2.215322,124.521219,-0.038025,0.028091,0.995499,-0.011493,0.005393,-0.012563,66.995514,32.362839,-146.338028,,,
729861936.845007,1.292378,2.212948,124.516907,-0.037979,0.03244,0.994247,-0.011493,0.005393,-0.012563,66.995514,32.362839,-146.338028,,,
729861936.848309,1.286347,2.212926,124.51172,-0.037979,0.03244,0.994247,-0.019172,0.001254,-0.01925,66.995514,32.362839,-146.338028,,,
729861936.851643,1.286347,2.212926,124.51172,-0.035431,0.032059,0.998413,-0.019172,0.001254,-0.01925,66.976166,32.470306,-146.284729,,,
729861936.854974,1.280275,2.211227,124.506947,-0.035431,0.032059,0.998413,-0.019172,0.001254,-0.01925,66.976166,32.470306,-146.284729,,,
729861936.858216,1.276397,2.213453,124.502564,-0.035431,0.032059,0.998413,-0.013984,0.007071,-0.017647,66.976166,32.470306,-146.284729,,,
729861936.861671,1.276397,2.213453,124.502564,-0.035431,0.032059,0.998413,-0.013984,0.007071,-0.017647,66.976166,32.470306,-146.284729,,,
729861936.865034,1.273343,2.21432,124.498965,-0.039963,0.024857,1.010101,-0.013984,0.007071,-0.017647,66.976166,32.470306,-146.284729,,,
729861936.868314,1.272996,2.219788,124.497785,-0.039963,0.024857,1.010101,-0.002283,0.021071,-0.005931,66.976166,32.470306,-146.284729,,,
729861936.871662,1.272996,2.219788,124.497785,-0.048172,0.015411,1.020172,-0.002283,0.021071,-0.005931,66.976166,32.470306,-146.284729,,,
729861936.874875,1.274349,2.221114,124.499646,-0.048172,0.015411,1.020172,-0.002283,0.021071,-0.005931,66.976166,32.470306,-146.284729,,,
729861936.878326,1.278219,2.226037,124.503784,-0.048172,0.015411,1.020172,0.008249,0.021965,0.009841,66.976166,32.470306,-146.284729,,,
729861936.881641,1.278219,2.226037,124.503784,-0.05101,0.01033,1.021317,0.008249,0.021965,0.009841,66.976166,32.470306,-146.284729,,,
729861936.884979,1.284521,2.224686,124.509055,-0.05101,0.01033,1.021317,0.008249,0.021965,0.009841,66.976166,32.470306,-146.284729,,,
729861936.88831,1.293572,2.225436,124.514185,-0.05101,0.01033,1.021317,0.026181,0.00555,0.017235,66.976166,32.470306,-146.284729,,,
729861936.891471,1.293572,2.225436,124.514185,-0.05101,0.01033,1.021317,0.026181,0.00555,0.017235,66.976166,32.470306,-146.284729,,,
729861936.895001,1.306902,2.223106,124.518481,-0.046951,0.010941,1.021652,0.026181,0.00555,0.017235,67.094208,32.377136,-146.402466,,,
729861936.898305,1.323451,2.221717,124.520603,-0.046951,0.010941,1.021652,0.054015,-0.00043,0.010196,67.094208,32.377136,-146.402466,,,
729861936.90167,1.323451,2.221717,124.520603,-0.046951,0.010941,1.021652,0.054015,-0.00043,0.010196,67.094208,32.377136,-146.402466,,,
729861936.90502,1.34415,2.219457,124.520698,-0.039413,0.015198,1.023926,0.054015,-0.00043,0.010196,67.094208,32.377136,-146.402466,,,
729861936.908196,1.366669,2.21724,124.519881,-0.039413,0.015198,1.023926,0.079959,-0.002354,-0.001177,67.094208,32.377136,-146.402466,,,
729861936.911676,1.366669,2.21724,124.519881,-0.039413,0.015198,1.023926,0.079959,-0.002354,-0.001177,67.094208,32.377136,-146.402466,,,
729861936.914978,1.389438,2.215221,124.518479,-0.034348,0.019928,1.021378,0.079959,-0.002354,-0.001177,67.094208,32.377136,-146.402466,,,
729861936.918373,1.410028,2.214272,124.516355,-0.034348,0.019928,1.021378,0.076608,-0.00259,-0.004359,67.094208,32.377136,-146.402466,,,
729861936.92164,1.410028,2.214272,124.516355,-0.034348,0.019928,1.021378,0.076608,-0.00259,-0.004359,67.094208,32.377136,-146.402466,,,
729861936.924844,1.429092,2.213799,124.514168,-0.038177,0.024368,1.003983,0.076608,-0.00259,-0.004359,67.094208,32.377136,-146.402466,,,
729861936.928327,1.443205,2.214884,124.512626,-0.038177,0.024368,1.003983,0.053694,0.005681,-0.006831,67.094208,32.377136,-146.402466,,,
729861936.931681,1.443205,2.214884,124.512626,-0.038177,0.024368,1.003983,0.053694,0.005681,-0.006831,67.094208,32.377136,-146.402466,,,
729861936.934969,1.452369,2.215614,124.511248,-0.041855,0.029785,0.982864,0.053694,0.005681,-0.006831,67.163269,32.313339,-146.286728,,,
729861936.93831,1.455387,2.21596,124.510141,-0.041855,0.029785,0.982864,0.0188,0.006817,-0.005424,67.163269,32.313339,-146.286728,,,
729861936.941498,1.455387,2.21596,124.510141,-0.041855,0.029785,0.982864,0.0188,0.006817,-0.005424,67.163269,32.313339,-146.286728,,,
729861936.945041,1.451788,2.21577,124.509538,-0.046265,0.034943,0.966583,0.0188,0.006817,-0.005424,67.163269,32.313339,-146.286728,,,
729861936.948304,1.443853,2.2115,124.508914,-0.046265,0.034943,0.966583,-0.022984,-0.008091,-0.002522,67.163269,32.313339,-146.286728,,,
729861936.951676,1.443853,2.2115,124.508914,-0.046265,0.034943,0.966583,-0.022984,-0.008091,-0.002522,67.163269,32.313339,-146.286728,,,
729861936.95498,1.43016,2.209391,124.507974,-0.046814,0.034851,0.955109,-0.022984,-0.008091,-0.002522,67.163269,32.313339,-146.286728,,,
729861936.958352,1.418078,2.201771,124.506714,-0.046814,0.034851,0.955109,-0.041473,-0.023848,-0.007065,67.163269,32.313339,-146.286728,,,
729861936.961692,1.418078,2.201771,124.506714,-0.046814,0.034851,0.955109,-0.041473,-0.023848,-0.007065,67.163269,32.313339,-146.286728,,,
729861936.964979,1.403506,2.197243,124.505041,-0.046265,0.03302,0.962982,-0.041473,-0.023848,-0.007065,67.163269,32.313339,-146.286728,,,
729861936.968316,1.391494,2.188257,124.504013,-0.046265,0.03302,0.962982,-0.040023,-0.028835,-0.007187,67.163269,32.313339,-146.286728,,,
729861936.971719,1.391494,2.188257,124.504013,-0.046265,0.03302,0.962982,-0.040023,-0.028835,-0.007187,67.163269,32.313339,-146.286728,,,
729861936.975028,1.377826,2.179994,124.504286,-0.049286,0.025391,0.978073,-0.040023,-0.028835,-0.007187,67.100281,32.203751,-146.27858,,,
729861936.978303,1.367946,2.16873,124.506253,-0.049286,0.025391,0.978073,-0.037071,-0.03618,0.004846,67.100281,32.203751,-146.27858,,,
729861936.981675,1.367946,2.16873,124.506253,-0.049286,0.025391,0.978073,-0.037071,-0.03618,0.004846,67.100281,32.203751,-146.27858,,,
729861936.985037,1.359626,2.15757,124.509973,-0.051102,0.016586,0.986526,-0.037071,-0.03618,0.004846,67.100281,32.203751,-146.27858,,,
729861936.988302,1.355504,2.149266,124.514957,-0.051102,0.016586,0.986526,-0.017448,-0.027624,0.014713,67.100281,32.203751,-146.27858,,,
729861936.991706,1.355504,2.149266,124.514957,-0.051102,0.016586,0.986526,-0.017448,-0.027624,0.014713,67.100281,32.203751,-146.27858,,,
729861936.994979,1.354572,2.141897,124.520766,-0.049698,0.009964,1.003021,-0.017448,-0.027624,0.014713,67.100281,32.203751,-146.27858,,,
729861936.998328,1.357068,2.136662,124.527598,-0.049698,0.009964,1.003021,0.007584,-0.016038,0.022835,67.100281,32.203751,-146.27858,,,
729861937.001725,1.357068,2.136662,124.527598,-0.049698,0.009964,1.003021,0.007584,-0.016038,0.022835,67.100281,32.203751,-146.27858,,,
729861937.004965,1.36167,2.133439,124.535382,-0.046158,0.00798,1.009842,0.007584,-0.016038,0.022835,67.100281,32.203751,-146.27858,,,
729861937.008311,1.367298,2.13021,124.543731,-0.046158,0.00798,1.009842,0.01648,-0.005965,0.027116,67.100281,32.203751,-146.27858,,,
729861937.011785,1.367298,2.13021,124.543731,-0.046158,0.00798,1.009842,0.01648,-0.005965,0.027116,67.100281,32.203751,-146.27858,,,
729861937.014971,1.375494,2.129605,124.552043,-0.041748,0.01181,1.006683,0.01648,-0.005965,0.027116,66.946259,32.335617,-146.144165,,,
729861937.018314,1.383043,2.126126,124.559543,-0.041748,0.01181,1.006683,0.027254,-0.00678,0.025448,66.946259,32.335617,-146.144165,,,
729861937.021655,1.383043,2.126126,124.559543,-0.041748,0.01181,1.006683,0.027254,-0.00678,0.025448,66.946259,32.335617,-146.144165,,,
729861937.025051,1.392081,2.126245,124.565702,-0.037643,0.02037,0.997803,0.027254,-0.00678,0.025448,66.946259,32.335617,-146.144165,,,
729861937.028312,1.39651,2.119449,124.570841,-0.037643,0.02037,0.997803,0.01678,-0.018163,0.018824,66.946259,32.335617,-146.144165,,,
729861937.03166,1.39651,2.119449,124.570841,-0.037643,0.02037,0.997803,0.01678,-0.018163,0.018824,66.946259,32.335617,-146.144165,,,
729861937.034983,1.399621,2.113833,124.57525,-0.036453,0.027023,0.981537,0.01678,-0.018163,0.018824,66.946259,32.335617,-146.144165,,,
729861937.038315,1.396564,2.102793,124.579614,-0.036453,0.027023,0.981537,-0.006727,-0.033254,0.01383,66.946259,32.335617,-146.144165,,,
729861937.041533,1.396564,2.102793,124.579614,-0.036453,0.027023,0.981537,-0.006727,-0.033254,0.01383,66.946259,32.335617,-146.144165,,,
729861937.045045,1.391056,2.095211,124.583399,-0.038086,0.029541,0.971268,-0.006727,-0.033254,0.01383,66.946259,32.335617,-146.144165,,,
729861937.048307,1.381391,2.083066,124.58711,-0.038086,0.029541,0.971268,-0.030761,-0.039687,0.011926,66.946259,32.335617,-146.144165,,,
729861937.051745,1.381391,2.083066,124.58711,-0.038086,0.029541,0.971268,-0.030761,-0.039687,0.011926,66.946259,32.335617,-146.144165,,,
729861937.054986,1.369207,2.079033,124.590685,-0.03717,0.03035,0.9729,-0.030761,-0.039687,0.011926,66.946259,32.335617,-146.144165,,,
729861937.058179,1.355037,2.072761,124.593809,-0.03717,0.03035,0.9729,-0.044078,-0.022634,0.008405,67.2043,32.154358,-146.176071,,,
729861937.061654,1.355037,2.072761,124.593809,-0.03717,0.03035,0.9729,-0.044078,-0.022634,0.008405,67.2043,32.154358,-146.176071,,,
729861937.065015,1.337421,2.074879,124.59721,-0.035721,0.026947,0.985764,-0.044078,-0.022634,0.008405,67.2043,32.154358,-146.176071,,,
729861937.068314,1.319778,2.074002,124.602498,-0.035721,0.026947,0.985764,-0.059923,0.000845,0.011695,67.2043,32.154358,-146.176071,,,
729861937.071644,1.319778,2.074002,124.602498,-0.035721,0.026947,0.985764,-0.059923,0.000845,0.011695,67.2043,32.154358,-146.176071,,,
729861937.074847,1.298717,2.076877,124.609757,-0.038803,0.022873,0.994873,-0.059923,0.000845,0.011695,67.2043,32.154358,-146.176071,,,
729861937.07833,1.279128,2.074994,124.618874,-0.038803,0.022873,0.994873,-0.068243,0.001583,0.0278,67.2043,32.154358,-146.176071,,,
729861937.081648,1.279128,2.074994,124.618874,-0.038803,0.022873,0.994873,-0.068243,0.001583,0.0278,67.2043,32.154358,-146.176071,,,
729861937.08498,1.258158,2.07275,124.628866,-0.044067,0.017151,0.999054,-0.068243,0.001583,0.0278,67.2043,32.154358,-146.176071,,,
729861937.088167,1.241159,2.065447,124.638922,-0.044067,0.017151,0.999054,-0.062441,-0.021285,0.033182,67.2043,32.154358,-146.176071,,,
729861937.091503,1.241159,2.065447,124.638922,-0.044067,0.017151,0.999054,-0.062441,-0.021285,0.033182,67.2043,32.154358,-146.176071,,,
729861937.095006,1.226675,2.056571,124.648045,-0.044113,0.014496,1.01004,-0.062441,-0.021285,0.033182,67.2043,32.154358,-146.176071,,,
729861937.098311,1.21819,2.043702,124.656039,-0.044113,0.014496,1.01004,-0.032459,-0.039149,0.026742,66.946411,32.476166,-146.045303,,,
729861937.101742,1.21819,2.043702,124.656039,-0.044113,0.014496,1.01004,-0.032459,-0.039149,0.026742,66.946411,32.476166,-146.045303,,,
729861937.105006,1.215598,2.028912,124.662818,-0.0327,0.016937,1.028488,-0.032459,-0.039149,0.026742,66.946411,32.476166,-146.045303,,,
729861937.108173,1.218245,2.011967,124.668242,-0.0327,0.016937,1.028488,0.003559,-0.052926,0.019315,66.946411,32.476166,-146.045303,,,
729861937.111661,1.218245,2.011967,124.668242,-0.0327,0.016937,1.028488,0.003559,-0.052926,0.019315,66.946411,32.476166,-146.045303,,,
729861937.115057,1.226691,1.994577,124.672797,-0.026169,0.015488,1.032959,0.003559,-0.052926,0.019315,66.946411,32.476166,-146.045303,,,
729861937.118314,1.236249,1.976196,124.676682,-0.026169,0.015488,1.032959,0.030615,-0.061131,0.014798,66.946411,32.476166,-146.045303,,,
729861937.12166,1.236249,1.976196,124.676682,-0.026169,0.015488,1.032959,0.030615,-0.061131,0.014798,66.946411,32.476166,-146.045303,,,
729861937.124862,1.24919,1.960976,124.679723,-0.023392,0.016174,1.032547,0.030615,-0.061131,0.014798,66.946411,32.476166,-146.045303,,,
729861937.128324,1.260539,1.945696,124.682203,-0.023392,0.016174,1.032547,0.040509,-0.053534,0.010921,66.946411,32.476166,-146.045303,,,
729861937.13165,1.260539,1.945696,124.682203,-0.023392,0.016174,1.032547,0.040509,-0.053534,0.010921,66.946411,32.476166,-146.045303,,,
729861937.13499,1.273081,1.934814,124.684129,-0.020447,0.019409,1.022934,0.040509,-0.053534,0.010921,66.946411,32.476166,-146.045303,,,
729861937.138308,1.283544,1.92462,124.685324,-0.020447,0.019409,1.022934,0.037351,-0.03507,0.005537,66.759476,32.450439,-146.02179,,,
729861937.141522,1.283544,1.92462,124.685324,-0.020447,0.019409,1.022934,0.037351,-0.03507,0.005537,66.759476,32.450439,-146.02179,,,
729861937.145017,1.294535,1.918294,124.685189,-0.018784,0.025009,1.010818,0.037351,-0.03507,0.005537,66.759476,32.450439,-146.02179,,,
729861937.148315,1.304257,1.913945,124.683433,-0.018784,0.025009,1.010818,0.033743,-0.013151,-0.005495,66.759476,32.450439,-146.02179,,,
729861937.151718,1.304257,1.913945,124.683433,-0.018784,0.025009,1.010818,0.033743,-0.013151,-0.005495,66.759476,32.450439,-146.02179,,,
729861937.154991,1.311863,1.915645,124.679226,-0.013138,0.028412,1.002945,0.033743,-0.013151,-0.005495,66.759476,32.450439,-146.02179,,,
729861937.158361,1.317935,1.9165,124.672444,-0.013138,0.028412,1.002945,0.025869,0.007194,-0.023839,66.759476,32.450439,-146.02179,,,
729861937.16165,1.317935,1.9165,124.672444,-0.013138,0.028412,1.002945,0.025869,0.007194,-0.023839,66.759476,32.450439,-146.02179,,,
729861937.165055,1.32021,1.924143,124.663602,-0.014435,0.034424,0.992325,0.025869,0.007194,-0.023839,66.759476,32.450439,-146.02179,,,
729861937.168298,1.321468,1.927613,124.653455,-0.014435,0.034424,0.992325,0.00635,0.013783,-0.033191,66.759476,32.450439,-146.02179,,,
729861937.17166,1.321468,1.927613,124.653455,-0.014435,0.034424,0.992325,0.00635,0.013783,-0.033191,66.759476,32.450439,-146.02179,,,
729861937.175023,1.318675,1.934514,124.642273,-0.018524,0.035095,0.977722,0.00635,0.013783,-0.033191,66.759476,32.450439,-146.02179,,,
729861937.178305,1.315212,1.94085,124.630864,-0.018524,0.035095,0.977722,-0.0079,0.024106,-0.039862,66.85704,32.307968,-146.109665,,,
729861937.181669,1.315212,1.94085,124.630864,-0.018524,0.035095,0.977722,-0.0079,0.024106,-0.039862,66.85704,32.307968,-146.109665,,,
729861937.184985,1.308327,1.947193,124.620426,-0.027069,0.034775,0.966751,-0.0079,0.024106,-0.039862,66.85704,32.307968,-146.109665,,,
729861937.188311,1.300051,1.957073,124.611544,-0.027069,0.034775,0.966751,-0.026443,0.034019,-0.035953,66.85704,32.307968,-146.109665,,,
729861937.19175,1.300051,1.957073,124.611544,-0.027069,0.034775,0.966751,-0.026443,0.034019,-0.035953,66.85704,32.307968,-146.109665,,,
729861937.194983,1.288949,1.964831,124.604962,-0.038559,0.026978,0.964493,-0.026443,0.034019,-0.035953,66.85704,32.307968,-146.109665,,,
729861937.198311,1.278468,1.975653,124.601401,-0.038559,0.026978,0.964493,-0.034119,0.043565,-0.017381,66.85704,32.307968,-146.109665,,,
729861937.201662,1.278468,1.975653,124.601401,-0.038559,0.026978,0.964493,-0.034119,0.043565,-0.017381,66.85704,32.307968,-146.109665,,,
729861937.205038,1.267581,1.981541,124.6011,-0.050171,0.017319,0.967438,-0.034119,0.043565,-0.017381,66.85704,32.307968,-146.109665,,,
729861937.208338,1.259398,1.989959,124.603839,-0.050171,0.017319,0.967438,-0.028801,0.034995,0.007812,66.85704,32.307968,-146.109665,,,
729861937.21165,1.259398,1.989959,124.603839,-0.050171,0.017319,0.967438,-0.028801,0.034995,0.007812,66.85704,32.307968,-146.109665,,,
729861937.214998,1.253518,1.991166,124.60934,-0.056641,0.011795,0.978302,-0.028801,0.034995,0.007812,66.85704,32.307968,-146.109665,,,
729861937.218307,1.249952,1.993479,124.616042,-0.056641,0.011795,0.978302,-0.01441,0.017554,0.021567,66.85704,32.307968,-146.109665,,,
729861937.221648,1.249952,1.993479,124.616042,-0.056641,0.011795,0.978302,-0.01441,0.017554,0.021567,66.849747,32.335388,-146.106277,,,
729861937.225025,1.249116,1.984797,124.62322,-0.05545,0.010605,0.989319,-0.01441,0.017554,0.021567,66.849747,32.335388,-146.106277,,,
729861937.228304,1.249978,1.976461,124.629786,-0.05545,0.010605,0.989319,-0.001002,-0.022075,0.024232,66.849747,32.335388,-146.106277,,,
729861937.231735,1.249978,1.976461,124.629786,-0.05545,0.010605,0.989319,-0.001002,-0.022075,0.024232,66.849747,32.335388,-146.106277,,,
729861937.23499,1.254275,1.955956,124.634931,-0.046921,0.012939,0.988739,-0.001002,-0.022075,0.024232,66.849747,32.335388,-146.106277,,,
729861937.238318,1.258691,1.938871,124.638759,-0.046921,0.012939,0.988739,0.012636,-0.050697,0.009819,66.849747,32.335388,-146.106277,,,
729861937.241687,1.258691,1.938871,124.638759,-0.046921,0.012939,0.988739,0.012636,-0.050697,0.009819,66.849747,32.335388,-146.106277,,,
729861937.244995,1.265701,1.913533,124.642204,-0.04129,0.019775,0.992477,0.012636,-0.050697,0.009819,66.849747,32.335388,-146.106277,,,
729861937.248404,1.270577,1.893146,124.645064,-0.04129,0.019775,0.992477,0.018711,-0.068564,0.011044,66.849747,32.335388,-146.106277,,,
729861937.251691,1.270577,1.893146,124.645064,-0.04129,0.019775,0.992477,0.018711,-0.068564,0.011044,66.849747,32.335388,-146.106277,,,
729861937.255017,1.27715,1.870474,124.647994,-0.034637,0.021622,0.992416,0.018711,-0.068564,0.011044,66.849747,32.335388,-146.106277,,,
729861937.258185,1.279959,1.855482,124.650935,-0.034637,0.021622,0.992416,0.011968,-0.053699,0.009489,66.849747,32.335388,-146.106277,,,
729861937.261645,1.279959,1.855482,124.650935,-0.034637,0.021622,0.992416,0.011968,-0.053699,0.009489,66.661179,32.465439,-146.051178,,,
729861937.264926,1.282989,1.846422,124.653768,-0.029648,0.023712,0.990784,0.011968,-0.053699,0.009489,66.661179,32.465439,-146.051178,,,
729861937.268268,1.282106,1.843074,124.656726,-0.029648,0.023712,0.990784,-0.001062,-0.012998,0.008403,66.661179,32.465439,-146.051178,,,
729861937.271614,1.282106,1.843074,124.656726,-0.029648,0.023712,0.990784,-0.001062,-0.012998,0.008403,66.661179,32.465439,-146.051178,,,
729861937.274746,1.279635,1.849019,124.659186,-0.024368,0.024658,0.999039,-0.001062,-0.012998,0.008403,66.661179,32.465439,-146.051178,,,
729861937.278316,1.274823,1.853837,124.660887,-0.024368,0.024658,0.999039,-0.013052,0.017286,0.006698,66.661179,32.465439,-146.051178,,,
729861937.281675,1.274823,1.853837,124.660887,-0.024368,0.024658,0.999039,-0.013052,0.017286,0.006698,66.661179,32.465439,-146.051178,,,
729861937.284987,1.267369,1.871184,124.661165,-0.02002,0.025497,0.995636,-0.013052,0.017286,0.006698,66.661179,32.465439,-146.051178,,,
729861937.288326,1.260224,1.881734,124.659785,-0.02002,0.025497,0.995636,-0.023394,0.039514,-0.004711,66.661179,32.465439,-146.051178,,,
729861937.291443,1.260224,1.881734,124.659785,-0.02002,0.025497,0.995636,-0.023394,0.039514,-0.004711,66.661179,32.465439,-146.051178,,,
729861937.295029,1.251567,1.901968,124.656778,-0.019669,0.027283,0.994781,-0.023394,0.039514,-0.004711,66.661179,32.465439,-146.051178,,,
729861937.298321,1.245944,1.91412,124.653517,-0.019669,0.027283,0.994781,-0.022419,0.04653,-0.012292,66.661179,32.465439,-146.051178,,,
729861937.301642,1.245944,1.91412,124.653517,-0.019669,0.027283,0.994781,-0.022419,0.04653,-0.012292,66.747223,32.60144,-146.361938,,,
729861937.305091,1.240627,1.932959,124.649749,-0.023453,0.02536,1.001907,-0.022419,0.04653,-0.012292,66.747223,32.60144,-146.361938,,,
729861937.308193,1.23898,1.94643,124.645831,-0.023453,0.02536,1.001907,-0.007245,0.04681,-0.014818,66.747223,32.60144,-146.361938,,,
729861937.311679,1.23898,1.94643,124.645831,-0.023453,0.02536,1.001907,-0.007245,0.04681,-0.014818,66.747223,32.60144,-146.361938,,,
729861937.314984,1.238579,1.964979,124.642258,-0.027451,0.018951,1.008743,-0.007245,0.04681,-0.014818,66.747223,32.60144,-146.361938,,,
729861937.318312,1.241672,1.979741,124.639923,-0.027451,0.018951,1.008743,0.007689,0.055246,-0.010873,66.747223,32.60144,-146.361938,,,
729861937.32166,1.241672,1.979741,124.639923,-0.027451,0.018951,1.008743,0.007689,0.055246,-0.010873,66.747223,32.60144,-146.361938,,,
729861937.324875,1.246768,1.995649,124.639584,-0.036011,0.016556,1.008377,0.007689,0.055246,-0.010873,66.747223,32.60144,-146.361938,,,
729861937.328324,1.25398,2.008636,124.641076,-0.036011,0.016556,1.008377,0.024675,0.052089,0.004988,66.747223,32.60144,-146.361938,,,
729861937.331696,1.25398,2.008636,124.641076,-0.036011,0.016556,1.008377,0.024675,0.052089,0.004988,66.747223,32.60144,-146.361938,,,
729861937.334976,1.263319,2.01914,124.643953,-0.043411,0.013443,1.006409,0.024675,0.052089,0.004988,66.747223,32.60144,-146.361938,,,
729861937.338312,1.27285,2.028209,124.6477,-0.043411,0.013443,1.006409,0.034356,0.037058,0.013891,66.747223,32.60144,-146.361938,,,
729861937.341602,1.27285,2.028209,124.6477,-0.043411,0.013443,1.006409,0.034356,0.037058,0.013891,66.878159,32.471176,-146.097092,,,
729861937.345069,1.281197,2.03196,124.651889,-0.043976,0.016586,0.997284,0.034356,0.037058,0.013891,66.878159,32.471176,-146.097092,,,
729861937.348304,1.285974,2.03499,124.655607,-0.043976,0.016586,0.997284,0.022123,0.017188,0.012594,66.878159,32.471176,-146.097092,,,
729861937.351667,1.285974,2.03499,124.655607,-0.043976,0.016586,0.997284,0.022123,0.017188,0.012594,66.878159,32.471176,-146.097092,,,
729861937.354996,1.287335,2.028327,124.658533,-0.041687,0.024734,0.986023,0.022123,0.017188,0.012594,66.878159,32.471176,-146.097092,,,
729861937.358176,1.284836,2.021538,124.660372,-0.041687,0.024734,0.986023,-0.005364,-0.016597,0.010166,66.878159,32.471176,-146.097092,,,
729861937.361663,1.284836,2.021538,124.660372,-0.041687,0.024734,0.986023,-0.005364,-0.016597,0.010166,66.878159,32.471176,-146.097092,,,
729861937.364992,1.280091,2.003475,124.661352,-0.037933,0.028732,0.978012,-0.005364,-0.016597,0.010166,66.878159,32.471176,-146.097092,,,
729861937.368307,1.273261,1.989111,124.661117,-0.037933,0.028732,0.978012,-0.022556,-0.047675,-0.002675,66.878159,32.471176,-146.097092,,,
729861937.371726,1.273261,1.989111,124.661117,-0.037933,0.028732,0.978012,-0.022556,-0.047675,-0.002675,66.878159,32.471176,-146.097092,,,
729861937.375023,1.267352,1.968459,124.659053,-0.030594,0.027771,0.984192,-0.022556,-0.047675,-0.002675,66.878159,32.471176,-146.097092,,,
729861937.378306,1.261487,1.954946,124.654853,-0.030594,0.027771,0.984192,-0.019689,-0.0471,-0.014634,66.878159,32.471176,-146.097092,,,
729861937.381657,1.261487,1.954946,124.654853,-0.030594,0.027771,0.984192,-0.019689,-0.0471,-0.014634,66.878159,32.471176,-146.097092,,,
729861937.385039,1.259155,1.940809,124.650054,-0.024261,0.026291,1.009567,-0.019689,-0.0471,-0.014634,66.701462,32.626633,-146.343689,,,
729861937.388297,1.260907,1.934963,124.645503,-0.024261,0.026291,1.009567,0.001777,-0.019924,-0.018524,66.701462,32.626633,-146.343689,,,
729861937.391696,1.260907,1.934963,124.645503,-0.024261,0.026291,1.009567,0.001777,-0.019924,-0.018524,66.701462,32.626633,-146.343689,,,
729861937.394991,1.265841,1.932505,124.641109,-0.023499,0.018967,1.027466,0.001777,-0.019924,-0.018524,66.701462,32.626633,-146.343689,,,
729861937.39831,1.275689,1.937466,124.637124,-0.023499,0.018967,1.027466,0.028928,0.013535,-0.014973,66.701462,32.626633,-146.343689,,,
729861937.401663,1.275689,1.937466,124.637124,-0.023499,0.018967,1.027466,0.028928,0.013535,-0.014973,66.701462,32.626633,-146.343689,,,
729861937.40499,1.287269,1.950524,124.633856,-0.025986,0.014099,1.031601,0.028928,0.013535,-0.014973,66.701462,32.626633,-146.343689,,,
729861937.408345,1.301409,1.966296,124.630864,-0.025986,0.014099,1.031601,0.048395,0.054192,-0.009503,66.701462,32.626633,-146.343689,,,
729861937.411736,1.301409,1.966296,124.630864,-0.025986,0.014099,1.031601,0.048395,0.054192,-0.009503,66.701462,32.626633,-146.343689,,,
729861937.414983,1.313355,1.989928,124.628387,-0.029694,0.014496,1.023605,0.048395,0.054192,-0.009503,66.701462,32.626633,-146.343689,,,
729861937.418321,1.325704,2.011649,124.626434,-0.029694,0.014496,1.023605,0.046783,0.07648,-0.007461,66.701462,32.626633,-146.343689,,,
729861937.421668,1.325704,2.011649,124.626434,-0.029694,0.014496,1.023605,0.046783,0.07648,-0.007461,66.701462,32.626633,-146.343689,,,
729861937.425092,1.334926,2.036665,124.624924,-0.035019,0.018463,1.001251,0.046783,0.07648,-0.007461,66.807663,32.394012,-146.299149,,,
729861937.428306,1.341942,2.056785,124.624261,-0.035019,0.018463,1.001251,0.029514,0.074949,-0.003751,66.807663,32.394012,-146.299149,,,
729861937.431666,1.341942,2.056785,124.624261,-0.035019,0.018463,1.001251,0.029514,0.074949,-0.003751,66.807663,32.394012,-146.299149,,,
729861937.43499,1.346059,2.075399,124.624683,-0.043671,0.023972,0.978287,0.029514,0.074949,-0.003751,66.807663,32.394012,-146.299149,,,
729861937.43832,1.345548,2.086219,124.626553,-0.043671,0.023972,0.978287,0.000594,0.045645,0.005043,66.807663,32.394012,-146.299149,,,
729861937.441701,1.345548,2.086219,124.626553,-0.043671,0.023972,0.978287,0.000594,0.045645,0.005043,66.807663,32.394012,-146.299149,,,
729861937.444995,1.342537,2.091367,124.628675,-0.049438,0.026367,0.966187,0.000594,0.045645,0.005043,66.807663,32.394012,-146.299149,,,
729861937.448318,1.335442,2.091845,124.630595,-0.049438,0.026367,0.966187,-0.022024,0.008035,0.005088,66.807663,32.394012,-146.299149,,,
729861937.451643,1.335442,2.091845,124.630595,-0.049438,0.026367,0.966187,-0.022024,0.008035,0.005088,66.807663,32.394012,-146.299149,,,
729861937.455003,1.327513,2.084431,124.632172,-0.049438,0.02829,0.964371,-0.022024,0.008035,0.005088,66.807663,32.394012,-146.299149,,,
729861937.458411,1.317643,2.075396,124.633661,-0.049438,0.02829,0.964371,-0.032217,-0.024831,0.004398,66.807663,32.394012,-146.299149,,,
729861937.461697,1.317643,2.075396,124.633661,-0.049438,0.02829,0.964371,-0.032217,-0.024831,0.004398,66.807663,32.394012,-146.299149,,,
729861937.464992,1.307852,2.056465,124.635823,-0.048752,0.0271,0.978287,-0.032217,-0.024831,0.004398,66.970856,32.201965,-146.165253,,,
729861937.468316,1.299803,2.039604,124.638109,-0.048752,0.0271,0.978287,-0.028596,-0.054195,0.004766,66.970856,32.201965,-146.165253,,,
729861937.471669,1.299803,2.039604,124.638109,-0.048752,0.0271,0.978287,-0.028596,-0.054195,0.004766,66.970856,32.201965,-146.165253,,,
729861937.475049,1.292467,2.015755,124.640568,-0.046371,0.019867,0.995483,-0.028596,-0.054195,0.004766,66.970856,32.201965,-146.165253,,,
729861937.478304,1.288446,1.997223,124.643266,-0.046371,0.019867,0.995483,-0.015338,-0.063929,0.008733,66.970856,32.201965,-146.165253,,,
729861937.481666,1.288446,1.997223,124.643266,-0.046371,0.019867,0.995483,-0.015338,-0.063929,0.008733,66.970856,32.201965,-146.165253,,,
729861937.484993,1.285258,1.976695,124.646496,-0.04216,0.016129,1.011108,-0.015338,-0.063929,0.008733,66.970856,32.201965,-146.165253,,,
729861937.488321,1.286102,1.962358,124.649551,-0.04216,0.016129,1.011108,0.002489,-0.049373,0.008282,66.970856,32.201965,-146.165253,,,
729861937.491803,1.286102,1.962358,124.649551,-0.04216,0.016129,1.011108,0.002489,-0.049373,0.008282,66.970856,32.201965,-146.165253,,,
729861937.494989,1.286936,1.950611,124.652661,-0.036652,0.016174,1.02063,0.002489,-0.049373,0.008282,66.970856,32.201965,-146.165253,,,
729861937.498319,1.289792,1.943272,124.655878,-0.036652,0.016174,1.02063,0.007637,-0.027761,0.011636,66.970856,32.201965,-146.165253,,,
729861937.501659,1.289792,1.943272,124.655878,-0.036652,0.016174,1.02063,0.007637,-0.027761,0.011636,66.970856,32.201965,-146.165253,,,
729861937.505045,1.29322,1.940558,124.65899,-0.031708,0.015182,1.02066,0.007637,-0.027761,0.011636,66.970856,32.201965,-146.165253,,,
729861937.50827,1.29763,1.939501,124.662531,-0.031708,0.015182,1.02066,0.014611,-0.003053,0.012007,66.958954,32.497528,-146.233612,,,
729861937.511675,1.29763,1.939501,124.662531,-0.031708,0.015182,1.02066,0.014611,-0.003053,0.012007,66.958954,32.497528,-146.233612,,,
729861937.514999,1.303091,1.94689,124.666099,-0.027328,0.020142,1.013657,0.014611,-0.003053,0.012007,66.958954,32.497528,-146.233612,,,
729861937.518324,1.308913,1.952677,124.669105,-0.027328,0.020142,1.013657,0.018201,0.02061,0.008065,66.958954,32.497528,-146.233612,,,
729861937.521667,1.308913,1.952677,124.669105,-0.027328,0.020142,1.013657,0.018201,0.02061,0.008065,66.958954,32.497528,-146.233612,,,
729861937.524839,1.316897,1.968904,124.671669,-0.025223,0.020782,1.013351,0.018201,0.02061,0.008065,66.958954,32.497528,-146.233612,,,
729861937.528437,1.32567,1.981495,124.674978,-0.025223,0.020782,1.013351,0.029105,0.043806,0.011011,66.958954,32.497528,-146.233612,,,
729861937.531712,1.32567,1.981495,124.674978,-0.025223,0.020782,1.013351,0.029105,0.043806,0.011011,66.958954,32.497528,-146.233612,,,
729861937.534994,1.337495,2.001942,124.678696,-0.027374,0.020828,1.016098,0.029105,0.043806,0.011011,66.958954,32.497528,-146.233612,,,
729861937.538344,1.349067,2.016669,124.682764,-0.027374,0.020828,1.016098,0.0418,0.057454,0.014803,66.958954,32.497528,-146.233612,,,
729861937.54162,1.349067,2.016669,124.682764,-0.027374,0.020828,1.016098,0.0418,0.057454,0.014803,66.958954,32.497528,-146.233612,,,
729861937.54501,1.361145,2.035805,124.686916,-0.03302,0.020447,1.012772,0.0418,0.057454,0.014803,66.958954,32.497528,-146.233612,,,
729861937.548403,1.372861,2.047305,124.690969,-0.03302,0.020447,1.012772,0.041672,0.043903,0.014427,66.673553,32.543564,-146.107285,,,
729861937.551655,1.372861,2.047305,124.690969,-0.03302,0.020447,1.012772,0.041672,0.043903,0.014427,66.673553,32.543564,-146.107285,,,
729861937.555098,1.382596,2.058873,124.69409,-0.032883,0.02269,1.00116,0.041672,0.043903,0.014427,66.673553,32.543564,-146.107285,,,
729861937.558297,1.392259,2.062369,124.696404,-0.032883,0.02269,1.00116,0.035256,0.01843,0.007732,66.673553,32.543564,-146.107285,,,
729861937.561677,1.392259,2.062369,124.696404,-0.032883,0.02269,1.00116,0.035256,0.01843,0.007732,66.673553,32.543564,-146.107285,,,
729861937.565049,1.399563,2.061841,124.697614,-0.033829,0.027649,0.99118,0.035256,0.01843,0.007732,66.673553,32.543564,-146.107285,,,
729861937.568419,1.407352,2.053979,124.698001,-0.033829,0.027649,0.99118,0.02729,-0.01896,0.001712,66.673553,32.543564,-146.107285,,,
729861937.571684,1.407352,2.053979,124.698001,-0.033829,0.027649,0.99118,0.02729,-0.01896,0.001712,66.673553,32.543564,-146.107285,,,
729861937.574931,1.411833,2.039851,124.697863,-0.033722,0.027206,0.984268,0.02729,-0.01896,0.001712,66.673553,32.543564,-146.107285,,,
729861937.578391,1.417321,2.022309,124.69664,-0.033722,0.027206,0.984268,0.0201,-0.054867,-0.003447,66.673553,32.543564,-146.107285,,,
729861937.581711,1.417321,2.022309,124.69664,-0.033722,0.027206,0.984268,0.0201,-0.054867,-0.003447,66.673553,32.543564,-146.107285,,,
729861937.584974,1.420041,1.999579,124.694715,-0.030731,0.027817,0.983383,0.0201,-0.054867,-0.003447,66.673553,32.543564,-146.107285,,,
729861937.588421,1.423587,1.979244,124.692002,-0.030731,0.027817,0.983383,0.014038,-0.071332,-0.009242,66.746323,32.284653,-146.25061,,,
729861937.591619,1.423587,1.979244,124.692002,-0.030731,0.027817,0.983383,0.014038,-0.071332,-0.009242,66.746323,32.284653,-146.25061,,,
729861937.594999,1.426442,1.958505,124.688217,-0.024338,0.030014,0.985641,0.014038,-0.071332,-0.009242,66.746323,32.284653,-146.25061,,,
729861937.59842,1.43048,1.946646,124.68348,-0.024338,0.030014,0.985641,0.014458,-0.045029,-0.017176,66.746323,32.284653,-146.25061,,,
729861937.601654,1.43048,1.946646,124.68348,-0.024338,0.030014,0.985641,0.014458,-0.045029,-0.017176,66.746323,32.284653,-146.25061,,,
729861937.605061,1.434857,1.936658,124.678595,-0.018829,0.028656,0.995987,0.014458,-0.045029,-0.017176,66.746323,32.284653,-146.25061,,,
729861937.608245,1.434857,1.936658,124.678595,-0.018829,0.028656,0.995987,0.014458,-0.045029,-0.017176,66.746323,32.284653,-146.25061,,,
729861937.611665,1.442582,1.936373,124.674225,-0.018829,0.028656,0.995987,0.028459,-0.004021,-0.017019,66.746323,32.284653,-146.25061,,,
729861937.614997,1.452322,1.941281,124.670178,-0.016891,0.023834,1.012711,0.028459,-0.004021,-0.017019,66.746323,32.284653,-146.25061,,,
729861937.618361,1.46459,1.954889,124.666077,-0.016891,0.023834,1.012711,0.044507,0.044915,-0.015066,66.746323,32.284653,-146.25061,,,
729861937.621659,1.46459,1.954889,124.666077,-0.016891,0.023834,1.012711,0.044507,0.044915,-0.015066,66.746323,32.284653,-146.25061,,,
729861937.625042,1.475754,1.973807,124.662378,-0.017822,0.019211,1.013763,0.044507,0.044915,-0.015066,66.746323,32.284653,-146.25061,,,
729861937.628386,1.486862,1.996217,124.658652,-0.017822,0.019211,1.013763,0.042927,0.078974,-0.013021,66.655548,32.282578,-146.025803,,,
729861937.631721,1.486862,1.996217,124.658652,-0.017822,0.019211,1.013763,0.042927,0.078974,-0.013021,66.655548,32.282578,-146.025803,,,
729861937.634985,1.495733,2.020216,124.654896,-0.023041,0.023163,0.998154,0.042927,0.078974,-0.013021,66.655548,32.282578,-146.025803,,,
729861937.638319,1.495733,2.020216,124.654896,-0.023041,0.023163,0.998154,0.027621,0.092854,-0.011195,66.655548,32.282578,-146.025803,,,
729861937.641707,1.503185,2.045998,124.651694,-0.023041,0.023163,0.998154,0.027621,0.092854,-0.011195,66.655548,32.282578,-146.025803,,,
729861937.645053,1.51109,2.070034,124.649637,-0.035156,0.023758,0.985275,0.027621,0.092854,-0.011195,66.655548,32.282578,-146.025803,,,
729861937.648306,1.51109,2.070034,124.649637,-0.035156,0.023758,0.985275,0.027621,0.092854,-0.011195,66.655548,32.282578,-146.025803,,,
729861937.651674,1.518891,2.092218,124.648271,-0.035156,0.023758,0.985275,0.030326,0.082645,-0.004052,66.655548,32.282578,-146.025803,,,
729861937.654997,1.52692,2.109723,124.647356,-0.046509,0.021347,0.985809,0.030326,0.082645,-0.004052,66.655548,32.282578,-146.025803,,,
729861937.658382,1.52692,2.109723,124.647356,-0.046509,0.021347,0.985809,0.027593,0.05752,-0.00108,66.655548,32.282578,-146.025803,,,
729861937.661644,1.53404,2.124332,124.646952,-0.046509,0.021347,0.985809,0.027593,0.05752,-0.00108,66.655548,32.282578,-146.025803,,,
729861937.664996,1.540659,2.130509,124.646819,-0.052994,0.022095,0.98172,0.027593,0.05752,-0.00108,66.655548,32.282578,-146.025803,,,
729861937.668328,1.540659,2.130509,124.646819,-0.052994,0.022095,0.98172,0.027593,0.05752,-0.00108,66.655548,32.282578,-146.025803,,,
729861937.671706,1.545351,2.133416,124.646999,-0.052994,0.022095,0.98172,0.017953,0.020261,-0.00161,66.813446,32.220856,-146.470505,,,
729861937.675079,1.548616,2.124548,124.647931,-0.053101,0.025681,0.973068,0.017953,0.020261,-0.00161,66.813446,32.220856,-146.470505,,,
729861937.678318,1.548616,2.124548,124.647931,-0.053101,0.025681,0.973068,0.017953,0.020261,-0.00161,66.813446,32.220856,-146.470505,,,
