Time (sec),Pitch (deg),Roll (deg),Yaw(deg),X-Acceleration (g),Y-Acceleration (g),Z-Acceleration (g),Pitch Rate (deg/sec),Roll Rate (deg/sec),Yaw Rate (deg/sec),Magnetic Field in X direction (uT),Magnetic Field in Y direction (uT),Magnetic Field in Z Direction (uT),Latitude (deg),Longitude (deg),Altitude (m)
729862428.130819,-0.533315,2.542079,52.881232,-0.061523,-0.021042,1.002884,-0.000971,-0.033233,0.013256,43.514816,15.354446,-149.156509,,,
729862428.134144,-0.533315,2.542079,52.881232,-0.061523,-0.021042,1.002884,-0.000971,-0.033233,0.013256,43.514816,15.354446,-149.156509,,,
729862428.137565,-0.533213,2.530823,52.885682,-0.061523,-0.021042,1.002884,-0.000971,-0.033233,0.013256,43.514816,15.354446,-149.156509,,,
729862428.140789,-0.533213,2.516852,52.889911,-0.053894,-0.017273,0.999588,0.005868,-0.048871,0.012144,43.415894,15.382187,-149.545212,,,
729862428.14415,-0.532196,2.516852,52.889911,-0.053894,-0.017273,0.999588,0.005868,-0.048871,0.012144,43.415894,15.382187,-149.545212,,,
729862428.147493,-0.531125,2.50117,52.89322,-0.053894,-0.017273,0.999588,0.005868,-0.048871,0.012144,43.415894,15.382187,-149.545212,,,
729862428.15079,-0.531417,2.483498,52.895835,-0.047363,-0.014252,0.995224,-0.002377,-0.059059,0.006946,43.415894,15.382187,-149.545212,,,
729862428.154137,-0.531417,2.483498,52.895835,-0.047363,-0.014252,0.995224,-0.002377,-0.059059,0.006946,43.415894,15.382187,-149.545212,,,
729862428.157466,-0.532669,2.465745,52.897639,-0.047363,-0.014252,0.995224,-0.002377,-0.059059,0.006946,43.415894,15.382187,-149.545212,,,
729862428.160804,-0.532669,2.465745,52.89859,-0.040146,-0.012619,0.988678,-0.013491,-0.059367,0.000508,43.415894,15.382187,-149.545212,,,
729862428.164239,-0.535819,2.447666,52.89859,-0.040146,-0.012619,0.988678,-0.013491,-0.059367,0.000508,43.415894,15.382187,-149.545212,,,
729862428.167471,-0.540828,2.431822,52.899319,-0.040146,-0.012619,0.988678,-0.013491,-0.059367,0.000508,43.415894,15.382187,-149.545212,,,
729862428.170805,-0.547674,2.419844,52.900065,-0.035156,-0.013565,0.994339,-0.024,-0.032463,0.00026,43.415894,15.382187,-149.545212,,,
729862428.174135,-0.547674,2.419844,52.900065,-0.035156,-0.013565,0.994339,-0.024,-0.032463,0.00026,43.415894,15.382187,-149.545212,,,
729862428.177469,-0.554911,2.411212,52.900745,-0.035156,-0.013565,0.994339,-0.024,-0.032463,0.00026,43.415894,15.382187,-149.545212,,,
729862428.180894,-0.554911,2.411212,52.900745,-0.033463,-0.014435,1.0009,-0.026956,-0.014827,0.000316,43.428864,15.140121,-149.725983,,,
729862428.184142,-0.562913,2.406221,52.901454,-0.033463,-0.014435,1.0009,-0.026956,-0.014827,0.000316,43.428864,15.140121,-149.725983,,,
729862428.18756,-0.571057,2.402361,52.901874,-0.033463,-0.014435,1.0009,-0.026956,-0.014827,0.000316,43.428864,15.140121,-149.725983,,,
729862428.190805,-0.571057,2.401839,52.901859,-0.032791,-0.016586,1.000366,-0.030647,-0.006008,-0.003019,43.428864,15.140121,-149.725983,,,
729862428.19414,-0.5803,2.401839,52.901859,-0.032791,-0.016586,1.000366,-0.030647,-0.006008,-0.003019,43.428864,15.140121,-149.725983,,,
729862428.197465,-0.588361,2.399111,52.90157,-0.032791,-0.016586,1.000366,-0.030647,-0.006008,-0.003019,43.428864,15.140121,-149.725983,,,
729862428.200886,-0.588361,2.399111,52.900667,-0.03244,-0.017227,1.002762,-0.016517,-0.013288,-0.00687,43.428864,15.140121,-149.725983,,,
729862428.204124,-0.595215,2.398413,52.900667,-0.03244,-0.017227,1.002762,-0.016517,-0.013288,-0.00687,43.428864,15.140121,-149.725983,,,
729862428.207463,-0.59921,2.393267,52.898798,-0.03244,-0.017227,1.002762,-0.016517,-0.013288,-0.00687,43.428864,15.140121,-149.725983,,,
729862428.210888,-0.59921,2.393267,52.898798,-0.029434,-0.018143,1.010101,-0.001667,-0.019272,-0.015944,43.428864,15.140121,-149.725983,,,
729862428.214215,-0.601785,2.390643,52.895578,-0.029434,-0.018143,1.010101,-0.001667,-0.019272,-0.015944,43.428864,15.140121,-149.725983,,,
729862428.21748,-0.601621,2.384856,52.890783,-0.029434,-0.018143,1.010101,-0.001667,-0.019272,-0.015944,43.428864,15.140121,-149.725983,,,
729862428.220935,-0.601621,2.384856,52.890783,-0.03064,-0.018784,1.014755,0.007191,-0.012743,-0.023187,43.428864,15.140121,-149.725983,,,
729862428.224147,-0.60073,2.382469,52.884917,-0.03064,-0.018784,1.014755,0.007191,-0.012743,-0.023187,43.015244,15.392868,-149.557831,,,
729862428.227479,-0.598854,2.37927,52.878187,-0.03064,-0.018784,1.014755,0.007191,-0.012743,-0.023187,43.015244,15.392868,-149.557831,,,
729862428.23084,-0.598854,2.37927,52.878187,-0.03447,-0.018723,1.014694,0.012947,0.002797,-0.023869,43.015244,15.392868,-149.557831,,,
729862428.234168,-0.596405,2.379499,52.871349,-0.03447,-0.018723,1.014694,0.012947,0.002797,-0.023869,43.015244,15.392868,-149.557831,,,
729862428.237468,-0.594173,2.381319,52.865038,-0.03447,-0.018723,1.014694,0.012947,0.002797,-0.023869,43.015244,15.392868,-149.557831,,,
729862428.240833,-0.594173,2.381319,52.865038,-0.03447,-0.018723,1.014694,0.007386,0.024092,-0.019621,43.015244,15.392868,-149.557831,,,
729862428.244138,-0.592852,2.386468,52.859374,-0.037247,-0.021072,1.012909,0.007386,0.024092,-0.019621,43.015244,15.392868,-149.557831,,,
729862428.247476,-0.591006,2.392815,52.85451,-0.037247,-0.021072,1.012909,0.007386,0.024092,-0.019621,43.015244,15.392868,-149.557831,,,
729862428.250914,-0.591006,2.392815,52.85451,-0.037247,-0.021072,1.012909,0.008725,0.021054,-0.017345,43.015244,15.392868,-149.557831,,,
729862428.254196,-0.589042,2.397972,52.849958,-0.040451,-0.019913,1.009277,0.008725,0.021054,-0.017345,43.015244,15.392868,-149.557831,,,
729862428.257485,-0.586785,2.401472,52.84527,-0.040451,-0.019913,1.009277,0.008725,0.021054,-0.017345,43.015244,15.392868,-149.557831,,,
729862428.260938,-0.586785,2.401472,52.84527,-0.040451,-0.019913,1.009277,0.002889,-0.006561,-0.021688,43.015244,15.392868,-149.557831,,,
729862428.264117,-0.585461,2.399582,52.839984,-0.036407,-0.018311,0.997116,0.002889,-0.006561,-0.021688,43.074661,15.136658,-149.454102,,,
729862428.267555,-0.585697,2.395132,52.83367,-0.036407,-0.018311,0.997116,0.002889,-0.006561,-0.021688,43.074661,15.136658,-149.454102,,,
729862428.270837,-0.585697,2.395132,52.83367,-0.036407,-0.018311,0.997116,-0.009648,-0.032571,-0.028509,43.074661,15.136658,-149.454102,,,
729862428.274147,-0.587986,2.385544,52.826433,-0.031799,-0.015091,0.986847,-0.009648,-0.032571,-0.028509,43.074661,15.136658,-149.454102,,,
729862428.277467,-0.592057,2.374811,52.818345,-0.031799,-0.015091,0.986847,-0.009648,-0.032571,-0.028509,43.074661,15.136658,-149.454102,,,
729862428.280894,-0.592057,2.374811,52.818345,-0.031799,-0.015091,0.986847,-0.025968,-0.036424,-0.036626,43.074661,15.136658,-149.454102,,,
729862428.284135,-0.598729,2.362184,52.809173,-0.027069,-0.013275,0.986969,-0.025968,-0.036424,-0.036626,43.074661,15.136658,-149.454102,,,
729862428.287474,-0.607853,2.351836,52.798573,-0.027069,-0.013275,0.986969,-0.025968,-0.036424,-0.036626,43.074661,15.136658,-149.454102,,,
729862428.29082,-0.607853,2.351836,52.798573,-0.027069,-0.013275,0.986969,-0.025968,-0.036424,-0.036626,43.074661,15.136658,-149.454102,,,
729862428.29414,-0.619195,2.342673,52.786371,-0.024643,-0.013428,0.995667,-0.039576,-0.015508,-0.048215,43.074661,15.136658,-149.454102,,,
729862428.297475,-0.632162,2.339091,52.773103,-0.024643,-0.013428,0.995667,-0.039576,-0.015508,-0.048215,43.074661,15.136658,-149.454102,,,
729862428.300822,-0.632162,2.339091,52.773103,-0.024643,-0.013428,0.995667,-0.039576,-0.015508,-0.048215,43.074661,15.136658,-149.454102,,,
729862428.304134,-0.6459,2.338058,52.759896,-0.027939,-0.017639,1.007217,-0.043379,0.01446,-0.047801,43.114014,14.808151,-149.631607,,,
729862428.307469,-0.658698,2.343844,52.747193,-0.027939,-0.017639,1.007217,-0.043379,0.01446,-0.047801,43.114014,14.808151,-149.631607,,,
729862428.310948,-0.658698,2.343844,52.747193,-0.027939,-0.017639,1.007217,-0.043379,0.01446,-0.047801,43.114014,14.808151,-149.631607,,,
729862428.314206,-0.671069,2.353466,52.735654,-0.039322,-0.019989,1.013947,-0.039276,0.049083,-0.039517,43.114014,14.808151,-149.631607,,,
729862428.317467,-0.682623,2.368936,52.725959,-0.039322,-0.019989,1.013947,-0.039276,0.049083,-0.039517,43.114014,14.808151,-149.631607,,,
729862428.320811,-0.682623,2.368936,52.725959,-0.039322,-0.019989,1.013947,-0.039276,0.049083,-0.039517,43.114014,14.808151,-149.631607,,,
729862428.324158,-0.692955,2.387139,52.718271,-0.049774,-0.021133,1.015396,-0.028934,0.073247,-0.025119,43.114014,14.808151,-149.631607,,,
729862428.327525,-0.700859,2.407453,52.713125,-0.049774,-0.021133,1.015396,-0.028934,0.073247,-0.025119,43.114014,14.808151,-149.631607,,,
729862428.330879,-0.700859,2.407453,52.713125,-0.049774,-0.021133,1.015396,-0.028934,0.073247,-0.025119,43.114014,14.808151,-149.631607,,,
729862428.334161,-0.70706,2.427231,52.709887,-0.053467,-0.023209,1.012451,-0.015549,0.071745,-0.011305,43.114014,14.808151,-149.631607,,,
729862428.337473,-0.710512,2.445681,52.707024,-0.053467,-0.023209,1.012451,-0.015549,0.071745,-0.011305,43.114014,14.808151,-149.631607,,,
729862428.340808,-0.710512,2.445681,52.707024,-0.053467,-0.023209,1.012451,-0.015549,0.071745,-0.011305,43.114014,14.808151,-149.631607,,,
729862428.344165,-0.712632,2.460745,52.703914,-0.057663,-0.021713,1.006744,-0.004421,0.053773,-0.012539,43.185425,15.018265,-149.52858,,,
729862428.347474,-0.714023,2.473405,52.701074,-0.057663,-0.021713,1.006744,-0.004421,0.053773,-0.012539,43.185425,15.018265,-149.52858,,,
729862428.350814,-0.714023,2.473405,52.701074,-0.057663,-0.021713,1.006744,-0.004421,0.053773,-0.012539,43.185425,15.018265,-149.52858,,,
729862428.354192,-0.71452,2.479772,52.698484,-0.054962,-0.021408,0.998215,0.00222,0.020802,-0.010375,43.185425,15.018265,-149.52858,,,
729862428.35747,-0.713166,2.482541,52.69584,-0.054962,-0.021408,0.998215,0.00222,0.020802,-0.010375,43.185425,15.018265,-149.52858,,,
729862428.360851,-0.713166,2.482541,52.69584,-0.054962,-0.021408,0.998215,0.00222,0.020802,-0.010375,43.185425,15.018265,-149.52858,,,
729862428.364129,-0.710209,2.477255,52.693168,-0.050781,-0.020157,0.994034,0.01291,-0.018829,-0.009895,43.185425,15.018265,-149.52858,,,
729862428.367472,-0.70682,2.468932,52.690102,-0.050781,-0.020157,0.994034,0.01291,-0.018829,-0.009895,43.185425,15.018265,-149.52858,,,
729862428.370691,-0.70682,2.468932,52.690102,-0.050781,-0.020157,0.994034,0.01291,-0.018829,-0.009895,43.185425,15.018265,-149.52858,,,
729862428.374194,-0.703637,2.454129,52.685986,-0.048584,-0.02153,0.990204,0.011023,-0.042637,-0.017084,43.185425,15.018265,-149.52858,,,
729862428.377564,-0.701949,2.441596,52.681377,-0.048584,-0.02153,0.990204,0.011023,-0.042637,-0.017084,43.185425,15.018265,-149.52858,,,
729862428.380829,-0.701949,2.441596,52.681377,-0.048584,-0.02153,0.990204,0.011023,-0.042637,-0.017084,43.185425,15.018265,-149.52858,,,
729862428.384153,-0.703067,2.428911,52.67613,-0.03891,-0.016632,0.989807,-0.008208,-0.025329,-0.022198,43.185425,15.018265,-149.52858,,,
729862428.387467,-0.707333,2.423765,52.669937,-0.03891,-0.016632,0.989807,-0.008208,-0.025329,-0.022198,43.423492,14.751358,-149.76503,,,
729862428.390951,-0.707333,2.423765,52.669937,-0.03891,-0.016632,0.989807,-0.008208,-0.025329,-0.022198,43.423492,14.751358,-149.76503,,,
729862428.394169,-0.714273,2.423012,52.663972,-0.037491,-0.015671,0.996964,-0.025116,0.012631,-0.021168,43.423492,14.751358,-149.76503,,,
729862428.397465,-0.722974,2.427327,52.659452,-0.037491,-0.015671,0.996964,-0.025116,0.012631,-0.021168,43.423492,14.751358,-149.76503,,,
729862428.400833,-0.722974,2.427327,52.659452,-0.037491,-0.015671,0.996964,-0.025116,0.012631,-0.021168,43.423492,14.751358,-149.76503,,,
729862428.404134,-0.733312,2.434668,52.656466,-0.047791,-0.017654,0.996124,-0.034461,0.028525,-0.010946,43.423492,14.751358,-149.76503,,,
729862428.407467,-0.743669,2.442534,52.655192,-0.047791,-0.017654,0.996124,-0.034461,0.028525,-0.010946,43.423492,14.751358,-149.76503,,,
729862428.410875,-0.743669,2.442534,52.655192,-0.047791,-0.017654,0.996124,-0.034461,0.028525,-0.010946,43.423492,14.751358,-149.76503,,,
729862428.414213,-0.753472,2.452487,52.655178,-0.052292,-0.021118,0.995911,-0.027522,0.03133,-0.002043,43.423492,14.751358,-149.76503,,,
729862428.417461,-0.760362,2.460836,52.656081,-0.052292,-0.021118,0.995911,-0.027522,0.03133,-0.002043,43.423492,14.751358,-149.76503,,,
729862428.420825,-0.760362,2.460836,52.656081,-0.052292,-0.021118,0.995911,-0.027522,0.03133,-0.002043,43.423492,14.751358,-149.76503,,,
729862428.424151,-0.765826,2.47065,52.658197,-0.055191,-0.023529,1.001846,-0.01467,0.02656,0.006759,43.423492,14.751358,-149.76503,,,
729862428.42756,-0.769563,2.477215,52.660812,-0.055191,-0.023529,1.001846,-0.01467,0.02656,0.006759,43.243805,14.883774,-149.407959,,,
729862428.430821,-0.769563,2.477215,52.660812,-0.055191,-0.023529,1.001846,-0.01467,0.02656,0.006759,43.243805,14.883774,-149.407959,,,
729862428.434148,-0.773176,2.48407,52.664426,-0.056427,-0.022049,0.995148,-0.010887,0.012579,0.013529,43.243805,14.883774,-149.407959,,,
729862428.437473,-0.775607,2.485505,52.669581,-0.056427,-0.022049,0.995148,-0.010887,0.012579,0.013529,43.243805,14.883774,-149.407959,,,
729862428.440899,-0.775607,2.485505,52.669581,-0.056427,-0.022049,0.995148,-0.010887,0.012579,0.013529,43.243805,14.883774,-149.407959,,,
729862428.444236,-0.777531,2.485499,52.67553,-0.05191,-0.021652,0.989288,-0.004853,-0.007498,0.019204,43.243805,14.883774,-149.407959,,,
729862428.447525,-0.777713,2.482111,52.681217,-0.05191,-0.021652,0.989288,-0.004853,-0.007498,0.019204,43.243805,14.883774,-149.407959,,,
729862428.450842,-0.777713,2.482111,52.681217,-0.05191,-0.021652,0.989288,-0.004853,-0.007498,0.019204,43.243805,14.883774,-149.407959,,,
729862428.454182,-0.776061,2.479522,52.686002,-0.044403,-0.021255,0.998138,0.011126,-0.010042,0.013386,43.243805,14.883774,-149.407959,,,
729862428.457509,-0.771653,2.475763,52.689694,-0.044403,-0.021255,0.998138,0.011126,-0.010042,0.013386,43.243805,14.883774,-149.407959,,,
729862428.460868,-0.771653,2.475763,52.689694,-0.044403,-0.021255,0.998138,0.011126,-0.010042,0.013386,43.243805,14.883774,-149.407959,,,
729862428.464237,-0.764816,2.470992,52.692431,-0.036133,-0.023773,1.005569,0.029787,-0.015745,0.007605,43.243805,14.883774,-149.407959,,,
729862428.467469,-0.755223,2.464331,52.693925,-0.036133,-0.023773,1.005569,0.029787,-0.015745,0.007605,43.169693,14.896194,-149.575089,,,
729862428.470819,-0.755223,2.464331,52.693925,-0.036133,-0.023773,1.005569,0.029787,-0.015745,0.007605,43.169693,14.896194,-149.575089,,,
729862428.474156,-0.744158,2.454659,52.694292,-0.037689,-0.023376,1.00441,0.040646,-0.028838,0.000278,43.169693,14.896194,-149.575089,,,
729862428.477517,-0.731706,2.446079,52.693812,-0.037689,-0.023376,1.00441,0.040646,-0.028838,0.000278,43.169693,14.896194,-149.575089,,,
729862428.480795,-0.731706,2.446079,52.693812,-0.037689,-0.023376,1.00441,0.040646,-0.028838,0.000278,43.169693,14.896194,-149.575089,,,
729862428.484165,-0.718715,2.439781,52.692009,-0.032913,-0.018982,1.006699,0.04628,-0.015528,-0.008772,43.169693,14.896194,-149.575089,,,
729862428.487467,-0.706298,2.436446,52.689181,-0.032913,-0.018982,1.006699,0.04628,-0.015528,-0.008772,43.169693,14.896194,-149.575089,,,
729862428.490875,-0.706298,2.436446,52.689181,-0.032913,-0.018982,1.006699,0.04628,-0.015528,-0.008772,43.169693,14.896194,-149.575089,,,
729862428.494171,-0.695754,2.437764,52.686675,-0.034714,-0.018158,1.000565,0.035911,0.005249,-0.007149,43.169693,14.896194,-149.575089,,,
729862428.497464,-0.686786,2.438528,52.684859,-0.034714,-0.018158,1.000565,0.035911,0.005249,-0.007149,43.169693,14.896194,-149.575089,,,
729862428.500814,-0.686786,2.438528,52.684859,-0.034714,-0.018158,1.000565,0.035911,0.005249,-0.007149,43.169693,14.896194,-149.575089,,,
729862428.504222,-0.681275,2.440959,52.683919,-0.036331,-0.016357,0.984161,0.015761,0.003017,-0.002044,43.169693,14.896194,-149.575089,,,
729862428.507457,-0.678947,2.441527,52.683017,-0.036331,-0.016357,0.984161,0.015761,0.003017,-0.002044,43.387894,14.785904,-149.383408,,,
729862428.51087,-0.678947,2.441527,52.683017,-0.036331,-0.016357,0.984161,0.015761,0.003017,-0.002044,43.387894,14.785904,-149.383408,,,
729862428.514191,-0.681136,2.44568,52.681533,-0.034424,-0.009872,0.976791,-0.011375,0.010647,-0.007463,43.387894,14.785904,-149.383408,,,
729862428.517478,-0.686837,2.447678,52.679697,-0.034424,-0.009872,0.976791,-0.011375,0.010647,-0.007463,43.387894,14.785904,-149.383408,,,
729862428.520826,-0.686837,2.447678,52.679697,-0.034424,-0.009872,0.976791,-0.011375,0.010647,-0.007463,43.387894,14.785904,-149.383408,,,
729862428.524154,-0.696361,2.451094,52.677418,-0.034302,-0.010223,0.976151,-0.033986,0.007861,-0.011647,43.387894,14.785904,-149.383408,,,
729862428.527522,-0.70754,2.453351,52.674805,-0.034302,-0.010223,0.976151,-0.033986,0.007861,-0.011647,43.387894,14.785904,-149.383408,,,
729862428.530886,-0.70754,2.453351,52.674805,-0.034302,-0.010223,0.976151,-0.033986,0.007861,-0.011647,43.387894,14.785904,-149.383408,,,
729862428.534129,-0.720757,2.458136,52.671754,-0.036285,-0.010834,0.986389,-0.044999,0.01996,-0.015243,43.387894,14.785904,-149.383408,,,
729862428.537466,-0.734328,2.464382,52.668385,-0.036285,-0.010834,0.986389,-0.044999,0.01996,-0.015243,43.387894,14.785904,-149.383408,,,
729862428.540826,-0.734328,2.464382,52.668385,-0.036285,-0.010834,0.986389,-0.044999,0.01996,-0.015243,43.387894,14.785904,-149.383408,,,
729862428.544271,-0.747396,2.471701,52.664941,-0.041458,-0.012238,1.00351,-0.038566,0.03296,-0.015417,43.387894,14.785904,-149.383408,,,
729862428.547471,-0.755488,2.479812,52.661438,-0.041458,-0.012238,1.00351,-0.038566,0.03296,-0.015417,43.387894,14.785904,-149.383408,,,
729862428.55082,-0.755488,2.479812,52.661438,-0.041458,-0.012238,1.00351,-0.038566,0.03296,-0.015417,43.094025,15.166656,-149.257095,,,
729862428.554158,-0.75693,2.485537,52.657751,-0.044662,-0.024033,1.026993,0.010721,0.023368,-0.014478,43.094025,15.166656,-149.257095,,,
729862428.557229,-0.750897,2.490346,52.653198,-0.044662,-0.024033,1.026993,0.010721,0.023368,-0.014478,43.094025,15.166656,-149.257095,,,
729862428.560881,-0.750897,2.490346,52.653198,-0.044662,-0.024033,1.026993,0.010721,0.023368,-0.014478,43.094025,15.166656,-149.257095,,,
729862428.564164,-0.738778,2.491703,52.64813,-0.050766,-0.025299,1.040588,0.054739,0.009377,-0.015975,43.094025,15.166656,-149.257095,,,
729862428.567474,-0.720453,2.491993,52.642741,-0.050766,-0.025299,1.040588,0.054739,0.009377,-0.015975,43.094025,15.166656,-149.257095,,,
729862428.570892,-0.720453,2.491993,52.642741,-0.050766,-0.025299,1.040588,0.054739,0.009377,-0.015975,43.094025,15.166656,-149.257095,,,
729862428.574144,-0.696534,2.486928,52.636698,-0.05159,-0.023834,1.032257,0.094989,-0.016557,-0.01857,43.094025,15.166656,-149.257095,,,
729862428.577547,-0.668793,2.480111,52.631346,-0.05159,-0.023834,1.032257,0.094989,-0.016557,-0.01857,43.094025,15.166656,-149.257095,,,
729862428.580805,-0.668793,2.480111,52.631346,-0.05159,-0.023834,1.032257,0.094989,-0.016557,-0.01857,43.094025,15.166656,-149.257095,,,
729862428.584223,-0.639343,2.47,52.626984,-0.051834,-0.017975,1.015961,0.107894,-0.032912,-0.011013,43.094025,15.166656,-149.257095,,,
729862428.587464,-0.609496,2.459088,52.623397,-0.051834,-0.017975,1.015961,0.107894,-0.032912,-0.011013,43.094025,15.166656,-149.257095,,,
729862428.590808,-0.609496,2.459088,52.623397,-0.051834,-0.017975,1.015961,0.107894,-0.032912,-0.011013,43.257416,14.87587,-149.160614,,,
729862428.594206,-0.581459,2.446032,52.620454,-0.050293,-0.012268,0.996719,0.095054,-0.040223,-0.007035,43.257416,14.87587,-149.160614,,,
729862428.597469,-0.556215,2.433767,52.617756,-0.050293,-0.012268,0.996719,0.095054,-0.040223,-0.007035,43.257416,14.87587,-149.160614,,,
729862428.600812,-0.556215,2.433767,52.617756,-0.050293,-0.012268,0.996719,0.095054,-0.040223,-0.007035,43.257416,14.87587,-149.160614,,,
729862428.60415,-0.533636,2.420952,52.614518,-0.037842,-0.003571,0.990707,0.076354,-0.035796,-0.011587,43.257416,14.87587,-149.160614,,,
729862428.607269,-0.513966,2.410975,52.609927,-0.037842,-0.003571,0.990707,0.076354,-0.035796,-0.011587,43.257416,14.87587,-149.160614,,,
729862428.610832,-0.513966,2.410975,52.609927,-0.037842,-0.003571,0.990707,0.076354,-0.035796,-0.011587,43.257416,14.87587,-149.160614,,,
729862428.614151,-0.498329,2.40317,52.603771,-0.029877,-0.005219,0.991684,0.049077,-0.013896,-0.023624,43.257416,14.87587,-149.160614,,,
729862428.617472,-0.486221,2.399903,52.59697,-0.029877,-0.005219,0.991684,0.049077,-0.013896,-0.023624,43.257416,14.87587,-149.160614,,,
729862428.62082,-0.486221,2.399903,52.59697,-0.029877,-0.005219,0.991684,0.049077,-0.013896,-0.023624,43.257416,14.87587,-149.160614,,,
729862428.624175,-0.477459,2.398899,52.590744,-0.032913,-0.004562,0.986862,0.026281,0.002801,-0.020583,43.257416,14.87587,-149.160614,,,
729862428.627534,-0.470886,2.399138,52.585536,-0.032913,-0.004562,0.986862,0.026281,0.002801,-0.020583,43.257416,14.87587,-149.160614,,,
729862428.630811,-0.470886,2.399138,52.585536,-0.032913,-0.004562,0.986862,0.026281,0.002801,-0.020583,43.317093,14.9785,-148.994431,,,
729862428.634165,-0.466008,2.399664,52.581837,-0.039154,-0.004303,0.981888,0.017989,0.00288,-0.010411,43.317093,14.9785,-148.994431,,,
729862428.637468,-0.46242,2.400159,52.57984,-0.039154,-0.004303,0.981888,0.017989,0.00288,-0.010411,43.317093,14.9785,-148.994431,,,
729862428.640602,-0.46242,2.400159,52.57984,-0.039154,-0.004303,0.981888,0.017989,0.00288,-0.010411,43.317093,14.9785,-148.994431,,,
729862428.644178,-0.461517,2.401698,52.579018,-0.042343,-0.004898,0.980072,0.004598,0.002102,-0.002773,43.317093,14.9785,-148.994431,,,
729862428.647471,-0.461471,2.401356,52.578054,-0.042343,-0.004898,0.980072,0.004598,0.002102,-0.002773,43.317093,14.9785,-148.994431,,,
729862428.650905,-0.461471,2.401356,52.578054,-0.042343,-0.004898,0.980072,0.004598,0.002102,-0.002773,43.317093,14.9785,-148.994431,,,
729862428.654144,-0.464086,2.401752,52.575803,-0.033768,-0.004547,0.974258,-0.008548,-0.001952,-0.012362,43.317093,14.9785,-148.994431,,,
729862428.657475,-0.467938,2.401028,52.571835,-0.033768,-0.004547,0.974258,-0.008548,-0.001952,-0.012362,43.317093,14.9785,-148.994431,,,
729862428.660852,-0.467938,2.401028,52.571835,-0.033768,-0.004547,0.974258,-0.008548,-0.001952,-0.012362,43.317093,14.9785,-148.994431,,,
729862428.664131,-0.474509,2.402974,52.565583,-0.026901,-0.003494,0.978897,-0.022848,0.00749,-0.029007,43.317093,14.9785,-148.994431,,,
729862428.667496,-0.482601,2.405724,52.557591,-0.026901,-0.003494,0.978897,-0.022848,0.00749,-0.029007,43.317093,14.9785,-148.994431,,,
729862428.670798,-0.482601,2.405724,52.557591,-0.026901,-0.003494,0.978897,-0.022848,0.00749,-0.029007,43.317093,14.9785,-148.994431,,,
729862428.674153,-0.49194,2.412211,52.549209,-0.03093,-0.003494,0.987045,-0.029435,0.023401,-0.032001,43.219131,15.05748,-149.199066,,,
729862428.677567,-0.500655,2.418928,52.540672,-0.03093,-0.003494,0.987045,-0.029435,0.023401,-0.032001,43.219131,15.05748,-149.199066,,,
729862428.680813,-0.500655,2.418928,52.540672,-0.03093,-0.003494,0.987045,-0.029435,0.023401,-0.032001,43.219131,15.05748,-149.199066,,,
729862428.684145,-0.508441,2.426766,52.532156,-0.035355,-0.008911,0.996002,-0.02411,0.032188,-0.031578,43.219131,15.05748,-149.199066,,,
729862428.687468,-0.515902,2.435854,52.523403,-0.035355,-0.008911,0.996002,-0.02411,0.032188,-0.031578,43.219131,15.05748,-149.199066,,,
729862428.690893,-0.515902,2.435854,52.523403,-0.035355,-0.008911,0.996002,-0.02411,0.032188,-0.031578,43.219131,15.05748,-149.199066,,,
729862428.694196,-0.522729,2.444241,52.514386,-0.042206,-0.009521,0.999115,-0.021518,0.040166,-0.033279,43.219131,15.05748,-149.199066,,,
729862428.69747,-0.529467,2.455746,52.505574,-0.042206,-0.009521,0.999115,-0.021518,0.040166,-0.033279,43.219131,15.05748,-149.199066,,,
729862428.700812,-0.529467,2.455746,52.505574,-0.042206,-0.009521,0.999115,-0.021518,0.040166,-0.033279,43.219131,15.05748,-149.199066,,,
729862428.704144,-0.536474,2.466507,52.49712,-0.047546,-0.010193,0.997055,-0.025373,0.04661,-0.030853,43.219131,15.05748,-149.199066,,,
729862428.707475,-0.544941,2.47878,52.490214,-0.047546,-0.010193,0.997055,-0.025373,0.04661,-0.030853,43.219131,15.05748,-149.199066,,,
729862428.710945,-0.544941,2.47878,52.490214,-0.047546,-0.010193,0.997055,-0.025373,0.04661,-0.030853,43.219131,15.05748,-149.199066,,,
729862428.7142,-0.553789,2.489504,52.485153,-0.051758,-0.009399,0.988373,-0.030443,0.041722,-0.018145,43.461868,15.086426,-149.401947,,,
729862428.717466,-0.563094,2.499217,52.480929,-0.051758,-0.009399,0.988373,-0.030443,0.041722,-0.018145,43.461868,15.086426,-149.401947,,,
729862428.720825,-0.563094,2.499217,52.480929,-0.051758,-0.009399,0.988373,-0.030443,0.041722,-0.018145,43.461868,15.086426,-149.401947,,,
729862428.724143,-0.571198,2.504906,52.476822,-0.051758,-0.010834,0.986526,-0.02353,0.015083,-0.017047,43.461868,15.086426,-149.401947,,,
729862428.727535,-0.577868,2.506467,52.472217,-0.051758,-0.010834,0.986526,-0.02353,0.015083,-0.017047,43.461868,15.086426,-149.401947,,,
729862428.730806,-0.577868,2.506467,52.472217,-0.051758,-0.010834,0.986526,-0.02353,0.015083,-0.017047,43.461868,15.086426,-149.401947,,,
729862428.734139,-0.58236,2.503952,52.466579,-0.048309,-0.01268,0.995743,-0.009849,-0.006028,-0.023514,43.461868,15.086426,-149.401947,,,
729862428.737468,-0.584602,2.500986,52.459837,-0.048309,-0.01268,0.995743,-0.009849,-0.006028,-0.023514,43.461868,15.086426,-149.401947,,,
729862428.740877,-0.584602,2.500986,52.459837,-0.048309,-0.01268,0.995743,-0.009849,-0.006028,-0.023514,43.461868,15.086426,-149.401947,,,
729862428.744169,-0.584337,2.494928,52.452317,-0.043793,-0.014877,1.006042,0.004869,-0.009409,-0.028112,43.461868,15.086426,-149.401947,,,
729862428.747467,-0.582616,2.492215,52.444246,-0.043793,-0.014877,1.006042,0.004869,-0.009409,-0.028112,43.461868,15.086426,-149.401947,,,
729862428.750816,-0.582616,2.492215,52.444246,-0.043793,-0.014877,1.006042,0.004869,-0.009409,-0.028112,43.461868,15.086426,-149.401947,,,
729862428.754134,-0.579758,2.489005,52.435511,-0.040817,-0.017075,1.005096,0.010201,0.00198,-0.032394,43.372971,14.768234,-149.09874,,,
729862428.757467,-0.578244,2.490716,52.426552,-0.040817,-0.017075,1.005096,0.010201,0.00198,-0.032394,43.372971,14.768234,-149.09874,,,
729862428.760841,-0.578244,2.490716,52.426552,-0.040817,-0.017075,1.005096,0.010201,0.00198,-0.032394,43.372971,14.768234,-149.09874,,,
729862428.764149,-0.578764,2.494452,52.418176,-0.046005,-0.013031,0.999649,-0.005433,0.026715,-0.028906,43.372971,14.768234,-149.09874,,,
729862428.767466,-0.582215,2.502984,52.410566,-0.046005,-0.013031,0.999649,-0.005433,0.026715,-0.028906,43.372971,14.768234,-149.09874,,,
729862428.770819,-0.582215,2.502984,52.410566,-0.046005,-0.013031,0.999649,-0.005433,0.026715,-0.028906,43.372971,14.768234,-149.09874,,,
729862428.7742,-0.588448,2.514645,52.404131,-0.049118,-0.010986,0.994217,-0.025136,0.051059,-0.021569,43.372971,14.768234,-149.09874,,,
729862428.77751,-0.597284,2.529766,52.399375,-0.049118,-0.010986,0.994217,-0.025136,0.051059,-0.021569,43.372971,14.768234,-149.09874,,,
729862428.780799,-0.597284,2.529766,52.399375,-0.049118,-0.010986,0.994217,-0.025136,0.051059,-0.021569,43.372971,14.768234,-149.09874,,,
729862428.784027,-0.607744,2.546571,52.396295,-0.057144,-0.01149,0.987686,-0.037064,0.060349,-0.010463,43.372971,14.768234,-149.09874,,,
729862428.787493,-0.618923,2.562325,52.39559,-0.057144,-0.01149,0.987686,-0.037064,0.060349,-0.010463,43.372971,14.768234,-149.09874,,,
729862428.790873,-0.618923,2.562325,52.39559,-0.057144,-0.01149,0.987686,-0.037064,0.060349,-0.010463,43.372971,14.768234,-149.09874,,,
729862428.794167,-0.630704,2.5772,52.39687,-0.063721,-0.014008,0.984146,-0.04164,0.046627,0.002982,43.597412,14.791443,-149.25029,,,
729862428.797466,-0.643668,2.588955,52.399473,-0.063721,-0.014008,0.984146,-0.04164,0.046627,0.002982,43.597412,14.791443,-149.25029,,,
729862428.800821,-0.643668,2.588955,52.399473,-0.063721,-0.014008,0.984146,-0.04164,0.046627,0.002982,43.597412,14.791443,-149.25029,,,
729862428.804241,-0.658059,2.599733,52.402838,-0.059753,-0.011383,0.980103,-0.05172,0.031506,0.007771,43.597412,14.791443,-149.25029,,,
729862428.807476,-0.673725,2.607164,52.406632,-0.059753,-0.011383,0.980103,-0.05172,0.031506,0.007771,43.597412,14.791443,-149.25029,,,
729862428.810933,-0.673725,2.607164,52.406632,-0.059753,-0.011383,0.980103,-0.05172,0.031506,0.007771,43.597412,14.791443,-149.25029,,,
729862428.814128,-0.691106,2.613849,52.410656,-0.054886,-0.010696,0.974747,-0.063391,0.021507,0.008775,43.597412,14.791443,-149.25029,,,
729862428.817481,-0.709828,2.617918,52.41444,-0.054886,-0.010696,0.974747,-0.063391,0.021507,0.008775,43.597412,14.791443,-149.25029,,,
729862428.820817,-0.709828,2.617918,52.41444,-0.054886,-0.010696,0.974747,-0.063391,0.021507,0.008775,43.597412,14.791443,-149.25029,,,
729862428.824148,-0.72907,2.618433,52.417892,-0.048996,-0.014282,0.976822,-0.066356,-0.001991,0.006399,43.597412,14.791443,-149.25029,,,
729862428.82752,-0.748062,2.615764,52.42047,-0.048996,-0.014282,0.976822,-0.066356,-0.001991,0.006399,43.597412,14.791443,-149.25029,,,
729862428.830872,-0.748062,2.615764,52.42047,-0.048996,-0.014282,0.976822,-0.066356,-0.001991,0.006399,43.597412,14.791443,-149.25029,,,
729862428.834149,-0.765959,2.609967,52.42167,-0.04216,-0.018997,0.991714,-0.057459,-0.018088,-0.00274,43.597412,14.791443,-149.25029,,,
729862428.837477,-0.781476,2.603759,52.420861,-0.04216,-0.018997,0.991714,-0.057459,-0.018088,-0.00274,43.573135,14.894714,-149.062424,,,
729862428.840807,-0.781476,2.603759,52.420861,-0.04216,-0.018997,0.991714,-0.057459,-0.018088,-0.00274,43.573135,14.894714,-149.062424,,,
729862428.844246,-0.794138,2.59722,52.418229,-0.038727,-0.022964,1.010254,-0.036873,-0.018855,-0.014512,43.573135,14.894714,-149.062424,,,
729862428.847465,-0.802659,2.59138,52.414275,-0.038727,-0.022964,1.010254,-0.036873,-0.018855,-0.014512,43.573135,14.894714,-149.062424,,,
729862428.85082,-0.802659,2.59138,52.414275,-0.038727,-0.022964,1.010254,-0.036873,-0.018855,-0.014512,43.573135,14.894714,-149.062424,,,
729862428.854173,-0.806051,2.58695,52.409941,-0.041153,-0.026886,1.026779,-0.001974,-0.011647,-0.015693,43.573135,14.894714,-149.062424,,,
729862428.857472,-0.805527,2.584208,52.406052,-0.041153,-0.026886,1.026779,-0.001974,-0.011647,-0.015693,43.573135,14.894714,-149.062424,,,
729862428.860947,-0.805527,2.584208,52.406052,-0.041153,-0.026886,1.026779,-0.001974,-0.011647,-0.015693,43.573135,14.894714,-149.062424,,,
729862428.864125,-0.801468,2.585955,52.403745,-0.045822,-0.029968,1.030243,0.02199,0.00732,-0.003767,43.573135,14.894714,-149.062424,,,
729862428.86747,-0.794165,2.588621,52.403314,-0.045822,-0.029968,1.030243,0.02199,0.00732,-0.003767,43.573135,14.894714,-149.062424,,,
729862428.870908,-0.794165,2.588621,52.403314,-0.045822,-0.029968,1.030243,0.02199,0.00732,-0.003767,43.573135,14.894714,-149.062424,,,
729862428.874154,-0.786367,2.596728,52.404155,-0.04837,-0.02359,1.017868,0.025814,0.024121,0.004956,43.573135,14.894714,-149.062424,,,
729862428.877516,-0.779472,2.603589,52.406189,-0.04837,-0.02359,1.017868,0.025814,0.024121,0.004956,43.754669,14.912048,-149.203522,,,
729862428.880825,-0.779472,2.603589,52.406189,-0.04837,-0.02359,1.017868,0.025814,0.024121,0.004956,43.754669,14.912048,-149.203522,,,
729862428.884204,-0.774249,2.614677,52.408821,-0.04538,-0.016693,0.993637,0.014595,0.035019,0.008431,43.754669,14.912048,-149.203522,,,
729862428.887465,-0.771998,2.624516,52.410992,-0.04538,-0.016693,0.993637,0.014595,0.035019,0.008431,43.754669,14.912048,-149.203522,,,
729862428.890825,-0.771998,2.624516,52.410992,-0.04538,-0.016693,0.993637,0.014595,0.035019,0.008431,43.754669,14.912048,-149.203522,,,
729862428.894183,-0.772567,2.636014,52.412383,-0.044479,-0.011307,0.978088,-0.005341,0.034488,0.001936,43.754669,14.912048,-149.203522,,,
729862428.897458,-0.776001,2.643576,52.413606,-0.044479,-0.011307,0.978088,-0.005341,0.034488,0.001936,43.754669,14.912048,-149.203522,,,
729862428.900811,-0.776001,2.643576,52.413606,-0.044479,-0.011307,0.978088,-0.005341,0.034488,0.001936,43.754669,14.912048,-149.203522,,,
729862428.904149,-0.781709,2.648375,52.415329,-0.049255,-0.01123,0.970276,-0.020903,0.008179,0.004617,43.754669,14.912048,-149.203522,,,
729862428.907492,-0.787353,2.648362,52.417694,-0.049255,-0.01123,0.970276,-0.020903,0.008179,0.004617,43.754669,14.912048,-149.203522,,,
729862428.910841,-0.787353,2.648362,52.417694,-0.049255,-0.01123,0.970276,-0.020903,0.008179,0.004617,43.754669,14.912048,-149.203522,,,
729862428.914138,-0.792498,2.644452,52.420215,-0.051178,-0.014053,0.97644,-0.016277,-0.017478,0.005919,43.754669,14.912048,-149.203522,,,
729862428.917488,-0.796662,2.637999,52.422623,-0.051178,-0.014053,0.97644,-0.016277,-0.017478,0.005919,43.575851,15.037582,-149.010162,,,
729862428.920833,-0.796662,2.637999,52.422623,-0.051178,-0.014053,0.97644,-0.016277,-0.017478,0.005919,43.575851,15.037582,-149.010162,,,
729862428.924216,-0.799409,2.629495,52.424939,-0.045685,-0.015778,0.994751,-0.004268,-0.024568,0.005877,43.575851,15.037582,-149.010162,,,
729862428.927567,-0.80003,2.622041,52.426786,-0.045685,-0.015778,0.994751,-0.004268,-0.024568,0.005877,43.575851,15.037582,-149.010162,,,
729862428.930819,-0.80003,2.622041,52.426786,-0.045685,-0.015778,0.994751,-0.004268,-0.024568,0.005877,43.575851,15.037582,-149.010162,,,
729862428.934152,-0.79938,2.614638,52.428436,-0.041275,-0.015289,1.004272,0.007624,-0.018503,0.005162,43.575851,15.037582,-149.010162,,,
729862428.937504,-0.796511,2.610073,52.430351,-0.041275,-0.015289,1.004272,0.007624,-0.018503,0.005162,43.575851,15.037582,-149.010162,,,
729862428.94071,-0.796511,2.610073,52.430351,-0.041275,-0.015289,1.004272,0.007624,-0.018503,0.005162,43.575851,15.037582,-149.010162,,,
729862428.944156,-0.794347,2.608842,52.432233,-0.038986,-0.015457,1.002258,0.007246,0.005808,0.004947,43.575851,15.037582,-149.010162,,,
729862428.94748,-0.793295,2.611614,52.433966,-0.038986,-0.015457,1.002258,0.007246,0.005808,0.004947,43.575851,15.037582,-149.010162,,,
729862428.950854,-0.793295,2.611614,52.433966,-0.038986,-0.015457,1.002258,0.007246,0.005808,0.004947,43.575851,15.037582,-149.010162,,,
729862428.954131,-0.794403,2.617792,52.435917,-0.036148,-0.010956,0.99118,-0.004319,0.026738,0.005969,43.575851,15.037582,-149.010162,,,
729862428.957467,-0.796614,2.62533,52.437653,-0.036148,-0.010956,0.99118,-0.004319,0.026738,0.005969,43.390198,15.029144,-149.324387,,,
729862428.960875,-0.796614,2.62533,52.437653,-0.036148,-0.010956,0.99118,-0.004319,0.026738,0.005969,43.390198,15.029144,-149.324387,,,
729862428.964129,-0.801232,2.634047,52.437718,-0.031372,-0.008224,0.983627,-0.019088,0.034333,-0.006367,43.390198,15.029144,-149.324387,,,
729862428.96748,-0.808956,2.64303,52.435496,-0.031372,-0.008224,0.983627,-0.019088,0.034333,-0.006367,43.390198,15.029144,-149.324387,,,
729862428.970813,-0.808956,2.64303,52.435496,-0.031372,-0.008224,0.983627,-0.019088,0.034333,-0.006367,43.390198,15.029144,-149.324387,,,
729862428.974203,-0.818554,2.650953,52.431466,-0.034225,-0.007553,0.980698,-0.031997,0.028446,-0.019666,43.390198,15.029144,-149.324387,,,
729862428.977545,-0.827961,2.655765,52.426555,-0.034225,-0.007553,0.980698,-0.031997,0.028446,-0.019666,43.390198,15.029144,-149.324387,,,
729862428.980816,-0.827961,2.655765,52.426555,-0.034225,-0.007553,0.980698,-0.031997,0.028446,-0.019666,43.390198,15.029144,-149.324387,,,
729862428.984141,-0.834974,2.655367,52.421632,-0.043457,-0.015793,0.992828,-0.016307,-0.010032,-0.01902,43.390198,15.029144,-149.324387,,,
729862428.987509,-0.837666,2.65016,52.416623,-0.043457,-0.015793,0.992828,-0.016307,-0.010032,-0.01902,43.390198,15.029144,-149.324387,,,
729862428.990816,-0.837666,2.65016,52.416623,-0.043457,-0.015793,0.992828,-0.016307,-0.010032,-0.01902,43.390198,15.029144,-149.324387,,,
729862428.994233,-0.835314,2.643542,52.411147,-0.049789,-0.023697,1.01889,0.019193,-0.026108,-0.020733,43.390198,15.029144,-149.324387,,,
729862428.997501,-0.827627,2.635105,52.405812,-0.049789,-0.023697,1.01889,0.019193,-0.026108,-0.020733,43.390198,15.029144,-149.324387,,,
729862429.000894,-0.827627,2.635105,52.405812,-0.049789,-0.023697,1.01889,0.019193,-0.026108,-0.020733,43.42189,15.068741,-148.998962,,,
729862429.004146,-0.815205,2.627418,52.401769,-0.056061,-0.025238,1.035248,0.052295,-0.023047,-0.010236,43.42189,15.068741,-148.998962,,,
729862429.007478,-0.799858,2.620075,52.399824,-0.056061,-0.025238,1.035248,0.052295,-0.023047,-0.010236,43.42189,15.068741,-148.998962,,,
729862429.010815,-0.799858,2.620075,52.399824,-0.056061,-0.025238,1.035248,0.052295,-0.023047,-0.010236,43.42189,15.068741,-148.998962,,,
729862429.014227,-0.783753,2.612241,52.400654,-0.05397,-0.022476,1.015686,0.057009,-0.022835,0.009384,43.42189,15.068741,-148.998962,,,
729862429.017526,-0.76879,2.605314,52.403234,-0.05397,-0.022476,1.015686,0.057009,-0.022835,0.009384,43.42189,15.068741,-148.998962,,,
729862429.020815,-0.76879,2.605314,52.403234,-0.05397,-0.022476,1.015686,0.057009,-0.022835,0.009384,43.42189,15.068741,-148.998962,,,
729862429.024143,-0.756579,2.598158,52.406423,-0.047501,-0.013824,0.995087,0.038077,-0.018127,0.012848,43.42189,15.068741,-148.998962,,,
729862429.027628,-0.747319,2.592936,52.409154,-0.047501,-0.013824,0.995087,0.038077,-0.018127,0.012848,43.42189,15.068741,-148.998962,,,
729862429.030779,-0.747319,2.592936,52.409154,-0.047501,-0.013824,0.995087,0.038077,-0.018127,0.012848,43.42189,15.068741,-148.998962,,,
729862429.034021,-0.742011,2.58777,52.41026,-0.036072,-0.005951,0.983551,0.010359,-0.009069,0.000355,43.42189,15.068741,-148.998962,,,
729862429.037513,-0.741361,2.585114,52.409899,-0.036072,-0.005951,0.983551,0.010359,-0.009069,0.000355,43.42189,15.068741,-148.998962,,,
729862429.040872,-0.741361,2.585114,52.409899,-0.036072,-0.005951,0.983551,0.010359,-0.009069,0.000355,43.533936,15.021881,-149.078506,,,
729862429.04419,-0.744465,2.581537,52.408016,-0.031662,-0.001923,0.979874,-0.017248,-0.00187,-0.011415,43.533936,15.021881,-149.078506,,,
729862429.047496,-0.75082,2.580476,52.40497,-0.031662,-0.001923,0.979874,-0.017248,-0.00187,-0.011415,43.533936,15.021881,-149.078506,,,
729862429.050799,-0.75082,2.580476,52.40497,-0.031662,-0.001923,0.979874,-0.017248,-0.00187,-0.011415,43.533936,15.021881,-149.078506,,,
729862429.054197,-0.758036,2.578117,52.40159,-0.033813,-0.006348,0.988373,-0.025515,0.002274,-0.013842,43.533936,15.021881,-149.078506,,,
729862429.057508,-0.765316,2.578081,52.398068,-0.033813,-0.006348,0.988373,-0.025515,0.002274,-0.013842,43.533936,15.021881,-149.078506,,,
729862429.060896,-0.765316,2.578081,52.398068,-0.033813,-0.006348,0.988373,-0.025515,0.002274,-0.013842,43.533936,15.021881,-149.078506,,,
729862429.064131,-0.770707,2.5777,52.394584,-0.040558,-0.015839,1.004532,-0.012742,0.003694,-0.01294,43.533936,15.021881,-149.078506,,,
729862429.067501,-0.770707,2.577228,52.39159,-0.040558,-0.015839,1.004532,-0.012742,0.003694,-0.01294,43.533936,15.021881,-149.078506,,,
729862429.070822,-0.772811,2.577228,52.39159,-0.040558,-0.015839,1.004532,-0.012742,0.003694,-0.01294,43.533936,15.021881,-149.078506,,,
729862429.074134,-0.770581,2.574456,52.389188,-0.04895,-0.021652,1.018143,0.020084,-0.015786,-0.007352,43.533936,15.021881,-149.078506,,,
729862429.077548,-0.762765,2.567636,52.386741,-0.04895,-0.021652,1.018143,0.020084,-0.015786,-0.007352,43.533936,15.021881,-149.078506,,,
729862429.080797,-0.762765,2.567636,52.386741,-0.04895,-0.021652,1.018143,0.020084,-0.015786,-0.007352,43.466736,14.844635,-149.095779,,,
729862429.084144,-0.750275,2.560096,52.384229,-0.049835,-0.024353,1.025909,0.056669,-0.030227,-0.006296,43.466736,14.844635,-149.095779,,,
729862429.087495,-0.750275,2.560096,52.384229,-0.049835,-0.024353,1.025909,0.056669,-0.030227,-0.006296,43.466736,14.844635,-149.095779,,,
729862429.090828,-0.732826,2.550128,52.381841,-0.049835,-0.024353,1.025909,0.056669,-0.030227,-0.006296,43.466736,14.844635,-149.095779,,,
729862429.094189,-0.713651,2.541561,52.378907,-0.043076,-0.020508,1.018051,0.072752,-0.031895,-0.00947,43.466736,14.844635,-149.095779,,,
729862429.097467,-0.713651,2.541561,52.378907,-0.043076,-0.020508,1.018051,0.072752,-0.031895,-0.00947,43.466736,14.844635,-149.095779,,,
729862429.100827,-0.694019,2.531783,52.375254,-0.043076,-0.020508,1.018051,0.072752,-0.031895,-0.00947,43.466736,14.844635,-149.095779,,,
729862429.104141,-0.677246,2.523444,52.370789,-0.037476,-0.01506,0.994293,0.054486,-0.028129,-0.016057,43.466736,14.844635,-149.095779,,,
729862429.107548,-0.677246,2.523444,52.365568,-0.037476,-0.01506,0.994293,0.054486,-0.028129,-0.016057,43.466736,14.844635,-149.095779,,,
729862429.110838,-0.66417,2.514636,52.365568,-0.037476,-0.01506,0.994293,0.054486,-0.028129,-0.016057,43.466736,14.844635,-149.095779,,,
729862429.114169,-0.655074,2.506242,52.359937,-0.03566,-0.006622,0.97699,0.025349,-0.02038,-0.020208,43.466736,14.844635,-149.095779,,,
729862429.117477,-0.655074,2.506242,52.359937,-0.03566,-0.006622,0.97699,0.025349,-0.02038,-0.020208,43.466736,14.844635,-149.095779,,,
729862429.120874,-0.651057,2.501249,52.353752,-0.03566,-0.006622,0.97699,0.025349,-0.02038,-0.020208,43.466736,14.844635,-149.095779,,,
729862429.124133,-0.652688,2.497137,52.347398,-0.036209,-0.006378,0.970245,-0.017204,-0.001196,-0.02311,43.568176,14.81842,-149.343475,,,
729862429.12766,-0.652688,2.496737,52.342023,-0.036209,-0.006378,0.970245,-0.017204,-0.001196,-0.02311,43.568176,14.81842,-149.343475,,,
729862429.130848,-0.660713,2.496737,52.342023,-0.036209,-0.006378,0.970245,-0.017204,-0.001196,-0.02311,43.568176,14.81842,-149.343475,,,
729862429.134149,-0.673087,2.496059,52.337738,-0.040421,-0.006653,0.970032,-0.05068,0.008697,-0.016855,43.568176,14.81842,-149.343475,,,
729862429.137478,-0.673087,2.496059,52.337738,-0.040421,-0.006653,0.970032,-0.05068,0.008697,-0.016855,43.568176,14.81842,-149.343475,,,
729862429.140834,-0.689365,2.498539,52.334441,-0.040421,-0.006653,0.970032,-0.05068,0.008697,-0.016855,43.568176,14.81842,-149.343475,,,
729862429.144189,-0.706616,2.5017,52.331762,-0.043488,-0.013153,0.987213,-0.057512,0.018889,-0.012879,43.568176,14.81842,-149.343475,,,
729862429.147541,-0.706616,2.5017,52.331762,-0.043488,-0.013153,0.987213,-0.057512,0.018889,-0.012879,43.568176,14.81842,-149.343475,,,
729862429.150808,-0.722632,2.507249,52.329409,-0.043488,-0.013153,0.987213,-0.057512,0.018889,-0.012879,43.568176,14.81842,-149.343475,,,
729862429.154148,-0.736814,2.514718,52.327908,-0.044388,-0.020477,1.010208,-0.0424,0.028618,-0.006301,43.568176,14.81842,-149.343475,,,
729862429.157485,-0.736814,2.514718,52.327908,-0.044388,-0.020477,1.010208,-0.0424,0.028618,-0.006301,43.568176,14.81842,-149.343475,,,
729862429.160947,-0.747288,2.5231,52.32679,-0.044388,-0.020477,1.010208,-0.0424,0.028618,-0.006301,43.568176,14.81842,-149.343475,,,
729862429.164131,-0.75418,2.533217,52.325918,-0.042587,-0.023163,1.018387,-0.014129,0.035061,-0.003487,43.388382,15.083084,-149.150421,,,
729862429.167493,-0.75418,2.533217,52.325918,-0.042587,-0.023163,1.018387,-0.014129,0.035061,-0.003487,43.388382,15.083084,-149.150421,,,
729862429.170817,-0.757002,2.542357,52.32497,-0.042587,-0.023163,1.018387,-0.014129,0.035061,-0.003487,43.388382,15.083084,-149.150421,,,
729862429.173905,-0.757016,2.550838,52.32333,-0.037384,-0.019684,1.01265,0.007825,0.030323,-0.007281,43.388382,15.083084,-149.150421,,,
729862429.17754,-0.757016,2.550838,52.32333,-0.037384,-0.019684,1.01265,0.007825,0.030323,-0.007281,43.388382,15.083084,-149.150421,,,
729862429.180813,-0.754247,2.558438,52.320579,-0.037384,-0.019684,1.01265,0.007825,0.030323,-0.007281,43.388382,15.083084,-149.150421,,,
729862429.18414,-0.7498,2.565039,52.316121,-0.035355,-0.01709,1.004639,0.020805,0.030491,-0.018515,43.388382,15.083084,-149.150421,,,
729862429.187545,-0.7498,2.565039,52.316121,-0.035355,-0.01709,1.004639,0.020805,0.030491,-0.018515,43.388382,15.083084,-149.150421,,,
729862429.190808,-0.744557,2.572827,52.309834,-0.035355,-0.01709,1.004639,0.020805,0.030491,-0.018515,43.388382,15.083084,-149.150421,,,
729862429.194178,-0.739385,2.578623,52.302273,-0.036346,-0.012848,0.991623,0.018772,0.025898,-0.02743,43.388382,15.083084,-149.150421,,,
729862429.197476,-0.739385,2.578623,52.302273,-0.036346,-0.012848,0.991623,0.018772,0.025898,-0.02743,43.388382,15.083084,-149.150421,,,
729862429.200867,-0.736396,2.585094,52.293959,-0.036346,-0.012848,0.991623,0.018772,0.025898,-0.02743,43.388382,15.083084,-149.150421,,,
729862429.204138,-0.73693,2.58993,52.284749,-0.038651,-0.008972,0.973923,-0.007922,0.024396,-0.034738,43.521255,14.797058,-148.864044,,,
729862429.207484,-0.73693,2.58993,52.284749,-0.038651,-0.008972,0.973923,-0.007922,0.024396,-0.034738,43.521255,14.797058,-148.864044,,,
729862429.210853,-0.741558,2.596944,52.274927,-0.038651,-0.008972,0.973923,-0.007922,0.024396,-0.034738,43.521255,14.797058,-148.864044,,,
729862429.214137,-0.74958,2.60552,52.265214,-0.044449,-0.009247,0.972763,-0.033719,0.040818,-0.035025,43.521255,14.797058,-148.864044,,,
729862429.217489,-0.74958,2.60552,52.265214,-0.044449,-0.009247,0.972763,-0.033719,0.040818,-0.035025,43.521255,14.797058,-148.864044,,,
729862429.220811,-0.762249,2.617924,52.256835,-0.044449,-0.009247,0.972763,-0.033719,0.040818,-0.035025,43.521255,14.797058,-148.864044,,,
729862429.224164,-0.779463,2.632152,52.250749,-0.050186,-0.011719,0.971848,-0.066943,0.055514,-0.020513,43.521255,14.797058,-148.864044,,,
729862429.227604,-0.779463,2.632152,52.250749,-0.050186,-0.011719,0.971848,-0.066943,0.055514,-0.020513,43.521255,14.797058,-148.864044,,,
729862429.230829,-0.800249,2.647156,52.247858,-0.050186,-0.011719,0.971848,-0.066943,0.055514,-0.020513,43.521255,14.797058,-148.864044,,,
729862429.234147,-0.823239,2.661306,52.247872,-0.055145,-0.011032,0.965302,-0.081904,0.052605,-0.000929,43.521255,14.797058,-148.864044,,,
729862429.237496,-0.823239,2.661306,52.247872,-0.055145,-0.011032,0.965302,-0.081904,0.052605,-0.000929,43.521255,14.797058,-148.864044,,,
729862429.240897,-0.848031,2.674084,52.249611,-0.055145,-0.011032,0.965302,-0.081904,0.052605,-0.000929,43.521255,14.797058,-148.864044,,,
729862429.2442,-0.874603,2.683983,52.252494,-0.052628,-0.014359,0.967651,-0.092641,0.035921,0.00659,43.558914,14.892639,-149.325226,,,
729862429.247486,-0.874603,2.683983,52.252494,-0.052628,-0.014359,0.967651,-0.092641,0.035921,0.00659,43.558914,14.892639,-149.325226,,,
729862429.250829,-0.901588,2.692684,52.255884,-0.052628,-0.014359,0.967651,-0.092641,0.035921,0.00659,43.558914,14.892639,-149.325226,,,
729862429.254144,-0.928211,2.697779,52.258526,-0.045898,-0.013672,0.974503,-0.089181,0.017777,0.001655,43.558914,14.892639,-149.325226,,,
729862429.257495,-0.928211,2.697779,52.258526,-0.045898,-0.013672,0.974503,-0.089181,0.017777,0.001655,43.558914,14.892639,-149.325226,,,
729862429.260862,-0.953467,2.701661,52.25967,-0.045898,-0.013672,0.974503,-0.089181,0.017777,0.001655,43.558914,14.892639,-149.325226,,,
729862429.264136,-0.977267,2.704754,52.258397,-0.034454,-0.016571,0.988922,-0.078444,0.021336,-0.014473,43.558914,14.892639,-149.325226,,,
729862429.267548,-0.977267,2.704754,52.258397,-0.034454,-0.016571,0.988922,-0.078444,0.021336,-0.014473,43.558914,14.892639,-149.325226,,,
729862429.270798,-0.998421,2.710964,52.254195,-0.034454,-0.016571,0.988922,-0.078444,0.021336,-0.014473,43.558914,14.892639,-149.325226,,,
729862429.274139,-1.015882,2.71753,52.246954,-0.03273,-0.023041,1.009109,-0.052806,0.032702,-0.03436,43.558914,14.892639,-149.325226,,,
729862429.277513,-1.015882,2.71753,52.246954,-0.03273,-0.023041,1.009109,-0.052806,0.032702,-0.03436,43.558914,14.892639,-149.325226,,,
729862429.280871,-1.02904,2.725908,52.237581,-0.03273,-0.023041,1.009109,-0.052806,0.032702,-0.03436,43.558914,14.892639,-149.325226,,,
729862429.284136,-1.03665,2.731996,52.226662,-0.038986,-0.026718,1.018356,-0.016549,0.026862,-0.043296,43.558914,14.892639,-149.325226,,,
729862429.287493,-1.03665,2.731996,52.226662,-0.038986,-0.026718,1.018356,-0.016549,0.026862,-0.043296,43.732162,14.84462,-149.132614,,,
729862429.290812,-1.04023,2.738657,52.215255,-0.038986,-0.026718,1.018356,-0.016549,0.026862,-0.043296,43.732162,14.84462,-149.132614,,,
729862429.294177,-1.040223,2.744696,52.204134,-0.046371,-0.030319,1.018387,0.005314,0.027233,-0.040199,43.732162,14.84462,-149.132614,,,
729862429.297488,-1.040223,2.744696,52.204134,-0.046371,-0.030319,1.018387,0.005314,0.027233,-0.040199,43.732162,14.84462,-149.132614,,,
729862429.300825,-1.038832,2.751718,52.193496,-0.046371,-0.030319,1.018387,0.005314,0.027233,-0.040199,43.732162,14.84462,-149.132614,,,
729862429.304143,-1.03654,2.759379,52.183563,-0.048615,-0.027649,1.012329,0.009411,0.029528,-0.035118,43.732162,14.84462,-149.132614,,,
729862429.307545,-1.03654,2.759379,52.183563,-0.048615,-0.027649,1.012329,0.009411,0.029528,-0.035118,43.732162,14.84462,-149.132614,,,
729862429.310839,-1.034072,2.767368,52.173816,-0.048615,-0.027649,1.012329,0.009411,0.029528,-0.035118,43.732162,14.84462,-149.132614,,,
729862429.314174,-1.03245,2.776502,52.164259,-0.048599,-0.022888,0.998123,0.001755,0.029742,-0.034299,43.732162,14.84462,-149.132614,,,
729862429.317468,-1.03245,2.776502,52.164259,-0.048599,-0.022888,0.998123,0.001755,0.029742,-0.034299,43.732162,14.84462,-149.132614,,,
729862429.320877,-1.034065,2.783817,52.15497,-0.048599,-0.022888,0.998123,0.001755,0.029742,-0.034299,43.732162,14.84462,-149.132614,,,
729862429.324136,-1.038953,2.791475,52.14542,-0.047318,-0.017349,0.982269,-0.022048,0.025164,-0.037455,43.732162,14.84462,-149.132614,,,
729862429.32756,-1.038953,2.791475,52.14542,-0.047318,-0.017349,0.982269,-0.022048,0.025164,-0.037455,43.831085,14.67897,-149.443161,,,
729862429.330834,-1.047497,2.797342,52.135441,-0.047318,-0.017349,0.982269,-0.022048,0.025164,-0.037455,43.831085,14.67897,-149.443161,,,
729862429.334145,-1.059309,2.802795,52.125715,-0.049011,-0.016998,0.979309,-0.045956,0.021232,-0.036947,43.831085,14.67897,-149.443161,,,
729862429.337492,-1.059309,2.802795,52.125715,-0.049011,-0.016998,0.979309,-0.045956,0.021232,-0.036947,43.831085,14.67897,-149.443161,,,
729862429.340854,-1.074757,2.807366,52.115808,-0.049011,-0.016998,0.979309,-0.045956,0.021232,-0.036947,43.831085,14.67897,-149.443161,,,
729862429.344186,-1.091973,2.808989,52.106433,-0.056213,-0.018585,0.979309,-0.060016,0.0117,-0.033656,43.831085,14.67897,-149.443161,,,
729862429.347549,-1.091973,2.808989,52.106433,-0.056213,-0.018585,0.979309,-0.060016,0.0117,-0.033656,43.831085,14.67897,-149.443161,,,
729862429.350819,-1.109587,2.809068,52.098856,-0.056213,-0.018585,0.979309,-0.060016,0.0117,-0.033656,43.831085,14.67897,-149.443161,,,
729862429.354141,-1.124782,2.801698,52.092783,-0.061035,-0.023148,0.990814,-0.04383,-0.024988,-0.02203,43.831085,14.67897,-149.443161,,,
729862429.357487,-1.124782,2.801698,52.092783,-0.061035,-0.023148,0.990814,-0.04383,-0.024988,-0.02203,43.831085,14.67897,-149.443161,,,
729862429.360835,-1.135316,2.791349,52.088415,-0.061035,-0.023148,0.990814,-0.04383,-0.024988,-0.02203,43.831085,14.67897,-149.443161,,,
729862429.364074,-1.140879,2.775318,52.084675,-0.059784,-0.031296,1.014511,-0.008524,-0.052203,-0.015661,43.831085,14.67897,-149.443161,,,
729862429.367495,-1.140879,2.775318,52.084675,-0.059784,-0.031296,1.014511,-0.008524,-0.052203,-0.015661,43.845428,14.749725,-149.24025,,,
729862429.370911,-1.141318,2.758862,52.080449,-0.059784,-0.031296,1.014511,-0.008524,-0.052203,-0.015661,43.845428,14.749725,-149.24025,,,
729862429.37414,-1.137067,2.74095,52.075488,-0.052643,-0.033447,1.030899,0.026952,-0.05787,-0.018999,43.845428,14.749725,-149.24025,,,
729862429.377592,-1.137067,2.74095,52.075488,-0.052643,-0.033447,1.030899,0.026952,-0.05787,-0.018999,43.845428,14.749725,-149.24025,,,
729862429.380809,-1.127821,2.724022,52.069702,-0.052643,-0.033447,1.030899,0.026952,-0.05787,-0.018999,43.845428,14.749725,-149.24025,,,
729862429.384151,-1.115718,2.708569,52.063064,-0.042618,-0.029251,1.032196,0.049558,-0.047956,-0.023889,43.845428,14.749725,-149.24025,,,
729862429.387468,-1.115718,2.708569,52.063064,-0.042618,-0.029251,1.032196,0.049558,-0.047956,-0.023889,43.845428,14.749725,-149.24025,,,
729862429.390816,-1.100833,2.696275,52.055421,-0.042618,-0.029251,1.032196,0.049558,-0.047956,-0.023889,43.845428,14.749725,-149.24025,,,
729862429.394202,-1.084828,2.688304,52.046579,-0.038788,-0.023636,1.025589,0.059378,-0.018762,-0.031736,43.845428,14.749725,-149.24025,,,
729862429.397468,-1.084828,2.688304,52.046579,-0.038788,-0.023636,1.025589,0.059378,-0.018762,-0.031736,43.845428,14.749725,-149.24025,,,
729862429.400818,-1.069386,2.684525,52.036379,-0.038788,-0.023636,1.025589,0.059378,-0.018762,-0.031736,43.845428,14.749725,-149.24025,,,
729862429.404145,-1.056287,2.685659,52.025263,-0.04071,-0.017044,1.011917,0.043496,0.013415,-0.038869,43.845428,14.749725,-149.24025,,,
729862429.407523,-1.056287,2.685659,52.025263,-0.04071,-0.017044,1.011917,0.043496,0.013415,-0.038869,43.727249,14.49971,-149.199448,,,
729862429.41088,-1.046375,2.690301,52.014213,-0.04071,-0.017044,1.011917,0.043496,0.013415,-0.038869,43.727249,14.49971,-149.199448,,,
729862429.414177,-1.040707,2.697176,52.004008,-0.050705,-0.012573,0.990601,0.013561,0.02703,-0.034309,43.727249,14.49971,-149.199448,,,
729862429.417496,-1.040707,2.697176,52.004008,-0.050705,-0.012573,0.990601,0.013561,0.02703,-0.034309,43.727249,14.49971,-149.199448,,,
729862429.42092,-1.03884,2.70443,51.995781,-0.050705,-0.012573,0.990601,0.013561,0.02703,-0.034309,43.727249,14.49971,-149.199448,,,
729862429.424146,-1.040478,2.713133,51.989988,-0.060974,-0.009491,0.975876,-0.011293,0.028082,-0.01867,43.727249,14.49971,-149.199448,,,
729862429.427542,-1.040478,2.713133,51.989988,-0.060974,-0.009491,0.975876,-0.011293,0.028082,-0.01867,43.727249,14.49971,-149.199448,,,
729862429.430813,-1.045741,2.719236,51.985989,-0.060974,-0.009491,0.975876,-0.011293,0.028082,-0.01867,43.727249,14.49971,-149.199448,,,
729862429.434142,-1.053187,2.724263,51.983841,-0.063156,-0.010803,0.974075,-0.025448,0.004337,-0.006726,43.727249,14.49971,-149.199448,,,
729862429.437471,-1.053187,2.724263,51.983841,-0.063156,-0.010803,0.974075,-0.025448,0.004337,-0.006726,43.727249,14.49971,-149.199448,,,
729862429.440824,-1.060472,2.72218,51.982933,-0.063156,-0.010803,0.974075,-0.025448,0.004337,-0.006726,43.727249,14.49971,-149.199448,,,
729862429.444193,-1.067335,2.717911,51.982112,-0.058884,-0.017166,0.985428,-0.018713,-0.024575,-0.006002,43.727249,14.49971,-149.199448,,,
729862429.447467,-1.067335,2.717911,51.982112,-0.058884,-0.017166,0.985428,-0.018713,-0.024575,-0.006002,43.727249,14.49971,-149.199448,,,
729862429.450829,-1.071735,2.708526,51.980414,-0.058884,-0.017166,0.985428,-0.018713,-0.024575,-0.006002,43.671356,14.582321,-149.217743,,,
729862429.454156,-1.07427,2.697614,51.977442,-0.049515,-0.019424,1.004791,-0.000663,-0.043021,-0.014183,43.671356,14.582321,-149.217743,,,
729862429.457599,-1.07427,2.697614,51.977442,-0.049515,-0.019424,1.004791,-0.000663,-0.043021,-0.014183,43.671356,14.582321,-149.217743,,,
729862429.460896,-1.073089,2.684256,51.972462,-0.049515,-0.019424,1.004791,-0.000663,-0.043021,-0.014183,43.671356,14.582321,-149.217743,,,
729862429.464215,-1.068962,2.671671,51.965227,-0.041107,-0.020935,1.022339,0.023725,-0.034237,-0.028789,43.671356,14.582321,-149.217743,,,
729862429.467573,-1.068962,2.671671,51.965227,-0.041107,-0.020935,1.022339,0.023725,-0.034237,-0.028789,43.671356,14.582321,-149.217743,,,
729862429.470882,-1.061157,2.662584,51.956822,-0.041107,-0.020935,1.022339,0.023725,-0.034237,-0.028789,43.671356,14.582321,-149.217743,,,
729862429.474219,-1.051306,2.656628,51.948215,-0.042221,-0.025146,1.033966,0.039532,-0.004375,-0.029321,43.671356,14.582321,-149.217743,,,
729862429.477571,-1.051306,2.656628,51.948215,-0.042221,-0.025146,1.033966,0.039532,-0.004375,-0.029321,43.671356,14.582321,-149.217743,,,
729862429.480947,-1.039652,2.657592,51.939838,-0.042221,-0.025146,1.033966,0.039532,-0.004375,-0.029321,43.671356,14.582321,-149.217743,,,
729862429.484215,-1.0268,2.662758,51.932316,-0.04892,-0.024643,1.028793,0.047236,0.032202,-0.022815,43.671356,14.582321,-149.217743,,,
729862429.487514,-1.0268,2.662758,51.932316,-0.04892,-0.024643,1.028793,0.047236,0.032202,-0.022815,43.671356,14.582321,-149.217743,,,
729862429.490954,-1.014298,2.672516,51.926117,-0.04892,-0.024643,1.028793,0.047236,0.032202,-0.022815,43.787109,14.378952,-149.396545,,,
729862429.49422,-1.002402,2.68451,51.921693,-0.054031,-0.023331,1.016068,0.04141,0.045748,-0.010723,43.787109,14.378952,-149.396545,,,
729862429.497627,-1.002402,2.68451,51.921693,-0.054031,-0.023331,1.016068,0.04141,0.045748,-0.010723,43.787109,14.378952,-149.396545,,,
729862429.500873,-0.99184,2.695941,51.918602,-0.054031,-0.023331,1.016068,0.04141,0.045748,-0.010723,43.787109,14.378952,-149.396545,,,
729862429.504209,-0.982782,2.706975,51.9163,-0.058716,-0.019745,1.000809,0.029343,0.029798,-0.006092,43.787109,14.378952,-149.396545,,,
729862429.507506,-0.982782,2.706975,51.9163,-0.058716,-0.019745,1.000809,0.029343,0.029798,-0.006092,43.787109,14.378952,-149.396545,,,
729862429.510892,-0.975051,2.712308,51.914437,-0.058716,-0.019745,1.000809,0.029343,0.029798,-0.006092,43.787109,14.378952,-149.396545,,,
729862429.514213,-0.967617,2.715584,51.912451,-0.056564,-0.017746,0.990448,0.026132,-0.003054,-0.007386,43.787109,14.378952,-149.396545,,,
729862429.517611,-0.967617,2.715584,51.912451,-0.056564,-0.017746,0.990448,0.026132,-0.003054,-0.007386,43.787109,14.378952,-149.396545,,,
729862429.520846,-0.960838,2.711335,51.910246,-0.056564,-0.017746,0.990448,0.026132,-0.003054,-0.007386,43.787109,14.378952,-149.396545,,,
729862429.524251,-0.954305,2.705291,51.907887,-0.052734,-0.019714,0.992691,0.02488,-0.031365,-0.008868,43.787109,14.378952,-149.396545,,,
729862429.527515,-0.954305,2.705291,51.907887,-0.052734,-0.019714,0.992691,0.02488,-0.031365,-0.008868,43.787109,14.378952,-149.396545,,,
729862429.530922,-0.947822,2.694348,51.90566,-0.052734,-0.019714,0.992691,0.02488,-0.031365,-0.008868,43.839661,14.178986,-149.492767,,,
729862429.534152,-0.941983,2.68351,51.903729,-0.050781,-0.019958,0.998138,0.021618,-0.037322,-0.007078,43.839661,14.178986,-149.492767,,,
729862429.537577,-0.941983,2.68351,51.903729,-0.050781,-0.019958,0.998138,0.021618,-0.037322,-0.007078,43.839661,14.178986,-149.492767,,,
729862429.540897,-0.935733,2.672137,51.902044,-0.050781,-0.019958,0.998138,0.021618,-0.037322,-0.007078,43.839661,14.178986,-149.492767,,,
729862429.544255,-0.929023,2.661476,51.900794,-0.045197,-0.02002,1.004837,0.025449,-0.027019,-0.00376,43.839661,14.178986,-149.492767,,,
729862429.547491,-0.929023,2.661476,51.900794,-0.045197,-0.02002,1.004837,0.025449,-0.027019,-0.00376,43.839661,14.178986,-149.492767,,,
729862429.550896,-0.921769,2.654932,51.899604,-0.045197,-0.02002,1.004837,0.025449,-0.027019,-0.00376,43.839661,14.178986,-149.492767,,,
729862429.554256,-0.914981,2.650682,51.897852,-0.039932,-0.020905,1.00618,0.024472,-0.003824,-0.007588,43.839661,14.178986,-149.492767,,,
729862429.557485,-0.914981,2.650682,51.897852,-0.039932,-0.020905,1.00618,0.024472,-0.003824,-0.007588,43.839661,14.178986,-149.492767,,,
729862429.560888,-0.908263,2.651175,51.895384,-0.039932,-0.020905,1.00618,0.024472,-0.003824,-0.007588,43.839661,14.178986,-149.492767,,,
729862429.564199,-0.901631,2.656174,51.892184,-0.041885,-0.018631,1.003204,0.026824,0.027138,-0.01255,43.839661,14.178986,-149.492767,,,
729862429.567541,-0.901631,2.656174,51.892184,-0.041885,-0.018631,1.003204,0.026824,0.027138,-0.01255,43.839661,14.178986,-149.492767,,,
729862429.570873,-0.895029,2.666837,51.888683,-0.041885,-0.018631,1.003204,0.026824,0.027138,-0.01255,43.839661,14.178986,-149.492767,,,
729862429.574263,-0.889999,2.685005,51.885334,-0.045044,-0.019226,1.000641,0.018457,0.073583,-0.011995,43.737946,14.268921,-149.567871,,,
