Time (sec),Pitch (deg),Roll (deg),Yaw(deg),X-Acceleration (g),Y-Acceleration (g),Z-Acceleration (g),Pitch Rate (deg/sec),Roll Rate (deg/sec),Yaw Rate (deg/sec),Magnetic Field in X direction (uT),Magnetic Field in Y direction (uT),Magnetic Field in Z Direction (uT),Latitude (deg),Longitude (deg),Altitude (m)
729861738.067282,1.252465,0.260987,122.657915,-0.015015,0.013474,1.010468,0.007049,-0.021071,-0.006474,65.332275,32.185699,-145.662994,,,
729861738.070667,1.25741,0.24823,122.657883,-0.01738,0.008591,1.013824,0.007049,-0.021071,-0.006474,65.332275,32.185699,-145.662994,,,
729861738.073938,1.25741,0.24823,122.657883,-0.01738,0.008591,1.013824,0.007049,-0.021071,-0.006474,65.332275,32.185699,-145.662994,,,
729861738.077263,1.264051,0.236124,122.658194,-0.01738,0.008591,1.013824,0.023214,-0.035155,-0.001164,65.332275,32.185699,-145.662994,,,
729861738.080596,1.273526,0.219538,122.658414,-0.016541,0.009659,1.011887,0.023214,-0.035155,-0.001164,65.332275,32.185699,-145.662994,,,
729861738.083924,1.273526,0.219538,122.658414,-0.016541,0.009659,1.011887,0.023214,-0.035155,-0.001164,65.332275,32.185699,-145.662994,,,
729861738.087262,1.281347,0.207713,122.658441,-0.016541,0.009659,1.011887,0.026704,-0.039591,0.00055,65.332275,32.185699,-145.662994,,,
729861738.090596,1.290449,0.194395,122.658853,-0.01178,0.013336,1.008698,0.026704,-0.039591,0.00055,65.332275,32.185699,-145.662994,,,
729861738.093926,1.290449,0.194395,122.658853,-0.01178,0.013336,1.008698,0.026704,-0.039591,0.00055,65.332275,32.185699,-145.662994,,,
729861738.097336,1.296368,0.186631,122.659053,-0.01178,0.013336,1.008698,0.019979,-0.028457,0.000739,65.332275,32.185699,-145.662994,,,
729861738.10059,1.303182,0.178792,122.659493,-0.007889,0.018326,1.008911,0.019979,-0.028457,0.000739,65.219406,32.165787,-145.790268,,,
729861738.103934,1.303182,0.178792,122.659493,-0.007889,0.018326,1.008911,0.019979,-0.028457,0.000739,65.219406,32.165787,-145.790268,,,
729861738.107271,1.306046,0.177163,122.65977,-0.007889,0.018326,1.008911,0.011299,-0.006307,-0.000315,65.219406,32.165787,-145.790268,,,
729861738.110594,1.310297,0.177546,122.659822,-0.005676,0.021194,1.006485,0.011299,-0.006307,-0.000315,65.219406,32.165787,-145.790268,,,
729861738.113936,1.310297,0.177546,122.659822,-0.005676,0.021194,1.006485,0.011299,-0.006307,-0.000315,65.219406,32.165787,-145.790268,,,
729861738.117278,1.312722,0.181968,122.659721,-0.005676,0.021194,1.006485,0.009056,0.015111,-0.001564,65.219406,32.165787,-145.790268,,,
729861738.120595,1.315202,0.19176,122.658953,-0.003448,0.021835,1.005814,0.009056,0.015111,-0.001564,65.219406,32.165787,-145.790268,,,
729861738.123994,1.315202,0.19176,122.658953,-0.003448,0.021835,1.005814,0.009056,0.015111,-0.001564,65.219406,32.165787,-145.790268,,,
729861738.127255,1.318506,0.202193,122.657669,-0.003448,0.021835,1.005814,0.0115,0.037273,-0.003027,65.219406,32.165787,-145.790268,,,
729861738.130598,1.320173,0.216929,122.655493,-0.001801,0.02417,1.003723,0.0115,0.037273,-0.003027,65.219406,32.165787,-145.790268,,,
729861738.133941,1.320173,0.216929,122.655493,-0.001801,0.02417,1.003723,0.0115,0.037273,-0.003027,65.219406,32.165787,-145.790268,,,
729861738.137339,1.323428,0.228825,122.652883,-0.001801,0.02417,1.003723,0.012985,0.04547,-0.009532,65.219406,32.165787,-145.790268,,,
729861738.140688,1.323334,0.244244,122.649998,-0.001434,0.023056,0.996353,0.012985,0.04547,-0.009532,65.219406,32.165787,-145.790268,,,
729861738.143919,1.323334,0.244244,122.649998,-0.001434,0.023056,0.996353,0.012985,0.04547,-0.009532,65.308304,31.977432,-145.500565,,,
729861738.14727,1.325089,0.254043,122.64712,-0.001434,0.023056,0.996353,0.008784,0.036507,-0.010335,65.308304,31.977432,-145.500565,,,
729861738.150591,1.321524,0.265668,122.644246,-0.007004,0.022537,0.988632,0.008784,0.036507,-0.010335,65.308304,31.977432,-145.500565,,,
729861738.153947,1.321524,0.265668,122.644246,-0.007004,0.022537,0.988632,0.008784,0.036507,-0.010335,65.308304,31.977432,-145.500565,,,
729861738.157279,1.320171,0.268904,122.641854,-0.007004,0.022537,0.988632,-0.000232,0.016808,-0.009491,65.308304,31.977432,-145.500565,,,
729861738.160591,1.314797,0.272408,122.640074,-0.009781,0.024307,0.982254,-0.000232,0.016808,-0.009491,65.308304,31.977432,-145.500565,,,
729861738.164016,1.314797,0.272408,122.640074,-0.009781,0.024307,0.982254,-0.000232,0.016808,-0.009491,65.308304,31.977432,-145.500565,,,
729861738.167264,1.311784,0.269404,122.639038,-0.009781,0.024307,0.982254,-0.009062,-0.007325,-0.00644,65.308304,31.977432,-145.500565,,,
729861738.170597,1.307914,0.266493,122.63841,-0.01001,0.022278,0.983078,-0.009062,-0.007325,-0.00644,65.308304,31.977432,-145.500565,,,
729861738.173947,1.307914,0.266493,122.63841,-0.01001,0.022278,0.983078,-0.009062,-0.007325,-0.00644,65.308304,31.977432,-145.500565,,,
729861738.177265,1.309409,0.260404,122.638568,-0.01001,0.022278,0.983078,-0.000122,-0.016607,-0.001448,65.308304,31.977432,-145.500565,,,
729861738.180596,1.313146,0.254798,122.639804,-0.009079,0.019348,1.001083,-0.000122,-0.016607,-0.001448,65.308304,31.977432,-145.500565,,,
729861738.183933,1.313146,0.254798,122.639804,-0.009079,0.019348,1.001083,-0.000122,-0.016607,-0.001448,65.385483,31.921295,-145.397354,,,
729861738.187281,1.320161,0.248074,122.641552,-0.009079,0.019348,1.001083,0.025082,-0.019592,0.004509,65.385483,31.921295,-145.397354,,,
729861738.190594,1.328737,0.24146,122.643881,-0.005402,0.015778,1.01152,0.025082,-0.019592,0.004509,65.385483,31.921295,-145.397354,,,
729861738.193924,1.328737,0.24146,122.643881,-0.005402,0.015778,1.01152,0.025082,-0.019592,0.004509,65.385483,31.921295,-145.397354,,,
729861738.197279,1.338663,0.235136,122.646366,-0.005402,0.015778,1.01152,0.034361,-0.018404,0.008787,65.385483,31.921295,-145.397354,,,
729861738.200593,1.347982,0.228644,122.648176,-0.001724,0.017776,1.006851,0.034361,-0.018404,0.008787,65.385483,31.921295,-145.397354,,,
729861738.204001,1.347982,0.228644,122.648176,-0.001724,0.017776,1.006851,0.034361,-0.018404,0.008787,65.385483,31.921295,-145.397354,,,
729861738.207267,1.356813,0.222812,122.649546,-0.001724,0.017776,1.006851,0.034381,-0.019473,0.005983,65.385483,31.921295,-145.397354,,,
729861738.210602,1.365287,0.216307,122.650572,0.001587,0.021545,0.999222,0.034381,-0.019473,0.005983,65.385483,31.921295,-145.397354,,,
729861738.213941,1.365287,0.216307,122.650572,0.001587,0.021545,0.999222,0.034381,-0.019473,0.005983,65.385483,31.921295,-145.397354,,,
729861738.217307,1.372769,0.211228,122.650226,0.001587,0.021545,0.999222,0.027836,-0.017499,-0.000202,65.385483,31.921295,-145.397354,,,
729861738.220588,1.379081,0.207182,122.647335,0.010193,0.025818,0.99501,0.027836,-0.017499,-0.000202,65.385483,31.921295,-145.397354,,,
729861738.223948,1.379081,0.207182,122.647335,0.010193,0.025818,0.99501,0.027836,-0.017499,-0.000202,65.077103,32.011047,-145.663406,,,
729861738.227254,1.384693,0.205868,122.642278,0.010193,0.025818,0.99501,0.023056,-0.004769,-0.016183,65.077103,32.011047,-145.663406,,,
729861738.230593,1.3883,0.209222,122.635249,0.014816,0.029572,0.995834,0.023056,-0.004769,-0.016183,65.077103,32.011047,-145.663406,,,
729861738.233951,1.3883,0.209222,122.635249,0.014816,0.029572,0.995834,0.023056,-0.004769,-0.016183,65.077103,32.011047,-145.663406,,,
729861738.237265,1.389558,0.212688,122.626689,0.014816,0.029572,0.995834,0.007856,0.012276,-0.028635,65.077103,32.011047,-145.663406,,,
729861738.240692,1.387044,0.22061,122.616883,0.014725,0.031738,0.99205,0.007856,0.012276,-0.028635,65.077103,32.011047,-145.663406,,,
729861738.244001,1.387044,0.22061,122.616883,0.014725,0.031738,0.99205,0.007856,0.012276,-0.028635,65.077103,32.011047,-145.663406,,,
729861738.247363,1.38096,0.228153,122.606556,0.014725,0.031738,0.99205,-0.018,0.028478,-0.038462,65.077103,32.011047,-145.663406,,,
729861738.250594,1.372303,0.23965,122.596726,0.009628,0.029648,0.985352,-0.018,0.028478,-0.038462,65.077103,32.011047,-145.663406,,,
729861738.253997,1.372303,0.23965,122.596726,0.009628,0.029648,0.985352,-0.018,0.028478,-0.038462,65.077103,32.011047,-145.663406,,,
729861738.257278,1.362513,0.250757,122.587549,0.009628,0.029648,0.985352,-0.034159,0.039952,-0.034763,65.077103,32.011047,-145.663406,,,
729861738.260596,1.349283,0.263732,122.579022,0.002975,0.026901,0.989883,-0.034159,0.039952,-0.034763,65.077103,32.011047,-145.663406,,,
729861738.263925,1.349283,0.263732,122.579022,0.002975,0.026901,0.989883,-0.034159,0.039952,-0.034763,65.073685,31.899643,-145.641312,,,
729861738.267337,1.33799,0.2746,122.571795,0.002975,0.026901,0.989883,-0.038882,0.04123,-0.02897,65.073685,31.899643,-145.641312,,,
729861738.270587,1.326608,0.284104,122.565403,-0.003845,0.022766,0.995209,-0.038882,0.04123,-0.02897,65.073685,31.899643,-145.641312,,,
729861738.273938,1.326608,0.284104,122.565403,-0.003845,0.022766,0.995209,-0.038882,0.04123,-0.02897,65.073685,31.899643,-145.641312,,,
729861738.277281,1.318946,0.291374,122.5593,-0.003845,0.022766,0.995209,-0.028522,0.02991,-0.022161,65.073685,31.899643,-145.641312,,,
729861738.280596,1.312775,0.294425,122.553825,-0.007614,0.019333,0.994568,-0.028522,0.02991,-0.022161,65.073685,31.899643,-145.641312,,,
729861738.283937,1.312775,0.294425,122.553825,-0.007614,0.019333,0.994568,-0.028522,0.02991,-0.022161,65.073685,31.899643,-145.641312,,,
729861738.287271,1.310886,0.296816,122.549328,-0.007614,0.019333,0.994568,-0.010681,0.012758,-0.016371,65.073685,31.899643,-145.641312,,,
729861738.290599,1.312747,0.293157,122.546613,-0.011185,0.018402,1.001999,-0.010681,0.012758,-0.016371,65.073685,31.899643,-145.641312,,,
729861738.293927,1.312747,0.293157,122.546613,-0.011185,0.018402,1.001999,-0.010681,0.012758,-0.016371,65.073685,31.899643,-145.641312,,,
729861738.297274,1.317407,0.290484,122.54523,-0.011185,0.018402,1.001999,0.015142,-0.003342,-0.005979,65.073685,31.899643,-145.641312,,,
729861738.300592,1.32534,0.279687,122.545362,-0.012024,0.014771,1.006989,0.015142,-0.003342,-0.005979,65.073685,31.899643,-145.641312,,,
729861738.303937,1.32534,0.279687,122.545362,-0.012024,0.014771,1.006989,0.015142,-0.003342,-0.005979,65.073685,31.899643,-145.641312,,,
729861738.307366,1.334512,0.273758,122.547063,-0.012024,0.014771,1.006989,0.030016,-0.01576,0.002038,65.193573,32.077042,-145.425293,,,
729861738.310582,1.347871,0.259374,122.550059,-0.011292,0.015762,1.010132,0.030016,-0.01576,0.002038,65.193573,32.077042,-145.425293,,,
729861738.313942,1.347871,0.259374,122.550059,-0.011292,0.015762,1.010132,0.030016,-0.01576,0.002038,65.193573,32.077042,-145.425293,,,
729861738.317268,1.360186,0.250844,122.553347,-0.011292,0.015762,1.010132,0.04606,-0.023272,0.00835,65.193573,32.077042,-145.425293,,,
729861738.320594,1.374282,0.234547,122.555813,-0.005951,0.017715,1.011047,0.04606,-0.023272,0.00835,65.193573,32.077042,-145.425293,,,
729861738.323957,1.374282,0.234547,122.555813,-0.005951,0.017715,1.011047,0.04606,-0.023272,0.00835,65.193573,32.077042,-145.425293,,,
729861738.327257,1.385562,0.224575,122.556031,-0.005951,0.017715,1.011047,0.040562,-0.032095,0.00084,65.193573,32.077042,-145.425293,,,
729861738.33059,1.397235,0.210726,122.554381,0.00499,0.024765,1.003433,0.040562,-0.032095,0.00084,65.193573,32.077042,-145.425293,,,
729861738.333927,1.397235,0.210726,122.554381,0.00499,0.024765,1.003433,0.040562,-0.032095,0.00084,65.193573,32.077042,-145.425293,,,
729861738.337257,1.4065,0.202333,122.550044,0.00499,0.024765,1.003433,0.033645,-0.027316,-0.01355,65.193573,32.077042,-145.425293,,,
729861738.340594,1.413894,0.19638,122.543712,0.012512,0.033478,0.999146,0.033645,-0.027316,-0.01355,65.193573,32.077042,-145.425293,,,
729861738.34395,1.413894,0.19638,122.543712,0.012512,0.033478,0.999146,0.033645,-0.027316,-0.01355,65.193573,32.077042,-145.425293,,,
729861738.347257,1.418618,0.196956,122.536504,0.012512,0.033478,0.999146,0.019866,0.001415,-0.025564,65.466248,31.967377,-145.699585,,,
729861738.350592,1.420969,0.20413,122.528908,0.016663,0.03511,0.994278,0.019866,0.001415,-0.025564,65.466248,31.967377,-145.699585,,,
729861738.35394,1.420969,0.20413,122.528908,0.016663,0.03511,0.994278,0.019866,0.001415,-0.025564,65.466248,31.967377,-145.699585,,,
729861738.357319,1.422336,0.215922,122.521765,0.016663,0.03511,0.994278,0.008694,0.038965,-0.027818,65.466248,31.967377,-145.699585,,,
729861738.360594,1.420839,0.234276,122.515378,0.010361,0.033249,0.993668,0.008694,0.038965,-0.027818,65.466248,31.967377,-145.699585,,,
729861738.363941,1.420839,0.234276,122.515378,0.010361,0.033249,0.993668,0.008694,0.038965,-0.027818,65.466248,31.967377,-145.699585,,,
729861738.368106,1.419562,0.253998,122.509387,0.010361,0.033249,0.993668,-0.004969,0.072003,-0.023283,65.466248,31.967377,-145.699585,,,
729861738.370532,1.41431,0.278273,122.503658,0.00531,0.03096,0.989365,-0.004969,0.072003,-0.023283,65.466248,31.967377,-145.699585,,,
729861738.373957,1.41431,0.278273,122.503658,0.00531,0.03096,0.989365,-0.004969,0.072003,-0.023283,65.466248,31.967377,-145.699585,,,
729861738.377259,1.408674,0.298504,122.497905,0.00531,0.03096,0.989365,-0.016251,0.076794,-0.020407,65.466248,31.967377,-145.699585,,,
729861738.380601,1.398203,0.31707,122.491429,0.000702,0.033524,0.979706,-0.016251,0.076794,-0.020407,65.466248,31.967377,-145.699585,,,
729861738.384022,1.398203,0.31707,122.491429,0.000702,0.033524,0.979706,-0.016251,0.076794,-0.020407,65.466248,31.967377,-145.699585,,,
729861738.387264,1.388796,0.327652,122.485066,0.000702,0.033524,0.979706,-0.032076,0.04609,-0.023625,65.249359,31.754944,-145.497116,,,
729861738.390715,1.376778,0.332497,122.47899,-0.009598,0.031921,0.968384,-0.032076,0.04609,-0.023625,65.249359,31.754944,-145.497116,,,
729861738.393928,1.376778,0.332497,122.47899,-0.009598,0.031921,0.968384,-0.032076,0.04609,-0.023625,65.249359,31.754944,-145.497116,,,
729861738.397334,1.366132,0.328124,122.473223,-0.009598,0.031921,0.968384,-0.032421,-0.008698,-0.022315,65.249359,31.754944,-145.497116,,,
729861738.400584,1.353566,0.315183,122.467891,-0.017227,0.027802,0.968155,-0.032421,-0.008698,-0.022315,65.249359,31.754944,-145.497116,,,
729861738.403946,1.353566,0.315183,122.467891,-0.017227,0.027802,0.968155,-0.032421,-0.008698,-0.022315,65.249359,31.754944,-145.497116,,,
729861738.407263,1.342811,0.298917,122.462915,-0.017227,0.027802,0.968155,-0.039107,-0.051817,-0.019427,65.249359,31.754944,-145.497116,,,
729861738.410616,1.335228,0.275132,122.458145,-0.017654,0.024734,0.97821,-0.039107,-0.051817,-0.019427,65.249359,31.754944,-145.497116,,,
729861738.41394,1.335228,0.275132,122.458145,-0.017654,0.024734,0.97821,-0.039107,-0.051817,-0.019427,65.249359,31.754944,-145.497116,,,
729861738.41726,1.329655,0.255229,122.45384,-0.017654,0.024734,0.97821,-0.021372,-0.070331,-0.016176,65.249359,31.754944,-145.497116,,,
729861738.420587,1.330938,0.229237,122.45027,-0.014008,0.020767,1.005692,-0.021372,-0.070331,-0.016176,65.249359,31.754944,-145.497116,,,
729861738.424021,1.330938,0.229237,122.45027,-0.014008,0.020767,1.005692,-0.021372,-0.070331,-0.016176,65.249359,31.754944,-145.497116,,,
729861738.427245,1.332321,0.212332,122.446561,-0.014008,0.020767,1.005692,0.0004,-0.059693,-0.012942,65.197723,31.960114,-145.553131,,,
729861738.43059,1.339111,0.19229,122.443227,-0.012314,0.015427,1.021912,0.0004,-0.059693,-0.012942,65.197723,31.960114,-145.553131,,,
729861738.433942,1.339111,0.19229,122.443227,-0.012314,0.015427,1.021912,0.0004,-0.059693,-0.012942,65.197723,31.960114,-145.553131,,,
729861738.43735,1.344802,0.183998,122.439925,-0.012314,0.015427,1.021912,0.01924,-0.030333,-0.01363,65.197723,31.960114,-145.553131,,,
729861738.44059,1.353663,0.178278,122.436592,-0.004684,0.01799,1.023865,0.01924,-0.030333,-0.01363,65.197723,31.960114,-145.553131,,,
729861738.443929,1.353663,0.178278,122.436592,-0.004684,0.01799,1.023865,0.01924,-0.030333,-0.01363,65.197723,31.960114,-145.553131,,,
729861738.44728,1.360406,0.182546,122.433172,-0.004684,0.01799,1.023865,0.026871,0.012464,-0.011535,65.197723,31.960114,-145.553131,,,
729861738.450594,1.368472,0.188616,122.430097,-0.002792,0.023941,1.013992,0.026871,0.012464,-0.011535,65.197723,31.960114,-145.553131,,,
729861738.453828,1.368472,0.188616,122.430097,-0.002792,0.023941,1.013992,0.026871,0.012464,-0.011535,65.197723,31.960114,-145.553131,,,
729861738.457283,1.372874,0.200219,122.427398,-0.002792,0.023941,1.013992,0.018061,0.041578,-0.013004,65.197723,31.960114,-145.553131,,,
729861738.460596,1.376452,0.213039,122.42473,-0.005188,0.028137,0.995773,0.018061,0.041578,-0.013004,65.197723,31.960114,-145.553131,,,
729861738.463981,1.376452,0.213039,122.42473,-0.005188,0.028137,0.995773,0.018061,0.041578,-0.013004,65.197723,31.960114,-145.553131,,,
729861738.467262,1.373741,0.225682,122.421962,-0.005188,0.028137,0.995773,-0.005193,0.04966,-0.009083,65.197723,31.960114,-145.553131,,,
729861738.470597,1.368942,0.23913,122.419479,-0.009705,0.030731,0.97551,-0.005193,0.04966,-0.009083,65.418381,31.84996,-145.634567,,,
729861738.473945,1.368942,0.23913,122.419479,-0.009705,0.030731,0.97551,-0.005193,0.04966,-0.009083,65.418381,31.84996,-145.634567,,,
729861738.477341,1.358386,0.244322,122.417395,-0.009705,0.030731,0.97551,-0.033025,0.023979,-0.009062,65.418381,31.84996,-145.634567,,,
729861738.480589,1.34608,0.24856,122.415761,-0.016754,0.032394,0.964554,-0.033025,0.023979,-0.009062,65.418381,31.84996,-145.634567,,,
729861738.483943,1.34608,0.24856,122.415761,-0.016754,0.032394,0.964554,-0.033025,0.023979,-0.009062,65.418381,31.84996,-145.634567,,,
729861738.487272,1.331545,0.240608,122.414769,-0.016754,0.032394,0.964554,-0.049604,-0.019453,-0.003582,65.418381,31.84996,-145.634567,,,
729861738.490606,1.316281,0.23106,122.413506,-0.018433,0.029968,0.966812,-0.049604,-0.019453,-0.003582,65.418381,31.84996,-145.634567,,,
729861738.493929,1.316281,0.23106,122.413506,-0.018433,0.029968,0.966812,-0.049604,-0.019453,-0.003582,65.418381,31.84996,-145.634567,,,
729861738.497285,1.300053,0.213022,122.41199,-0.018433,0.029968,0.966812,-0.055134,-0.058899,-0.003959,65.418381,31.84996,-145.634567,,,
729861738.500602,1.283378,0.197244,122.410254,-0.014877,0.026505,0.981705,-0.055134,-0.058899,-0.003959,65.418381,31.84996,-145.634567,,,
729861738.504003,1.283378,0.197244,122.410254,-0.014877,0.026505,0.981705,-0.055134,-0.058899,-0.003959,65.418381,31.84996,-145.634567,,,
729861738.507267,1.270811,0.180086,122.408003,-0.014877,0.026505,0.981705,-0.047353,-0.060743,-0.006561,65.418381,31.84996,-145.634567,,,
729861738.510596,1.261375,0.169434,122.405483,-0.006058,0.024384,1.006088,-0.047353,-0.060743,-0.006561,65.323975,31.869003,-145.647842,,,
729861738.513942,1.261375,0.169434,122.405483,-0.006058,0.024384,1.006088,-0.047353,-0.060743,-0.006561,65.323975,31.869003,-145.647842,,,
729861738.517329,1.259489,0.162942,122.403867,-0.006058,0.024384,1.006088,-0.012265,-0.024946,-0.007992,65.323975,31.869003,-145.647842,,,
729861738.52059,1.262628,0.164816,122.40322,-0.001694,0.018707,1.032486,-0.012265,-0.024946,-0.007992,65.323975,31.869003,-145.647842,,,
729861738.523933,1.262628,0.164816,122.40322,-0.001694,0.018707,1.032486,-0.012265,-0.024946,-0.007992,65.323975,31.869003,-145.647842,,,
729861738.527282,1.27061,0.175163,122.403837,-0.001694,0.018707,1.032486,0.025691,0.034886,-0.000137,65.323975,31.869003,-145.647842,,,
729861738.530603,1.28322,0.192883,122.406194,0.00032,0.011856,1.044525,0.025691,0.034886,-0.000137,65.323975,31.869003,-145.647842,,,
729861738.533952,1.28322,0.192883,122.406194,0.00032,0.011856,1.044525,0.025691,0.034886,-0.000137,65.323975,31.869003,-145.647842,,,
729861738.537265,1.298052,0.215397,122.409726,0.00032,0.011856,1.044525,0.0474,0.080055,0.010709,65.323975,31.869003,-145.647842,,,
729861738.540594,1.315174,0.241141,122.414093,-0.002869,0.013428,1.031006,0.0474,0.080055,0.010709,65.323975,31.869003,-145.647842,,,
729861738.543926,1.315174,0.241141,122.414093,-0.002869,0.013428,1.031006,0.0474,0.080055,0.010709,65.323975,31.869003,-145.647842,,,
729861738.547268,1.331718,0.266299,122.419075,-0.002869,0.013428,1.031006,0.059866,0.09527,0.017766,65.323975,31.869003,-145.647842,,,
729861738.550593,1.349655,0.289361,122.424082,-0.008209,0.018204,1.00737,0.059866,0.09527,0.017766,65.517075,31.870651,-145.629303,,,
729861738.553939,1.349655,0.289361,122.424082,-0.008209,0.018204,1.00737,0.059866,0.09527,0.017766,65.517075,31.870651,-145.629303,,,
729861738.557355,1.363694,0.303945,122.428932,-0.008209,0.018204,1.00737,0.05122,0.060648,0.01654,65.517075,31.870651,-145.629303,,,
729861738.560583,1.375261,0.313828,122.432738,-0.012207,0.027817,0.978409,0.05122,0.060648,0.01654,65.517075,31.870651,-145.629303,,,
729861738.563939,1.375261,0.313828,122.432738,-0.012207,0.027817,0.978409,0.05122,0.060648,0.01654,65.517075,31.870651,-145.629303,,,
729861738.567265,1.380743,0.312437,122.435528,-0.012207,0.027817,0.978409,0.024624,0.006291,0.009313,65.517075,31.870651,-145.629303,,,
729861738.570668,1.380856,0.3059,122.437371,-0.016357,0.036926,0.956482,0.024624,0.006291,0.009313,65.517075,31.870651,-145.629303,,,
729861738.573945,1.380856,0.3059,122.437371,-0.016357,0.036926,0.956482,0.024624,0.006291,0.009313,65.517075,31.870651,-145.629303,,,
729861738.577284,1.374331,0.289816,122.438353,-0.016357,0.036926,0.956482,-0.015438,-0.047602,0.002165,65.517075,31.870651,-145.629303,,,
729861738.580597,1.363647,0.269848,122.438867,-0.016205,0.040344,0.947769,-0.015438,-0.047602,0.002165,65.517075,31.870651,-145.629303,,,
729861738.583946,1.363647,0.269848,122.438867,-0.016205,0.040344,0.947769,-0.015438,-0.047602,0.002165,65.517075,31.870651,-145.629303,,,
729861738.587279,1.349622,0.246277,122.440065,-0.016205,0.040344,0.947769,-0.047181,-0.079998,0.002739,65.517075,31.870651,-145.629303,,,
729861738.590695,1.334359,0.222791,122.442186,-0.014725,0.033676,0.959076,-0.047181,-0.079998,0.002739,65.517075,31.870651,-145.629303,,,
729861738.593997,1.334359,0.222791,122.442186,-0.014725,0.033676,0.959076,-0.047181,-0.079998,0.002739,65.175613,31.97905,-145.608444,,,
729861738.597256,1.31921,0.20178,122.444273,-0.014725,0.033676,0.959076,-0.053443,-0.072737,0.005174,65.175613,31.97905,-145.608444,,,
729861738.600595,1.303438,0.184338,122.446295,-0.007874,0.027115,0.984039,-0.053443,-0.072737,0.005174,65.175613,31.97905,-145.608444,,,
729861738.603932,1.303438,0.184338,122.446295,-0.007874,0.027115,0.984039,-0.053443,-0.072737,0.005174,65.175613,31.97905,-145.608444,,,
729861738.607291,1.290732,0.173005,122.448018,-0.007874,0.027115,0.984039,-0.047069,-0.041146,0.006523,65.175613,31.97905,-145.608444,,,
729861738.610601,1.278824,0.167408,122.449006,0.001663,0.024094,1.00264,-0.047069,-0.041146,0.006523,65.175613,31.97905,-145.608444,,,
729861738.613966,1.278824,0.167408,122.449006,0.001663,0.024094,1.00264,-0.047069,-0.041146,0.006523,65.175613,31.97905,-145.608444,,,
729861738.617282,1.2699,0.167809,122.450072,0.001663,0.024094,1.00264,-0.029211,-0.000393,0.002625,65.175613,31.97905,-145.608444,,,
729861738.620593,1.2699,0.167809,122.450072,0.004669,0.022125,1.011475,-0.029211,-0.000393,0.002625,65.175613,31.97905,-145.608444,,,
729861738.623952,1.261587,0.173448,122.450732,0.004669,0.022125,1.011475,-0.029211,-0.000393,0.002625,65.175613,31.97905,-145.608444,,,
729861738.627263,1.254263,0.183386,122.450569,0.004669,0.022125,1.011475,-0.024051,0.03178,-0.001202,65.175613,31.97905,-145.608444,,,
729861738.630666,1.254263,0.183386,122.450569,0.00383,0.024506,1.001984,-0.024051,0.03178,-0.001202,65.175613,31.97905,-145.608444,,,
729861738.633998,1.245177,0.197022,122.450682,0.00383,0.024506,1.001984,-0.024051,0.03178,-0.001202,65.223221,32.053314,-145.850388,,,
729861738.637326,1.233762,0.210988,122.45137,0.00383,0.024506,1.001984,-0.037608,0.052311,-0.00178,65.223221,32.053314,-145.850388,,,
729861738.64063,1.221568,0.228904,122.452621,-0.001801,0.026733,0.992065,-0.037608,0.052311,-0.00178,65.223221,32.053314,-145.850388,,,
729861738.64398,1.221568,0.228904,122.452621,-0.001801,0.026733,0.992065,-0.037608,0.052311,-0.00178,65.223221,32.053314,-145.850388,,,
729861738.647288,1.206276,0.244989,122.455348,-0.001801,0.026733,0.992065,-0.051237,0.062057,0.005436,65.223221,32.053314,-145.850388,,,
729861738.650594,1.206276,0.26248,122.45953,-0.011398,0.023483,0.992828,-0.051237,0.062057,0.005436,65.223221,32.053314,-145.850388,,,
729861738.653938,1.193722,0.26248,122.45953,-0.011398,0.023483,0.992828,-0.051237,0.062057,0.005436,65.223221,32.053314,-145.850388,,,
729861738.657326,1.179102,0.274816,122.464671,-0.011398,0.023483,0.992828,-0.051381,0.050152,0.015256,65.223221,32.053314,-145.850388,,,
729861738.660595,1.179102,0.274816,122.464671,-0.015503,0.01799,0.997498,-0.051381,0.050152,0.015256,65.223221,32.053314,-145.850388,,,
729861738.663931,1.168913,0.286441,122.470822,-0.015503,0.01799,0.997498,-0.051381,0.050152,0.015256,65.223221,32.053314,-145.850388,,,
729861738.667268,1.158624,0.291588,122.477827,-0.015503,0.01799,0.997498,-0.039605,0.025428,0.021253,65.223221,32.053314,-145.850388,,,
729861738.67059,1.158624,0.291588,122.484959,-0.017822,0.015472,1.003662,-0.039605,0.025428,0.021253,65.223221,32.053314,-145.850388,,,
729861738.673937,1.153223,0.29491,122.484959,-0.017822,0.015472,1.003662,-0.039605,0.025428,0.021253,65.148575,32.126831,-145.749435,,,
729861738.677266,1.149484,0.293278,122.492504,-0.017822,0.015472,1.003662,-0.015837,-0.00016,0.023898,65.148575,32.126831,-145.749435,,,
729861738.680589,1.149484,0.293278,122.492504,-0.017059,0.014297,1.007416,-0.015837,-0.00016,0.023898,65.148575,32.126831,-145.749435,,,
729861738.683972,1.150674,0.288109,122.50018,-0.017059,0.014297,1.007416,-0.015837,-0.00016,0.023898,65.148575,32.126831,-145.749435,,,
729861738.687264,1.152565,0.279854,122.508403,-0.017059,0.014297,1.007416,0.006841,-0.022821,0.029118,65.148575,32.126831,-145.749435,,,
729861738.69059,1.152565,0.279854,122.508403,-0.018005,0.013412,1.006409,0.006841,-0.022821,0.029118,65.148575,32.126831,-145.749435,,,
729861738.693935,1.155869,0.265238,122.517645,-0.018005,0.013412,1.006409,0.006841,-0.022821,0.029118,65.148575,32.126831,-145.749435,,,
729861738.697267,1.157828,0.250526,122.527441,-0.018005,0.013412,1.006409,0.006967,-0.046093,0.035407,65.148575,32.126831,-145.749435,,,
729861738.700608,1.157828,0.250526,122.527441,-0.015274,0.016785,1.002258,0.006967,-0.046093,0.035407,65.148575,32.126831,-145.749435,,,
729861738.703945,1.158376,0.228867,122.53788,-0.015274,0.016785,1.002258,0.006967,-0.046093,0.035407,65.148575,32.126831,-145.749435,,,
729861738.707341,1.155698,0.208121,122.548342,-0.015274,0.016785,1.002258,-0.007474,-0.065198,0.035898,65.148575,32.126831,-145.749435,,,
729861738.710618,1.155698,0.208121,122.548342,-0.009491,0.021713,0.998108,-0.007474,-0.065198,0.035898,65.148575,32.126831,-145.749435,,,
729861738.713938,1.151825,0.18417,122.558459,-0.009491,0.021713,0.998108,-0.007474,-0.065198,0.035898,65.077667,32.370026,-145.611069,,,
729861738.717265,1.145713,0.163515,122.567391,-0.009491,0.021713,0.998108,-0.021427,-0.072216,0.031267,65.077667,32.370026,-145.611069,,,
729861738.720631,1.145713,0.163515,122.567391,0.004562,0.02626,1.007538,-0.021427,-0.072216,0.031267,65.077667,32.370026,-145.611069,,,
729861738.723944,1.142067,0.145558,122.574741,0.004562,0.02626,1.007538,-0.021427,-0.072216,0.031267,65.077667,32.370026,-145.611069,,,
729861738.727261,1.137923,0.12917,122.58024,0.004562,0.02626,1.007538,-0.015491,-0.05497,0.023192,65.077667,32.370026,-145.611069,,,
729861738.730597,1.137923,0.12917,122.58024,0.004562,0.02626,1.007538,-0.015491,-0.05497,0.023192,65.077667,32.370026,-145.611069,,,
729861738.733928,1.13543,0.12144,122.583999,0.014206,0.027756,1.018845,-0.015491,-0.05497,0.023192,65.077667,32.370026,-145.611069,,,
729861738.737258,1.133591,0.113955,122.586286,0.014206,0.027756,1.018845,-0.00569,-0.027179,0.009359,65.077667,32.370026,-145.611069,,,
729861738.740681,1.133591,0.113955,122.586286,0.023056,0.029343,1.02179,-0.00569,-0.027179,0.009359,65.077667,32.370026,-145.611069,,,
729861738.743923,1.131177,0.116664,122.587451,0.023056,0.029343,1.02179,-0.00569,-0.027179,0.009359,65.077667,32.370026,-145.611069,,,
729861738.747262,1.129797,0.118959,122.588633,0.023056,0.029343,1.02179,-0.002797,0.008082,0.002402,65.077667,32.370026,-145.611069,,,
729861738.750611,1.129797,0.118959,122.588633,0.023056,0.029343,1.02179,-0.002797,0.008082,0.002402,65.077667,32.370026,-145.611069,,,
729861738.753939,1.127872,0.131098,122.589667,0.023193,0.028214,1.016144,-0.002797,0.008082,0.002402,65.077667,32.370026,-145.611069,,,
729861738.757257,1.128186,0.140055,122.591206,0.023193,0.028214,1.016144,0.000386,0.033528,0.002459,65.353561,32.125961,-145.671631,,,
729861738.760607,1.128186,0.140055,122.591206,0.023193,0.028214,1.016144,0.000386,0.033528,0.002459,65.353561,32.125961,-145.671631,,,
729861738.763948,1.127339,0.156007,122.594074,0.015076,0.021774,1.006943,0.000386,0.033528,0.002459,65.353561,32.125961,-145.671631,,,
729861738.767269,1.127726,0.16591,122.598636,0.015076,0.021774,1.006943,0.003544,0.0392,0.013036,65.353561,32.125961,-145.671631,,,
729861738.770646,1.127726,0.16591,122.598636,0.015076,0.021774,1.006943,0.003544,0.0392,0.013036,65.353561,32.125961,-145.671631,,,
729861738.773922,1.126667,0.178798,122.603791,0.00769,0.018204,0.997574,0.003544,0.0392,0.013036,65.353561,32.125961,-145.671631,,,
729861738.77736,1.126169,0.183591,122.608904,0.00769,0.018204,0.997574,0.001645,0.02143,0.017158,65.353561,32.125961,-145.671631,,,
729861738.780613,1.126169,0.183591,122.608904,0.00769,0.018204,0.997574,0.001645,0.02143,0.017158,65.353561,32.125961,-145.671631,,,
729861738.783946,1.124779,0.189009,122.613363,0.002411,0.020142,0.98378,0.001645,0.02143,0.017158,65.353561,32.125961,-145.671631,,,
729861738.787272,1.122877,0.186621,122.617795,0.002411,0.020142,0.98378,-0.005844,-0.004195,0.015869,65.353561,32.125961,-145.671631,,,
729861738.790614,1.122877,0.186621,122.617795,0.002411,0.020142,0.98378,-0.005844,-0.004195,0.015869,65.353561,32.125961,-145.671631,,,
729861738.793946,1.120505,0.181045,122.621492,0.00116,0.020645,0.976334,-0.005844,-0.004195,0.015869,65.353561,32.125961,-145.671631,,,
729861738.797256,1.114775,0.172602,122.624117,0.00116,0.020645,0.976334,-0.017137,-0.025036,0.007141,65.022003,32.224197,-145.575714,,,
729861738.800668,1.114775,0.172602,122.624117,0.00116,0.020645,0.976334,-0.017137,-0.025036,0.007141,65.022003,32.224197,-145.575714,,,
729861738.803929,1.108629,0.158933,122.625738,0.002625,0.022888,0.967621,-0.017137,-0.025036,0.007141,65.022003,32.224197,-145.575714,,,
729861738.807257,1.098508,0.15017,122.626267,0.002625,0.022888,0.967621,-0.030817,-0.031203,0.002691,65.022003,32.224197,-145.575714,,,
729861738.810623,1.098508,0.15017,122.626267,0.002625,0.022888,0.967621,-0.030817,-0.031203,0.002691,65.022003,32.224197,-145.575714,,,
729861738.814026,1.087666,0.136278,122.62618,0.005142,0.025742,0.968002,-0.030817,-0.031203,0.002691,65.022003,32.224197,-145.575714,,,
729861738.817264,1.071976,0.132572,122.625486,0.005142,0.025742,0.968002,-0.051948,-0.011715,-0.004953,65.022003,32.224197,-145.575714,,,
729861738.820641,1.071976,0.132572,122.625486,0.005142,0.025742,0.968002,-0.051948,-0.011715,-0.004953,65.022003,32.224197,-145.575714,,,
729861738.823944,1.056783,0.122179,122.624949,0.003479,0.022964,0.9711,-0.051948,-0.011715,-0.004953,65.022003,32.224197,-145.575714,,,
729861738.827285,1.038016,0.125217,122.624768,0.003479,0.022964,0.9711,-0.065017,0.011242,-0.001484,65.022003,32.224197,-145.575714,,,
729861738.830664,1.038016,0.125217,122.624768,0.003479,0.022964,0.9711,-0.065017,0.011242,-0.001484,65.022003,32.224197,-145.575714,,,
729861738.833944,1.020518,0.122914,122.625243,0.000977,0.015503,0.979736,-0.065017,0.011242,-0.001484,65.022003,32.224197,-145.575714,,,
729861738.837269,1.000015,0.131078,122.626259,0.000977,0.015503,0.979736,-0.06975,0.030023,0.002326,64.988358,32.200012,-145.740692,,,
729861738.840663,1.000015,0.131078,122.626259,0.000977,0.015503,0.979736,-0.06975,0.030023,0.002326,64.988358,32.200012,-145.740692,,,
729861738.84403,0.979655,0.134699,122.628192,-0.004028,0.0103,0.989197,-0.06975,0.030023,0.002326,64.988358,32.200012,-145.740692,,,
729861738.847268,0.958729,0.143444,122.630248,-0.004028,0.0103,0.989197,-0.070959,0.032976,0.006482,64.988358,32.200012,-145.740692,,,
729861738.850703,0.958729,0.143444,122.630248,-0.004028,0.0103,0.989197,-0.070959,0.032976,0.006482,64.988358,32.200012,-145.740692,,,
729861738.853952,0.939691,0.14927,122.632775,-0.007477,0.009262,0.992294,-0.070959,0.032976,0.006482,64.988358,32.200012,-145.740692,,,
729861738.857272,0.922956,0.1571,122.635363,-0.007477,0.009262,0.992294,-0.057952,0.030297,0.008199,64.988358,32.200012,-145.740692,,,
729861738.860593,0.922956,0.1571,122.635363,-0.007477,0.009262,0.992294,-0.057952,0.030297,0.008199,64.988358,32.200012,-145.740692,,,
729861738.864004,0.910027,0.161411,122.637787,-0.009247,0.006744,1.002121,-0.057952,0.030297,0.008199,64.988358,32.200012,-145.740692,,,
729861738.867263,0.89714,0.164938,122.64044,-0.009247,0.006744,1.002121,-0.046593,0.017796,0.007677,64.988358,32.200012,-145.740692,,,
729861738.870515,0.89714,0.164938,122.64044,-0.009247,0.006744,1.002121,-0.046593,0.017796,0.007677,64.988358,32.200012,-145.740692,,,
729861738.873976,0.886397,0.164996,122.643167,-0.011856,0.005569,1.004471,-0.046593,0.017796,0.007677,64.988358,32.200012,-145.740692,,,
729861738.877268,0.874046,0.164335,122.64577,-0.011856,0.005569,1.004471,-0.042768,0.003008,0.009444,65.180176,32.364716,-145.351685,,,
729861738.880625,0.874046,0.164335,122.64577,-0.011856,0.005569,1.004471,-0.042768,0.003008,0.009444,65.180176,32.364716,-145.351685,,,
729861738.883929,0.863848,0.159123,122.648898,-0.013184,0.00853,0.995773,-0.042768,0.003008,0.009444,65.180176,32.364716,-145.351685,,,
729861738.88727,0.851158,0.15521,122.652261,-0.013184,0.00853,0.995773,-0.045316,-0.009219,0.009236,65.180176,32.364716,-145.351685,,,
729861738.890606,0.851158,0.15521,122.652261,-0.013184,0.00853,0.995773,-0.045316,-0.009219,0.009236,65.180176,32.364716,-145.351685,,,
729861738.893948,0.842054,0.147242,122.655909,-0.014236,0.007538,0.994186,-0.045316,-0.009219,0.009236,65.180176,32.364716,-145.351685,,,
729861738.897269,0.831201,0.140679,122.660355,-0.014236,0.007538,0.994186,-0.037726,-0.017279,0.014628,65.180176,32.364716,-145.351685,,,
729861738.90062,0.831201,0.140679,122.660355,-0.014236,0.007538,0.994186,-0.037726,-0.017279,0.014628,65.180176,32.364716,-145.351685,,,
729861738.903956,0.82267,0.130374,122.665657,-0.014648,0.005905,1.003098,-0.037726,-0.017279,0.014628,65.180176,32.364716,-145.351685,,,
729861738.907268,0.813207,0.119929,122.670982,-0.014648,0.005905,1.003098,-0.031481,-0.032733,0.016655,65.180176,32.364716,-145.351685,,,
729861738.910611,0.813207,0.119929,122.670982,-0.014648,0.005905,1.003098,-0.031481,-0.032733,0.016655,65.180176,32.364716,-145.351685,,,
729861738.913997,0.80412,0.107727,122.675344,-0.01091,0.005798,1.009857,-0.031481,-0.032733,0.016655,65.180176,32.364716,-145.351685,,,
729861738.917262,0.79636,0.094881,122.678395,-0.01091,0.005798,1.009857,-0.02759,-0.043055,0.010565,65.180176,32.364716,-145.351685,,,
729861738.920614,0.79636,0.094881,122.678395,-0.01091,0.005798,1.009857,-0.02759,-0.043055,0.010565,65.375443,32.374847,-145.467133,,,
729861738.923939,0.788789,0.082473,122.680059,-0.005814,0.008881,1.013977,-0.02759,-0.043055,0.010565,65.375443,32.374847,-145.467133,,,
729861738.927269,0.78459,0.069039,122.680107,-0.005814,0.008881,1.013977,-0.016386,-0.044799,-0.001162,65.375443,32.374847,-145.467133,,,
729861738.930702,0.78459,0.069039,122.680107,-0.005814,0.008881,1.013977,-0.016386,-0.044799,-0.001162,65.375443,32.374847,-145.467133,,,
729861738.933946,0.781725,0.059728,122.679115,-3.1e-05,0.009491,1.022964,-0.016386,-0.044799,-0.001162,65.375443,32.374847,-145.467133,,,
729861738.937265,0.78253,0.05095,122.67805,-3.1e-05,0.009491,1.022964,0.002111,-0.032702,-0.004953,65.375443,32.374847,-145.467133,,,
729861738.940646,0.78253,0.05095,122.67805,-3.1e-05,0.009491,1.022964,0.002111,-0.032702,-0.004953,65.375443,32.374847,-145.467133,,,
729861738.94393,0.784638,0.049585,122.676796,0.003113,0.006226,1.034348,0.002111,-0.032702,-0.004953,65.375443,32.374847,-145.467133,,,
729861738.947263,0.791467,0.050449,122.676073,0.003113,0.006226,1.034348,0.022104,0.001465,-0.005771,65.375443,32.374847,-145.467133,,,
729861738.950604,0.791467,0.050449,122.676073,0.003113,0.006226,1.034348,0.022104,0.001465,-0.005771,65.375443,32.374847,-145.467133,,,
729861738.953988,0.79798,0.061098,122.676621,0.004501,0.002838,1.041794,0.022104,0.001465,-0.005771,65.375443,32.374847,-145.467133,,,
729861738.957258,0.806531,0.073524,122.67896,0.004501,0.002838,1.041794,0.031431,0.042075,0.002602,65.375443,32.374847,-145.467133,,,
729861738.960594,0.806531,0.073524,122.67896,0.004501,0.002838,1.041794,0.031431,0.042075,0.002602,65.171875,32.48082,-145.544464,,,
729861738.96395,0.813663,0.094269,122.682893,0.003174,0.003647,1.0383,0.031431,0.042075,0.002602,65.171875,32.48082,-145.544464,,,
729861738.967259,0.820918,0.113765,122.688239,0.003174,0.003647,1.0383,0.025176,0.07174,0.013991,65.171875,32.48082,-145.544464,,,
729861738.970608,0.820918,0.113765,122.688239,0.003174,0.003647,1.0383,0.025176,0.07174,0.013991,65.171875,32.48082,-145.544464,,,
729861738.973959,0.824782,0.13729,122.694248,-0.003845,0.005447,1.020081,0.025176,0.07174,0.013991,65.171875,32.48082,-145.544464,,,
729861738.977271,0.829153,0.151879,122.700477,-0.003845,0.005447,1.020081,0.017792,0.058894,0.019312,65.171875,32.48082,-145.544464,,,
729861738.980596,0.829153,0.151879,122.700477,-0.003845,0.005447,1.020081,0.017792,0.058894,0.019312,65.171875,32.48082,-145.544464,,,
729861738.983946,0.830002,0.163609,122.706813,-0.004242,0.011017,0.999588,0.017792,0.058894,0.019312,65.171875,32.48082,-145.544464,,,
729861738.987268,0.832381,0.164046,122.711977,-0.004242,0.011017,0.999588,0.007412,0.013987,0.018817,65.171875,32.48082,-145.544464,,,
729861738.990603,0.832381,0.164046,122.711977,-0.004242,0.011017,0.999588,0.007412,0.013987,0.018817,65.171875,32.48082,-145.544464,,,
729861738.993965,0.831494,0.159458,122.715115,-0.005783,0.017807,0.981476,0.007412,0.013987,0.018817,65.171875,32.48082,-145.544464,,,
729861738.99732,0.830803,0.146223,122.716788,-0.005783,0.017807,0.981476,-0.00183,-0.038059,0.007936,65.171875,32.48082,-145.544464,,,
729861739.000664,0.830803,0.146223,122.716788,-0.005783,0.017807,0.981476,-0.00183,-0.038059,0.007936,65.219788,32.420074,-145.657608,,,
729861739.00404,0.827778,0.128719,122.716991,-0.003464,0.023849,0.975616,-0.00183,-0.038059,0.007936,65.219788,32.420074,-145.657608,,,
729861739.007265,0.825772,0.108551,122.716667,-0.003464,0.023849,0.975616,-0.008652,-0.069948,-0.003454,65.219788,32.420074,-145.657608,,,
729861739.010623,0.825772,0.108551,122.716667,-0.003464,0.023849,0.975616,-0.008652,-0.069948,-0.003454,65.219788,32.420074,-145.657608,,,
729861739.013942,0.822663,0.086871,122.716549,0.001083,0.020325,0.981659,-0.008652,-0.069948,-0.003454,65.219788,32.420074,-145.657608,,,
729861739.017274,0.821363,0.069333,122.716746,0.001083,0.020325,0.981659,-0.005801,-0.06308,-0.001295,65.219788,32.420074,-145.657608,,,
729861739.020612,0.821363,0.069333,122.716746,0.001083,0.020325,0.981659,-0.005801,-0.06308,-0.001295,65.219788,32.420074,-145.657608,,,
729861739.023963,0.817995,0.054714,122.717613,0.004395,0.018204,0.996552,-0.005801,-0.06308,-0.001295,65.219788,32.420074,-145.657608,,,
729861739.027288,0.818507,0.048386,122.71919,0.004395,0.018204,0.996552,0.001109,-0.024952,0.004298,65.219788,32.420074,-145.657608,,,
729861739.030697,0.818507,0.048386,122.71919,0.004395,0.018204,0.996552,0.001109,-0.024952,0.004298,65.219788,32.420074,-145.657608,,,
729861739.033952,0.817757,0.04653,122.721249,0.007538,0.014816,1.010666,0.001109,-0.024952,0.004298,65.219788,32.420074,-145.657608,,,
729861739.037272,0.820701,0.052673,122.723089,0.007538,0.014816,1.010666,0.008966,0.018597,0.005702,65.219788,32.420074,-145.657608,,,
729861739.040669,0.820701,0.052673,122.723089,0.007538,0.014816,1.010666,0.008966,0.018597,0.005702,65.021164,32.383713,-145.57695,,,
729861739.044006,0.821935,0.063549,122.724376,0.012711,0.013153,1.015625,0.008966,0.018597,0.005702,65.021164,32.383713,-145.57695,,,
729861739.047253,0.827032,0.078952,122.724644,0.012711,0.013153,1.015625,0.016032,0.055344,0.001729,65.021164,32.383713,-145.57695,,,
729861739.05062,0.827032,0.078952,122.724644,0.012711,0.013153,1.015625,0.016032,0.055344,0.001729,65.021164,32.383713,-145.57695,,,
729861739.053949,0.831707,0.09691,122.724223,0.015457,0.014023,1.011047,0.016032,0.055344,0.001729,65.021164,32.383713,-145.57695,,,
729861739.057264,0.838991,0.113284,122.723376,0.015457,0.014023,1.011047,0.02274,0.062346,-0.005017,65.021164,32.383713,-145.57695,,,
729861739.060619,0.838991,0.113284,122.723376,0.015457,0.014023,1.011047,0.02274,0.062346,-0.005017,65.021164,32.383713,-145.57695,,,
729861739.063949,0.846636,0.128443,122.722213,0.009384,0.016785,1.004822,0.02274,0.062346,-0.005017,65.021164,32.383713,-145.57695,,,
729861739.067267,0.854584,0.137826,122.72141,0.009384,0.016785,1.004822,0.028046,0.039203,-0.004905,65.021164,32.383713,-145.57695,,,
729861739.070597,0.854584,0.137826,122.72141,0.009384,0.016785,1.004822,0.028046,0.039203,-0.004905,65.021164,32.383713,-145.57695,,,
729861739.073952,0.864189,0.142154,122.721368,-0.000122,0.014832,0.991013,0.028046,0.039203,-0.004905,65.021164,32.383713,-145.57695,,,
729861739.077264,0.872167,0.138877,122.722148,-0.000122,0.014832,0.991013,0.026797,-0.000937,0.000858,65.021164,32.383713,-145.57695,,,
729861739.080623,0.872167,0.138877,122.722148,-0.000122,0.014832,0.991013,0.026797,-0.000937,0.000858,65.021164,32.383713,-145.57695,,,
729861739.083931,0.881295,0.129427,122.723235,-0.006439,0.01474,0.983292,0.026797,-0.000937,0.000858,65.286713,32.478485,-145.514297,,,
729861739.087258,0.887254,0.116031,122.72336,-0.006439,0.01474,0.983292,0.024095,-0.041339,0.001707,65.286713,32.478485,-145.514297,,,
729861739.090619,0.887254,0.116031,122.72336,-0.006439,0.01474,0.983292,0.024095,-0.041339,0.001707,65.286713,32.478485,-145.514297,,,
729861739.093996,0.893274,0.098536,122.72157,-0.00322,0.018799,0.9823,0.024095,-0.041339,0.001707,65.286713,32.478485,-145.514297,,,
729861739.097262,0.897934,0.082509,122.717587,-0.00322,0.018799,0.9823,0.016659,-0.053534,-0.014051,65.286713,32.478485,-145.514297,,,
729861739.100622,0.897934,0.082509,122.717587,-0.00322,0.018799,0.9823,0.016659,-0.053534,-0.014051,65.286713,32.478485,-145.514297,,,
729861739.103934,0.902244,0.065714,122.7115,0.007309,0.023087,0.989838,0.016659,-0.053534,-0.014051,65.286713,32.478485,-145.514297,,,
729861739.107263,0.905682,0.054537,122.703461,0.007309,0.023087,0.989838,0.011113,-0.038012,-0.028245,65.286713,32.478485,-145.514297,,,
729861739.110621,0.905682,0.054537,122.703461,0.007309,0.023087,0.989838,0.011113,-0.038012,-0.028245,65.286713,32.478485,-145.514297,,,
729861739.113934,0.907161,0.044892,122.69387,0.013153,0.025635,0.992905,0.011113,-0.038012,-0.028245,65.286713,32.478485,-145.514297,,,
729861739.117267,0.90723,0.045857,122.683316,0.013153,0.025635,0.992905,0.004751,-0.00259,-0.038289,65.286713,32.478485,-145.514297,,,
729861739.120659,0.90723,0.045857,122.683316,0.013153,0.025635,0.992905,0.004751,-0.00259,-0.038289,65.286713,32.478485,-145.514297,,,
729861739.123937,0.905047,0.047955,122.67258,0.012909,0.026276,0.993378,0.004751,-0.00259,-0.038289,65.02919,32.372437,-145.55426,,,
729861739.127263,0.902938,0.062236,122.661772,0.012909,0.026276,0.993378,-0.007124,0.047271,-0.039882,65.02919,32.372437,-145.55426,,,
729861739.130604,0.902938,0.062236,122.661772,0.012909,0.026276,0.993378,-0.007124,0.047271,-0.039882,65.02919,32.372437,-145.55426,,,
729861739.134002,0.900326,0.076294,122.651837,0.0065,0.022583,0.994766,-0.007124,0.047271,-0.039882,65.02919,32.372437,-145.55426,,,
729861739.137259,0.898149,0.099146,122.643005,0.0065,0.022583,0.994766,-0.005854,0.080619,-0.031498,65.02919,32.372437,-145.55426,,,
729861739.140607,0.898149,0.099146,122.643005,0.0065,0.022583,0.994766,-0.005854,0.080619,-0.031498,65.02919,32.372437,-145.55426,,,
729861739.143934,0.896487,0.119847,122.635474,-0.004868,0.015671,0.994614,-0.005854,0.080619,-0.031498,65.02919,32.372437,-145.55426,,,
729861739.147262,0.894731,0.142256,122.629242,-0.004868,0.015671,0.994614,-0.003301,0.082256,-0.024958,65.02919,32.372437,-145.55426,,,
729861739.150619,0.894731,0.142256,122.629242,-0.004868,0.015671,0.994614,-0.003301,0.082256,-0.024958,65.02919,32.372437,-145.55426,,,
729861739.153937,0.893169,0.162219,122.624174,-0.016159,0.011856,0.988632,-0.003301,0.082256,-0.024958,65.02919,32.372437,-145.55426,,,
729861739.157266,0.892888,0.177406,122.620446,-0.016159,0.011856,0.988632,-0.000767,0.059281,-0.015137,65.02919,32.372437,-145.55426,,,
729861739.160663,0.892888,0.177406,122.620446,-0.016159,0.011856,0.988632,-0.000767,0.059281,-0.015137,65.02919,32.372437,-145.55426,,,
729861739.164012,0.893559,0.188562,122.617003,-0.021744,0.008652,0.985138,-0.000767,0.059281,-0.015137,65.249054,32.408112,-145.59935,,,
729861739.167263,0.896254,0.192521,122.613473,-0.021744,0.008652,0.985138,0.006379,0.023726,-0.01355,65.249054,32.408112,-145.59935,,,
729861739.170615,0.896254,0.192521,122.613473,-0.021744,0.008652,0.985138,0.006379,0.023726,-0.01355,65.249054,32.408112,-145.59935,,,
729861739.174,0.902054,0.18988,122.610201,-0.023224,0.008423,0.986511,0.006379,0.023726,-0.01355,65.249054,32.408112,-145.59935,,,
729861739.177265,0.907828,0.1852,122.607322,-0.023224,0.008423,0.986511,0.018946,-0.014159,-0.011853,65.249054,32.408112,-145.59935,,,
729861739.180613,0.907828,0.1852,122.607322,-0.023224,0.008423,0.986511,0.018946,-0.014159,-0.011853,65.249054,32.408112,-145.59935,,,
729861739.183953,0.91653,0.173259,122.605042,-0.023956,0.008316,0.988754,0.018946,-0.014159,-0.011853,65.249054,32.408112,-145.59935,,,
729861739.187271,0.923215,0.164814,122.603666,-0.023956,0.008316,0.988754,0.021336,-0.025045,-0.00711,65.249054,32.408112,-145.59935,,,
729861739.190611,0.923215,0.164814,122.603666,-0.023956,0.008316,0.988754,0.021336,-0.025045,-0.00711,65.249054,32.408112,-145.59935,,,
729861739.193945,0.932957,0.150344,122.604011,-0.0224,0.007584,0.99295,0.021336,-0.025045,-0.00711,65.249054,32.408112,-145.59935,,,
729861739.197269,0.940813,0.143245,122.605717,-0.0224,0.007584,0.99295,0.025571,-0.024298,0.00287,65.249054,32.408112,-145.59935,,,
729861739.200663,0.940813,0.143245,122.605717,-0.0224,0.007584,0.99295,0.025571,-0.024298,0.00287,65.249054,32.408112,-145.59935,,,
729861739.203932,0.952179,0.133221,122.608532,-0.022751,0.006104,1.002731,0.025571,-0.024298,0.00287,65.249054,32.408112,-145.59935,,,
729861739.207312,0.961957,0.130836,122.611841,-0.022751,0.006104,1.002731,0.033313,-0.007574,0.010836,65.147995,32.176651,-145.777313,,,
729861739.210672,0.961957,0.130836,122.611841,-0.022751,0.006104,1.002731,0.033313,-0.007574,0.010836,65.147995,32.176651,-145.777313,,,
729861739.214004,0.972673,0.129784,122.615661,-0.018356,0.008347,1.010086,0.033313,-0.007574,0.010836,65.147995,32.176651,-145.777313,,,
729861739.217264,0.982883,0.135175,122.619631,-0.018356,0.008347,1.010086,0.036272,0.018594,0.013295,65.147995,32.176651,-145.777313,,,
729861739.220617,0.982883,0.135175,122.619631,-0.018356,0.008347,1.010086,0.036272,0.018594,0.013295,65.147995,32.176651,-145.777313,,,
729861739.223949,0.993284,0.147186,122.623623,-0.010025,0.014587,1.009628,0.036272,0.018594,0.013295,65.147995,32.176651,-145.777313,,,
729861739.227271,1.005107,0.159654,122.628031,-0.010025,0.014587,1.009628,0.041493,0.043957,0.014254,65.147995,32.176651,-145.777313,,,
729861739.230607,1.005107,0.159654,122.628031,-0.010025,0.014587,1.009628,0.041493,0.043957,0.014254,65.147995,32.176651,-145.777313,,,
729861739.233947,1.015341,0.180016,122.632904,-0.008942,0.015732,1.006836,0.041493,0.043957,0.014254,65.147995,32.176651,-145.777313,,,
729861739.23727,1.026216,0.19556,122.638092,-0.008942,0.015732,1.006836,0.039341,0.056998,0.01747,65.147995,32.176651,-145.777313,,,
729861739.240689,1.026216,0.19556,122.638092,-0.008942,0.015732,1.006836,0.039341,0.056998,0.01747,65.147995,32.176651,-145.777313,,,
729861739.243939,1.032327,0.218006,122.643103,-0.008606,0.017654,0.996536,0.039341,0.056998,0.01747,65.147995,32.176651,-145.777313,,,
729861739.247269,1.038303,0.231445,122.64818,-0.008606,0.017654,0.996536,0.022932,0.054968,0.015073,65.371292,32.46608,-145.951935,,,
729861739.250611,1.038303,0.231445,122.64818,-0.008606,0.017654,0.996536,0.022932,0.054968,0.015073,65.371292,32.46608,-145.951935,,,
729861739.253996,1.03938,0.248955,122.653131,-0.006744,0.022552,0.981491,0.022932,0.054968,0.015073,65.371292,32.46608,-145.951935,,,
729861739.25726,1.041245,0.254822,122.657835,-0.006744,0.022552,0.981491,0.005073,0.027796,0.015465,65.371292,32.46608,-145.951935,,,
729861739.260606,1.041245,0.254822,122.657835,-0.006744,0.022552,0.981491,0.005073,0.027796,0.015465,65.371292,32.46608,-145.951935,,,
729861739.263944,1.041412,0.262396,122.662518,-0.008453,0.023026,0.974472,0.005073,0.027796,0.015465,65.371292,32.46608,-145.951935,,,
729861739.267263,1.04707,0.257807,122.667377,-0.008453,0.023026,0.974472,0.015255,-0.009717,0.014765,65.371292,32.46608,-145.951935,,,
729861739.270607,1.04707,0.257807,122.667377,-0.008453,0.023026,0.974472,0.015255,-0.009717,0.014765,65.371292,32.46608,-145.951935,,,
729861739.273964,1.05417,0.255713,122.6715,-0.010056,0.01474,0.991867,0.015255,-0.009717,0.014765,65.371292,32.46608,-145.951935,,,
729861739.277279,1.069004,0.243927,122.675042,-0.010056,0.01474,0.991867,0.047642,-0.03506,0.014698,65.371292,32.46608,-145.951935,,,
729861739.280694,1.069004,0.243927,122.675042,-0.010056,0.01474,0.991867,0.047642,-0.03506,0.014698,65.371292,32.46608,-145.951935,,,
729861739.283944,1.08391,0.237047,122.677471,-0.002457,0.013046,1.012177,0.047642,-0.03506,0.014698,65.371292,32.46608,-145.951935,,,
729861739.287274,1.102993,0.22364,122.67974,-0.002457,0.013046,1.012177,0.067154,-0.043014,0.005673,65.315674,32.374664,-145.487503,,,
729861739.29062,1.102993,0.22364,122.67974,-0.002457,0.013046,1.012177,0.067154,-0.043014,0.005673,65.315674,32.374664,-145.487503,,,
729861739.293997,1.119144,0.215128,122.681257,0.004272,0.016342,1.01239,0.067154,-0.043014,0.005673,65.315674,32.374664,-145.487503,,,
729861739.297256,1.134985,0.204723,122.682319,0.004272,0.016342,1.01239,0.056109,-0.037474,0.002876,65.315674,32.374664,-145.487503,,,
729861739.300609,1.134985,0.204723,122.682319,0.004272,0.016342,1.01239,0.056109,-0.037474,0.002876,65.315674,32.374664,-145.487503,,,
729861739.303938,1.146541,0.1996,122.682685,0.007538,0.022156,0.999969,0.056109,-0.037474,0.002876,65.315674,32.374664,-145.487503,,,
729861739.307263,1.156864,0.196532,122.682314,0.007538,0.022156,0.999969,0.035349,-0.01155,-0.00211,65.315674,32.374664,-145.487503,,,
729861739.310615,1.156864,0.196532,122.682314,0.007538,0.022156,0.999969,0.035349,-0.01155,-0.00211,65.315674,32.374664,-145.487503,,,
729861739.313942,1.164224,0.201783,122.682115,0.011063,0.026779,0.993484,0.035349,-0.01155,-0.00211,65.315674,32.374664,-145.487503,,,
729861739.317263,1.170327,0.211041,122.681631,0.011063,0.026779,0.993484,0.022657,0.029922,-0.004647,65.315674,32.374664,-145.487503,,,
729861739.320681,1.170327,0.211041,122.681631,0.011063,0.026779,0.993484,0.022657,0.029922,-0.004647,65.315674,32.374664,-145.487503,,,
729861739.323952,1.173421,0.227053,122.680136,0.012848,0.030319,0.996902,0.022657,0.029922,-0.004647,65.315674,32.374664,-145.487503,,,
729861739.327326,1.172945,0.246659,122.678128,0.012848,0.030319,0.996902,0.00377,0.068343,-0.008783,65.323395,32.162567,-145.599121,,,
729861739.330595,1.172945,0.246659,122.678128,0.012848,0.030319,0.996902,0.00377,0.068343,-0.008783,65.323395,32.162567,-145.599121,,,
729861739.333932,1.169065,0.27028,122.675446,0.014069,0.031998,0.992615,0.00377,0.068343,-0.008783,65.323395,32.162567,-145.599121,,,
729861739.337268,1.16008,0.293413,122.671981,0.014069,0.031998,0.992615,-0.024558,0.081922,-0.013219,65.323395,32.162567,-145.599121,,,
729861739.340605,1.16008,0.293413,122.671981,0.014069,0.031998,0.992615,-0.024558,0.081922,-0.013219,65.323395,32.162567,-145.599121,,,
729861739.344007,1.148573,0.316859,122.668196,0.007065,0.034271,0.98349,-0.024558,0.081922,-0.013219,65.323395,32.162567,-145.599121,,,
729861739.347259,1.134994,0.335326,122.664005,0.007065,0.034271,0.98349,-0.045211,0.072178,-0.017725,65.323395,32.162567,-145.599121,,,
729861739.350608,1.134994,0.335326,122.664005,0.007065,0.034271,0.98349,-0.045211,0.072178,-0.017725,65.323395,32.162567,-145.599121,,,
729861739.353942,1.120158,0.350743,122.65964,-0.002121,0.031509,0.979965,-0.045211,0.072178,-0.017725,65.323395,32.162567,-145.599121,,,
729861739.357265,1.108937,0.361671,122.656384,-0.002121,0.031509,0.979965,-0.041312,0.042973,-0.011697,65.323395,32.162567,-145.599121,,,
729861739.360608,1.108937,0.361671,122.656384,-0.002121,0.031509,0.979965,-0.041312,0.042973,-0.011697,65.323395,32.162567,-145.599121,,,
729861739.36394,1.098676,0.365392,122.654504,-0.009613,0.021271,0.994629,-0.041312,0.042973,-0.011697,65.323395,32.162567,-145.599121,,,
729861739.367292,1.092415,0.366881,122.653385,-0.009613,0.021271,0.994629,-0.025511,0.011769,-0.004345,65.323395,32.162567,-145.599121,,,
729861739.370666,1.092415,0.366881,122.653385,-0.009613,0.021271,0.994629,-0.025511,0.011769,-0.004345,65.288284,32.468307,-145.626099,,,
729861739.373929,1.089759,0.360527,122.653179,-0.015717,0.012283,1.005936,-0.025511,0.011769,-0.004345,65.288284,32.468307,-145.626099,,,
729861739.377264,1.091323,0.355554,122.653731,-0.015717,0.012283,1.005936,0.003055,-0.011905,0.001003,65.288284,32.468307,-145.626099,,,
729861739.380615,1.091323,0.355554,122.653731,-0.015717,0.012283,1.005936,0.003055,-0.011905,0.001003,65.288284,32.468307,-145.626099,,,
729861739.383988,1.098128,0.344383,122.654804,-0.014679,0.009598,1.016006,0.003055,-0.011905,0.001003,65.288284,32.468307,-145.626099,,,
729861739.387351,1.107415,0.338987,122.655633,-0.014679,0.009598,1.016006,0.029092,-0.016172,0.002055,65.288284,32.468307,-145.626099,,,
729861739.390608,1.107415,0.338987,122.655633,-0.014679,0.009598,1.016006,0.029092,-0.016172,0.002055,65.288284,32.468307,-145.626099,,,
729861739.39394,1.1223,0.327786,122.65632,-0.01149,0.009613,1.023972,0.029092,-0.016172,0.002055,65.288284,32.468307,-145.626099,,,
729861739.397267,1.137495,0.32266,122.657141,-0.01149,0.009613,1.023972,0.053094,-0.015569,0.002697,65.288284,32.468307,-145.626099,,,
729861739.400607,1.137495,0.32266,122.657141,-0.01149,0.009613,1.023972,0.053094,-0.015569,0.002697,65.288284,32.468307,-145.626099,,,
729861739.403938,1.157071,0.310759,122.658662,-0.009766,0.01268,1.020203,0.053094,-0.015569,0.002697,65.288284,32.468307,-145.626099,,,
729861739.407276,1.174383,0.307415,122.660178,-0.009766,0.01268,1.020203,0.058537,-0.008184,0.002558,65.288284,32.468307,-145.626099,,,
729861739.410597,1.174383,0.307415,122.660178,-0.009766,0.01268,1.020203,0.058537,-0.008184,0.002558,65.309555,32.291061,-145.663651,,,
729861739.41393,1.193628,0.298714,122.661755,-0.013458,0.017227,1.007797,0.058537,-0.008184,0.002558,65.309555,32.291061,-145.663651,,,
729861739.417301,1.207179,0.297052,122.663275,-0.013458,0.017227,1.007797,0.050416,-0.003707,0.004148,65.309555,32.291061,-145.663651,,,
729861739.420613,1.207179,0.297052,122.663275,-0.013458,0.017227,1.007797,0.050416,-0.003707,0.004148,65.309555,32.291061,-145.663651,,,
729861739.42399,1.220601,0.292668,122.665204,-0.012039,0.023529,0.990158,0.050416,-0.003707,0.004148,65.309555,32.291061,-145.663651,,,
729861739.42737,1.226835,0.291653,122.667573,-0.012039,0.023529,0.990158,0.024611,-0.000695,0.005561,65.309555,32.291061,-145.663651,,,
729861739.4306,1.226835,0.291653,122.667573,-0.012039,0.023529,0.990158,0.024611,-0.000695,0.005561,65.309555,32.291061,-145.663651,,,
729861739.433956,1.232179,0.290942,122.669563,-0.011932,0.027756,0.981155,0.024611,-0.000695,0.005561,65.309555,32.291061,-145.663651,,,
729861739.437296,1.233438,0.290783,122.670761,-0.011932,0.027756,0.981155,0.004746,0.00432,0.002598,65.309555,32.291061,-145.663651,,,
729861739.440609,1.233438,0.290783,122.670761,-0.011932,0.027756,0.981155,0.004746,0.00432,0.002598,65.309555,32.291061,-145.663651,,,
729861739.443946,1.231986,0.293445,122.671673,-0.007385,0.028732,0.98291,0.004746,0.00432,0.002598,65.309555,32.291061,-145.663651,,,
729861739.447292,1.230793,0.294192,122.672319,-0.007385,0.028732,0.98291,-0.002916,0.006694,0.000436,65.309555,32.291061,-145.663651,,,
729861739.450603,1.230793,0.294192,122.672319,-0.007385,0.028732,0.98291,-0.002916,0.006694,0.000436,65.382507,32.224808,-145.626602,,,
729861739.454004,1.226636,0.299904,122.672567,-0.00708,0.025833,0.990967,-0.002916,0.006694,0.000436,65.382507,32.224808,-145.626602,,,
729861739.457334,1.225663,0.302328,122.672847,-0.00708,0.025833,0.990967,-0.004303,0.010545,0.00062,65.382507,32.224808,-145.626602,,,
729861739.460659,1.225663,0.302328,122.672847,-0.00708,0.025833,0.990967,-0.004303,0.010545,0.00062,65.382507,32.224808,-145.626602,,,
729861739.463943,1.221549,0.308049,122.673065,-0.006973,0.023178,0.995331,-0.004303,0.010545,0.00062,65.382507,32.224808,-145.626602,,,
729861739.467322,1.220455,0.312111,122.673479,-0.006973,0.023178,0.995331,-0.0043,0.016399,-0.002026,65.382507,32.224808,-145.626602,,,
729861739.47061,1.220455,0.312111,122.673479,-0.006973,0.023178,0.995331,-0.0043,0.016399,-0.002026,65.382507,32.224808,-145.626602,,,
729861739.474001,1.217256,0.317978,122.674028,-0.007935,0.022537,0.99852,-0.0043,0.016399,-0.002026,65.382507,32.224808,-145.626602,,,
729861739.477286,1.217256,0.317978,122.675276,-0.007935,0.022537,0.99852,0.001006,0.017603,0.001559,65.382507,32.224808,-145.626602,,,
729861739.480624,1.218267,0.322297,122.675276,-0.007935,0.022537,0.99852,0.001006,0.017603,0.001559,65.382507,32.224808,-145.626602,,,
729861739.483937,1.218746,0.327915,122.677651,-0.013123,0.01796,0.996933,0.001006,0.017603,0.001559,65.382507,32.224808,-145.626602,,,
729861739.487348,1.218746,0.329595,122.682044,-0.013123,0.01796,0.996933,0.011942,0.010781,0.012761,65.382507,32.224808,-145.626602,,,
729861739.490592,1.221479,0.329595,122.682044,-0.013123,0.01796,0.996933,0.011942,0.010781,0.012761,65.547272,32.319138,-146.003845,,,
729861739.493945,1.224106,0.33184,122.689074,-0.02002,0.014435,0.993469,0.011942,0.010781,0.012761,65.547272,32.319138,-146.003845,,,
729861739.497277,1.224106,0.33184,122.689074,-0.02002,0.014435,0.993469,0.010416,-0.004168,0.029711,65.547272,32.319138,-146.003845,,,
729861739.50066,1.226967,0.329478,122.698817,-0.02002,0.014435,0.993469,0.010416,-0.004168,0.029711,65.547272,32.319138,-146.003845,,,
729861739.50394,1.230362,0.327049,122.710793,-0.025421,0.015366,0.985489,0.010416,-0.004168,0.029711,65.547272,32.319138,-146.003845,,,
729861739.507267,1.230362,0.327049,122.710793,-0.025421,0.015366,0.985489,0.010416,-0.004168,0.029711,65.547272,32.319138,-146.003845,,,
729861739.510601,1.232233,0.31968,122.724613,-0.025421,0.015366,0.985489,0.007431,-0.019619,0.045332,65.547272,32.319138,-146.003845,,,
729861739.513929,1.23513,0.311805,122.73959,-0.02446,0.017654,0.983307,0.007431,-0.019619,0.045332,65.547272,32.319138,-146.003845,,,
729861739.517316,1.23513,0.311805,122.73959,-0.02446,0.017654,0.983307,0.007431,-0.019619,0.045332,65.547272,32.319138,-146.003845,,,
729861739.520611,1.234962,0.299543,122.754248,-0.02446,0.017654,0.983307,-0.001155,-0.035241,0.050274,65.547272,32.319138,-146.003845,,,
729861739.523935,1.235143,0.285092,122.767757,-0.015823,0.02066,0.984665,-0.001155,-0.035241,0.050274,65.547272,32.319138,-146.003845,,,
729861739.527339,1.235143,0.285092,122.767757,-0.015823,0.02066,0.984665,-0.001155,-0.035241,0.050274,65.547272,32.319138,-146.003845,,,
729861739.530612,1.231611,0.267739,122.779588,-0.015823,0.02066,0.984665,-0.009447,-0.054632,0.043826,65.547272,32.319138,-146.003845,,,
