Time (sec),Pitch (deg),Roll (deg),Yaw(deg),X-Acceleration (g),Y-Acceleration (g),Z-Acceleration (g),Pitch Rate (deg/sec),Roll Rate (deg/sec),Yaw Rate (deg/sec),Magnetic Field in X direction (uT),Magnetic Field in Y direction (uT),Magnetic Field in Z Direction (uT),Latitude (deg),Longitude (deg),Altitude (m)
729860900.541466,3.731341,3.887263,49.19585,-0.069107,0.049408,1.01561,0.794979,-0.075091,0.053569,65.104721,11.586624,-146.452072,,,
729860900.544774,3.958839,3.85922,49.19688,-0.066391,0.071487,0.99971,0.787557,-0.101464,0.055536,64.802994,10.312119,-145.866592,,,
729860900.548114,4.184477,3.828629,49.199193,-0.066391,0.071487,0.99971,0.787557,-0.101464,0.055536,64.802994,10.312119,-145.866592,,,
729860900.551346,4.184477,3.828629,49.199193,-0.066391,0.071487,0.99971,0.787557,-0.101464,0.055536,64.802994,10.312119,-145.866592,,,
729860900.554806,4.409651,3.796309,49.203565,-0.062836,0.077744,0.99501,0.783554,-0.11195,0.068732,64.802994,10.312119,-145.866592,,,
729860900.558184,4.637976,3.76141,49.2096,-0.062836,0.077744,0.99501,0.783554,-0.11195,0.068732,64.802994,10.312119,-145.866592,,,
729860900.561312,4.637976,3.76141,49.2096,-0.062836,0.077744,0.99501,0.783554,-0.11195,0.068732,64.802994,10.312119,-145.866592,,,
729860900.564803,4.873398,3.723276,49.217185,-0.061646,0.07515,1.008423,0.832398,-0.133021,0.081573,64.802994,10.312119,-145.866592,,,
729860900.56805,5.117465,3.683313,49.225305,-0.061646,0.07515,1.008423,0.832398,-0.133021,0.081573,64.802994,10.312119,-145.866592,,,
729860900.571466,5.117465,3.683313,49.225305,-0.061646,0.07515,1.008423,0.832398,-0.133021,0.081573,64.802994,10.312119,-145.866592,,,
729860900.574767,5.36834,3.645459,49.23339,-0.05307,0.072861,1.034088,0.880324,-0.117742,0.083209,64.802994,10.312119,-145.866592,,,
729860900.578114,5.624068,3.613426,49.241223,-0.05307,0.072861,1.034088,0.880324,-0.117742,0.083209,64.802994,10.312119,-145.866592,,,
729860900.581179,5.624068,3.613426,49.241223,-0.05307,0.072861,1.034088,0.880324,-0.117742,0.083209,64.802994,10.312119,-145.866592,,,
729860900.584643,5.883683,3.586893,49.248757,-0.041504,0.079285,1.028427,0.907697,-0.078961,0.081889,64.493057,8.881485,-145.160828,,,
729860900.588141,6.147146,3.561243,49.256108,-0.041504,0.079285,1.028427,0.907697,-0.078961,0.081889,64.493057,8.881485,-145.160828,,,
729860900.591449,6.147146,3.561243,49.256108,-0.041504,0.079285,1.028427,0.907697,-0.078961,0.081889,64.493057,8.881485,-145.160828,,,
729860900.59487,6.413591,3.531983,49.262034,-0.037109,0.09462,1.00116,0.929262,-0.104502,0.072402,64.493057,8.881485,-145.160828,,,
729860900.598115,6.680629,3.498835,49.264938,-0.037109,0.09462,1.00116,0.929262,-0.104502,0.072402,64.493057,8.881485,-145.160828,,,
729860900.601314,6.680629,3.498835,49.264938,-0.037109,0.09462,1.00116,0.929262,-0.104502,0.072402,64.493057,8.881485,-145.160828,,,
729860900.604832,6.946485,3.461992,49.263778,-0.028931,0.115692,0.97287,0.923002,-0.133014,0.042674,64.493057,8.881485,-145.160828,,,
729860900.608104,7.210879,3.4219,49.258272,-0.028931,0.115692,0.97287,0.923002,-0.133014,0.042674,64.493057,8.881485,-145.160828,,,
729860900.611452,7.210879,3.4219,49.258272,-0.028931,0.115692,0.97287,0.923002,-0.133014,0.042674,64.493057,8.881485,-145.160828,,,
729860900.614792,7.473176,3.377492,49.249262,-0.031021,0.126297,0.950211,0.909702,-0.165837,0.016266,64.493057,8.881485,-145.160828,,,
729860900.618027,7.730647,3.328887,49.238409,-0.031021,0.126297,0.950211,0.909702,-0.165837,0.016266,64.493057,8.881485,-145.160828,,,
729860900.621472,7.730647,3.328887,49.238409,-0.031021,0.126297,0.950211,0.909702,-0.165837,0.016266,64.493057,8.881485,-145.160828,,,
729860900.624774,7.98241,3.28045,49.226978,-0.03093,0.135864,0.94368,0.870416,-0.165084,0.008476,64.493057,8.881485,-145.160828,,,
729860900.628126,8.230322,3.238253,49.216443,-0.03093,0.135864,0.94368,0.870416,-0.165084,0.008476,64.274673,7.61673,-144.397507,,,
729860900.631487,8.230322,3.238253,49.216443,-0.03093,0.135864,0.94368,0.870416,-0.165084,0.008476,64.274673,7.61673,-144.397507,,,
729860900.634695,8.474197,3.204859,49.208579,-0.035187,0.142502,0.972183,0.84147,-0.100941,0.024056,64.274673,7.61673,-144.397507,,,
729860900.638137,8.714039,3.179912,49.204839,-0.035187,0.142502,0.972183,0.84147,-0.100941,0.024056,64.274673,7.61673,-144.397507,,,
729860900.641461,8.714039,3.179912,49.204839,-0.035187,0.142502,0.972183,0.84147,-0.100941,0.024056,64.274673,7.61673,-144.397507,,,
729860900.644772,8.951867,3.163984,49.20497,-0.04126,0.144241,0.984604,0.826488,-0.033651,0.049304,64.274673,7.61673,-144.397507,,,
729860900.648118,9.190966,3.159414,49.206192,-0.04126,0.144241,0.984604,0.826488,-0.033651,0.049304,64.274673,7.61673,-144.397507,,,
729860900.651346,9.190966,3.159414,49.206192,-0.04126,0.144241,0.984604,0.826488,-0.033651,0.049304,64.274673,7.61673,-144.397507,,,
729860900.654818,9.432997,3.166704,49.207266,-0.035324,0.14624,1.008316,0.847068,0.049269,0.049332,64.274673,7.61673,-144.397507,,,
729860900.658175,9.676421,3.182993,49.208098,-0.035324,0.14624,1.008316,0.847068,0.049269,0.049332,64.274673,7.61673,-144.397507,,,
729860900.661429,9.676421,3.182993,49.208098,-0.035324,0.14624,1.008316,0.847068,0.049269,0.049332,64.274673,7.61673,-144.397507,,,
729860900.664778,9.919884,3.204438,49.207976,-0.04567,0.148422,1.005798,0.847832,0.084544,0.043299,64.274673,7.61673,-144.397507,,,
729860900.668121,10.162842,3.227006,49.206573,-0.04567,0.148422,1.005798,0.847832,0.084544,0.043299,64.346771,5.936829,-143.387314,,,
729860900.671528,10.162842,3.227006,49.206573,-0.04567,0.148422,1.005798,0.847832,0.084544,0.043299,64.346771,5.936829,-143.387314,,,
729860900.67477,10.404277,3.245249,49.203622,-0.066376,0.17009,0.970551,0.837985,0.052923,0.032629,64.346771,5.936829,-143.387314,,,
729860900.67818,10.644477,3.255604,49.198468,-0.066376,0.17009,0.970551,0.837985,0.052923,0.032629,64.346771,5.936829,-143.387314,,,
729860900.681441,10.644477,3.255604,49.198468,-0.066376,0.17009,0.970551,0.837985,0.052923,0.032629,64.346771,5.936829,-143.387314,,,
729860900.684704,10.883553,3.257015,49.191027,-0.066147,0.185425,0.95369,0.830897,-0.012025,0.016731,64.346771,5.936829,-143.387314,,,
729860900.688137,11.121294,3.250504,49.181317,-0.066147,0.185425,0.95369,0.830897,-0.012025,0.016731,64.346771,5.936829,-143.387314,,,
729860900.69147,11.121294,3.250504,49.181317,-0.066147,0.185425,0.95369,0.830897,-0.012025,0.016731,64.346771,5.936829,-143.387314,,,
729860900.694789,11.356853,3.236937,49.169159,-0.070145,0.18869,0.95462,0.816835,-0.064321,-0.001176,64.346771,5.936829,-143.387314,,,
729860900.698189,11.589309,3.216841,49.155816,-0.070145,0.18869,0.95462,0.816835,-0.064321,-0.001176,64.346771,5.936829,-143.387314,,,
729860900.701307,11.589309,3.216841,49.155816,-0.070145,0.18869,0.95462,0.816835,-0.064321,-0.001176,64.346771,5.936829,-143.387314,,,
729860900.70479,11.8189,3.1915,49.142077,-0.079102,0.198212,0.949783,0.797216,-0.101336,-0.005636,64.346771,5.936829,-143.387314,,,
729860900.708114,12.04552,3.16482,49.128283,-0.079102,0.198212,0.949783,0.797216,-0.101336,-0.005636,64.284821,4.414413,-142.718445,,,
729860900.711527,12.04552,3.16482,49.128283,-0.079102,0.198212,0.949783,0.797216,-0.101336,-0.005636,64.284821,4.414413,-142.718445,,,
729860900.714768,12.268269,3.139709,49.11624,-0.071625,0.207123,0.964844,0.770086,-0.087837,0.004043,64.284821,4.414413,-142.718445,,,
729860900.718096,12.485662,3.118241,49.107102,-0.071625,0.207123,0.964844,0.770086,-0.087837,0.004043,64.284821,4.414413,-142.718445,,,
729860900.72147,12.485662,3.118241,49.107102,-0.071625,0.207123,0.964844,0.770086,-0.087837,0.004043,64.284821,4.414413,-142.718445,,,
729860900.724773,12.696085,3.103038,49.10189,-0.077835,0.212051,0.967041,0.720323,-0.038073,0.027536,64.284821,4.414413,-142.718445,,,
729860900.72813,12.900053,3.09481,49.100498,-0.077835,0.212051,0.967041,0.720323,-0.038073,0.027536,64.284821,4.414413,-142.718445,,,
729860900.731442,12.900053,3.09481,49.100498,-0.077835,0.212051,0.967041,0.720323,-0.038073,0.027536,64.284821,4.414413,-142.718445,,,
729860900.734757,13.098627,3.09064,49.102446,-0.081482,0.22612,0.967163,0.681734,-0.004235,0.04784,64.284821,4.414413,-142.718445,,,
729860900.73818,13.293743,3.088089,49.108171,-0.081482,0.22612,0.967163,0.681734,-0.004235,0.04784,64.284821,4.414413,-142.718445,,,
729860900.741441,13.293743,3.088089,49.108171,-0.081482,0.22612,0.967163,0.681734,-0.004235,0.04784,64.284821,4.414413,-142.718445,,,
729860900.74478,13.488031,3.086157,49.117939,-0.083694,0.223877,0.980469,0.674679,0.007122,0.074732,64.284821,4.414413,-142.718445,,,
729860900.748104,13.683683,3.084842,49.130916,-0.083694,0.223877,0.980469,0.674679,0.007122,0.074732,64.284821,4.414413,-142.718445,,,
729860900.75146,13.683683,3.084842,49.130916,-0.083694,0.223877,0.980469,0.674679,0.007122,0.074732,64.080856,3.399658,-142.203735,,,
729860900.7548,13.882636,3.082443,49.145848,-0.095444,0.219116,1.003632,0.696821,0.003501,0.088987,64.080856,3.399658,-142.203735,,,
729860900.758151,14.086147,3.077914,49.161845,-0.095444,0.219116,1.003632,0.696821,0.003501,0.088987,64.080856,3.399658,-142.203735,,,
729860900.762223,14.086147,3.077914,49.161845,-0.095444,0.219116,1.003632,0.696821,0.003501,0.088987,64.080856,3.399658,-142.203735,,,
729860900.76475,14.294589,3.072552,49.178197,-0.0914,0.225128,1.014832,0.731185,-0.000935,0.092962,64.080856,3.399658,-142.203735,,,
729860900.768247,14.506314,3.067318,49.194047,-0.0914,0.225128,1.014832,0.731185,-0.000935,0.092962,64.080856,3.399658,-142.203735,,,
729860900.771462,14.506314,3.067318,49.194047,-0.0914,0.225128,1.014832,0.731185,-0.000935,0.092962,64.080856,3.399658,-142.203735,,,
729860900.774794,14.718804,3.060083,49.209469,-0.079224,0.235535,1.005493,0.736878,-0.01486,0.090011,64.080856,3.399658,-142.203735,,,
729860900.778206,14.930428,3.049038,49.223825,-0.079224,0.235535,1.005493,0.736878,-0.01486,0.090011,64.080856,3.399658,-142.203735,,,
729860900.781242,14.930428,3.049038,49.223825,-0.079224,0.235535,1.005493,0.736878,-0.01486,0.090011,64.080856,3.399658,-142.203735,,,
729860900.784662,15.141395,3.034001,49.237205,-0.080841,0.252396,0.982727,0.732904,-0.043694,0.082736,64.080856,3.399658,-142.203735,,,
729860900.788144,15.353391,3.014874,49.250101,-0.080841,0.252396,0.982727,0.732904,-0.043694,0.082736,64.080856,3.399658,-142.203735,,,
729860900.791534,15.353391,3.014874,49.250101,-0.080841,0.252396,0.982727,0.732904,-0.043694,0.082736,63.839508,2.397552,-141.600784,,,
729860900.794783,15.566589,2.991509,49.262059,-0.073029,0.260498,0.985779,0.741612,-0.074239,0.076115,63.839508,2.397552,-141.600784,,,
729860900.798124,15.781153,2.965106,49.273805,-0.073029,0.260498,0.985779,0.741612,-0.074239,0.076115,63.839508,2.397552,-141.600784,,,
729860900.801326,15.781153,2.965106,49.273805,-0.073029,0.260498,0.985779,0.741612,-0.074239,0.076115,63.839508,2.397552,-141.600784,,,
729860900.804858,15.996646,2.937246,49.286346,-0.071075,0.254715,0.987595,0.748108,-0.082202,0.080923,63.839508,2.397552,-141.600784,,,
729860900.808095,16.213025,2.908366,49.300925,-0.071075,0.254715,0.987595,0.748108,-0.082202,0.080923,63.839508,2.397552,-141.600784,,,
729860900.811448,16.213025,2.908366,49.300925,-0.071075,0.254715,0.987595,0.748108,-0.082202,0.080923,63.839508,2.397552,-141.600784,,,
729860900.81479,16.430292,2.877912,49.31895,-0.076736,0.259933,0.987854,0.753465,-0.085675,0.103295,63.839508,2.397552,-141.600784,,,
729860900.818156,16.64881,2.84795,49.340954,-0.076736,0.259933,0.987854,0.753465,-0.085675,0.103295,63.839508,2.397552,-141.600784,,,
729860900.821453,16.64881,2.84795,49.340954,-0.076736,0.259933,0.987854,0.753465,-0.085675,0.103295,63.839508,2.397552,-141.600784,,,
729860900.824773,16.870787,2.820355,49.367744,-0.072372,0.262695,0.996811,0.776661,-0.058657,0.135417,63.839508,2.397552,-141.600784,,,
729860900.828102,17.098316,2.796814,49.399886,-0.072372,0.262695,0.996811,0.776661,-0.058657,0.135417,63.839508,2.397552,-141.600784,,,
729860900.831447,17.098316,2.796814,49.399886,-0.072372,0.262695,0.996811,0.776661,-0.058657,0.135417,63.831467,1.161377,-140.818146,,,
729860900.834678,17.331582,2.777897,49.436851,-0.073212,0.262115,1.015228,0.815441,-0.015275,0.168428,63.831467,1.161377,-140.818146,,,
729860900.838144,17.569889,2.760546,49.476685,-0.073212,0.262115,1.015228,0.815441,-0.015275,0.168428,63.831467,1.161377,-140.818146,,,
729860900.8415,17.569889,2.760546,49.476685,-0.073212,0.262115,1.015228,0.815441,-0.015275,0.168428,63.831467,1.161377,-140.818146,,,
729860900.844786,17.811135,2.742215,49.516503,-0.057037,0.274979,0.999466,0.836372,-0.020629,0.168361,63.831467,1.161377,-140.818146,,,
729860900.848121,18.053686,2.723987,49.554528,-0.057037,0.274979,0.999466,0.836372,-0.020629,0.168361,63.831467,1.161377,-140.818146,,,
729860900.851349,18.053686,2.723987,49.554528,-0.057037,0.274979,0.999466,0.836372,-0.020629,0.168361,63.831467,1.161377,-140.818146,,,
729860900.854791,18.296815,2.708278,49.589863,-0.040909,0.292511,0.97879,0.841787,-0.007409,0.149882,63.831467,1.161377,-140.818146,,,
729860900.858102,18.540006,2.694824,49.622233,-0.040909,0.292511,0.97879,0.841787,-0.007409,0.149882,63.831467,1.161377,-140.818146,,,
729860900.861454,18.540006,2.694824,49.622233,-0.040909,0.292511,0.97879,0.841787,-0.007409,0.149882,63.831467,1.161377,-140.818146,,,
729860900.86479,18.782083,2.679031,49.651734,-0.036545,0.301483,0.962265,0.835144,-0.028734,0.129731,63.831467,1.161377,-140.818146,,,
729860900.868002,19.023378,2.658027,49.677808,-0.036545,0.301483,0.962265,0.835144,-0.028734,0.129731,63.831467,1.161377,-140.818146,,,
729860900.871451,19.023378,2.658027,49.677808,-0.036545,0.301483,0.962265,0.835144,-0.028734,0.129731,63.39975,-0.368958,-139.67868,,,
729860900.874775,19.264698,2.632698,49.700476,-0.034607,0.314178,0.942001,0.836945,-0.06545,0.106361,63.39975,-0.368958,-139.67868,,,
729860900.878124,19.50641,2.604863,49.72014,-0.034607,0.314178,0.942001,0.836945,-0.06545,0.106361,63.39975,-0.368958,-139.67868,,,
729860900.881531,19.50641,2.604863,49.72014,-0.034607,0.314178,0.942001,0.836945,-0.06545,0.106361,63.39975,-0.368958,-139.67868,,,
729860900.884737,19.748265,2.575243,49.738327,-0.033478,0.317001,0.947403,0.838995,-0.080332,0.0956,63.39975,-0.368958,-139.67868,,,
729860900.888126,19.98988,2.545727,49.758009,-0.033478,0.317001,0.947403,0.838995,-0.080332,0.0956,63.39975,-0.368958,-139.67868,,,
729860900.891446,19.98988,2.545727,49.758009,-0.033478,0.317001,0.947403,0.838995,-0.080332,0.0956,63.39975,-0.368958,-139.67868,,,
729860900.894841,20.231206,2.51669,49.781181,-0.047806,0.315826,0.94899,0.836903,-0.067702,0.117111,63.39975,-0.368958,-139.67868,,,
729860900.898118,20.47358,2.484921,49.809853,-0.047806,0.315826,0.94899,0.836903,-0.067702,0.117111,63.39975,-0.368958,-139.67868,,,
729860900.901432,20.47358,2.484921,49.809853,-0.047806,0.315826,0.94899,0.836903,-0.067702,0.117111,63.39975,-0.368958,-139.67868,,,
729860900.904768,20.719831,2.447757,49.84481,-0.054062,0.316971,0.950195,0.862822,-0.088626,0.157784,63.39975,-0.368958,-139.67868,,,
729860900.908167,20.97244,2.407253,49.884885,-0.054062,0.316971,0.950195,0.862822,-0.088626,0.157784,63.39975,-0.368958,-139.67868,,,
729860900.911448,20.97244,2.407253,49.884885,-0.054062,0.316971,0.950195,0.862822,-0.088626,0.157784,63.39975,-0.368958,-139.67868,,,
729860900.914766,21.232212,2.366147,49.928633,-0.046188,0.314484,0.963501,0.912477,-0.081975,0.181946,63.115097,-1.546738,-138.780212,,,
729860900.918129,21.499806,2.325475,49.973503,-0.046188,0.314484,0.963501,0.912477,-0.081975,0.181946,63.115097,-1.546738,-138.780212,,,
729860900.921537,21.499806,2.325475,49.973503,-0.046188,0.314484,0.963501,0.912477,-0.081975,0.181946,63.115097,-1.546738,-138.780212,,,
729860900.924781,21.774505,2.284882,50.0184,-0.03064,0.318085,0.965805,0.962773,-0.079532,0.182129,63.115097,-1.546738,-138.780212,,,
729860900.928125,22.05638,2.246808,50.061634,-0.03064,0.318085,0.965805,0.962773,-0.079532,0.182129,63.115097,-1.546738,-138.780212,,,
729860900.931432,22.05638,2.246808,50.061634,-0.03064,0.318085,0.965805,0.962773,-0.079532,0.182129,63.115097,-1.546738,-138.780212,,,
729860900.934828,22.344052,2.212307,50.102103,-0.013763,0.328522,0.957123,1.004285,-0.060063,0.163841,63.115097,-1.546738,-138.780212,,,
729860900.938094,22.634154,2.17734,50.139399,-0.013763,0.328522,0.957123,1.004285,-0.060063,0.163841,63.115097,-1.546738,-138.780212,,,
729860900.941454,22.634154,2.17734,50.139399,-0.013763,0.328522,0.957123,1.004285,-0.060063,0.163841,63.115097,-1.546738,-138.780212,,,
729860900.94482,22.924306,2.136608,50.172335,-0.008331,0.353882,0.91124,1.006591,-0.110301,0.13384,63.115097,-1.546738,-138.780212,,,
729860900.948166,23.213017,2.087572,50.201153,-0.008331,0.353882,0.91124,1.006591,-0.110301,0.13384,63.115097,-1.546738,-138.780212,,,
729860900.951478,23.213017,2.087572,50.201153,-0.008331,0.353882,0.91124,1.006591,-0.110301,0.13384,63.115097,-1.546738,-138.780212,,,
729860900.954781,23.498514,2.03235,50.226034,-0.014221,0.379883,0.875381,0.986031,-0.162877,0.105451,62.864334,-3.022263,-137.93013,,,
729860900.958203,23.498514,2.03235,50.226034,-0.014221,0.379883,0.875381,0.986031,-0.162877,0.105451,62.864334,-3.022263,-137.93013,,,
729860900.9615,23.78047,1.976027,50.247167,-0.014221,0.379883,0.875381,0.986031,-0.162877,0.105451,62.864334,-3.022263,-137.93013,,,
729860900.964832,24.057733,1.920928,50.26674,-0.006943,0.389862,0.879272,0.954942,-0.157695,0.092129,62.864334,-3.022263,-137.93013,,,
729860900.96819,24.331166,1.868486,50.286345,-0.006943,0.389862,0.879272,0.954942,-0.157695,0.092129,62.864334,-3.022263,-137.93013,,,
729860900.971437,24.331166,1.868486,50.286345,-0.006943,0.389862,0.879272,0.954942,-0.157695,0.092129,62.864334,-3.022263,-137.93013,,,
729860900.974775,24.601959,1.819874,50.307401,-0.010223,0.391525,0.886688,0.937027,-0.12582,0.098624,62.864334,-3.022263,-137.93013,,,
729860900.978102,24.870112,1.77727,50.330723,-0.010223,0.391525,0.886688,0.937027,-0.12582,0.098624,62.864334,-3.022263,-137.93013,,,
729860900.981435,24.870112,1.77727,50.330723,-0.010223,0.391525,0.886688,0.937027,-0.12582,0.098624,62.864334,-3.022263,-137.93013,,,
729860900.984825,25.133873,1.741349,50.355091,-0.00737,0.401093,0.883896,0.906924,-0.075095,0.102534,62.864334,-3.022263,-137.93013,,,
729860900.988204,25.391458,1.710673,50.379711,-0.00737,0.401093,0.883896,0.906924,-0.075095,0.102534,62.864334,-3.022263,-137.93013,,,
729860900.991441,25.391458,1.710673,50.379711,-0.00737,0.401093,0.883896,0.906924,-0.075095,0.102534,62.864334,-3.022263,-137.93013,,,
729860900.994784,25.641523,1.683436,50.404287,-0.002213,0.416855,0.852112,0.855174,-0.050238,0.099218,62.396942,-4.195786,-137.003433,,,
729860900.998115,25.883989,1.662097,50.427341,-0.002213,0.416855,0.852112,0.855174,-0.050238,0.099218,62.396942,-4.195786,-137.003433,,,
729860901.001575,25.883989,1.662097,50.427341,-0.002213,0.416855,0.852112,0.855174,-0.050238,0.099218,62.396942,-4.195786,-137.003433,,,
729860901.004749,26.120488,1.651178,50.448773,0.001266,0.430542,0.845871,0.814826,0.018374,0.086967,62.396942,-4.195786,-137.003433,,,
729860901.008122,26.352292,1.650771,50.469863,0.001266,0.430542,0.845871,0.814826,0.018374,0.086967,62.396942,-4.195786,-137.003433,,,
729860901.011449,26.352292,1.650771,50.469863,0.001266,0.430542,0.845871,0.814826,0.018374,0.086967,62.396942,-4.195786,-137.003433,,,
729860901.014767,26.580155,1.656534,50.491481,-0.000183,0.428284,0.855316,0.787772,0.063888,0.089132,62.396942,-4.195786,-137.003433,,,
729860901.018149,26.80494,1.665149,50.513297,-0.000183,0.428284,0.855316,0.787772,0.063888,0.089132,62.396942,-4.195786,-137.003433,,,
729860901.021441,26.80494,1.665149,50.513297,-0.000183,0.428284,0.855316,0.787772,0.063888,0.089132,62.396942,-4.195786,-137.003433,,,
729860901.024769,27.026029,1.673831,50.535508,-0.011551,0.428574,0.838272,0.76242,0.066511,0.090696,62.396942,-4.195786,-137.003433,,,
729860901.028188,27.244036,1.682613,50.557074,-0.011551,0.428574,0.838272,0.76242,0.066511,0.090696,62.396942,-4.195786,-137.003433,,,
729860901.031439,27.244036,1.682613,50.557074,-0.011551,0.428574,0.838272,0.76242,0.066511,0.090696,62.396942,-4.195786,-137.003433,,,
729860901.034824,27.460576,1.691417,50.576488,-0.013657,0.436295,0.839783,0.753368,0.060692,0.077031,62.446381,-5.438721,-136.131958,,,
729860901.038095,27.460576,1.691417,50.576488,-0.013657,0.436295,0.839783,0.753368,0.060692,0.077031,62.446381,-5.438721,-136.131958,,,
729860901.041549,27.675865,1.697695,50.593241,-0.013657,0.436295,0.839783,0.753368,0.060692,0.077031,62.446381,-5.438721,-136.131958,,,
729860901.044764,27.888316,1.698731,50.606803,-0.014679,0.439514,0.830856,0.734622,0.014532,0.056571,62.446381,-5.438721,-136.131958,,,
729860901.048118,27.888316,1.698731,50.606803,-0.014679,0.439514,0.830856,0.734622,0.014532,0.056571,62.446381,-5.438721,-136.131958,,,
729860901.051497,28.096886,1.694558,50.616968,-0.014679,0.439514,0.830856,0.734622,0.014532,0.056571,62.446381,-5.438721,-136.131958,,,
729860901.054769,28.30072,1.687942,50.624115,-0.0242,0.454117,0.81369,0.702562,-0.011937,0.036586,62.446381,-5.438721,-136.131958,,,
729860901.058115,28.30072,1.687942,50.624115,-0.0242,0.454117,0.81369,0.702562,-0.011937,0.036586,62.446381,-5.438721,-136.131958,,,
729860901.061433,28.499567,1.680211,50.630051,-0.0242,0.454117,0.81369,0.702562,-0.011937,0.036586,62.446381,-5.438721,-136.131958,,,
729860901.064769,28.691305,1.670548,50.636273,-0.024094,0.466629,0.813858,0.653424,-0.023992,0.036557,62.446381,-5.438721,-136.131958,,,
729860901.068177,28.691305,1.670548,50.636273,-0.024094,0.466629,0.813858,0.653424,-0.023992,0.036557,62.446381,-5.438721,-136.131958,,,
729860901.071456,28.875913,1.657676,50.643373,-0.024094,0.466629,0.813858,0.653424,-0.023992,0.036557,62.446381,-5.438721,-136.131958,,,
729860901.074769,29.054815,1.640924,50.651808,-0.021606,0.472748,0.804092,0.614062,-0.046149,0.042984,62.446381,-5.438721,-136.131958,,,
729860901.078125,29.054815,1.640924,50.651808,-0.021606,0.472748,0.804092,0.614062,-0.046149,0.042984,62.339722,-6.464951,-135.483078,,,
729860901.081522,29.228773,1.621977,50.660686,-0.021606,0.472748,0.804092,0.614062,-0.046149,0.042984,62.339722,-6.464951,-135.483078,,,
729860901.084817,29.398534,1.603456,50.6696,-0.020569,0.477737,0.821915,0.585194,-0.04264,0.041787,62.339722,-6.464951,-135.483078,,,
729860901.088096,29.398534,1.603456,50.6696,-0.020569,0.477737,0.821915,0.585194,-0.04264,0.041787,62.339722,-6.464951,-135.483078,,,
729860901.091446,29.566005,1.588655,50.678911,-0.020569,0.477737,0.821915,0.585194,-0.04264,0.041787,62.339722,-6.464951,-135.483078,,,
729860901.094778,29.734073,1.57985,50.690243,-0.021347,0.468933,0.85965,0.589304,0.006501,0.053699,62.339722,-6.464951,-135.483078,,,
729860901.098114,29.734073,1.57985,50.690243,-0.021347,0.468933,0.85965,0.589304,0.006501,0.053699,62.339722,-6.464951,-135.483078,,,
729860901.101503,29.905249,1.577652,50.7051,-0.021347,0.468933,0.85965,0.589304,0.006501,0.053699,62.339722,-6.464951,-135.483078,,,
729860901.104778,30.080321,1.57928,50.724192,-0.029526,0.456192,0.889343,0.616048,0.048459,0.079792,62.339722,-6.464951,-135.483078,,,
729860901.108177,30.080321,1.57928,50.724192,-0.029526,0.456192,0.889343,0.616048,0.048459,0.079792,62.339722,-6.464951,-135.483078,,,
729860901.111449,30.260651,1.58168,50.747356,-0.029526,0.456192,0.889343,0.616048,0.048459,0.079792,62.339722,-6.464951,-135.483078,,,
729860901.114768,30.446168,1.584376,50.77225,-0.026474,0.465363,0.886841,0.651958,0.057312,0.090917,62.339722,-6.464951,-135.483078,,,
729860901.118148,30.446168,1.584376,50.77225,-0.026474,0.465363,0.886841,0.651958,0.057312,0.090917,62.275024,-7.316162,-134.680984,,,
729860901.121501,30.633402,1.586443,50.796027,-0.026474,0.465363,0.886841,0.651958,0.057312,0.090917,62.275024,-7.316162,-134.680984,,,
729860901.124761,30.818005,1.584838,50.816692,-0.023331,0.491089,0.852097,0.634493,0.021351,0.071387,62.275024,-7.316162,-134.680984,,,
729860901.128112,30.818005,1.584838,50.816692,-0.023331,0.491089,0.852097,0.634493,0.021351,0.071387,62.275024,-7.316162,-134.680984,,,
729860901.131432,30.997178,1.577066,50.832308,-0.023331,0.491089,0.852097,0.634493,0.021351,0.071387,62.275024,-7.316162,-134.680984,,,
729860901.134812,31.169046,1.562984,50.842969,-0.021408,0.521057,0.800812,0.584804,-0.039867,0.03999,62.275024,-7.316162,-134.680984,,,
729860901.138111,31.169046,1.562984,50.842969,-0.021408,0.521057,0.800812,0.584804,-0.039867,0.03999,62.275024,-7.316162,-134.680984,,,
729860901.141435,31.332325,1.545777,50.848998,-0.021408,0.521057,0.800812,0.584804,-0.039867,0.03999,62.275024,-7.316162,-134.680984,,,
729860901.144765,31.485095,1.527133,50.851655,-0.016129,0.543869,0.784302,0.512718,-0.06182,0.017475,62.275024,-7.316162,-134.680984,,,
729860901.148187,31.485095,1.527133,50.851655,-0.016129,0.543869,0.784302,0.512718,-0.06182,0.017475,62.275024,-7.316162,-134.680984,,,
729860901.151484,31.627401,1.506287,50.853298,-0.016129,0.543869,0.784302,0.512718,-0.06182,0.017475,62.275024,-7.316162,-134.680984,,,
729860901.154779,31.762075,1.482761,50.85556,-0.021683,0.547043,0.785767,0.459736,-0.078021,0.01918,62.275024,-7.316162,-134.680984,,,
729860901.158107,31.762075,1.482761,50.85556,-0.021683,0.547043,0.785767,0.459736,-0.078021,0.01918,62.243423,-8.1194,-133.900284,,,
729860901.161515,31.893299,1.458086,50.859082,-0.021683,0.547043,0.785767,0.459736,-0.078021,0.01918,62.243423,-8.1194,-133.900284,,,
729860901.16477,32.02383,1.433477,50.86309,-0.022049,0.532135,0.819687,0.455121,-0.075488,0.021421,62.243423,-8.1194,-133.900284,,,
729860901.168235,32.02383,1.433477,50.86309,-0.022049,0.532135,0.819687,0.455121,-0.075488,0.021421,62.243423,-8.1194,-133.900284,,,
729860901.171449,32.155374,1.409656,50.865724,-0.022049,0.532135,0.819687,0.455121,-0.075488,0.021421,62.243423,-8.1194,-133.900284,,,
729860901.174775,32.289136,1.387755,50.866056,-0.018707,0.520035,0.850098,0.471167,-0.070393,0.007802,62.243423,-8.1194,-133.900284,,,
729860901.178126,32.289136,1.387755,50.866056,-0.018707,0.520035,0.850098,0.471167,-0.070393,0.007802,62.243423,-8.1194,-133.900284,,,
729860901.181454,32.425434,1.368883,50.864685,-0.018707,0.520035,0.850098,0.471167,-0.070393,0.007802,62.243423,-8.1194,-133.900284,,,
729860901.184768,32.563544,1.353232,50.863054,-0.021179,0.520782,0.858353,0.48397,-0.048635,0.006295,62.243423,-8.1194,-133.900284,,,
729860901.188101,32.563544,1.353232,50.863054,-0.021179,0.520782,0.858353,0.48397,-0.048635,0.006295,62.243423,-8.1194,-133.900284,,,
729860901.191453,32.702375,1.340757,50.863012,-0.021179,0.520782,0.858353,0.48397,-0.048635,0.006295,62.243423,-8.1194,-133.900284,,,
729860901.194766,32.839864,1.331507,50.865679,-0.024689,0.531967,0.846191,0.474491,-0.015779,0.021609,62.243423,-8.1194,-133.900284,,,
729860901.198166,32.839864,1.331507,50.865679,-0.024689,0.531967,0.846191,0.474491,-0.015779,0.021609,62.120743,-8.778107,-133.192612,,,
729860901.201458,32.971706,1.325472,50.870798,-0.024689,0.531967,0.846191,0.474491,-0.015779,0.021609,62.120743,-8.778107,-133.192612,,,
729860901.204768,33.093456,1.321737,50.878228,-0.022598,0.55394,0.79715,0.404199,0.009323,0.033294,62.120743,-8.778107,-133.192612,,,
729860901.208123,33.093456,1.321737,50.878228,-0.022598,0.55394,0.79715,0.404199,0.009323,0.033294,62.120743,-8.778107,-133.192612,,,
729860901.211546,33.203795,1.317405,50.888138,-0.022598,0.55394,0.79715,0.404199,0.009323,0.033294,62.120743,-8.778107,-133.192612,,,
729860901.214771,33.302758,1.310599,50.899798,-0.019669,0.576538,0.759613,0.325092,-0.000933,0.041426,62.120743,-8.778107,-133.192612,,,
729860901.218109,33.302758,1.310599,50.899798,-0.019669,0.576538,0.759613,0.325092,-0.000933,0.041426,62.120743,-8.778107,-133.192612,,,
729860901.221468,33.392048,1.302672,50.912063,-0.019669,0.576538,0.759613,0.325092,-0.000933,0.041426,62.120743,-8.778107,-133.192612,,,
729860901.224781,33.474067,1.296226,50.924275,-0.019913,0.577332,0.770401,0.27471,0.009494,0.039736,62.120743,-8.778107,-133.192612,,,
729860901.228105,33.474067,1.296226,50.924275,-0.019913,0.577332,0.770401,0.27471,0.009494,0.039736,62.120743,-8.778107,-133.192612,,,
729860901.231457,33.548425,1.293943,50.935913,-0.019913,0.577332,0.770401,0.27471,0.009494,0.039736,62.120743,-8.778107,-133.192612,,,
729860901.234789,33.613981,1.293932,50.94777,-0.01506,0.568939,0.784073,0.213667,0.026484,0.039513,62.120743,-8.778107,-133.192612,,,
729860901.238205,33.613981,1.293932,50.94777,-0.01506,0.568939,0.784073,0.213667,0.026484,0.039513,62.120743,-8.778107,-133.192612,,,
729860901.241459,33.673468,1.294416,50.960503,-0.01506,0.568939,0.784073,0.213667,0.026484,0.039513,61.988693,-9.110962,-132.99617,,,
729860901.244768,33.729579,1.296149,50.973961,-0.014603,0.56308,0.795929,0.190248,0.038242,0.043049,61.988693,-9.110962,-132.99617,,,
729860901.2482,33.729579,1.296149,50.973961,-0.014603,0.56308,0.795929,0.190248,0.038242,0.043049,61.988693,-9.110962,-132.99617,,,
729860901.251446,33.78372,1.300547,50.987853,-0.014603,0.56308,0.795929,0.190248,0.038242,0.043049,61.988693,-9.110962,-132.99617,,,
729860901.254784,33.837245,1.309086,51.002197,-0.01239,0.557663,0.83075,0.186143,0.069118,0.045464,61.988693,-9.110962,-132.99617,,,
729860901.258121,33.837245,1.309086,51.002197,-0.01239,0.557663,0.83075,0.186143,0.069118,0.045464,61.988693,-9.110962,-132.99617,,,
729860901.261515,33.891492,1.323385,51.016702,-0.01239,0.557663,0.83075,0.186143,0.069118,0.045464,61.988693,-9.110962,-132.99617,,,
729860901.264761,33.948131,1.344312,51.030855,-0.017242,0.551865,0.860397,0.203002,0.114145,0.043705,61.988693,-9.110962,-132.99617,,,
729860901.268117,33.948131,1.344312,51.030855,-0.017242,0.551865,0.860397,0.203002,0.114145,0.043705,61.988693,-9.110962,-132.99617,,,
729860901.271438,34.007626,1.369616,51.045019,-0.017242,0.551865,0.860397,0.203002,0.114145,0.043705,61.988693,-9.110962,-132.99617,,,
729860901.27477,34.069443,1.394971,51.058681,-0.018799,0.552689,0.86142,0.219381,0.112808,0.041211,61.988693,-9.110962,-132.99617,,,
729860901.278113,34.069443,1.394971,51.058681,-0.018799,0.552689,0.86142,0.219381,0.112808,0.041211,61.988693,-9.110962,-132.99617,,,
729860901.281437,34.134632,1.415089,51.070556,-0.018799,0.552689,0.86142,0.219381,0.112808,0.041211,62.008148,-9.349426,-132.827759,,,
729860901.28477,34.204536,1.427265,51.079665,-0.020599,0.552917,0.851089,0.252673,0.046854,0.025951,62.008148,-9.349426,-132.827759,,,
729860901.288102,34.204536,1.427265,51.079665,-0.020599,0.552917,0.851089,0.252673,0.046854,0.025951,62.008148,-9.349426,-132.827759,,,
729860901.291449,34.279814,1.433307,51.085345,-0.020599,0.552917,0.851089,0.252673,0.046854,0.025951,62.008148,-9.349426,-132.827759,,,
729860901.294772,34.360662,1.435888,51.088082,-0.026505,0.551224,0.862946,0.291955,0.011376,0.009828,62.008148,-9.349426,-132.827759,,,
729860901.298176,34.360662,1.435888,51.088082,-0.026505,0.551224,0.862946,0.291955,0.011376,0.009828,62.008148,-9.349426,-132.827759,,,
729860901.301445,34.445794,1.435813,51.089846,-0.026505,0.551224,0.862946,0.291955,0.011376,0.009828,62.008148,-9.349426,-132.827759,,,
729860901.304776,34.534137,1.431218,51.092941,-0.03418,0.553879,0.86557,0.314326,-0.014646,0.017896,62.008148,-9.349426,-132.827759,,,
729860901.308121,34.534137,1.431218,51.092941,-0.03418,0.553879,0.86557,0.314326,-0.014646,0.017896,62.008148,-9.349426,-132.827759,,,
729860901.311522,34.625559,1.421594,51.099222,-0.03418,0.553879,0.86557,0.314326,-0.014646,0.017896,62.008148,-9.349426,-132.827759,,,
729860901.31477,34.719086,1.408745,51.110347,-0.0392,0.559036,0.85762,0.32855,-0.01763,0.045805,62.008148,-9.349426,-132.827759,,,
729860901.318125,34.719086,1.408745,51.110347,-0.0392,0.559036,0.85762,0.32855,-0.01763,0.045805,62.008148,-9.349426,-132.827759,,,
729860901.321443,34.815991,1.395303,51.125706,-0.0392,0.559036,0.85762,0.32855,-0.01763,0.045805,62.226257,-10.003387,-132.323044,,,
729860901.324778,34.917339,1.381456,51.14538,-0.039368,0.560196,0.87207,0.359244,-0.002998,0.070769,62.226257,-10.003387,-132.323044,,,
729860901.328117,34.917339,1.381456,51.14538,-0.039368,0.560196,0.87207,0.359244,-0.002998,0.070769,62.226257,-10.003387,-132.323044,,,
729860901.33146,35.023755,1.365459,51.169853,-0.039368,0.560196,0.87207,0.359244,-0.002998,0.070769,62.226257,-10.003387,-132.323044,,,
729860901.334784,35.136678,1.345435,51.199439,-0.039474,0.555832,0.881317,0.404101,-0.010198,0.100356,62.226257,-10.003387,-132.323044,,,
729860901.338115,35.136678,1.345435,51.199439,-0.039474,0.555832,0.881317,0.404101,-0.010198,0.100356,62.226257,-10.003387,-132.323044,,,
729860901.34146,35.259959,1.320394,51.233783,-0.039474,0.555832,0.881317,0.404101,-0.010198,0.100356,62.226257,-10.003387,-132.323044,,,
729860901.344779,35.39634,1.290249,51.271086,-0.035095,0.546951,0.901077,0.495316,-0.033203,0.118402,62.226257,-10.003387,-132.323044,,,
729860901.348104,35.39634,1.290249,51.271086,-0.035095,0.546951,0.901077,0.495316,-0.033203,0.118402,62.226257,-10.003387,-132.323044,,,
729860901.351512,35.544772,1.255981,51.3094,-0.035095,0.546951,0.901077,0.495316,-0.033203,0.118402,62.226257,-10.003387,-132.323044,,,
729860901.354772,35.704504,1.218658,51.347983,-0.027527,0.547211,0.906097,0.57439,-0.052655,0.120389,62.226257,-10.003387,-132.323044,,,
729860901.358128,35.704504,1.218658,51.347983,-0.027527,0.547211,0.906097,0.57439,-0.052655,0.120389,62.226257,-10.003387,-132.323044,,,
729860901.36145,35.874948,1.179554,51.386813,-0.027527,0.547211,0.906097,0.57439,-0.052655,0.120389,62.226257,-10.003387,-132.323044,,,
729860901.364774,36.055271,1.13928,51.426268,-0.020264,0.555786,0.899155,0.64334,-0.057395,0.123793,61.88382,-10.453781,-131.7155,,,
729860901.368122,36.055271,1.13928,51.426268,-0.020264,0.555786,0.899155,0.64334,-0.057395,0.123793,61.88382,-10.453781,-131.7155,,,
729860901.371452,36.244115,1.098511,51.466716,-0.020264,0.555786,0.899155,0.64334,-0.057395,0.123793,61.88382,-10.453781,-131.7155,,,
729860901.374779,36.439713,1.058176,51.508287,-0.01387,0.569214,0.883194,0.690782,-0.048802,0.12931,61.88382,-10.453781,-131.7155,,,
729860901.378183,36.439713,1.058176,51.508287,-0.01387,0.569214,0.883194,0.690782,-0.048802,0.12931,61.88382,-10.453781,-131.7155,,,
729860901.381442,36.640124,1.020426,51.549307,-0.01387,0.569214,0.883194,0.690782,-0.048802,0.12931,61.88382,-10.453781,-131.7155,,,
729860901.38477,36.842852,0.987114,51.588965,-0.003555,0.585312,0.864349,0.707606,-0.022593,0.120308,61.88382,-10.453781,-131.7155,,,
729860901.388101,36.842852,0.987114,51.588965,-0.003555,0.585312,0.864349,0.707606,-0.022593,0.120308,61.88382,-10.453781,-131.7155,,,
729860901.391487,37.048149,0.959395,51.627836,-0.003555,0.585312,0.864349,0.707606,-0.022593,0.120308,61.88382,-10.453781,-131.7155,,,
729860901.394767,37.259451,0.937003,51.664958,0.00972,0.590851,0.86705,0.750484,0.008145,0.109917,61.88382,-10.453781,-131.7155,,,
729860901.398116,37.259451,0.937003,51.664958,0.00972,0.590851,0.86705,0.750484,0.008145,0.109917,61.88382,-10.453781,-131.7155,,,
729860901.401443,37.479806,0.917675,51.699235,0.00972,0.590851,0.86705,0.750484,0.008145,0.109917,61.88382,-10.453781,-131.7155,,,
729860901.40477,37.709539,0.898644,51.729501,0.010788,0.590302,0.870178,0.816729,-0.005849,0.087576,61.845062,-11.213638,-130.379074,,,
729860901.408122,37.709539,0.898644,51.729501,0.010788,0.590302,0.870178,0.816729,-0.005849,0.087576,61.845062,-11.213638,-130.379074,,,
729860901.411432,37.949049,0.87808,51.754883,0.010788,0.590302,0.870178,0.816729,-0.005849,0.087576,61.845062,-11.213638,-130.379074,,,
729860901.414777,38.199947,0.856547,51.775874,0.007843,0.589691,0.870728,0.896934,-0.0307,0.063338,61.845062,-11.213638,-130.379074,,,
729860901.418216,38.199947,0.856547,51.775874,0.007843,0.589691,0.870728,0.896934,-0.0307,0.063338,61.845062,-11.213638,-130.379074,,,
729860901.421458,38.466384,0.83628,51.793491,0.007843,0.589691,0.870728,0.896934,-0.0307,0.063338,61.845062,-11.213638,-130.379074,,,
729860901.424782,38.752449,0.818009,51.810524,0.0056,0.566086,0.912567,1.034284,-0.018662,0.060855,61.845062,-11.213638,-130.379074,,,
729860901.42819,38.752449,0.818009,51.810524,0.0056,0.566086,0.912567,1.034284,-0.018662,0.060855,61.845062,-11.213638,-130.379074,,,
729860901.431452,39.059918,0.800162,51.82875,0.0056,0.566086,0.912567,1.034284,-0.018662,0.060855,61.845062,-11.213638,-130.379074,,,
729860901.434815,39.388664,0.777285,51.849228,-0.00296,0.541016,0.933075,1.182621,-0.042943,0.073579,61.845062,-11.213638,-130.379074,,,
729860901.438117,39.388664,0.777285,51.849228,-0.00296,0.541016,0.933075,1.182621,-0.042943,0.073579,61.845062,-11.213638,-130.379074,,,
729860901.4415,39.740287,0.745732,51.870261,-0.00296,0.541016,0.933075,1.182621,-0.042943,0.073579,61.845062,-11.213638,-130.379074,,,
729860901.444764,40.115491,0.707257,51.887195,0.002197,0.549973,0.916611,1.347976,-0.108483,0.051432,61.589066,-12.912979,-129.065094,,,
729860901.448122,40.115491,0.707257,51.887195,0.002197,0.549973,0.916611,1.347976,-0.108483,0.051432,61.589066,-12.912979,-129.065094,,,
729860901.451494,40.514111,0.668675,51.895496,0.002197,0.549973,0.916611,1.347976,-0.108483,0.051432,61.589066,-12.912979,-129.065094,,,
729860901.454774,40.936244,0.63624,51.893067,0.026505,0.561432,0.923508,1.513406,-0.113733,-0.005533,61.589066,-12.912979,-129.065094,,,
729860901.458126,40.936244,0.63624,51.893067,0.026505,0.561432,0.923508,1.513406,-0.113733,-0.005533,61.589066,-12.912979,-129.065094,,,
729860901.461451,41.381678,0.611327,51.879813,0.026505,0.561432,0.923508,1.513406,-0.113733,-0.005533,61.589066,-12.912979,-129.065094,,,
729860901.464771,41.84422,0.593285,51.855945,0.045319,0.568008,0.908524,1.634141,-0.115204,-0.0606,61.589066,-12.912979,-129.065094,,,
729860901.468178,41.84422,0.593285,51.855945,0.045319,0.568008,0.908524,1.634141,-0.115204,-0.0606,61.589066,-12.912979,-129.065094,,,
729860901.471451,42.317048,0.580909,51.822249,0.045319,0.568008,0.908524,1.634141,-0.115204,-0.0606,61.589066,-12.912979,-129.065094,,,
729860901.474774,42.797429,0.5735,51.780818,0.049896,0.610443,0.831726,1.687724,-0.117996,-0.099309,61.589066,-12.912979,-129.065094,,,
729860901.478101,42.797429,0.5735,51.780818,0.049896,0.610443,0.831726,1.687724,-0.117996,-0.099309,61.589066,-12.912979,-129.065094,,,
729860901.481531,43.282696,0.572461,51.733903,0.049896,0.610443,0.831726,1.687724,-0.117996,-0.099309,61.589066,-12.912979,-129.065094,,,
729860901.484851,43.769406,0.576037,51.685079,0.048294,0.638992,0.782669,1.699298,-0.096539,-0.107261,61.619461,-14.833145,-126.678848,,,
729860901.488117,43.769406,0.576037,51.685079,0.048294,0.638992,0.782669,1.699298,-0.096539,-0.107261,61.619461,-14.833145,-126.678848,,,
729860901.491456,44.256002,0.584817,51.636331,0.048294,0.638992,0.782669,1.699298,-0.096539,-0.107261,61.619461,-14.833145,-126.678848,,,
729860901.49478,44.738049,0.59968,51.589158,0.033569,0.650314,0.727753,1.669033,-0.048017,-0.097485,61.619461,-14.833145,-126.678848,,,
729860901.498136,44.738049,0.59968,51.589158,0.033569,0.650314,0.727753,1.669033,-0.048017,-0.097485,61.619461,-14.833145,-126.678848,,,
729860901.501514,45.210306,0.620305,51.545032,0.033569,0.650314,0.727753,1.669033,-0.048017,-0.097485,61.619461,-14.833145,-126.678848,,,
729860901.504762,45.66673,0.643535,51.504722,0.02475,0.693893,0.640442,1.560678,-0.012197,-0.077506,61.619461,-14.833145,-126.678848,,,
729860901.508187,45.66673,0.643535,51.504722,0.02475,0.693893,0.640442,1.560678,-0.012197,-0.077506,61.619461,-14.833145,-126.678848,,,
729860901.511452,46.102994,0.665771,51.468853,0.02475,0.693893,0.640442,1.560678,-0.012197,-0.077506,61.619461,-14.833145,-126.678848,,,
729860901.514799,46.514938,0.688569,51.437589,0.019562,0.742096,0.558502,1.392371,0.01405,-0.055297,61.619461,-14.833145,-126.678848,,,
729860901.518164,46.514938,0.688569,51.437589,0.019562,0.742096,0.558502,1.392371,0.01405,-0.055297,61.619461,-14.833145,-126.678848,,,
729860901.521468,46.904032,0.715057,51.408413,0.019562,0.742096,0.558502,1.392371,0.01405,-0.055297,61.619461,-14.833145,-126.678848,,,
729860901.524806,47.274183,0.745025,51.377959,0.024246,0.755966,0.538467,1.261737,0.03128,-0.061137,61.619461,-14.833145,-126.678848,,,
729860901.52813,47.274183,0.745025,51.377959,0.024246,0.755966,0.538467,1.261737,0.03128,-0.061137,61.83287,-16.840515,-124.749481,,,
729860901.531449,47.626762,0.774297,51.343951,0.024246,0.755966,0.538467,1.261737,0.03128,-0.061137,61.83287,-16.840515,-124.749481,,,
729860901.534864,47.961246,0.796817,51.30561,0.017258,0.7509,0.514542,1.137072,-0.038661,-0.081361,61.83287,-16.840515,-124.749481,,,
729860901.538115,47.961246,0.796817,51.30561,0.017258,0.7509,0.514542,1.137072,-0.038661,-0.081361,61.83287,-16.840515,-124.749481,,,
729860901.541448,48.280994,0.812799,51.260863,0.017258,0.7509,0.514542,1.137072,-0.038661,-0.081361,61.83287,-16.840515,-124.749481,,,
729860901.544816,48.590325,0.822496,51.210379,0.001312,0.742615,0.52504,1.06529,-0.113133,-0.107469,61.83287,-16.840515,-124.749481,,,
729860901.548174,48.590325,0.822496,51.210379,0.001312,0.742615,0.52504,1.06529,-0.113133,-0.107469,61.83287,-16.840515,-124.749481,,,
729860901.551486,48.892069,0.826998,51.155049,0.001312,0.742615,0.52504,1.06529,-0.113133,-0.107469,61.83287,-16.840515,-124.749481,,,
729860901.554843,49.189247,0.82855,51.098148,-0.001068,0.722473,0.567032,1.034188,-0.143053,-0.113891,61.83287,-16.840515,-124.749481,,,
729860901.558113,49.189247,0.82855,51.098148,-0.001068,0.722473,0.567032,1.034188,-0.143053,-0.113891,61.83287,-16.840515,-124.749481,,,
729860901.561491,49.485504,0.830202,51.043375,-0.001068,0.722473,0.567032,1.034188,-0.143053,-0.113891,61.83287,-16.840515,-124.749481,,,
729860901.564771,49.782325,0.835837,50.99214,-0.001007,0.70163,0.618744,1.038464,-0.097605,-0.096623,61.83287,-16.840515,-124.749481,,,
729860901.568201,49.782325,0.835837,50.99214,-0.001007,0.70163,0.618744,1.038464,-0.097605,-0.096623,62.165787,-18.315399,-122.933563,,,
729860901.571426,50.078474,0.849142,50.94619,-0.001007,0.70163,0.618744,1.038464,-0.097605,-0.096623,62.165787,-18.315399,-122.933563,,,
729860901.574787,50.370492,0.870988,50.905948,-0.001465,0.703552,0.629791,1.010431,-0.00832,-0.070026,62.165787,-18.315399,-122.933563,,,
729860901.578114,50.370492,0.870988,50.905948,-0.001465,0.703552,0.629791,1.010431,-0.00832,-0.070026,62.165787,-18.315399,-122.933563,,,
729860901.581456,50.657841,0.899152,50.87006,-0.001465,0.703552,0.629791,1.010431,-0.00832,-0.070026,62.165787,-18.315399,-122.933563,,,
729860901.584816,50.939783,0.930169,50.836453,0.000717,0.734955,0.597961,0.973251,0.023327,-0.058897,62.165787,-18.315399,-122.933563,,,
729860901.588168,50.939783,0.930169,50.836453,0.000717,0.734955,0.597961,0.973251,0.023327,-0.058897,62.165787,-18.315399,-122.933563,,,
729860901.591433,51.216361,0.964207,50.801764,0.000717,0.734955,0.597961,0.973251,0.023327,-0.058897,62.165787,-18.315399,-122.933563,,,
729860901.594779,51.487971,1.006191,50.761938,0.001892,0.753555,0.583435,0.939717,0.050243,-0.079958,62.165787,-18.315399,-122.933563,,,
729860901.598104,51.487971,1.006191,50.761938,0.001892,0.753555,0.583435,0.939717,0.050243,-0.079958,62.165787,-18.315399,-122.933563,,,
729860901.601515,51.753458,1.057764,50.716925,0.001892,0.753555,0.583435,0.939717,0.050243,-0.079958,62.165787,-18.315399,-122.933563,,,
729860901.604773,52.010152,1.116496,50.669757,-0.011703,0.767899,0.570221,0.879411,0.087641,-0.087787,62.165787,-18.315399,-122.933563,,,
729860901.608113,52.010152,1.116496,50.669757,-0.011703,0.767899,0.570221,0.879411,0.087641,-0.087787,62.206451,-19.479965,-121.259888,,,
729860901.61144,52.255292,1.177266,50.622537,-0.011703,0.767899,0.570221,0.879411,0.087641,-0.087787,62.206451,-19.479965,-121.259888,,,
729860901.614853,52.487721,1.231165,50.578134,-0.034912,0.792587,0.526321,0.790983,0.054675,-0.075113,62.206451,-19.479965,-121.259888,,,
729860901.618179,52.487721,1.231165,50.578134,-0.034912,0.792587,0.526321,0.790983,0.054675,-0.075113,62.206451,-19.479965,-121.259888,,,
729860901.621445,52.708452,1.277031,50.535588,-0.034912,0.792587,0.526321,0.790983,0.054675,-0.075113,62.206451,-19.479965,-121.259888,,,
729860901.62478,52.916994,1.319006,50.493113,-0.03714,0.812286,0.50267,0.706702,0.027514,-0.07494,62.206451,-19.479965,-121.259888,,,
729860901.627958,52.916994,1.319006,50.493113,-0.03714,0.812286,0.50267,0.706702,0.027514,-0.07494,62.206451,-19.479965,-121.259888,,,
729860901.631481,53.111882,1.360764,50.448732,-0.03714,0.812286,0.50267,0.706702,0.027514,-0.07494,62.206451,-19.479965,-121.259888,,,
729860901.634888,53.291942,1.402014,50.401502,-0.03154,0.832489,0.496948,0.604315,0.007689,-0.087766,62.206451,-19.479965,-121.259888,,,
729860901.638176,53.291942,1.402014,50.401502,-0.03154,0.832489,0.496948,0.604315,0.007689,-0.087766,62.206451,-19.479965,-121.259888,,,
729860901.641453,53.45722,1.441543,50.350932,-0.03154,0.832489,0.496948,0.604315,0.007689,-0.087766,62.206451,-19.479965,-121.259888,,,
729860901.644847,53.607728,1.476495,50.29825,-0.035812,0.837097,0.485504,0.502375,-0.036443,-0.097902,62.206451,-19.479965,-121.259888,,,
729860901.648107,53.607728,1.476495,50.29825,-0.035812,0.837097,0.485504,0.502375,-0.036443,-0.097902,62.380219,-19.860535,-120.334579,,,
729860901.651563,53.744658,1.507311,50.244241,-0.035812,0.837097,0.485504,0.502375,-0.036443,-0.097902,62.380219,-19.860535,-120.334579,,,
729860901.654864,53.869488,1.539944,50.189733,-0.048126,0.837616,0.498734,0.418707,-0.026913,-0.101214,62.380219,-19.860535,-120.334579,,,
729860901.65812,53.869488,1.539944,50.189733,-0.048126,0.837616,0.498734,0.418707,-0.026913,-0.101214,62.380219,-19.860535,-120.334579,,,
729860901.661456,53.983068,1.580108,50.138262,-0.048126,0.837616,0.498734,0.418707,-0.026913,-0.101214,62.380219,-19.860535,-120.334579,,,
729860901.664813,54.085987,1.628873,50.093457,-0.050018,0.827957,0.52948,0.344243,0.070372,-0.075094,62.380219,-19.860535,-120.334579,,,
729860901.668102,54.085987,1.628873,50.093457,-0.050018,0.827957,0.52948,0.344243,0.070372,-0.075094,62.380219,-19.860535,-120.334579,,,
729860901.671445,54.176682,1.680524,50.05805,-0.050018,0.827957,0.52948,0.344243,0.070372,-0.075094,62.380219,-19.860535,-120.334579,,,
729860901.674765,54.176682,1.680524,50.05805,-0.062225,0.828735,0.497192,0.238623,0.089121,-0.028598,62.380219,-19.860535,-120.334579,,,
729860901.678201,54.252347,1.725111,50.034673,-0.062225,0.828735,0.497192,0.238623,0.089121,-0.028598,62.380219,-19.860535,-120.334579,,,
729860901.681472,54.315069,1.756617,50.022721,-0.062225,0.828735,0.497192,0.238623,0.089121,-0.028598,62.380219,-19.860535,-120.334579,,,
729860901.684946,54.370227,1.775303,50.019125,-0.079086,0.825195,0.482651,0.185318,0.047216,0.003729,62.380219,-19.860535,-120.334579,,,
729860901.688113,54.370227,1.775303,50.019125,-0.079086,0.825195,0.482651,0.185318,0.047216,0.003729,62.380219,-19.860535,-120.334579,,,
729860901.69151,54.423508,1.783466,50.021755,-0.079086,0.825195,0.482651,0.185318,0.047216,0.003729,62.654434,-20.258514,-119.919907,,,
729860901.694762,54.423508,1.783466,50.021755,-0.087708,0.795181,0.547379,0.194624,0.028124,0.028618,62.654434,-20.258514,-119.919907,,,
729860901.698131,54.478164,1.783887,50.030479,-0.087708,0.795181,0.547379,0.194624,0.028124,0.028618,62.654434,-20.258514,-119.919907,,,
729860901.701494,54.536089,1.77616,50.046866,-0.087708,0.795181,0.547379,0.194624,0.028124,0.028618,62.654434,-20.258514,-119.919907,,,
729860901.704775,54.536089,1.77616,50.046866,-0.083298,0.773804,0.587051,0.228336,0.003604,0.062855,62.654434,-20.258514,-119.919907,,,
729860901.708116,54.598946,1.758112,50.071554,-0.083298,0.773804,0.587051,0.228336,0.003604,0.062855,62.654434,-20.258514,-119.919907,,,
729860901.711448,54.668514,1.730289,50.104804,-0.083298,0.773804,0.587051,0.228336,0.003604,0.062855,62.654434,-20.258514,-119.919907,,,
729860901.714783,54.668514,1.730289,50.104804,-0.083298,0.773804,0.587051,0.269068,-0.010479,0.10398,62.654434,-20.258514,-119.919907,,,
729860901.718181,54.744046,1.692172,50.148134,-0.078308,0.771759,0.603195,0.269068,-0.010479,0.10398,62.654434,-20.258514,-119.919907,,,
729860901.721439,54.82361,1.64444,50.199379,-0.078308,0.771759,0.603195,0.269068,-0.010479,0.10398,62.654434,-20.258514,-119.919907,,,
729860901.724814,54.82361,1.64444,50.199379,-0.078308,0.771759,0.603195,0.283301,-0.048942,0.11376,62.654434,-20.258514,-119.919907,,,
729860901.728162,54.9052,1.588982,50.253255,-0.06337,0.789276,0.588303,0.283301,-0.048942,0.11376,62.654434,-20.258514,-119.919907,,,
729860901.731505,54.987461,1.527405,50.305008,-0.06337,0.789276,0.588303,0.283301,-0.048942,0.11376,62.427933,-20.427795,-119.269302,,,
729860901.734823,54.987461,1.527405,50.305008,-0.06337,0.789276,0.588303,0.279979,-0.10476,0.088949,62.427933,-20.427795,-119.269302,,,
729860901.738107,55.069075,1.462583,50.350877,-0.041779,0.813217,0.561722,0.279979,-0.10476,0.088949,62.427933,-20.427795,-119.269302,,,
729860901.741453,55.150373,1.397771,50.389621,-0.041779,0.813217,0.561722,0.279979,-0.10476,0.088949,62.427933,-20.427795,-119.269302,,,
729860901.744788,55.150373,1.397771,50.389621,-0.041779,0.813217,0.561722,0.295138,-0.114024,0.068593,62.427933,-20.427795,-119.269302,,,
729860901.748119,55.233713,1.335636,50.423434,-0.02626,0.821869,0.584579,0.295138,-0.114024,0.068593,62.427933,-20.427795,-119.269302,,,
729860901.75151,55.322986,1.278731,50.455679,-0.02626,0.821869,0.584579,0.295138,-0.114024,0.068593,62.427933,-20.427795,-119.269302,,,
729860901.754763,55.322986,1.278731,50.455679,-0.02626,0.821869,0.584579,0.295138,-0.114024,0.068593,62.427933,-20.427795,-119.269302,,,
729860901.758196,55.42135,1.228891,50.489787,-0.024612,0.807724,0.650131,0.358742,-0.053966,0.076305,62.427933,-20.427795,-119.269302,,,
729860901.761432,55.529165,1.18723,50.526168,-0.024612,0.807724,0.650131,0.358742,-0.053966,0.076305,62.427933,-20.427795,-119.269302,,,
729860901.764777,55.529165,1.18723,50.526168,-0.024612,0.807724,0.650131,0.358742,-0.053966,0.076305,62.427933,-20.427795,-119.269302,,,
729860901.768155,55.645452,1.151212,50.56465,-0.018829,0.802658,0.676361,0.418249,-0.002046,0.084853,62.427933,-20.427795,-119.269302,,,
729860901.771435,55.769682,1.120203,50.60308,-0.018829,0.802658,0.676361,0.418249,-0.002046,0.084853,61.987366,-20.79834,-118.5746,,,
729860901.774785,55.769682,1.120203,50.60308,-0.018829,0.802658,0.676361,0.418249,-0.002046,0.084853,61.987366,-20.79834,-118.5746,,,
729860901.778113,55.901168,1.09653,50.637649,-0.007675,0.815262,0.657501,0.469616,0.027306,0.069736,61.987366,-20.79834,-118.5746,,,
729860901.781475,56.036757,1.083312,50.664522,-0.007675,0.815262,0.657501,0.469616,0.027306,0.069736,61.987366,-20.79834,-118.5746,,,
729860901.784845,56.036757,1.083312,50.664522,-0.007675,0.815262,0.657501,0.469616,0.027306,0.069736,61.987366,-20.79834,-118.5746,,,
729860901.788116,56.174205,1.078868,50.684931,0.000137,0.836273,0.630493,0.483459,0.051406,0.044229,61.987366,-20.79834,-118.5746,,,
729860901.791434,56.314176,1.079085,50.702565,0.000137,0.836273,0.630493,0.483459,0.051406,0.044229,61.987366,-20.79834,-118.5746,,,
729860901.79487,56.314176,1.079085,50.702565,0.000137,0.836273,0.630493,0.483459,0.051406,0.044229,61.987366,-20.79834,-118.5746,,,
729860901.798156,56.456929,1.08101,50.72065,-0.01059,0.846344,0.615829,0.503303,0.066353,0.046048,61.987366,-20.79834,-118.5746,,,
729860901.801507,56.602914,1.082304,50.741721,-0.01059,0.846344,0.615829,0.503303,0.066353,0.046048,61.987366,-20.79834,-118.5746,,,
729860901.804831,56.602914,1.082304,50.741721,-0.01059,0.846344,0.615829,0.503303,0.066353,0.046048,61.987366,-20.79834,-118.5746,,,
729860901.80811,56.751473,1.083634,50.765939,-0.02179,0.842651,0.607895,0.521531,0.085284,0.058013,61.987366,-20.79834,-118.5746,,,
729860901.811224,56.90294,1.082507,50.796738,-0.02179,0.842651,0.607895,0.521531,0.085284,0.058013,61.987366,-20.79834,-118.5746,,,
729860901.814914,56.90294,1.082507,50.796738,-0.02179,0.842651,0.607895,0.521531,0.085284,0.058013,62.404785,-21.372559,-117.710114,,,
729860901.818091,57.057331,1.075616,50.836892,-0.032425,0.83992,0.605301,0.541697,0.100149,0.093145,62.404785,-21.372559,-117.710114,,,
729860901.821468,57.216523,1.058451,50.88802,-0.032425,0.83992,0.605301,0.541697,0.100149,0.093145,62.404785,-21.372559,-117.710114,,,
729860901.824804,57.216523,1.058451,50.88802,-0.032425,0.83992,0.605301,0.541697,0.100149,0.093145,62.404785,-21.372559,-117.710114,,,
729860901.827991,57.383463,1.025976,50.950108,-0.048553,0.840683,0.603745,0.595876,0.058502,0.133964,62.404785,-21.372559,-117.710114,,,
729860901.831464,57.55916,0.979698,51.017803,-0.048553,0.840683,0.603745,0.595876,0.058502,0.133964,62.404785,-21.372559,-117.710114,,,
729860901.834868,57.55916,0.979698,51.017803,-0.048553,0.840683,0.603745,0.595876,0.058502,0.133964,62.404785,-21.372559,-117.710114,,,
729860901.838138,57.742929,0.922078,51.087657,-0.041687,0.837341,0.602097,0.652596,-0.007066,0.14033,62.404785,-21.372559,-117.710114,,,
729860901.841459,57.934068,0.85607,51.157879,-0.041687,0.837341,0.602097,0.652596,-0.007066,0.14033,62.404785,-21.372559,-117.710114,,,
729860901.844773,57.934068,0.85607,51.157879,-0.041687,0.837341,0.602097,0.652596,-0.007066,0.14033,62.404785,-21.372559,-117.710114,,,
729860901.848117,58.132163,0.782503,51.228688,-0.029602,0.8414,0.595871,0.701963,-0.055267,0.140021,62.404785,-21.372559,-117.710114,,,
729860901.851537,58.337692,0.70014,51.301695,-0.029602,0.8414,0.595871,0.701963,-0.055267,0.140021,62.404785,-21.372559,-117.710114,,,
729860901.854798,58.337692,0.70014,51.301695,-0.029602,0.8414,0.595871,0.701963,-0.055267,0.140021,61.92157,-21.589996,-116.287735,,,
729860901.858133,58.548674,0.606727,51.382496,-0.037277,0.849655,0.591721,0.740857,-0.084779,0.165029,61.92157,-21.589996,-116.287735,,,
729860901.861451,58.764938,0.5039,51.476164,-0.037277,0.849655,0.591721,0.740857,-0.084779,0.165029,61.92157,-21.589996,-116.287735,,,
729860901.864924,58.764938,0.5039,51.476164,-0.037277,0.849655,0.591721,0.740857,-0.084779,0.165029,61.92157,-21.589996,-116.287735,,,
729860901.868148,58.988475,0.395532,51.582454,-0.042236,0.835327,0.596405,0.792185,-0.046631,0.205772,61.92157,-21.589996,-116.287735,,,
729860901.871447,59.218737,0.283259,51.699595,-0.042236,0.835327,0.596405,0.792185,-0.046631,0.205772,61.92157,-21.589996,-116.287735,,,
729860901.874778,59.218737,0.283259,51.699595,-0.042236,0.835327,0.596405,0.792185,-0.046631,0.205772,61.92157,-21.589996,-116.287735,,,
729860901.878163,59.453068,0.165508,51.825561,-0.018524,0.84024,0.579041,0.822023,-0.030033,0.2311,61.92157,-21.589996,-116.287735,,,
729860901.881438,59.691156,0.037357,51.959408,-0.018524,0.84024,0.579041,0.822023,-0.030033,0.2311,61.92157,-21.589996,-116.287735,,,
729860901.884855,59.691156,0.037357,51.959408,-0.018524,0.84024,0.579041,0.822023,-0.030033,0.2311,61.92157,-21.589996,-116.287735,,,
729860901.888129,59.932207,-0.104661,52.099043,-0.017792,0.855591,0.531631,0.84437,-0.089812,0.243904,61.92157,-21.589996,-116.287735,,,
729860901.891517,60.17505,-0.259945,52.241476,-0.017792,0.855591,0.531631,0.84437,-0.089812,0.243904,61.92157,-21.589996,-116.287735,,,
729860901.894772,60.17505,-0.259945,52.241476,-0.017792,0.855591,0.531631,0.84437,-0.089812,0.243904,61.636917,-22.188553,-115.011765,,,
729860901.89811,60.419213,-0.423184,52.38391,-0.013229,0.855759,0.504517,0.855494,-0.143145,0.235287,61.636917,-22.188553,-115.011765,,,
729860901.901509,60.665357,-0.587492,52.524203,-0.013229,0.855759,0.504517,0.855494,-0.143145,0.235287,61.636917,-22.188553,-115.011765,,,
729860901.90481,60.665357,-0.587492,52.524203,-0.013229,0.855759,0.504517,0.855494,-0.143145,0.235287,61.636917,-22.188553,-115.011765,,,
729860901.908124,60.913156,-0.752507,52.663789,0.01651,0.850403,0.510391,0.868606,-0.150194,0.223893,61.636917,-22.188553,-115.011765,,,
729860901.91146,61.160717,-0.920758,52.803763,0.01651,0.850403,0.510391,0.868606,-0.150194,0.223893,61.636917,-22.188553,-115.011765,,,
729860901.914883,61.160717,-0.920758,52.803763,0.01651,0.850403,0.510391,0.868606,-0.150194,0.223893,61.636917,-22.188553,-115.011765,,,
729860901.918126,61.40429,-1.092145,52.944264,0.014664,0.865082,0.476868,0.842849,-0.1667,0.217226,61.636917,-22.188553,-115.011765,,,
729860901.92146,61.642317,-1.263113,53.084075,0.014664,0.865082,0.476868,0.842849,-0.1667,0.217226,61.636917,-22.188553,-115.011765,,,
729860901.924877,61.642317,-1.263113,53.084075,0.014664,0.865082,0.476868,0.842849,-0.1667,0.217226,61.636917,-22.188553,-115.011765,,,
729860901.928203,61.874915,-1.424939,53.218423,0.030106,0.880798,0.452026,0.806294,-0.134646,0.191602,61.636917,-22.188553,-115.011765,,,
729860901.931462,62.099701,-1.569695,53.341823,0.030106,0.880798,0.452026,0.806294,-0.134646,0.191602,61.636917,-22.188553,-115.011765,,,
729860901.934853,62.099701,-1.569695,53.341823,0.030106,0.880798,0.452026,0.806294,-0.134646,0.191602,61.218796,-22.759521,-113.341537,,,
729860901.938126,62.314459,-1.699323,53.455387,0.053329,0.893753,0.435959,0.737354,-0.088258,0.154944,61.218796,-22.759521,-113.341537,,,
729860901.941529,62.520939,-1.816325,53.561831,0.053329,0.893753,0.435959,0.737354,-0.088258,0.154944,61.218796,-22.759521,-113.341537,,,
729860901.944786,62.520939,-1.816325,53.561831,0.053329,0.893753,0.435959,0.737354,-0.088258,0.154944,61.218796,-22.759521,-113.341537,,,
729860901.948112,62.720308,-1.91961,53.660516,0.048019,0.908127,0.420151,0.688165,-0.039445,0.126442,61.218796,-22.759521,-113.341537,,,
729860901.951491,62.913072,-2.008056,53.751002,0.048019,0.908127,0.420151,0.688165,-0.039445,0.126442,61.218796,-22.759521,-113.341537,,,
729860901.954772,62.913072,-2.008056,53.751002,0.048019,0.908127,0.420151,0.688165,-0.039445,0.126442,61.218796,-22.759521,-113.341537,,,
729860901.958122,63.099819,-2.0804,53.831544,0.054718,0.899506,0.422119,0.646064,0.011986,0.092581,61.218796,-22.759521,-113.341537,,,
729860901.961458,63.282656,-2.139125,53.903052,0.054718,0.899506,0.422119,0.646064,0.011986,0.092581,61.218796,-22.759521,-113.341537,,,
729860901.964861,63.282656,-2.139125,53.903052,0.054718,0.899506,0.422119,0.646064,0.011986,0.092581,61.218796,-22.759521,-113.341537,,,
729860901.968161,63.46269,-2.190858,53.969347,0.047867,0.880493,0.429291,0.62665,0.028967,0.074224,61.218796,-22.759521,-113.341537,,,
729860901.971473,63.641956,-2.241991,54.034369,0.047867,0.880493,0.429291,0.62665,0.028967,0.074224,61.218796,-22.759521,-113.341537,,,
729860901.974781,63.641956,-2.241991,54.034369,0.047867,0.880493,0.429291,0.62665,0.028967,0.074224,61.218796,-22.759521,-113.341537,,,
729860901.978186,63.823118,-2.296762,54.101981,0.032776,0.85611,0.437332,0.640582,0.020441,0.079018,60.864975,-23.032761,-111.909851,,,
729860901.981449,64.007865,-2.358392,54.174479,0.032776,0.85611,0.437332,0.640582,0.020441,0.079018,60.864975,-23.032761,-111.909851,,,
729860901.984834,64.007865,-2.358392,54.174479,0.032776,0.85611,0.437332,0.640582,0.020441,0.079018,60.864975,-23.032761,-111.909851,,,
729860901.988125,64.194025,-2.427898,54.253276,0.02861,0.837845,0.443634,0.652146,0.005953,0.0947,60.864975,-23.032761,-111.909851,,,
729860901.991525,64.378243,-2.505182,54.338318,0.02861,0.837845,0.443634,0.652146,0.005953,0.0947,60.864975,-23.032761,-111.909851,,,
729860901.994776,64.378243,-2.505182,54.338318,0.02861,0.837845,0.443634,0.652146,0.005953,0.0947,60.864975,-23.032761,-111.909851,,,
729860901.998128,64.556458,-2.593496,54.428942,0.025909,0.851471,0.40036,0.612127,-0.034821,0.109622,60.864975,-23.032761,-111.909851,,,
729860902.001559,64.723877,-2.695079,54.523563,0.025909,0.851471,0.40036,0.612127,-0.034821,0.109622,60.864975,-23.032761,-111.909851,,,
729860902.004838,64.723877,-2.695079,54.523563,0.025909,0.851471,0.40036,0.612127,-0.034821,0.109622,60.864975,-23.032761,-111.909851,,,
729860902.008126,64.878358,-2.806845,54.619517,0.014069,0.881866,0.324448,0.523669,-0.096422,0.113945,60.864975,-23.032761,-111.909851,,,
