Time (sec),Pitch (deg),Roll (deg),Yaw(deg),X-Acceleration (g),Y-Acceleration (g),Z-Acceleration (g),Pitch Rate (deg/sec),Roll Rate (deg/sec),Yaw Rate (deg/sec),Magnetic Field in X direction (uT),Magnetic Field in Y direction (uT),Magnetic Field in Z Direction (uT),Latitude (deg),Longitude (deg),Altitude (m)
729860880.24142,1.982142,4.03644,52.826965,-0.092377,0.01973,1.012314,0.033498,0.004215,0.062854,63.114212,14.858704,-146.462051,,,
729860880.244777,1.992811,4.034499,52.844029,-0.092377,0.01973,1.012314,0.033498,0.004215,0.062854,63.114212,14.858704,-146.462051,,,
729860880.248137,1.992811,4.034499,52.844029,-0.092377,0.01973,1.012314,0.033498,0.004215,0.062854,63.114212,14.858704,-146.462051,,,
729860880.251514,2.003842,4.030944,52.859859,-0.086472,0.022629,1.007248,0.035083,-0.021195,0.054825,63.114212,14.858704,-146.462051,,,
729860880.254749,2.015024,4.021998,52.875088,-0.086472,0.022629,1.007248,0.035083,-0.021195,0.054825,63.273621,15.105347,-146.009033,,,
729860880.258159,2.015024,4.021998,52.875088,-0.086472,0.022629,1.007248,0.035083,-0.021195,0.054825,63.273621,15.105347,-146.009033,,,
729860880.261442,2.026647,4.012737,52.890721,-0.0858,0.025238,1.00145,0.040262,-0.036002,0.058369,63.273621,15.105347,-146.009033,,,
729860880.264808,2.039769,4.001909,52.907506,-0.0858,0.025238,1.00145,0.040262,-0.036002,0.058369,63.273621,15.105347,-146.009033,,,
729860880.268098,2.039769,4.001909,52.907506,-0.0858,0.025238,1.00145,0.040262,-0.036002,0.058369,63.273621,15.105347,-146.009033,,,
729860880.27143,2.05357,3.994707,52.92568,-0.080429,0.025803,1.00499,0.048838,-0.020035,0.069045,63.273621,15.105347,-146.009033,,,
729860880.274762,2.06756,3.988754,52.945484,-0.080429,0.025803,1.00499,0.048838,-0.020035,0.069045,63.273621,15.105347,-146.009033,,,
729860880.278201,2.06756,3.988754,52.945484,-0.080429,0.025803,1.00499,0.048838,-0.020035,0.069045,63.273621,15.105347,-146.009033,,,
729860880.28144,2.078416,3.98711,52.96594,-0.073486,0.031433,0.996933,0.033856,0.003395,0.072828,63.273621,15.105347,-146.009033,,,
729860880.284784,2.088933,3.988666,52.986933,-0.073486,0.031433,0.996933,0.033856,0.003395,0.072828,63.273621,15.105347,-146.009033,,,
729860880.288085,2.088933,3.988666,52.986933,-0.073486,0.031433,0.996933,0.033856,0.003395,0.072828,63.273621,15.105347,-146.009033,,,
729860880.291511,2.096241,3.99526,53.008229,-0.068298,0.038574,0.983673,0.023237,0.032466,0.074478,63.273621,15.105347,-146.009033,,,
729860880.294774,2.103331,4.003937,53.029359,-0.068298,0.038574,0.983673,0.023237,0.032466,0.074478,63.273621,15.105347,-146.009033,,,
729860880.298175,2.103331,4.003937,53.029359,-0.068298,0.038574,0.983673,0.023237,0.032466,0.074478,63.035217,15.565857,-145.656387,,,
729860880.301413,2.105953,4.015797,53.049559,-0.060852,0.047119,0.975739,0.010659,0.042374,0.067516,63.035217,15.565857,-145.656387,,,
729860880.304844,2.108731,4.026593,53.068989,-0.060852,0.047119,0.975739,0.010659,0.042374,0.067516,63.035217,15.565857,-145.656387,,,
729860880.308191,2.108731,4.026593,53.068989,-0.060852,0.047119,0.975739,0.010659,0.042374,0.067516,63.035217,15.565857,-145.656387,,,
729860880.311429,2.106636,4.041329,53.086784,-0.057877,0.053513,0.967926,-0.003458,0.045654,0.05595,63.035217,15.565857,-145.656387,,,
729860880.314753,2.105544,4.053414,53.102898,-0.057877,0.053513,0.967926,-0.003458,0.045654,0.05595,63.035217,15.565857,-145.656387,,,
729860880.318177,2.105544,4.053414,53.102898,-0.057877,0.053513,0.967926,-0.003458,0.045654,0.05595,63.035217,15.565857,-145.656387,,,
729860880.321427,2.101116,4.068336,53.118519,-0.061386,0.054031,0.968842,-0.011593,0.043592,0.052698,63.035217,15.565857,-145.656387,,,
729860880.324784,2.098786,4.078168,53.13422,-0.061386,0.054031,0.968842,-0.011593,0.043592,0.052698,63.035217,15.565857,-145.656387,,,
729860880.328134,2.098786,4.078168,53.13422,-0.061386,0.054031,0.968842,-0.011593,0.043592,0.052698,63.035217,15.565857,-145.656387,,,
729860880.331428,2.09547,4.086572,53.149303,-0.068176,0.054611,0.968918,-0.006442,0.020474,0.049192,63.035217,15.565857,-145.656387,,,
729860880.334621,2.095451,4.089789,53.164004,-0.068176,0.054611,0.968918,-0.006442,0.020474,0.049192,63.035217,15.565857,-145.656387,,,
729860880.33816,2.095451,4.089789,53.164004,-0.068176,0.054611,0.968918,-0.006442,0.020474,0.049192,62.985275,15.801071,-146.048828,,,
729860880.34149,2.09512,4.092962,53.178188,-0.066483,0.055313,0.974106,-0.000126,0.008281,0.046477,62.985275,15.801071,-146.048828,,,
729860880.34476,2.095948,4.093432,53.192168,-0.066483,0.055313,0.974106,-0.000126,0.008281,0.046477,62.985275,15.801071,-146.048828,,,
729860880.348143,2.095948,4.093432,53.192168,-0.066483,0.055313,0.974106,-0.000126,0.008281,0.046477,62.985275,15.801071,-146.048828,,,
729860880.351424,2.095463,4.09446,53.205987,-0.063339,0.048706,0.974518,-0.002302,0.003654,0.04554,62.985275,15.801071,-146.048828,,,
729860880.354832,2.094539,4.092921,53.219664,-0.063339,0.048706,0.974518,-0.002302,0.003654,0.04554,62.985275,15.801071,-146.048828,,,
729860880.358089,2.094539,4.092921,53.219664,-0.063339,0.048706,0.974518,-0.002302,0.003654,0.04554,62.985275,15.801071,-146.048828,,,
729860880.361437,2.090107,4.089579,53.232916,-0.05336,0.058868,0.96524,-0.021444,-0.011883,0.041301,62.985275,15.801071,-146.048828,,,
729860880.364771,2.082894,4.085606,53.24599,-0.05336,0.058868,0.96524,-0.021444,-0.011883,0.041301,62.985275,15.801071,-146.048828,,,
729860880.368219,2.082894,4.085606,53.24599,-0.05336,0.058868,0.96524,-0.021444,-0.011883,0.041301,62.985275,15.801071,-146.048828,,,
729860880.371428,2.073112,4.083578,53.259788,-0.044907,0.060028,0.964661,-0.040281,0.002081,0.045027,62.985275,15.801071,-146.048828,,,
729860880.374779,2.061907,4.08499,53.27415,-0.044907,0.060028,0.964661,-0.040281,0.002081,0.045027,62.985275,15.801071,-146.048828,,,
729860880.378089,2.061907,4.08499,53.27415,-0.044907,0.060028,0.964661,-0.040281,0.002081,0.045027,62.970535,15.918365,-145.981079,,,
729860880.381478,2.052049,4.088344,53.288203,-0.037964,0.053223,0.985794,-0.043868,0.026168,0.042133,62.970535,15.918365,-145.981079,,,
729860880.384747,2.040841,4.095281,53.300918,-0.037964,0.053223,0.985794,-0.043868,0.026168,0.042133,62.970535,15.918365,-145.981079,,,
729860880.38811,2.040841,4.095281,53.300918,-0.037964,0.053223,0.985794,-0.043868,0.026168,0.042133,62.970535,15.918365,-145.981079,,,
729860880.391421,2.033402,4.101495,53.312059,-0.029572,0.0522,0.989716,-0.035933,0.034146,0.031201,62.970535,15.918365,-145.981079,,,
729860880.394836,2.02424,4.110977,53.320726,-0.029572,0.0522,0.989716,-0.035933,0.034146,0.031201,62.970535,15.918365,-145.981079,,,
729860880.39808,2.02424,4.110977,53.320726,-0.029572,0.0522,0.989716,-0.035933,0.034146,0.031201,62.970535,15.918365,-145.981079,,,
729860880.401444,2.018642,4.119631,53.326309,-0.024796,0.051132,0.991821,-0.028262,0.037847,0.009794,62.970535,15.918365,-145.981079,,,
729860880.404772,2.011648,4.127849,53.328382,-0.024796,0.051132,0.991821,-0.028262,0.037847,0.009794,62.970535,15.918365,-145.981079,,,
729860880.408166,2.011648,4.127849,53.328382,-0.024796,0.051132,0.991821,-0.028262,0.037847,0.009794,62.970535,15.918365,-145.981079,,,
729860880.411433,2.009176,4.131964,53.326841,-0.02565,0.051041,0.9888,-0.010792,0.010138,-0.014218,62.970535,15.918365,-145.981079,,,
729860880.414757,2.006021,4.132409,53.321603,-0.02565,0.051041,0.9888,-0.010792,0.010138,-0.014218,62.970535,15.918365,-145.981079,,,
729860880.418105,2.006021,4.132409,53.321603,-0.02565,0.051041,0.9888,-0.010792,0.010138,-0.014218,62.970535,15.918365,-145.981079,,,
729860880.421468,2.00756,4.1293,53.313326,-0.033157,0.04834,0.99144,0.006098,-0.012333,-0.034303,63.293427,16.010056,-146.037598,,,
729860880.424769,2.010029,4.124709,53.303591,-0.033157,0.04834,0.99144,0.006098,-0.012333,-0.034303,63.293427,16.010056,-146.037598,,,
729860880.428101,2.010029,4.124709,53.303591,-0.033157,0.04834,0.99144,0.006098,-0.012333,-0.034303,63.293427,16.010056,-146.037598,,,
729860880.431425,2.017274,4.117914,53.29351,-0.049164,0.04007,1.000168,0.027895,-0.023158,-0.035322,63.293427,16.010056,-146.037598,,,
729860880.434829,2.025389,4.109485,53.283544,-0.049164,0.04007,1.000168,0.027895,-0.023158,-0.035322,63.293427,16.010056,-146.037598,,,
729860880.438084,2.025389,4.109485,53.283544,-0.049164,0.04007,1.000168,0.027895,-0.023158,-0.035322,63.293427,16.010056,-146.037598,,,
729860880.441424,2.036365,4.097956,53.274244,-0.060196,0.043808,0.992325,0.031315,-0.032886,-0.030744,63.293427,16.010056,-146.037598,,,
729860880.444759,2.043391,4.088342,53.265581,-0.060196,0.043808,0.992325,0.031315,-0.032886,-0.030744,63.293427,16.010056,-146.037598,,,
729860880.448139,2.043391,4.088342,53.265581,-0.060196,0.043808,0.992325,0.031315,-0.032886,-0.030744,63.293427,16.010056,-146.037598,,,
729860880.451426,2.051096,4.076401,53.257945,-0.06543,0.0504,0.982101,0.014447,-0.029691,-0.025459,63.293427,16.010056,-146.037598,,,
729860880.454784,2.052947,4.067696,53.250987,-0.06543,0.0504,0.982101,0.014447,-0.029691,-0.025459,63.293427,16.010056,-146.037598,,,
729860880.458101,2.052947,4.067696,53.250987,-0.06543,0.0504,0.982101,0.014447,-0.029691,-0.025459,63.293427,16.010056,-146.037598,,,
729860880.461491,2.053857,4.055799,53.244965,-0.071213,0.052322,0.969437,-0.006103,-0.026719,-0.021293,63.057312,15.874771,-146.043869,,,
729860880.464754,2.050507,4.047898,53.23941,-0.071213,0.052322,0.969437,-0.006103,-0.026719,-0.021293,63.057312,15.874771,-146.043869,,,
729860880.468105,2.050507,4.047898,53.23941,-0.071213,0.052322,0.969437,-0.006103,-0.026719,-0.021293,63.057312,15.874771,-146.043869,,,
729860880.471431,2.047698,4.036793,53.234366,-0.077896,0.051773,0.977859,-0.014568,-0.016794,-0.019501,63.057312,15.874771,-146.043869,,,
729860880.474809,2.042635,4.031931,53.23034,-0.077896,0.051773,0.977859,-0.014568,-0.016794,-0.019501,63.057312,15.874771,-146.043869,,,
729860880.47809,2.042635,4.031931,53.23034,-0.077896,0.051773,0.977859,-0.014568,-0.016794,-0.019501,63.057312,15.874771,-146.043869,,,
729860880.48143,2.040282,4.021981,53.227523,-0.083893,0.04628,0.987503,-0.00931,-0.012014,-0.012099,63.057312,15.874771,-146.043869,,,
729860880.484778,2.03803,4.017486,53.22561,-0.083893,0.04628,0.987503,-0.00931,-0.012014,-0.012099,63.057312,15.874771,-146.043869,,,
729860880.488183,2.03803,4.017486,53.22561,-0.083893,0.04628,0.987503,-0.00931,-0.012014,-0.012099,63.057312,15.874771,-146.043869,,,
729860880.49143,2.038783,4.005786,53.225624,-0.090637,0.045471,0.988617,-0.002453,-0.016952,0.000214,63.057312,15.874771,-146.043869,,,
729860880.494765,2.038725,3.998974,53.22623,-0.090637,0.045471,0.988617,-0.002453,-0.016952,0.000214,63.057312,15.874771,-146.043869,,,
729860880.498088,2.038725,3.998974,53.22623,-0.090637,0.045471,0.988617,-0.002453,-0.016952,0.000214,63.057312,15.874771,-146.043869,,,
729860880.501512,2.041075,3.984075,53.226928,-0.086014,0.043839,0.988129,0.000208,-0.03002,-0.000434,62.772263,15.902359,-146.123535,,,
729860880.504779,2.041604,3.97375,53.226615,-0.086014,0.043839,0.988129,0.000208,-0.03002,-0.000434,62.772263,15.902359,-146.123535,,,
729860880.50811,2.041604,3.97375,53.226615,-0.086014,0.043839,0.988129,0.000208,-0.03002,-0.000434,62.772263,15.902359,-146.123535,,,
729860880.511436,2.044331,3.957211,53.225817,-0.078613,0.037186,0.989166,0.010885,-0.044816,-0.004102,62.772263,15.902359,-146.123535,,,
729860880.51483,2.047982,3.94305,53.224904,-0.078613,0.037186,0.989166,0.010885,-0.044816,-0.004102,62.772263,15.902359,-146.123535,,,
729860880.518107,2.047982,3.94305,53.224904,-0.078613,0.037186,0.989166,0.010885,-0.044816,-0.004102,62.772263,15.902359,-146.123535,,,
729860880.521443,2.05338,3.926508,53.224202,-0.077988,0.033768,0.997375,0.014927,-0.048299,-0.002789,62.772263,15.902359,-146.123535,,,
729860880.524764,2.056973,3.912459,53.223026,-0.077988,0.033768,0.997375,0.014927,-0.048299,-0.002789,62.772263,15.902359,-146.123535,,,
729860880.528151,2.056973,3.912459,53.223026,-0.077988,0.033768,0.997375,0.014927,-0.048299,-0.002789,62.772263,15.902359,-146.123535,,,
729860880.531491,2.061714,3.899517,53.221739,-0.072861,0.031662,1.002258,0.008411,-0.03637,-0.004162,62.772263,15.902359,-146.123535,,,
729860880.534763,2.06299,3.889121,53.220608,-0.072861,0.031662,1.002258,0.008411,-0.03637,-0.004162,62.772263,15.902359,-146.123535,,,
729860880.538099,2.06299,3.889121,53.220608,-0.072861,0.031662,1.002258,0.008411,-0.03637,-0.004162,62.772263,15.902359,-146.123535,,,
729860880.541422,2.065653,3.880814,53.219016,-0.065216,0.032608,1.002075,-0.001107,-0.026854,-0.007919,62.772263,15.902359,-146.123535,,,
729860880.544755,2.06422,3.87347,53.216865,-0.065216,0.032608,1.002075,-0.001107,-0.026854,-0.007919,62.770584,15.721878,-145.71637,,,
729860880.548126,2.06422,3.87347,53.216865,-0.065216,0.032608,1.002075,-0.001107,-0.026854,-0.007919,62.770584,15.721878,-145.71637,,,
729860880.551449,2.064163,3.869928,53.214173,-0.065292,0.033585,0.999603,-0.015137,-0.016266,-0.012083,62.770584,15.721878,-145.71637,,,
729860880.554761,2.058846,3.864983,53.211396,-0.065292,0.033585,0.999603,-0.015137,-0.016266,-0.012083,62.770584,15.721878,-145.71637,,,
729860880.5581,2.058846,3.864983,53.211396,-0.065292,0.033585,0.999603,-0.015137,-0.016266,-0.012083,62.770584,15.721878,-145.71637,,,
729860880.561433,2.054302,3.864381,53.2084,-0.067719,0.03241,0.9991,-0.025375,-0.010468,-0.013419,62.770584,15.721878,-145.71637,,,
729860880.564824,2.046761,3.860238,53.205639,-0.067719,0.03241,0.9991,-0.025375,-0.010468,-0.013419,62.770584,15.721878,-145.71637,,,
729860880.56808,2.046761,3.860238,53.205639,-0.067719,0.03241,0.9991,-0.025375,-0.010468,-0.013419,62.770584,15.721878,-145.71637,,,
729860880.571436,2.04166,3.859368,53.202954,-0.0746,0.031158,0.997177,-0.020707,-0.023449,-0.011283,62.770584,15.721878,-145.71637,,,
729860880.574764,2.036084,3.850485,53.19971,-0.0746,0.031158,0.997177,-0.020707,-0.023449,-0.011283,62.770584,15.721878,-145.71637,,,
729860880.578153,2.036084,3.850485,53.19971,-0.0746,0.031158,0.997177,-0.020707,-0.023449,-0.011283,62.770584,15.721878,-145.71637,,,
729860880.58144,2.033321,3.844087,53.195049,-0.078262,0.03418,0.994476,-0.014067,-0.039834,-0.019515,62.770584,15.721878,-145.71637,,,
729860880.584755,2.028879,3.831539,53.189514,-0.078262,0.03418,0.994476,-0.014067,-0.039834,-0.019515,62.658875,16.045853,-145.848282,,,
729860880.588091,2.028879,3.831539,53.189514,-0.078262,0.03418,0.994476,-0.014067,-0.039834,-0.019515,62.658875,16.045853,-145.848282,,,
729860880.591481,2.024775,3.822223,53.182921,-0.072891,0.035309,0.992706,-0.016157,-0.038871,-0.026245,62.658875,16.045853,-145.848282,,,
729860880.594757,2.019415,3.811313,53.17601,-0.072891,0.035309,0.992706,-0.016157,-0.038871,-0.026245,62.658875,16.045853,-145.848282,,,
729860880.598097,2.019415,3.811313,53.17601,-0.072891,0.035309,0.992706,-0.016157,-0.038871,-0.026245,62.658875,16.045853,-145.848282,,,
729860880.601429,2.013385,3.804349,53.16963,-0.069275,0.036331,0.992844,-0.020751,-0.028809,-0.022252,62.658875,16.045853,-145.848282,,,
729860880.604808,2.00711,3.795743,53.16491,-0.069275,0.036331,0.992844,-0.020751,-0.028809,-0.022252,62.658875,16.045853,-145.848282,,,
729860880.608079,2.00711,3.795743,53.16491,-0.069275,0.036331,0.992844,-0.020751,-0.028809,-0.022252,62.658875,16.045853,-145.848282,,,
729860880.611444,2.000504,3.788939,53.161125,-0.069183,0.037415,0.990982,-0.018989,-0.027844,-0.015177,62.658875,16.045853,-145.848282,,,
729860880.614764,1.994115,3.780365,53.157296,-0.069183,0.037415,0.990982,-0.018989,-0.027844,-0.015177,62.658875,16.045853,-145.848282,,,
729860880.618164,1.994115,3.780365,53.157296,-0.069183,0.037415,0.990982,-0.018989,-0.027844,-0.015177,62.658875,16.045853,-145.848282,,,
729860880.621427,1.984912,3.772555,53.152682,-0.063828,0.038818,0.987289,-0.033581,-0.024323,-0.021584,62.658875,16.045853,-145.848282,,,
729860880.62476,1.973567,3.765787,53.147045,-0.063828,0.038818,0.987289,-0.033581,-0.024323,-0.021584,62.866928,16.026001,-145.741653,,,
729860880.627876,1.973567,3.765787,53.147045,-0.063828,0.038818,0.987289,-0.033581,-0.024323,-0.021584,62.866928,16.026001,-145.741653,,,
729860880.631513,1.960291,3.761476,53.141341,-0.057587,0.031998,0.991531,-0.046453,-0.006237,-0.022937,62.866928,16.026001,-145.741653,,,
729860880.634762,1.94619,3.760561,53.136996,-0.057587,0.031998,0.991531,-0.046453,-0.006237,-0.022937,62.866928,16.026001,-145.741653,,,
729860880.638095,1.94619,3.760561,53.136996,-0.057587,0.031998,0.991531,-0.046453,-0.006237,-0.022937,62.866928,16.026001,-145.741653,,,
729860880.641181,1.931635,3.762642,53.134169,-0.067307,0.02272,1.006714,-0.049695,0.012942,-0.012489,62.866928,16.026001,-145.741653,,,
729860880.64485,1.917118,3.766196,53.132385,-0.067307,0.02272,1.006714,-0.049695,0.012942,-0.012489,62.866928,16.026001,-145.741653,,,
729860880.648078,1.917118,3.766196,53.132385,-0.067307,0.02272,1.006714,-0.049695,0.012942,-0.012489,62.866928,16.026001,-145.741653,,,
729860880.651417,1.902686,3.771625,53.131331,-0.065598,0.020279,1.008286,-0.047118,0.016164,-0.006866,62.866928,16.026001,-145.741653,,,
729860880.65477,1.889641,3.775801,53.130185,-0.065598,0.020279,1.008286,-0.047118,0.016164,-0.006866,62.866928,16.026001,-145.741653,,,
729860880.658138,1.889641,3.775801,53.130185,-0.065598,0.020279,1.008286,-0.047118,0.016164,-0.006866,62.866928,16.026001,-145.741653,,,
729860880.661436,1.878328,3.783438,53.128562,-0.06604,0.017624,1.015259,-0.035217,0.021274,-0.008799,62.866928,16.026001,-145.741653,,,
729860880.66476,1.870103,3.788367,53.126323,-0.06604,0.017624,1.015259,-0.035217,0.021274,-0.008799,62.661453,16.033783,-146.222305,,,
729860880.668099,1.870103,3.788367,53.126323,-0.06604,0.017624,1.015259,-0.035217,0.021274,-0.008799,62.661453,16.033783,-146.222305,,,
729860880.671462,1.866131,3.794822,53.123616,-0.069122,0.011597,1.01857,-0.009222,0.018614,-0.009877,62.661453,16.033783,-146.222305,,,
729860880.674762,1.864482,3.797843,53.12166,-0.069122,0.011597,1.01857,-0.009222,0.018614,-0.009877,62.661453,16.033783,-146.222305,,,
729860880.678103,1.864482,3.797843,53.12166,-0.069122,0.011597,1.01857,-0.009222,0.018614,-0.009877,62.661453,16.033783,-146.222305,,,
729860880.681418,1.866083,3.797686,53.120134,-0.071457,0.01622,1.007812,0.008397,-0.009547,-0.005512,62.661453,16.033783,-146.222305,,,
729860880.684814,1.868186,3.79225,53.118421,-0.071457,0.01622,1.007812,0.008397,-0.009547,-0.005512,62.661453,16.033783,-146.222305,,,
729860880.688085,1.868186,3.79225,53.118421,-0.071457,0.01622,1.007812,0.008397,-0.009547,-0.005512,62.661453,16.033783,-146.222305,,,
729860880.691442,1.871502,3.784494,53.116423,-0.068588,0.025024,0.994293,0.009559,-0.031021,-0.00727,62.661453,16.033783,-146.222305,,,
729860880.694752,1.87337,3.774543,53.114185,-0.068588,0.025024,0.994293,0.009559,-0.031021,-0.00727,62.661453,16.033783,-146.222305,,,
729860880.698162,1.87337,3.774543,53.114185,-0.068588,0.025024,0.994293,0.009559,-0.031021,-0.00727,62.661453,16.033783,-146.222305,,,
729860880.701421,1.875769,3.765016,53.111207,-0.065048,0.024506,0.998566,0.006089,-0.030475,-0.012567,62.661453,16.033783,-146.222305,,,
729860880.704754,1.876897,3.756625,53.108193,-0.065048,0.024506,0.998566,0.006089,-0.030475,-0.012567,62.828842,16.087082,-146.125748,,,
729860880.708102,1.876897,3.756625,53.108193,-0.065048,0.024506,0.998566,0.006089,-0.030475,-0.012567,62.828842,16.087082,-146.125748,,,
729860880.711527,1.878486,3.749219,53.105702,-0.063644,0.024796,1.007187,0.005583,-0.012436,-0.009356,62.828842,16.087082,-146.125748,,,
729860880.714751,1.878551,3.74642,53.103605,-0.063644,0.024796,1.007187,0.005583,-0.012436,-0.009356,62.828842,16.087082,-146.125748,,,
729860880.718107,1.878551,3.74642,53.103605,-0.063644,0.024796,1.007187,0.005583,-0.012436,-0.009356,62.828842,16.087082,-146.125748,,,
729860880.72145,1.874851,3.74689,53.10239,-0.063065,0.028641,1.007339,-0.009399,0.012046,-0.004172,62.828842,16.087082,-146.125748,,,
729860880.724825,1.870744,3.751071,53.102406,-0.063065,0.028641,1.007339,-0.009399,0.012046,-0.004172,62.828842,16.087082,-146.125748,,,
729860880.728093,1.870744,3.751071,53.102406,-0.063065,0.028641,1.007339,-0.009399,0.012046,-0.004172,62.828842,16.087082,-146.125748,,,
729860880.731425,1.862645,3.758037,53.103603,-0.066315,0.029617,0.999817,-0.021052,0.031202,0.003305,62.828842,16.087082,-146.125748,,,
729860880.734771,1.856329,3.766071,53.106504,-0.066315,0.029617,0.999817,-0.021052,0.031202,0.003305,62.828842,16.087082,-146.125748,,,
729860880.738169,1.856329,3.766071,53.106504,-0.066315,0.029617,0.999817,-0.021052,0.031202,0.003305,62.828842,16.087082,-146.125748,,,
729860880.741421,1.847925,3.772232,53.111085,-0.074234,0.028717,0.993057,-0.018933,0.020261,0.015133,62.828842,16.087082,-146.125748,,,
729860880.74476,1.843006,3.774686,53.116007,-0.074234,0.028717,0.993057,-0.018933,0.020261,0.015133,62.828842,16.087082,-146.125748,,,
729860880.748099,1.843006,3.774686,53.116007,-0.074234,0.028717,0.993057,-0.018933,0.020261,0.015133,62.801758,16.049377,-146.301498,,,
729860880.751484,1.834738,3.771934,53.120623,-0.078308,0.033005,0.979568,-0.015395,-0.017236,0.013304,62.801758,16.049377,-146.301498,,,
729860880.75477,1.830461,3.764513,53.124945,-0.078308,0.033005,0.979568,-0.015395,-0.017236,0.013304,62.801758,16.049377,-146.301498,,,
729860880.758103,1.830461,3.764513,53.124945,-0.078308,0.033005,0.979568,-0.015395,-0.017236,0.013304,62.801758,16.049377,-146.301498,,,
729860880.761415,1.823743,3.756401,53.128901,-0.075302,0.032394,0.97847,-0.008335,-0.028147,0.011426,62.801758,16.049377,-146.301498,,,
729860880.764829,1.821546,3.747803,53.133262,-0.075302,0.032394,0.97847,-0.008335,-0.028147,0.011426,62.801758,16.049377,-146.301498,,,
729860880.768107,1.821546,3.747803,53.133262,-0.075302,0.032394,0.97847,-0.008335,-0.028147,0.011426,62.801758,16.049377,-146.301498,,,
729860880.771416,1.818413,3.74116,53.138614,-0.070587,0.032944,0.985748,-0.004384,-0.021968,0.018794,62.801758,16.049377,-146.301498,,,
729860880.774762,1.817277,3.734775,53.144399,-0.070587,0.032944,0.985748,-0.004384,-0.021968,0.018794,62.801758,16.049377,-146.301498,,,
729860880.778158,1.817277,3.734775,53.144399,-0.070587,0.032944,0.985748,-0.004384,-0.021968,0.018794,62.801758,16.049377,-146.301498,,,
729860880.781418,1.814595,3.730464,53.15009,-0.065353,0.038132,0.984894,-0.0071,-0.008326,0.017973,62.801758,16.049377,-146.301498,,,
729860880.784774,1.812412,3.728402,53.154881,-0.065353,0.038132,0.984894,-0.0071,-0.008326,0.017973,62.801758,16.049377,-146.301498,,,
729860880.788091,1.812412,3.728402,53.154881,-0.065353,0.038132,0.984894,-0.0071,-0.008326,0.017973,62.6026,16.18428,-146.367493,,,
729860880.791423,1.808386,3.728075,53.15793,-0.051514,0.041901,0.985397,-0.008468,0.006433,0.00565,62.6026,16.18428,-146.367493,,,
729860880.794767,1.805763,3.729729,53.15948,-0.051514,0.041901,0.985397,-0.008468,0.006433,0.00565,62.6026,16.18428,-146.367493,,,
729860880.7981,1.805763,3.729729,53.15948,-0.051514,0.041901,0.985397,-0.008468,0.006433,0.00565,62.6026,16.18428,-146.367493,,,
729860880.801427,1.801676,3.732285,53.159759,-0.046463,0.039612,0.989532,-0.013703,0.01589,-0.003659,62.6026,16.18428,-146.367493,,,
729860880.804859,1.79804,3.735695,53.15996,-0.046463,0.039612,0.989532,-0.013703,0.01589,-0.003659,62.6026,16.18428,-146.367493,,,
729860880.808085,1.79804,3.735695,53.15996,-0.046463,0.039612,0.989532,-0.013703,0.01589,-0.003659,62.6026,16.18428,-146.367493,,,
729860880.811436,1.794114,3.738493,53.161306,-0.053635,0.040955,0.987961,-0.013399,0.012623,0.004376,62.6026,16.18428,-146.367493,,,
729860880.814769,1.790042,3.740525,53.162839,-0.053635,0.040955,0.987961,-0.013399,0.012623,0.004376,62.6026,16.18428,-146.367493,,,
729860880.818158,1.790042,3.740525,53.162839,-0.053635,0.040955,0.987961,-0.013399,0.012623,0.004376,62.6026,16.18428,-146.367493,,,
729860880.82142,1.784096,3.743375,53.163488,-0.05217,0.044846,0.987625,-0.023014,0.006823,-0.002131,62.6026,16.18428,-146.367493,,,
729860880.824765,1.777416,3.744443,53.162759,-0.05217,0.044846,0.987625,-0.023014,0.006823,-0.002131,62.6026,16.18428,-146.367493,,,
729860880.828084,1.777416,3.744443,53.162759,-0.05217,0.044846,0.987625,-0.023014,0.006823,-0.002131,62.713058,16.016953,-146.065231,,,
729860880.831413,1.770055,3.748138,53.160201,-0.045273,0.045746,0.988785,-0.028784,0.003826,-0.014556,62.713058,16.016953,-146.065231,,,
729860880.834753,1.760072,3.748581,53.156026,-0.045273,0.045746,0.988785,-0.028784,0.003826,-0.014556,62.713058,16.016953,-146.065231,,,
729860880.838099,1.760072,3.748581,53.156026,-0.045273,0.045746,0.988785,-0.028784,0.003826,-0.014556,62.713058,16.016953,-146.065231,,,
729860880.841506,1.748303,3.752449,53.15045,-0.042587,0.043091,0.988083,-0.044371,0.007115,-0.024736,62.713058,16.016953,-146.065231,,,
729860880.844762,1.734001,3.75469,53.144616,-0.042587,0.043091,0.988083,-0.044371,0.007115,-0.024736,62.713058,16.016953,-146.065231,,,
729860880.84809,1.734001,3.75469,53.144616,-0.042587,0.043091,0.988083,-0.044371,0.007115,-0.024736,62.713058,16.016953,-146.065231,,,
729860880.851429,1.718872,3.759958,53.138625,-0.046326,0.038818,0.995392,-0.054108,0.018388,-0.026199,62.713058,16.016953,-146.065231,,,
729860880.854823,1.703443,3.765797,53.133155,-0.046326,0.038818,0.995392,-0.054108,0.018388,-0.026199,62.713058,16.016953,-146.065231,,,
729860880.858086,1.703443,3.765797,53.133155,-0.046326,0.038818,0.995392,-0.054108,0.018388,-0.026199,62.713058,16.016953,-146.065231,,,
729860880.861436,1.69131,3.774059,53.129124,-0.055313,0.027756,1.012924,-0.040656,0.029493,-0.015006,62.713058,16.016953,-146.065231,,,
729860880.864759,1.680756,3.781896,53.126335,-0.055313,0.027756,1.012924,-0.040656,0.029493,-0.015006,62.713058,16.016953,-146.065231,,,
729860880.868159,1.680756,3.781896,53.126335,-0.055313,0.027756,1.012924,-0.040656,0.029493,-0.015006,62.713058,16.016953,-146.065231,,,
729860880.87141,1.676526,3.786743,53.123869,-0.062546,0.020386,1.024063,-0.013687,0.023841,-0.011403,62.757019,16.032959,-146.289902,,,
729860880.87476,1.674813,3.791778,53.121164,-0.062546,0.020386,1.024063,-0.013687,0.023841,-0.011403,62.757019,16.032959,-146.289902,,,
729860880.878099,1.674813,3.791778,53.121164,-0.062546,0.020386,1.024063,-0.013687,0.023841,-0.011403,62.757019,16.032959,-146.289902,,,
729860880.88142,1.679547,3.79056,53.117698,-0.058136,0.019211,1.022873,0.017384,0.008857,-0.015449,62.757019,16.032959,-146.289902,,,
729860880.884749,1.684919,3.791621,53.112304,-0.058136,0.019211,1.022873,0.017384,0.008857,-0.015449,62.757019,16.032959,-146.289902,,,
729860880.8881,1.684919,3.791621,53.112304,-0.058136,0.019211,1.022873,0.017384,0.008857,-0.015449,62.757019,16.032959,-146.289902,,,
729860880.891421,1.693965,3.788446,53.105573,-0.056396,0.016174,1.015045,0.029652,3.2e-05,-0.024588,62.757019,16.032959,-146.289902,,,
729860880.894859,1.702251,3.788409,53.098539,-0.056396,0.016174,1.015045,0.029652,3.2e-05,-0.024588,62.757019,16.032959,-146.289902,,,
729860880.898091,1.702251,3.788409,53.098539,-0.056396,0.016174,1.015045,0.029652,3.2e-05,-0.024588,62.757019,16.032959,-146.289902,,,
729860880.901439,1.713994,3.786442,53.092335,-0.066299,0.020294,1.009964,0.03398,0.004397,-0.019042,62.757019,16.032959,-146.289902,,,
729860880.904828,1.723703,3.786243,53.087609,-0.066299,0.020294,1.009964,0.03398,0.004397,-0.019042,62.757019,16.032959,-146.289902,,,
729860880.908096,1.723703,3.786243,53.087609,-0.066299,0.020294,1.009964,0.03398,0.004397,-0.019042,62.757019,16.032959,-146.289902,,,
729860880.911416,1.736729,3.781102,53.084589,-0.073761,0.026718,1.003357,0.035215,-0.001061,-0.00785,62.788803,16.070038,-146.694839,,,
729860880.914825,1.74633,3.780157,53.082833,-0.073761,0.026718,1.003357,0.035215,-0.001061,-0.00785,62.788803,16.070038,-146.694839,,,
729860880.918166,1.74633,3.780157,53.082833,-0.073761,0.026718,1.003357,0.035215,-0.001061,-0.00785,62.788803,16.070038,-146.694839,,,
729860880.92142,1.757401,3.774523,53.082209,-0.080872,0.027191,0.995819,0.027422,0.000564,-0.001495,62.788803,16.070038,-146.694839,,,
729860880.924777,1.764031,3.773046,53.081487,-0.080872,0.027191,0.995819,0.027422,0.000564,-0.001495,62.788803,16.070038,-146.694839,,,
729860880.928095,1.764031,3.773046,53.081487,-0.080872,0.027191,0.995819,0.027422,0.000564,-0.001495,62.788803,16.070038,-146.694839,,,
729860880.93143,1.770443,3.765919,53.08027,-0.07724,0.035248,0.985199,0.011409,-0.007327,-0.006972,62.788803,16.070038,-146.694839,,,
729860880.934761,1.772456,3.76352,53.078158,-0.07724,0.035248,0.985199,0.011409,-0.007327,-0.006972,62.788803,16.070038,-146.694839,,,
729860880.938181,1.772456,3.76352,53.078158,-0.07724,0.035248,0.985199,0.011409,-0.007327,-0.006972,62.788803,16.070038,-146.694839,,,
729860880.941448,1.773268,3.760707,53.076215,-0.075943,0.034897,0.989594,0.003526,0.00997,-0.00696,62.788803,16.070038,-146.694839,,,
729860880.944879,1.774401,3.764446,53.075561,-0.075943,0.034897,0.989594,0.003526,0.00997,-0.00696,62.788803,16.070038,-146.694839,,,
729860880.948053,1.774401,3.764446,53.075561,-0.075943,0.034897,0.989594,0.003526,0.00997,-0.00696,62.788803,16.070038,-146.694839,,,
729860880.951427,1.773839,3.770459,53.077205,-0.085892,0.026642,1.002686,0.004312,0.033921,0.008824,62.709045,16.091843,-146.429489,,,
729860880.954768,1.774218,3.779531,53.081424,-0.085892,0.026642,1.002686,0.004312,0.033921,0.008824,62.709045,16.091843,-146.429489,,,
729860880.958085,1.774218,3.779531,53.081424,-0.085892,0.026642,1.002686,0.004312,0.033921,0.008824,62.709045,16.091843,-146.429489,,,
729860880.961434,1.770634,3.786784,53.087996,-0.088211,0.031036,0.994263,-0.008673,0.034461,0.024021,62.709045,16.091843,-146.429489,,,
729860880.964781,1.767458,3.794644,53.094593,-0.088211,0.031036,0.994263,-0.008673,0.034461,0.024021,62.709045,16.091843,-146.429489,,,
729860880.968087,1.767458,3.794644,53.094593,-0.088211,0.031036,0.994263,-0.008673,0.034461,0.024021,62.709045,16.091843,-146.429489,,,
729860880.971429,1.760716,3.798335,53.099916,-0.082138,0.034698,0.984146,-0.014202,0.02257,0.014224,62.709045,16.091843,-146.429489,,,
729860880.974777,1.756836,3.802918,53.104045,-0.082138,0.034698,0.984146,-0.014202,0.02257,0.014224,62.709045,16.091843,-146.429489,,,
729860880.978098,1.756836,3.802918,53.104045,-0.082138,0.034698,0.984146,-0.014202,0.02257,0.014224,62.709045,16.091843,-146.429489,,,
729860880.981431,1.751628,3.805145,53.107149,-0.080902,0.025558,0.995239,-0.006553,0.010343,0.007443,62.709045,16.091843,-146.429489,,,
729860880.984768,1.75127,3.806272,53.109179,-0.080902,0.025558,0.995239,-0.006553,0.010343,0.007443,62.709045,16.091843,-146.429489,,,
729860880.988103,1.75127,3.806272,53.109179,-0.080902,0.025558,0.995239,-0.006553,0.010343,0.007443,62.709045,16.091843,-146.429489,,,
729860880.991432,1.751912,3.80725,53.110753,-0.079224,0.021255,1.000748,0.006308,0.000506,0.005369,62.727173,16.027802,-146.39241,,,
729860880.994829,1.753629,3.80615,53.11204,-0.079224,0.021255,1.000748,0.006308,0.000506,0.005369,62.727173,16.027802,-146.39241,,,
729860880.99808,1.753629,3.80615,53.11204,-0.079224,0.021255,1.000748,0.006308,0.000506,0.005369,62.727173,16.027802,-146.39241,,,
729860881.00157,1.754582,3.808361,53.113504,-0.075912,0.023788,0.99881,0.004965,0.004129,0.007059,62.727173,16.027802,-146.39241,,,
729860881.00477,1.756053,3.809119,53.116483,-0.075912,0.023788,0.99881,0.004965,0.004129,0.007059,62.727173,16.027802,-146.39241,,,
729860881.008154,1.756053,3.809119,53.116483,-0.075912,0.023788,0.99881,0.004965,0.004129,0.007059,62.727173,16.027802,-146.39241,,,
729860881.011451,1.757773,3.813412,53.120407,-0.077606,0.024429,0.998611,0.001887,0.008754,0.014071,62.727173,16.027802,-146.39241,,,
729860881.014774,1.758267,3.815981,53.124791,-0.077606,0.024429,0.998611,0.001887,0.008754,0.014071,62.727173,16.027802,-146.39241,,,
729860881.018114,1.758267,3.815981,53.124791,-0.077606,0.024429,0.998611,0.001887,0.008754,0.014071,62.727173,16.027802,-146.39241,,,
729860881.021424,1.758907,3.82267,53.129613,-0.076767,0.026855,0.998352,-0.005347,0.023093,0.017151,62.727173,16.027802,-146.39241,,,
729860881.024778,1.75775,3.828864,53.135399,-0.076767,0.026855,0.998352,-0.005347,0.023093,0.017151,62.727173,16.027802,-146.39241,,,
729860881.028091,1.75775,3.828864,53.135399,-0.076767,0.026855,0.998352,-0.005347,0.023093,0.017151,62.727173,16.027802,-146.39241,,,
729860881.031419,1.755173,3.839185,53.141777,-0.072525,0.026245,0.997299,-0.012225,0.028409,0.021559,62.727173,16.027802,-146.39241,,,
729860881.034826,1.751643,3.846675,53.148322,-0.072525,0.026245,0.997299,-0.012225,0.028409,0.021559,62.989639,16.015747,-146.63385,,,
729860881.038104,1.751643,3.846675,53.148322,-0.072525,0.026245,0.997299,-0.012225,0.028409,0.021559,62.989639,16.015747,-146.63385,,,
729860881.041416,1.7474,3.858327,53.154495,-0.078049,0.029495,0.994537,-0.015438,0.025197,0.019774,62.989639,16.015747,-146.63385,,,
729860881.044763,1.7474,3.858327,53.160769,-0.078049,0.029495,0.994537,-0.015438,0.025197,0.019774,62.989639,16.015747,-146.63385,,,
729860881.048174,1.743299,3.8635,53.160769,-0.078049,0.029495,0.994537,-0.015438,0.025197,0.019774,62.989639,16.015747,-146.63385,,,
729860881.051417,1.740515,3.869692,53.166383,-0.078552,0.031006,0.997299,-0.012367,0.006955,0.016142,62.989639,16.015747,-146.63385,,,
729860881.054767,1.740515,3.869692,53.166383,-0.078552,0.031006,0.997299,-0.012367,0.006955,0.016142,62.989639,16.015747,-146.63385,,,
729860881.058105,1.738604,3.868276,53.17072,-0.078552,0.031006,0.997299,-0.012367,0.006955,0.016142,62.989639,16.015747,-146.63385,,,
729860881.061434,1.738472,3.864788,53.173263,-0.07579,0.028854,0.998169,0.004369,-0.027733,0.005348,62.989639,16.015747,-146.63385,,,
729860881.064784,1.738472,3.864788,53.173263,-0.07579,0.028854,0.998169,0.004369,-0.027733,0.005348,62.989639,16.015747,-146.63385,,,
729860881.068099,1.740791,3.854774,53.174188,-0.07579,0.028854,0.998169,0.004369,-0.027733,0.005348,62.989639,16.015747,-146.63385,,,
729860881.071471,1.742627,3.845607,53.17355,-0.074234,0.029434,1.002304,0.013613,-0.040391,-0.004418,62.989639,16.015747,-146.63385,,,
729860881.074752,1.742627,3.845607,53.17355,-0.074234,0.029434,1.002304,0.013613,-0.040391,-0.004418,62.608276,16.297287,-146.423477,,,
729860881.078099,1.74682,3.835117,53.172685,-0.074234,0.029434,1.002304,0.013613,-0.040391,-0.004418,62.608276,16.297287,-146.423477,,,
729860881.081463,1.749423,3.829932,53.173413,-0.075226,0.029892,1.002609,0.011599,-0.017118,0.006962,62.608276,16.297287,-146.423477,,,
729860881.084754,1.749423,3.829932,53.173413,-0.075226,0.029892,1.002609,0.011599,-0.017118,0.006962,62.608276,16.297287,-146.423477,,,
729860881.088162,1.752244,3.825898,53.176853,-0.075226,0.029892,1.002609,0.011599,-0.017118,0.006962,62.608276,16.297287,-146.423477,,,
729860881.091421,1.752154,3.827636,53.183279,-0.077682,0.038467,0.998001,-0.001774,0.008955,0.027387,62.608276,16.297287,-146.423477,,,
729860881.094784,1.752154,3.827636,53.183279,-0.077682,0.038467,0.998001,-0.001774,0.008955,0.027387,62.608276,16.297287,-146.423477,,,
729860881.098091,1.750838,3.830403,53.192902,-0.077682,0.038467,0.998001,-0.001774,0.008955,0.027387,62.608276,16.297287,-146.423477,,,
729860881.101429,1.747124,3.838266,53.204843,-0.079269,0.040756,0.996033,-0.013411,0.028496,0.043279,62.608276,16.297287,-146.423477,,,
729860881.104779,1.747124,3.838266,53.204843,-0.079269,0.040756,0.996033,-0.013411,0.028496,0.043279,62.608276,16.297287,-146.423477,,,
729860881.108095,1.743633,3.845978,53.218155,-0.079269,0.040756,0.996033,-0.013411,0.028496,0.043279,62.608276,16.297287,-146.423477,,,
729860881.111425,1.739003,3.855338,53.231684,-0.074936,0.039154,0.998077,-0.01591,0.032674,0.044828,62.608276,16.297287,-146.423477,,,
729860881.114756,1.739003,3.855338,53.231684,-0.074936,0.039154,0.998077,-0.01591,0.032674,0.044828,62.678665,16.059738,-146.237732,,,
729860881.118098,1.736011,3.861808,53.244945,-0.074936,0.039154,0.998077,-0.01591,0.032674,0.044828,62.678665,16.059738,-146.237732,,,
729860881.121465,1.734796,3.866955,53.258459,-0.070251,0.032135,0.999695,-0.00122,0.009991,0.047914,62.678665,16.059738,-146.237732,,,
729860881.124834,1.734796,3.866955,53.258459,-0.070251,0.032135,0.999695,-0.00122,0.009991,0.047914,62.678665,16.059738,-146.237732,,,
729860881.128084,1.737258,3.866711,53.272255,-0.070251,0.032135,0.999695,-0.00122,0.009991,0.047914,62.678665,16.059738,-146.237732,,,
729860881.131428,1.74274,3.864934,53.284855,-0.065826,0.029572,1.006104,0.01956,-0.017799,0.041523,62.678665,16.059738,-146.237732,,,
729860881.134773,1.74274,3.864934,53.284855,-0.065826,0.029572,1.006104,0.01956,-0.017799,0.041523,62.678665,16.059738,-146.237732,,,
729860881.13819,1.749583,3.857321,53.296184,-0.065826,0.029572,1.006104,0.01956,-0.017799,0.041523,62.678665,16.059738,-146.237732,,,
729860881.141417,1.756882,3.849351,53.305498,-0.047714,0.03186,1.00058,0.025785,-0.034747,0.028311,62.678665,16.059738,-146.237732,,,
729860881.144759,1.756882,3.849351,53.305498,-0.047714,0.03186,1.00058,0.025785,-0.034747,0.028311,62.678665,16.059738,-146.237732,,,
729860881.148115,1.764401,3.838842,53.312638,-0.047714,0.03186,1.00058,0.025785,-0.034747,0.028311,62.678665,16.059738,-146.237732,,,
729860881.151416,1.77107,3.831998,53.317836,-0.03595,0.028488,0.999496,0.023053,-0.019792,0.014838,62.678665,16.059738,-146.237732,,,
729860881.15475,1.77107,3.831998,53.317836,-0.03595,0.028488,0.999496,0.023053,-0.019792,0.014838,62.623352,16.006363,-145.952545,,,
729860881.158098,1.777008,3.827204,53.320786,-0.03595,0.028488,0.999496,0.023053,-0.019792,0.014838,62.623352,16.006363,-145.952545,,,
729860881.161424,1.781376,3.827324,53.322141,-0.031433,0.028152,1.00444,0.015249,0.004374,0.003523,62.623352,16.006363,-145.952545,,,
729860881.164833,1.781376,3.827324,53.322141,-0.031433,0.028152,1.00444,0.015249,0.004374,0.003523,62.623352,16.006363,-145.952545,,,
729860881.16811,1.785674,3.828816,53.322691,-0.031433,0.028152,1.00444,0.015249,0.004374,0.003523,62.623352,16.006363,-145.952545,,,
729860881.171428,1.790813,3.834683,53.322785,-0.03978,0.025055,1.002289,0.01438,0.018798,0.000769,62.623352,16.006363,-145.952545,,,
729860881.174761,1.790813,3.834683,53.322785,-0.03978,0.025055,1.002289,0.01438,0.018798,0.000769,62.623352,16.006363,-145.952545,,,
729860881.178145,1.795265,3.84046,53.322763,-0.03978,0.025055,1.002289,0.01438,0.018798,0.000769,62.623352,16.006363,-145.952545,,,
729860881.18142,1.802039,3.851543,53.322303,-0.044693,0.022751,1.008545,0.017909,0.038515,-0.001445,62.623352,16.006363,-145.952545,,,
729860881.184752,1.802039,3.851543,53.322303,-0.044693,0.022751,1.008545,0.017909,0.038515,-0.001445,62.623352,16.006363,-145.952545,,,
729860881.188083,1.807374,3.861827,53.321667,-0.044693,0.022751,1.008545,0.017909,0.038515,-0.001445,62.623352,16.006363,-145.952545,,,
729860881.191427,1.81455,3.873441,53.320179,-0.049576,0.019943,1.002243,0.021103,0.034447,-0.006757,62.623352,16.006363,-145.952545,,,
729860881.194754,1.81455,3.873441,53.320179,-0.049576,0.019943,1.002243,0.021103,0.034447,-0.006757,62.623352,16.006363,-145.952545,,,
729860881.198106,1.819551,3.88181,53.317474,-0.049576,0.019943,1.002243,0.021103,0.034447,-0.006757,62.647537,15.822205,-146.08136,,,
729860881.201426,1.823836,3.889679,53.313377,-0.054993,0.026154,0.990036,0.013194,0.026533,-0.016852,62.647537,15.822205,-146.08136,,,
729860881.20484,1.823836,3.889679,53.313377,-0.054993,0.026154,0.990036,0.013194,0.026533,-0.016852,62.647537,15.822205,-146.08136,,,
729860881.208092,1.825816,3.895724,53.308595,-0.054993,0.026154,0.990036,0.013194,0.026533,-0.016852,62.647537,15.822205,-146.08136,,,
729860881.211427,1.825409,3.900185,53.303765,-0.063782,0.027756,0.984756,0.000778,0.016319,-0.018031,62.647537,15.822205,-146.08136,,,
729860881.214759,1.825409,3.900185,53.303765,-0.063782,0.027756,0.984756,0.000778,0.016319,-0.018031,62.647537,15.822205,-146.08136,,,
729860881.21815,1.825013,3.904356,53.298774,-0.063782,0.027756,0.984756,0.000778,0.016319,-0.018031,62.647537,15.822205,-146.08136,,,
729860881.221442,1.824503,3.903823,53.294235,-0.070572,0.027878,0.984879,-0.00025,0.007587,-0.015674,62.647537,15.822205,-146.08136,,,
729860881.224768,1.824503,3.903823,53.294235,-0.070572,0.027878,0.984879,-0.00025,0.007587,-0.015674,62.647537,15.822205,-146.08136,,,
729860881.228105,1.824429,3.903716,53.290264,-0.070572,0.027878,0.984879,-0.00025,0.007587,-0.015674,62.647537,15.822205,-146.08136,,,
729860881.231413,1.824632,3.894835,53.287134,-0.080917,0.027985,0.986053,0.004805,-0.009628,-0.01085,62.647537,15.822205,-146.08136,,,
729860881.234772,1.824632,3.894835,53.287134,-0.080917,0.027985,0.986053,0.004805,-0.009628,-0.01085,62.647537,15.822205,-146.08136,,,
729860881.238089,1.825209,3.891843,53.284463,-0.080917,0.027985,0.986053,0.004805,-0.009628,-0.01085,62.52179,15.824219,-146.128891,,,
729860881.241422,1.825243,3.88196,53.282548,-0.083282,0.028397,0.988388,0.004452,-0.005015,-0.007347,62.52179,15.824219,-146.128891,,,
729860881.244816,1.825243,3.88196,53.282548,-0.083282,0.028397,0.988388,0.004452,-0.005015,-0.007347,62.52179,15.824219,-146.128891,,,
729860881.248088,1.826524,3.879211,53.280818,-0.083282,0.028397,0.988388,0.004452,-0.005015,-0.007347,62.52179,15.824219,-146.128891,,,
729860881.251425,1.827582,3.868493,53.279718,-0.077942,0.027435,0.990585,0.010062,-0.015875,-0.004008,62.52179,15.824219,-146.128891,,,
729860881.254758,1.827582,3.868493,53.279718,-0.077942,0.027435,0.990585,0.010062,-0.015875,-0.004008,62.52179,15.824219,-146.128891,,,
729860881.258157,1.830431,3.862919,53.279013,-0.077942,0.027435,0.990585,0.010062,-0.015875,-0.004008,62.52179,15.824219,-146.128891,,,
729860881.261409,1.831364,3.852344,53.279472,-0.08252,0.028168,0.988647,0.008087,-0.01626,0.002875,62.52179,15.824219,-146.128891,,,
729860881.264782,1.831364,3.852344,53.279472,-0.08252,0.028168,0.988647,0.008087,-0.01626,0.002875,62.52179,15.824219,-146.128891,,,
729860881.26808,1.833973,3.848229,53.28097,-0.08252,0.028168,0.988647,0.008087,-0.01626,0.002875,62.52179,15.824219,-146.128891,,,
729860881.27142,1.833721,3.842659,53.283687,-0.082581,0.029678,0.992233,0.003499,0.001553,0.010189,62.52179,15.824219,-146.128891,,,
729860881.274758,1.833721,3.842659,53.283687,-0.082581,0.029678,0.992233,0.003499,0.001553,0.010189,62.52179,15.824219,-146.128891,,,
729860881.278089,1.834282,3.843271,53.287696,-0.082581,0.029678,0.992233,0.003499,0.001553,0.010189,62.63797,15.799652,-146.095398,,,
729860881.281413,1.8324,3.843066,53.293176,-0.075226,0.032318,0.988266,-0.004138,0.016193,0.019299,62.63797,15.799652,-146.095398,,,
729860881.284819,1.8324,3.843066,53.293176,-0.075226,0.032318,0.988266,-0.004138,0.016193,0.019299,62.63797,15.799652,-146.095398,,,
729860881.288084,1.831329,3.846471,53.299991,-0.075226,0.032318,0.988266,-0.004138,0.016193,0.019299,62.63797,15.799652,-146.095398,,,
729860881.291422,1.8293,3.847539,53.308003,-0.07608,0.033066,0.987625,-0.006609,0.006975,0.02732,62.63797,15.799652,-146.095398,,,
729860881.294753,1.8293,3.847539,53.308003,-0.07608,0.033066,0.987625,-0.006609,0.006975,0.02732,62.63797,15.799652,-146.095398,,,
729860881.298151,1.828188,3.847488,53.316466,-0.07608,0.033066,0.987625,-0.006609,0.006975,0.02732,62.63797,15.799652,-146.095398,,,
729860881.30141,1.82627,3.846788,53.324729,-0.076721,0.032135,0.985382,-0.006329,-0.002185,0.026091,62.63797,15.799652,-146.095398,,,
729860881.304761,1.82627,3.846788,53.324729,-0.076721,0.032135,0.985382,-0.006329,-0.002185,0.026091,62.63797,15.799652,-146.095398,,,
729860881.30809,1.824694,3.844272,53.332166,-0.076721,0.032135,0.985382,-0.006329,-0.002185,0.026091,62.63797,15.799652,-146.095398,,,
729860881.311417,1.822468,3.84233,53.338549,-0.066483,0.033493,0.989838,-0.005969,-0.015527,0.019312,62.63797,15.799652,-146.095398,,,
729860881.314759,1.822468,3.84233,53.338549,-0.066483,0.033493,0.989838,-0.005969,-0.015527,0.019312,62.63797,15.799652,-146.095398,,,
729860881.31818,1.82126,3.8357,53.344209,-0.066483,0.033493,0.989838,-0.005969,-0.015527,0.019312,62.63797,15.799652,-146.095398,,,
729860881.321418,1.820159,3.831663,53.348597,-0.061768,0.031479,0.993347,-0.000278,-0.024475,0.011729,62.41835,15.855072,-146.266296,,,
729860881.324824,1.820159,3.831663,53.348597,-0.061768,0.031479,0.993347,-0.000278,-0.024475,0.011729,62.41835,15.855072,-146.266296,,,
729860881.328092,1.82068,3.825409,53.352009,-0.061768,0.031479,0.993347,-0.000278,-0.024475,0.011729,62.41835,15.855072,-146.266296,,,
729860881.331416,1.821939,3.824738,53.355477,-0.055649,0.028,1.004349,0.010151,-0.001846,0.013318,62.41835,15.855072,-146.266296,,,
729860881.334772,1.821939,3.824738,53.355477,-0.055649,0.028,1.004349,0.010151,-0.001846,0.013318,62.41835,15.855072,-146.266296,,,
729860881.338174,1.825846,3.824762,53.359617,-0.055649,0.028,1.004349,0.010151,-0.001846,0.013318,62.41835,15.855072,-146.266296,,,
729860881.341416,1.830893,3.83009,53.363835,-0.053223,0.027237,1.006424,0.022107,0.01283,0.015423,62.41835,15.855072,-146.266296,,,
729860881.344771,1.830893,3.83009,53.363835,-0.053223,0.027237,1.006424,0.022107,0.01283,0.015423,62.41835,15.855072,-146.266296,,,
729860881.3481,1.837798,3.832564,53.368281,-0.053223,0.027237,1.006424,0.022107,0.01283,0.015423,62.41835,15.855072,-146.266296,,,
729860881.351433,1.84402,3.838875,53.372206,-0.052597,0.035141,0.994598,0.021266,0.014578,0.01254,62.41835,15.855072,-146.266296,,,
729860881.354767,1.84402,3.838875,53.372206,-0.052597,0.035141,0.994598,0.021266,0.014578,0.01254,62.41835,15.855072,-146.266296,,,
729860881.358119,1.850052,3.840971,53.375374,-0.052597,0.035141,0.994598,0.021266,0.014578,0.01254,62.41835,15.855072,-146.266296,,,
729860881.361427,1.855735,3.843044,53.377546,-0.047592,0.037186,0.983582,0.019969,-0.002052,0.006005,62.636627,15.953232,-145.989334,,,
729860881.364769,1.855735,3.843044,53.377546,-0.047592,0.037186,0.983582,0.019969,-0.002052,0.006005,62.636627,15.953232,-145.989334,,,
729860881.368107,1.86063,3.840866,53.378594,-0.047592,0.037186,0.983582,0.019969,-0.002052,0.006005,62.636627,15.953232,-145.989334,,,
729860881.371528,1.865476,3.838844,53.378016,-0.045822,0.035217,0.985321,0.017957,-0.013308,-0.005152,62.636627,15.953232,-145.989334,,,
729860881.374822,1.865476,3.838844,53.378016,-0.045822,0.035217,0.985321,0.017957,-0.013308,-0.005152,62.636627,15.953232,-145.989334,,,
729860881.378095,1.872393,3.833412,53.376187,-0.045822,0.035217,0.985321,0.017957,-0.013308,-0.005152,62.636627,15.953232,-145.989334,,,
729860881.381424,1.882736,3.829429,53.37392,-0.049667,0.031876,0.999481,0.04227,-0.020672,-0.005992,62.636627,15.953232,-145.989334,,,
729860881.384769,1.882736,3.829429,53.37392,-0.049667,0.031876,0.999481,0.04227,-0.020672,-0.005992,62.636627,15.953232,-145.989334,,,
729860881.388163,1.895217,3.823105,53.371652,-0.049667,0.031876,0.999481,0.04227,-0.020672,-0.005992,62.636627,15.953232,-145.989334,,,
729860881.391416,1.908703,3.818508,53.369247,-0.050888,0.029022,0.998398,0.048153,-0.012426,-0.006493,62.636627,15.953232,-145.989334,,,
729860881.394752,1.908703,3.818508,53.369247,-0.050888,0.029022,0.998398,0.048153,-0.012426,-0.006493,62.636627,15.953232,-145.989334,,,
729860881.398102,1.921235,3.814046,53.366732,-0.050888,0.029022,0.998398,0.048153,-0.012426,-0.006493,62.636627,15.953232,-145.989334,,,
729860881.401513,1.931309,3.807934,53.363593,-0.046371,0.043579,0.978256,0.032658,-0.018487,-0.012055,62.495651,15.8526,-145.740784,,,
729860881.404759,1.931309,3.807934,53.363593,-0.046371,0.043579,0.978256,0.032658,-0.018487,-0.012055,62.495651,15.8526,-145.740784,,,
729860881.408097,1.938505,3.801304,53.359092,-0.046371,0.043579,0.978256,0.032658,-0.018487,-0.012055,62.495651,15.8526,-145.740784,,,
729860881.411415,1.941033,3.791568,53.352693,-0.044235,0.048523,0.962952,0.007968,-0.027074,-0.027332,62.495651,15.8526,-145.740784,,,
729860881.414833,1.941033,3.791568,53.352693,-0.044235,0.048523,0.962952,0.007968,-0.027074,-0.027332,62.495651,15.8526,-145.740784,,,
729860881.418113,1.940636,3.783073,53.344508,-0.044235,0.048523,0.962952,0.007968,-0.027074,-0.027332,62.495651,15.8526,-145.740784,,,
729860881.421425,1.935269,3.771384,53.33559,-0.051559,0.045502,0.959717,-0.016463,-0.031265,-0.034719,62.495651,15.8526,-145.740784,,,
729860881.424769,1.935269,3.771384,53.33559,-0.051559,0.045502,0.959717,-0.016463,-0.031265,-0.034719,62.495651,15.8526,-145.740784,,,
729860881.428171,1.928801,3.761649,53.32651,-0.051559,0.045502,0.959717,-0.016463,-0.031265,-0.034719,62.495651,15.8526,-145.740784,,,
729860881.431407,1.9206,3.749848,53.318648,-0.06282,0.04425,0.961792,-0.027925,-0.028288,-0.027531,62.495651,15.8526,-145.740784,,,
729860881.434763,1.9206,3.749848,53.318648,-0.06282,0.04425,0.961792,-0.027925,-0.028288,-0.027531,62.495651,15.8526,-145.740784,,,
729860881.438083,1.911037,3.741462,53.313086,-0.06282,0.04425,0.961792,-0.027925,-0.028288,-0.027531,62.495651,15.8526,-145.740784,,,
729860881.441419,1.900424,3.731676,53.309718,-0.065994,0.044327,0.968704,-0.041259,-0.018977,-0.013714,62.344742,15.962021,-145.994019,,,
729860881.444755,1.900424,3.731676,53.309718,-0.065994,0.044327,0.968704,-0.041259,-0.018977,-0.013714,62.344742,15.962021,-145.994019,,,
729860881.4481,1.887392,3.726167,53.307337,-0.065994,0.044327,0.968704,-0.041259,-0.018977,-0.013714,62.344742,15.962021,-145.994019,,,
729860881.451422,1.87357,3.719006,53.305621,-0.06131,0.041718,0.968857,-0.050106,-0.011103,-0.010281,62.344742,15.962021,-145.994019,,,
729860881.45484,1.87357,3.719006,53.305621,-0.06131,0.041718,0.968857,-0.050106,-0.011103,-0.010281,62.344742,15.962021,-145.994019,,,
729860881.458137,1.859821,3.715165,53.303836,-0.06131,0.041718,0.968857,-0.050106,-0.011103,-0.010281,62.344742,15.962021,-145.994019,,,
729860881.461447,1.847823,3.7082,53.301704,-0.061035,0.036346,0.979309,-0.038636,-0.01623,-0.012442,62.344742,15.962021,-145.994019,,,
729860881.464759,1.847823,3.7082,53.301704,-0.061035,0.036346,0.979309,-0.038636,-0.01623,-0.012442,62.344742,15.962021,-145.994019,,,
729860881.468142,1.836964,3.702228,53.298007,-0.061035,0.036346,0.979309,-0.038636,-0.01623,-0.012442,62.344742,15.962021,-145.994019,,,
729860881.471401,1.826949,3.694425,53.292239,-0.058609,0.031555,0.984863,-0.028566,-0.017147,-0.026657,62.344742,15.962021,-145.994019,,,
729860881.474779,1.826949,3.694425,53.292239,-0.058609,0.031555,0.984863,-0.028566,-0.017147,-0.026657,62.344742,15.962021,-145.994019,,,
729860881.478103,1.818169,3.690505,53.285239,-0.058609,0.031555,0.984863,-0.028566,-0.017147,-0.026657,62.344742,15.962021,-145.994019,,,
729860881.481414,1.809576,3.686958,53.278053,-0.05835,0.02739,0.996002,-0.033722,0.001074,-0.02881,62.344742,15.962021,-145.994019,,,
729860881.484781,1.809576,3.686958,53.278053,-0.05835,0.02739,0.996002,-0.033722,0.001074,-0.02881,62.467072,15.8396,-146.226761,,,
729860881.488097,1.798722,3.68708,53.27086,-0.05835,0.02739,0.996002,-0.033722,0.001074,-0.02881,62.467072,15.8396,-146.226761,,,
729860881.491408,1.788352,3.685699,53.263933,-0.059875,0.027939,0.991501,-0.046064,0.007984,-0.028405,62.467072,15.8396,-146.226761,,,
729860881.494851,1.788352,3.685699,53.263933,-0.059875,0.027939,0.991501,-0.046064,0.007984,-0.028405,62.467072,15.8396,-146.226761,,,
729860881.498096,1.77299,3.687153,53.257309,-0.059875,0.027939,0.991501,-0.046064,0.007984,-0.028405,62.467072,15.8396,-146.226761,,,
729860881.501424,1.755917,3.686611,53.25055,-0.06041,0.030182,0.985977,-0.070842,0.005727,-0.031304,62.467072,15.8396,-146.226761,,,
729860881.504764,1.755917,3.686611,53.25055,-0.06041,0.030182,0.985977,-0.070842,0.005727,-0.031304,62.467072,15.8396,-146.226761,,,
729860881.508165,1.73404,3.686993,53.243216,-0.06041,0.030182,0.985977,-0.070842,0.005727,-0.031304,62.467072,15.8396,-146.226761,,,
729860881.511471,1.712722,3.685483,53.235724,-0.066025,0.02356,0.988998,-0.07834,-0.006583,-0.032844,62.467072,15.8396,-146.226761,,,
729860881.514749,1.712722,3.685483,53.235724,-0.066025,0.02356,0.988998,-0.07834,-0.006583,-0.032844,62.467072,15.8396,-146.226761,,,
729860881.518093,1.690021,3.680969,53.228184,-0.066025,0.02356,0.988998,-0.07834,-0.006583,-0.032844,62.467072,15.8396,-146.226761,,,
729860881.521412,1.670882,3.672846,53.221278,-0.072754,0.018463,0.998734,-0.066337,-0.035529,-0.027444,62.467072,15.8396,-146.226761,,,
729860881.524774,1.670882,3.672846,53.221278,-0.072754,0.018463,0.998734,-0.066337,-0.035529,-0.027444,62.371155,15.93541,-146.307022,,,
729860881.528099,1.651836,3.660573,53.21458,-0.072754,0.018463,0.998734,-0.066337,-0.035529,-0.027444,62.371155,15.93541,-146.307022,,,
729860881.531419,1.636618,3.64684,53.207121,-0.071167,0.01915,1.011978,-0.052406,-0.046511,-0.031807,62.371155,15.93541,-146.307022,,,
729860881.53481,1.636618,3.64684,53.207121,-0.071167,0.01915,1.011978,-0.052406,-0.046511,-0.031807,62.371155,15.93541,-146.307022,,,
729860881.538081,1.622633,3.633254,53.199552,-0.071167,0.01915,1.011978,-0.052406,-0.046511,-0.031807,62.371155,15.93541,-146.307022,,,
729860881.541434,1.613453,3.621139,53.191927,-0.06543,0.019608,1.02095,-0.029036,-0.034389,-0.030818,62.371155,15.93541,-146.307022,,,
729860881.544755,1.613453,3.621139,53.191927,-0.06543,0.019608,1.02095,-0.029036,-0.034389,-0.030818,62.371155,15.93541,-146.307022,,,
729860881.548159,1.605374,3.613117,53.184384,-0.06543,0.019608,1.02095,-0.029036,-0.034389,-0.030818,62.371155,15.93541,-146.307022,,,
729860881.551413,1.599368,3.610088,53.176511,-0.057846,0.021744,1.027908,-0.020172,0.002858,-0.032716,62.371155,15.93541,-146.307022,,,
729860881.554763,1.599368,3.610088,53.176511,-0.057846,0.021744,1.027908,-0.020172,0.002858,-0.032716,62.371155,15.93541,-146.307022,,,
729860881.558099,1.592454,3.613921,53.167822,-0.057846,0.021744,1.027908,-0.020172,0.002858,-0.032716,62.371155,15.93541,-146.307022,,,
729860881.561508,1.585806,3.622809,53.159298,-0.054825,0.023514,1.026413,-0.019198,0.045506,-0.031763,62.371155,15.93541,-146.307022,,,
729860881.564807,1.585806,3.622809,53.159298,-0.054825,0.023514,1.026413,-0.019198,0.045506,-0.031763,62.272827,15.782227,-146.608093,,,
729860881.5681,1.580092,3.63654,53.151148,-0.054825,0.023514,1.026413,-0.019198,0.045506,-0.031763,62.272827,15.782227,-146.608093,,,
729860881.571455,1.575281,3.65117,53.143175,-0.064606,0.024155,1.021774,-0.013459,0.056371,-0.030383,62.272827,15.782227,-146.608093,,,
729860881.574746,1.575281,3.65117,53.143175,-0.064606,0.024155,1.021774,-0.013459,0.056371,-0.030383,62.272827,15.782227,-146.608093,,,
729860881.578098,1.569614,3.666153,53.134942,-0.064606,0.024155,1.021774,-0.013459,0.056371,-0.030383,62.272827,15.782227,-146.608093,,,
729860881.581424,1.562237,3.679135,53.125597,-0.068344,0.029358,1.006866,-0.029105,0.047409,-0.039204,62.272827,15.782227,-146.608093,,,
729860881.584786,1.562237,3.679135,53.125597,-0.068344,0.029358,1.006866,-0.029105,0.047409,-0.039204,62.272827,15.782227,-146.608093,,,
729860881.588193,1.552324,3.691446,53.11546,-0.068344,0.029358,1.006866,-0.029105,0.047409,-0.039204,62.272827,15.782227,-146.608093,,,
729860881.59142,1.541101,3.702244,53.10582,-0.076813,0.02536,1.002853,-0.03593,0.037732,-0.036204,62.272827,15.782227,-146.608093,,,
729860881.594772,1.541101,3.702244,53.10582,-0.076813,0.02536,1.002853,-0.03593,0.037732,-0.036204,62.272827,15.782227,-146.608093,,,
729860881.598097,1.530248,3.711059,53.097302,-0.076813,0.02536,1.002853,-0.03593,0.037732,-0.036204,62.272827,15.782227,-146.608093,,,
729860881.601424,1.519632,3.717437,53.090468,-0.08786,0.022125,1.011642,-0.026482,0.011566,-0.023616,62.272827,15.782227,-146.608093,,,
729860881.604745,1.519632,3.717437,53.090468,-0.08786,0.022125,1.011642,-0.026482,0.011566,-0.023616,62.39946,15.750015,-146.355881,,,
729860881.608111,1.512045,3.717808,53.085316,-0.08786,0.022125,1.011642,-0.026482,0.011566,-0.023616,62.39946,15.750015,-146.355881,,,
729860881.611431,1.504789,3.715813,53.081895,-0.094894,0.021637,1.014908,-0.013838,-0.013565,-0.010501,62.39946,15.750015,-146.355881,,,
729860881.614831,1.504789,3.715813,53.081895,-0.094894,0.021637,1.014908,-0.013838,-0.013565,-0.010501,62.39946,15.750015,-146.355881,,,
729860881.618087,1.501711,3.710631,53.080173,-0.094894,0.021637,1.014908,-0.013838,-0.013565,-0.010501,62.39946,15.750015,-146.355881,,,
729860881.621427,1.499825,3.70524,53.079631,-0.089325,0.014832,1.018768,0.002396,-0.016457,-0.001146,62.39946,15.750015,-146.355881,,,
729860881.624763,1.499825,3.70524,53.079631,-0.089325,0.014832,1.018768,0.002396,-0.016457,-0.001146,62.39946,15.750015,-146.355881,,,
729860881.628168,1.501947,3.698348,53.079934,-0.089325,0.014832,1.018768,0.002396,-0.016457,-0.001146,62.39946,15.750015,-146.355881,,,
729860881.631454,1.501947,3.698348,53.080689,-0.085541,0.01973,1.013336,0.019046,-0.027181,0.002882,62.39946,15.750015,-146.355881,,,
729860881.634766,1.505513,3.688796,53.080689,-0.085541,0.01973,1.013336,0.019046,-0.027181,0.002882,62.39946,15.750015,-146.355881,,,
729860881.638105,1.511948,3.680058,53.081879,-0.085541,0.01973,1.013336,0.019046,-0.027181,0.002882,62.39946,15.750015,-146.355881,,,
729860881.641437,1.520218,3.669049,53.083899,-0.083206,0.024796,1.010071,0.035143,-0.028538,0.009363,62.39946,15.750015,-146.355881,,,
729860881.644773,1.520218,3.669049,53.083899,-0.083206,0.024796,1.010071,0.035143,-0.028538,0.009363,62.39946,15.750015,-146.355881,,,
729860881.648093,1.531408,3.660354,53.086438,-0.083206,0.024796,1.010071,0.035143,-0.028538,0.009363,62.488525,15.53299,-146.32312,,,
729860881.651496,1.544872,3.651431,53.089638,-0.079269,0.020508,1.006989,0.053886,-0.026312,0.015084,62.488525,15.53299,-146.32312,,,
729860881.654814,1.544872,3.651431,53.089638,-0.079269,0.020508,1.006989,0.053886,-0.026312,0.015084,62.488525,15.53299,-146.32312,,,
729860881.658077,1.560264,3.644819,53.093163,-0.079269,0.020508,1.006989,0.053886,-0.026312,0.015084,62.488525,15.53299,-146.32312,,,
729860881.661444,1.576236,3.642144,53.096938,-0.072433,0.025711,1.003021,0.057494,-0.001967,0.017149,62.488525,15.53299,-146.32312,,,
729860881.664772,1.576236,3.642144,53.096938,-0.072433,0.025711,1.003021,0.057494,-0.001967,0.017149,62.488525,15.53299,-146.32312,,,
729860881.668187,1.592659,3.643041,53.101366,-0.072433,0.025711,1.003021,0.057494,-0.001967,0.017149,62.488525,15.53299,-146.32312,,,
729860881.671454,1.592659,3.643041,53.101366,-0.068146,0.03157,0.998444,0.051777,0.017348,0.018325,62.488525,15.53299,-146.32312,,,
729860881.67477,1.608187,3.648037,53.105984,-0.068146,0.03157,0.998444,0.051777,0.017348,0.018325,62.488525,15.53299,-146.32312,,,
729860881.678101,1.621822,3.651095,53.110671,-0.068146,0.03157,0.998444,0.051777,0.017348,0.018325,62.488525,15.53299,-146.32312,,,
729860881.681438,1.621822,3.651095,53.114967,-0.065308,0.037643,0.97612,0.030205,-0.002369,0.01478,62.488525,15.53299,-146.32312,,,
729860881.684758,1.631525,3.654149,53.114967,-0.065308,0.037643,0.97612,0.030205,-0.002369,0.01478,62.488525,15.53299,-146.32312,,,
729860881.688098,1.638972,3.649817,53.119191,-0.065308,0.037643,0.97612,0.030205,-0.002369,0.01478,62.213791,15.535278,-146.420486,,,
729860881.691417,1.638972,3.649817,53.119191,-0.069305,0.039078,0.959427,0.008121,-0.034771,0.011435,62.213791,15.535278,-146.420486,,,
729860881.694832,1.642047,3.64624,53.122988,-0.069305,0.039078,0.959427,0.008121,-0.034771,0.011435,62.213791,15.535278,-146.420486,,,
729860881.698098,1.642814,3.633697,53.126586,-0.069305,0.039078,0.959427,0.008121,-0.034771,0.011435,62.213791,15.535278,-146.420486,,,
729860881.701486,1.642814,3.633697,53.129924,-0.059402,0.036667,0.960419,-0.017938,-0.051507,0.009069,62.213791,15.535278,-146.420486,,,
729860881.704771,1.637473,3.624158,53.129924,-0.059402,0.036667,0.960419,-0.017938,-0.051507,0.009069,62.213791,15.535278,-146.420486,,,
729860881.708191,1.630485,3.607695,53.133018,-0.059402,0.036667,0.960419,-0.017938,-0.051507,0.009069,62.213791,15.535278,-146.420486,,,
729860881.71142,1.630485,3.607695,53.133018,-0.059402,0.036667,0.960419,-0.036473,-0.054443,0.005899,62.213791,15.535278,-146.420486,,,
