Time (sec),Pitch (deg),Roll (deg),Yaw(deg),X-Acceleration (g),Y-Acceleration (g),Z-Acceleration (g),Pitch Rate (deg/sec),Roll Rate (deg/sec),Yaw Rate (deg/sec),Magnetic Field in X direction (uT),Magnetic Field in Y direction (uT),Magnetic Field in Z Direction (uT),Latitude (deg),Longitude (deg),Altitude (m)
729861856.961259,-0.36656,0.69778,122.466969,-0.022079,-0.010696,0.985352,-0.029987,0.048386,-0.013817,65.433243,33.4758,-144.980682,,,
729861856.964567,-0.377656,0.698751,122.463275,-0.022079,-0.010696,0.985352,-0.036589,0.011782,-0.011859,65.433243,33.4758,-144.980682,,,
729861856.967645,-0.377656,0.698751,122.463275,-0.02478,-0.009491,0.9814,-0.036589,0.011782,-0.011859,65.433243,33.4758,-144.980682,,,
729861856.97127,-0.388146,0.688697,122.459777,-0.02478,-0.009491,0.9814,-0.036589,0.011782,-0.011859,65.64064,33.68045,-145.344009,,,
729861856.974598,-0.399432,0.679528,122.456303,-0.02478,-0.009491,0.9814,-0.039551,-0.025961,-0.015196,65.64064,33.68045,-145.344009,,,
729861856.977877,-0.399432,0.679528,122.456303,-0.026672,-0.011459,0.987579,-0.039551,-0.025961,-0.015196,65.64064,33.68045,-145.344009,,,
729861856.981251,-0.408121,0.658481,122.452934,-0.026672,-0.011459,0.987579,-0.039551,-0.025961,-0.015196,65.64064,33.68045,-145.344009,,,
729861856.984561,-0.416803,0.64576,122.450266,-0.026672,-0.011459,0.987579,-0.029701,-0.043344,-0.011402,65.64064,33.68045,-145.344009,,,
729861856.987876,-0.416803,0.64576,122.450266,-0.027115,-0.013885,1.006607,-0.029701,-0.043344,-0.011402,65.64064,33.68045,-145.344009,,,
729861856.991243,-0.422155,0.625078,122.448464,-0.027115,-0.013885,1.006607,-0.029701,-0.043344,-0.011402,65.64064,33.68045,-145.344009,,,
729861856.99458,-0.42548,0.616474,122.448113,-0.027115,-0.013885,1.006607,-0.014999,-0.031509,-0.002297,65.64064,33.68045,-145.344009,,,
729861856.997878,-0.42548,0.616474,122.448113,-0.025589,-0.015198,1.025055,-0.014999,-0.031509,-0.002297,65.64064,33.68045,-145.344009,,,
729861857.000968,-0.424938,0.606308,122.448989,-0.025589,-0.015198,1.025055,-0.014999,-0.031509,-0.002297,65.64064,33.68045,-145.344009,,,
729861857.004627,-0.421263,0.608199,122.451241,-0.025589,-0.015198,1.025055,0.01059,0.002585,0.008875,65.64064,33.68045,-145.344009,,,
729861857.007946,-0.421263,0.61353,122.454605,-0.019547,-0.016937,1.033066,0.01059,0.002585,0.008875,65.64064,33.68045,-145.344009,,,
729861857.011291,-0.415298,0.61353,122.454605,-0.019547,-0.016937,1.033066,0.01059,0.002585,0.008875,65.550232,33.610413,-145.40239,,,
729861857.014619,-0.406991,0.625856,122.458367,-0.019547,-0.016937,1.033066,0.026986,0.041234,0.010028,65.550232,33.610413,-145.40239,,,
729861857.017895,-0.406991,0.625856,122.458367,-0.01445,-0.014862,1.027267,0.026986,0.041234,0.010028,65.550232,33.610413,-145.40239,,,
729861857.021275,-0.397674,0.641632,122.461894,-0.01445,-0.014862,1.027267,0.026986,0.041234,0.010028,65.550232,33.610413,-145.40239,,,
729861857.024591,-0.386865,0.657993,122.464938,-0.01445,-0.014862,1.027267,0.038213,0.058366,0.009539,65.550232,33.610413,-145.40239,,,
729861857.027915,-0.386865,0.657993,122.464938,-0.01387,-0.012726,1.013199,0.038213,0.058366,0.009539,65.550232,33.610413,-145.40239,,,
729861857.031217,-0.375891,0.676971,122.467035,-0.01387,-0.012726,1.013199,0.038213,0.058366,0.009539,65.550232,33.610413,-145.40239,,,
729861857.034663,-0.363861,0.690976,122.469042,-0.01387,-0.012726,1.013199,0.043901,0.053316,0.0086,65.550232,33.610413,-145.40239,,,
729861857.037917,-0.363861,0.690976,122.469042,-0.016266,-0.011261,1.003769,0.043901,0.053316,0.0086,65.550232,33.610413,-145.40239,,,
729861857.041323,-0.35235,0.705518,122.471164,-0.016266,-0.011261,1.003769,0.043901,0.053316,0.0086,65.550232,33.610413,-145.40239,,,
729861857.044562,-0.34118,0.709341,122.472525,-0.016266,-0.011261,1.003769,0.039726,0.025073,0.005069,65.550232,33.610413,-145.40239,,,
729861857.04796,-0.34118,0.709341,122.472525,-0.015961,-0.009003,0.991928,0.039726,0.025073,0.005069,65.550232,33.610413,-145.40239,,,
729861857.05125,-0.333068,0.711671,122.473272,-0.015961,-0.009003,0.991928,0.039726,0.025073,0.005069,65.579865,33.56398,-145.572342,,,
729861857.054563,-0.326627,0.700844,122.472955,-0.015961,-0.009003,0.991928,0.025037,-0.026165,-0.002717,65.579865,33.56398,-145.572342,,,
729861857.05789,-0.326627,0.700844,122.472955,-0.014984,-0.001114,0.983322,0.025037,-0.026165,-0.002717,65.579865,33.56398,-145.572342,,,
729861857.061223,-0.323569,0.688693,122.47108,-0.014984,-0.001114,0.983322,0.025037,-0.026165,-0.002717,65.579865,33.56398,-145.572342,,,
729861857.064552,-0.320936,0.664759,122.467525,-0.014984,-0.001114,0.983322,0.012041,-0.075883,-0.012891,65.579865,33.56398,-145.572342,,,
729861857.067648,-0.320936,0.664759,122.467525,-0.014984,-0.001114,0.983322,0.012041,-0.075883,-0.012891,65.579865,33.56398,-145.572342,,,
729861857.071356,-0.321413,0.643734,122.46208,-0.007675,0.001373,0.983521,0.012041,-0.075883,-0.012891,65.579865,33.56398,-145.572342,,,
729861857.074572,-0.3216,0.616277,122.454245,-0.007675,0.001373,0.983521,0.001175,-0.092908,-0.027057,65.579865,33.56398,-145.572342,,,
729861857.07789,-0.3216,0.616277,122.454245,0.002518,0.004776,0.99086,0.001175,-0.092908,-0.027057,65.579865,33.56398,-145.572342,,,
729861857.081223,-0.325113,0.596197,122.444657,0.002518,0.004776,0.99086,0.001175,-0.092908,-0.027057,65.579865,33.56398,-145.572342,,,
729861857.08453,-0.328566,0.57687,122.433705,0.002518,0.004776,0.99086,-0.010326,-0.07151,-0.038522,65.579865,33.56398,-145.572342,,,
729861857.087863,-0.328566,0.57687,122.433705,0.002518,0.004776,0.99086,-0.010326,-0.07151,-0.038522,65.579865,33.56398,-145.572342,,,
729861857.091179,-0.335995,0.569477,122.421836,0.010361,0.002716,0.995667,-0.010326,-0.07151,-0.038522,65.579865,33.56398,-145.572342,,,
729861857.094481,-0.343721,0.570268,122.409849,0.010361,0.002716,0.995667,-0.02407,-0.007462,-0.042782,65.418671,33.577118,-145.395615,,,
729861857.097977,-0.343721,0.570268,122.409849,0.009644,-0.000641,0.996582,-0.02407,-0.007462,-0.042782,65.418671,33.577118,-145.395615,,,
729861857.100977,-0.355736,0.58421,122.398655,0.009644,-0.000641,0.996582,-0.02407,-0.007462,-0.042782,65.418671,33.577118,-145.395615,,,
729861857.104593,-0.369451,0.608857,122.388925,0.009644,-0.000641,0.996582,-0.042787,0.078922,-0.036193,65.418671,33.577118,-145.395615,,,
729861857.107891,-0.369451,0.608857,122.388925,0.009644,-0.000641,0.996582,-0.042787,0.078922,-0.036193,65.418671,33.577118,-145.395615,,,
729861857.111138,-0.385959,0.646256,122.381145,0.001251,-0.002197,0.992615,-0.042787,0.078922,-0.036193,65.418671,33.577118,-145.395615,,,
729861857.114573,-0.401256,0.689837,122.376354,0.001251,-0.002197,0.992615,-0.052959,0.149087,-0.020494,65.418671,33.577118,-145.395615,,,
729861857.117984,-0.401256,0.689837,122.376354,0.001251,-0.002197,0.992615,-0.052959,0.149087,-0.020494,65.418671,33.577118,-145.395615,,,
729861857.12122,-0.416469,0.738447,122.374693,-0.014694,-0.009171,0.989899,-0.052959,0.149087,-0.020494,65.418671,33.577118,-145.395615,,,
729861857.124587,-0.429395,0.784231,122.375739,-0.014694,-0.009171,0.989899,-0.047989,0.169523,-0.001601,65.418671,33.577118,-145.395615,,,
729861857.127925,-0.429395,0.784231,122.375739,-0.014694,-0.009171,0.989899,-0.047989,0.169523,-0.001601,65.418671,33.577118,-145.395615,,,
729861857.131224,-0.439237,0.82671,122.378801,-0.027512,-0.015839,0.986008,-0.047989,0.169523,-0.001601,65.418671,33.577118,-145.395615,,,
729861857.134264,-0.446432,0.861796,122.383378,-0.027512,-0.015839,0.986008,-0.028133,0.132659,0.013162,65.526642,33.929565,-145.441681,,,
729861857.13798,-0.446432,0.861796,122.383378,-0.027512,-0.015839,0.986008,-0.028133,0.132659,0.013162,65.526642,33.929565,-145.441681,,,
729861857.141148,-0.449415,0.887296,122.388599,-0.036667,-0.017471,0.984726,-0.028133,0.132659,0.013162,65.526642,33.929565,-145.441681,,,
729861857.144597,-0.452144,0.902822,122.394121,-0.036667,-0.017471,0.984726,-0.011761,0.067932,0.01866,65.526642,33.929565,-145.441681,,,
729861857.147906,-0.452144,0.902822,122.394121,-0.036667,-0.017471,0.984726,-0.011761,0.067932,0.01866,65.526642,33.929565,-145.441681,,,
729861857.151314,-0.452131,0.901578,122.399867,-0.039307,-0.016037,0.979553,-0.011761,0.067932,0.01866,65.526642,33.929565,-145.441681,,,
729861857.154553,-0.454016,0.89357,122.405373,-0.039307,-0.016037,0.979553,-0.005158,-0.018361,0.01963,65.526642,33.929565,-145.441681,,,
729861857.157621,-0.454016,0.89357,122.405373,-0.039307,-0.016037,0.979553,-0.005158,-0.018361,0.01963,65.526642,33.929565,-145.441681,,,
729861857.161248,-0.454011,0.864567,122.410486,-0.03894,-0.015121,0.97168,-0.005158,-0.018361,0.01963,65.526642,33.929565,-145.441681,,,
729861857.164649,-0.457175,0.833806,122.414588,-0.03894,-0.015121,0.97168,-0.010176,-0.095988,0.013426,65.526642,33.929565,-145.441681,,,
729861857.167832,-0.457175,0.833806,122.414588,-0.03894,-0.015121,0.97168,-0.010176,-0.095988,0.013426,65.526642,33.929565,-145.441681,,,
729861857.171213,-0.45999,0.78514,122.417531,-0.030563,-0.011917,0.969635,-0.010176,-0.095988,0.013426,65.526642,33.929565,-145.441681,,,
729861857.174586,-0.465911,0.74228,122.419144,-0.030563,-0.011917,0.969635,-0.020442,-0.145245,0.004517,65.487762,33.766373,-145.295197,,,
729861857.177899,-0.465911,0.74228,122.419144,-0.030563,-0.011917,0.969635,-0.020442,-0.145245,0.004517,65.487762,33.766373,-145.295197,,,
729861857.181245,-0.471958,0.692,122.41864,-0.016403,-0.007568,0.974976,-0.020442,-0.145245,0.004517,65.487762,33.766373,-145.295197,,,
729861857.184553,-0.481155,0.651344,122.416643,-0.016403,-0.007568,0.974976,-0.028103,-0.144961,-0.007202,65.487762,33.766373,-145.295197,,,
729861857.18798,-0.481155,0.651344,122.416643,-0.016403,-0.007568,0.974976,-0.028103,-0.144961,-0.007202,65.487762,33.766373,-145.295197,,,
729861857.191228,-0.492534,0.615407,122.41416,-0.006073,-0.004547,0.986771,-0.028103,-0.144961,-0.007202,65.487762,33.766373,-145.295197,,,
729861857.194561,-0.506645,0.589937,122.41162,-0.006073,-0.004547,0.986771,-0.046944,-0.094053,-0.011033,65.487762,33.766373,-145.295197,,,
729861857.197918,-0.506645,0.589937,122.41162,-0.006073,-0.004547,0.986771,-0.046944,-0.094053,-0.011033,65.487762,33.766373,-145.295197,,,
729861857.201067,-0.523199,0.577057,122.409418,0.00325,-0.004822,0.997269,-0.046944,-0.094053,-0.011033,65.487762,33.766373,-145.295197,,,
729861857.204614,-0.541316,0.571822,122.407602,0.00325,-0.004822,0.997269,-0.060781,-0.023378,-0.008172,65.487762,33.766373,-145.295197,,,
729861857.207927,-0.541316,0.571822,122.407602,0.00325,-0.004822,0.997269,-0.060781,-0.023378,-0.008172,65.487762,33.766373,-145.295197,,,
729861857.211252,-0.561943,0.584177,122.405966,0.006073,-0.008255,1.005066,-0.060781,-0.023378,-0.008172,65.487762,33.766373,-145.295197,,,
729861857.21462,-0.581264,0.598986,122.404996,0.006073,-0.008255,1.005066,-0.066484,0.049148,-0.006927,65.487762,33.766373,-145.295197,,,
729861857.217898,-0.581264,0.598986,122.404996,0.006073,-0.008255,1.005066,-0.066484,0.049148,-0.006927,65.478912,33.784378,-145.215454,,,
729861857.221209,-0.601049,0.632371,122.404324,0.004807,-0.0112,1.014542,-0.066484,0.049148,-0.006927,65.478912,33.784378,-145.215454,,,
729861857.224535,-0.618719,0.659579,122.403082,0.004807,-0.0112,1.014542,-0.06185,0.095747,-0.006162,65.478912,33.784378,-145.215454,,,
729861857.227649,-0.618719,0.659579,122.403082,0.004807,-0.0112,1.014542,-0.06185,0.095747,-0.006162,65.478912,33.784378,-145.215454,,,
729861857.231241,-0.635982,0.700048,122.401643,0.002029,-0.014954,1.01799,-0.06185,0.095747,-0.006162,65.478912,33.784378,-145.215454,,,
729861857.234218,-0.650727,0.728298,122.399462,0.002029,-0.014954,1.01799,-0.050686,0.101539,-0.006597,65.478912,33.784378,-145.215454,,,
729861857.237921,-0.650727,0.728298,122.399462,0.002029,-0.014954,1.01799,-0.050686,0.101539,-0.006597,65.478912,33.784378,-145.215454,,,
729861857.241207,-0.664113,0.763057,122.397069,-0.001297,-0.016449,1.014679,-0.050686,0.101539,-0.006597,65.478912,33.784378,-145.215454,,,
729861857.244569,-0.674769,0.783144,122.393977,-0.001297,-0.016449,1.014679,-0.042286,0.077213,-0.01149,65.478912,33.784378,-145.215454,,,
729861857.247893,-0.674769,0.783144,122.393977,-0.001297,-0.016449,1.014679,-0.042286,0.077213,-0.01149,65.478912,33.784378,-145.215454,,,
729861857.25122,-0.683335,0.803332,122.390612,-0.012253,-0.018143,1.007401,-0.042286,0.077213,-0.01149,65.478912,33.784378,-145.215454,,,
729861857.254565,-0.689555,0.813419,122.388529,-0.012253,-0.018143,1.007401,-0.02288,0.042941,-0.007493,65.478912,33.784378,-145.215454,,,
729861857.2579,-0.689555,0.813419,122.388529,-0.012253,-0.018143,1.007401,-0.02288,0.042941,-0.007493,65.717224,33.942749,-145.194397,,,
729861857.261217,-0.692217,0.817591,122.387902,-0.020309,-0.019882,1.004471,-0.02288,0.042941,-0.007493,65.717224,33.942749,-145.194397,,,
729861857.264552,-0.693493,0.817077,122.38862,-0.020309,-0.019882,1.004471,-0.008011,0.007629,-0.002096,65.717224,33.942749,-145.194397,,,
729861857.267613,-0.693493,0.817077,122.38862,-0.020309,-0.019882,1.004471,-0.008011,0.007629,-0.002096,65.717224,33.942749,-145.194397,,,
729861857.271284,-0.691248,0.806705,122.390226,-0.025192,-0.021912,1.005814,-0.008011,0.007629,-0.002096,65.717224,33.942749,-145.194397,,,
729861857.274563,-0.688992,0.7973,122.391748,-0.025192,-0.021912,1.005814,0.008302,-0.028626,0.004294,65.717224,33.942749,-145.194397,,,
729861857.277915,-0.688992,0.7973,122.391748,-0.025192,-0.021912,1.005814,0.008302,-0.028626,0.004294,65.717224,33.942749,-145.194397,,,
729861857.281264,-0.684803,0.777847,122.392343,-0.022781,-0.016495,1.002396,0.008302,-0.028626,0.004294,65.717224,33.942749,-145.194397,,,
729861857.284631,-0.681811,0.765064,122.3912,-0.022781,-0.016495,1.002396,0.009206,-0.042684,-0.00324,65.717224,33.942749,-145.194397,,,
729861857.287998,-0.681811,0.765064,122.3912,-0.022781,-0.016495,1.002396,0.009206,-0.042684,-0.00324,65.717224,33.942749,-145.194397,,,
729861857.291256,-0.678991,0.744742,122.388421,-0.016479,-0.008591,0.999451,0.009206,-0.042684,-0.00324,65.717224,33.942749,-145.194397,,,
729861857.29456,-0.678149,0.732689,122.384537,-0.016479,-0.008591,0.999451,0.00341,-0.040249,-0.014503,65.717224,33.942749,-145.194397,,,
729861857.297955,-0.678149,0.732689,122.384537,-0.016479,-0.008591,0.999451,0.00341,-0.040249,-0.014503,65.538239,33.938614,-145.285324,,,
729861857.301289,-0.679471,0.715414,122.379685,-0.009964,-0.004486,0.994034,0.00341,-0.040249,-0.014503,65.538239,33.938614,-145.285324,,,
729861857.304549,-0.683773,0.707802,122.374504,-0.009964,-0.004486,0.994034,-0.012689,-0.026149,-0.019224,65.538239,33.938614,-145.285324,,,
729861857.307915,-0.683773,0.707802,122.374504,-0.009964,-0.004486,0.994034,-0.012689,-0.026149,-0.019224,65.538239,33.938614,-145.285324,,,
729861857.311285,-0.691584,0.698544,122.369132,-0.008972,-0.004486,0.988541,-0.012689,-0.026149,-0.019224,65.538239,33.938614,-145.285324,,,
729861857.314545,-0.700213,0.699112,122.364572,-0.008972,-0.004486,0.988541,-0.028624,0.002398,-0.019489,65.538239,33.938614,-145.285324,,,
729861857.317899,-0.700213,0.699112,122.364572,-0.008972,-0.004486,0.988541,-0.028624,0.002398,-0.019489,65.538239,33.938614,-145.285324,,,
729861857.321228,-0.710911,0.702276,122.360814,-0.009537,-0.00705,0.991089,-0.028624,0.002398,-0.019489,65.538239,33.938614,-145.285324,,,
729861857.324554,-0.720901,0.714055,122.357939,-0.009537,-0.00705,0.991089,-0.033463,0.039036,-0.013057,65.538239,33.938614,-145.285324,,,
729861857.327896,-0.720901,0.714055,122.357939,-0.009537,-0.00705,0.991089,-0.033463,0.039036,-0.013057,65.538239,33.938614,-145.285324,,,
729861857.331231,-0.730817,0.731268,122.356277,-0.012192,-0.012024,0.998474,-0.033463,0.039036,-0.013057,65.538239,33.938614,-145.285324,,,
729861857.334275,-0.738402,0.750482,122.355357,-0.012192,-0.012024,0.998474,-0.027021,0.066516,-0.006409,65.538239,33.938614,-145.285324,,,
729861857.337924,-0.738402,0.750482,122.355357,-0.012192,-0.012024,0.998474,-0.027021,0.066516,-0.006409,65.498627,34.003937,-145.348999,,,
729861857.341215,-0.744425,0.774567,122.354963,-0.011932,-0.015732,1.008072,-0.027021,0.066516,-0.006409,65.498627,34.003937,-145.348999,,,
729861857.344579,-0.743473,0.795135,122.354351,-0.011932,-0.015732,1.008072,-0.000913,0.072924,-0.002986,65.498627,34.003937,-145.348999,,,
729861857.347983,-0.743473,0.795135,122.354351,-0.011932,-0.015732,1.008072,-0.000913,0.072924,-0.002986,65.498627,34.003937,-145.348999,,,
729861857.35125,-0.737607,0.8194,122.352768,-0.01091,-0.01915,1.023636,-0.000913,0.072924,-0.002986,65.498627,34.003937,-145.348999,,,
729861857.354563,-0.721993,0.838533,122.350601,-0.01091,-0.01915,1.023636,0.047468,0.068242,-0.00543,65.498627,34.003937,-145.348999,,,
729861857.357921,-0.721993,0.838533,122.350601,-0.01091,-0.01915,1.023636,0.047468,0.068242,-0.00543,65.498627,34.003937,-145.348999,,,
729861857.361301,-0.696097,0.86003,122.348654,-0.011902,-0.022659,1.044022,0.047468,0.068242,-0.00543,65.498627,34.003937,-145.348999,,,
729861857.364548,-0.657601,0.880938,122.347785,-0.011902,-0.022659,1.044022,0.119589,0.074232,-0.005767,65.498627,34.003937,-145.348999,,,
729861857.367593,-0.657601,0.880938,122.347785,-0.011902,-0.022659,1.044022,0.119589,0.074232,-0.005767,65.498627,34.003937,-145.348999,,,
729861857.371283,-0.604078,0.904491,122.349541,-0.017838,-0.029144,1.069611,0.119589,0.074232,-0.005767,65.498627,34.003937,-145.348999,,,
729861857.374546,-0.534324,0.933333,122.354347,-0.017838,-0.029144,1.069611,0.226104,0.09777,0.017261,65.498627,34.003937,-145.348999,,,
729861857.377909,-0.534324,0.933333,122.354347,-0.017838,-0.029144,1.069611,0.226104,0.09777,0.017261,65.498627,34.003937,-145.348999,,,
729861857.381234,-0.443876,0.968628,122.361894,-0.025864,-0.038177,1.107025,0.226104,0.09777,0.017261,65.712097,33.649719,-145.566986,,,
729861857.384556,-0.331211,1.014159,122.372836,-0.025864,-0.038177,1.107025,0.373737,0.153784,0.040452,65.712097,33.649719,-145.566986,,,
729861857.387957,-0.331211,1.014159,122.372836,-0.025864,-0.038177,1.107025,0.373737,0.153784,0.040452,65.712097,33.649719,-145.566986,,,
729861857.391264,-0.196395,1.068362,122.386967,-0.028015,-0.048019,1.154022,0.373737,0.153784,0.040452,65.712097,33.649719,-145.566986,,,
729861857.394558,-0.042306,1.1299,122.403625,-0.028015,-0.048019,1.154022,0.523519,0.212971,0.064156,65.712097,33.649719,-145.566986,,,
729861857.397987,-0.042306,1.1299,122.403625,-0.028015,-0.048019,1.154022,0.523519,0.212971,0.064156,65.712097,33.649719,-145.566986,,,
729861857.400944,0.125703,1.194761,122.421709,-0.031174,-0.048004,1.170639,0.523519,0.212971,0.064156,65.712097,33.649719,-145.566986,,,
729861857.404595,0.303764,1.261022,122.440008,-0.031174,-0.048004,1.170639,0.612782,0.236433,0.076262,65.712097,33.649719,-145.566986,,,
729861857.407987,0.303764,1.261022,122.440008,-0.031174,-0.048004,1.170639,0.612782,0.236433,0.076262,65.712097,33.649719,-145.566986,,,
729861857.411288,0.48989,1.325259,122.457274,-0.035217,-0.034744,1.134903,0.612782,0.236433,0.076262,65.712097,33.649719,-145.566986,,,
729861857.414544,0.685202,1.385555,122.472091,-0.035217,-0.034744,1.134903,0.673909,0.218037,0.067116,65.712097,33.649719,-145.566986,,,
729861857.417899,0.685202,1.385555,122.472091,-0.035217,-0.034744,1.134903,0.673909,0.218037,0.067116,65.712097,33.649719,-145.566986,,,
729861857.421234,0.889925,1.437907,122.484518,-0.032837,-0.018311,1.096848,0.673909,0.218037,0.067116,66.184875,32.494217,-146.288818,,,
729861857.424551,1.1033,1.479546,122.49535,-0.032837,-0.018311,1.096848,0.738025,0.161277,0.054255,66.184875,32.494217,-146.288818,,,
729861857.427993,1.1033,1.479546,122.49535,-0.032837,-0.018311,1.096848,0.738025,0.161277,0.054255,66.184875,32.494217,-146.288818,,,
729861857.431238,1.319848,1.506742,122.505295,-0.033981,-0.002518,1.078476,0.738025,0.161277,0.054255,66.184875,32.494217,-146.288818,,,
729861857.434293,1.53709,1.520478,122.514281,-0.033981,-0.002518,1.078476,0.757674,0.062231,0.049788,66.184875,32.494217,-146.288818,,,
729861857.43793,1.53709,1.520478,122.514281,-0.033981,-0.002518,1.078476,0.757674,0.062231,0.049788,66.184875,32.494217,-146.288818,,,
729861857.441229,1.751744,1.52269,122.522124,-0.036835,0.008789,1.039169,0.757674,0.062231,0.049788,66.184875,32.494217,-146.288818,,,
729861857.444562,1.962987,1.517097,122.528136,-0.036835,0.008789,1.039169,0.735806,-0.013106,0.041137,66.184875,32.494217,-146.288818,,,
729861857.447934,1.962987,1.517097,122.528136,-0.036835,0.008789,1.039169,0.735806,-0.013106,0.041137,66.184875,32.494217,-146.288818,,,
729861857.451238,2.173362,1.508403,122.532288,-0.035568,0.02594,1.013824,0.735806,-0.013106,0.041137,66.184875,32.494217,-146.288818,,,
729861857.454559,2.387115,1.50016,122.534534,-0.035568,0.02594,1.013824,0.737849,-0.028592,0.028415,66.184875,32.494217,-146.288818,,,
729861857.457892,2.387115,1.50016,122.534534,-0.035568,0.02594,1.013824,0.737849,-0.028592,0.028415,66.184875,32.494217,-146.288818,,,
729861857.461228,2.607333,1.494347,122.534594,-0.030045,0.030594,1.040085,0.737849,-0.028592,0.028415,66.049988,30.978806,-146.284698,,,
729861857.464561,2.83643,1.491908,122.532715,-0.030045,0.030594,1.040085,0.790624,-0.009587,0.015607,66.049988,30.978806,-146.284698,,,
729861857.467899,2.83643,1.491908,122.532715,-0.030045,0.030594,1.040085,0.790624,-0.009587,0.015607,66.049988,30.978806,-146.284698,,,
729861857.471222,3.075948,1.494035,122.528201,-0.018005,0.030075,1.081024,0.790624,-0.009587,0.015607,66.049988,30.978806,-146.284698,,,
729861857.474562,3.32645,1.500361,122.520747,-0.018005,0.030075,1.081024,0.861548,0.018863,-0.000887,66.049988,30.978806,-146.284698,,,
729861857.477907,3.32645,1.500361,122.520747,-0.018005,0.030075,1.081024,0.861548,0.018863,-0.000887,66.049988,30.978806,-146.284698,,,
729861857.481299,3.588538,1.510957,122.5103,-0.011932,0.03476,1.09346,0.861548,0.018863,-0.000887,66.049988,30.978806,-146.284698,,,
729861857.484546,3.862271,1.524822,122.497427,-0.011932,0.03476,1.09346,0.944828,0.046431,-0.019916,66.049988,30.978806,-146.284698,,,
729861857.487966,3.862271,1.524822,122.497427,-0.011932,0.03476,1.09346,0.944828,0.046431,-0.019916,66.049988,30.978806,-146.284698,,,
729861857.491221,4.147374,1.540063,122.482566,-0.014267,0.037567,1.094193,0.944828,0.046431,-0.019916,66.049988,30.978806,-146.284698,,,
729861857.494554,4.44328,1.55486,122.465909,-0.014267,0.037567,1.094193,1.023745,0.050496,-0.026983,66.049988,30.978806,-146.284698,,,
729861857.497889,4.44328,1.55486,122.465909,-0.014267,0.037567,1.094193,1.023745,0.050496,-0.026983,66.049988,30.978806,-146.284698,,,
729861857.501016,4.748363,1.568339,122.448045,-0.021225,0.03949,1.083298,1.023745,0.050496,-0.026983,66.049988,30.978806,-146.284698,,,
729861857.50458,5.062619,1.579469,122.428759,-0.021225,0.03949,1.083298,1.08996,0.041083,-0.039045,66.282623,28.829575,-146.748398,,,
729861857.507893,5.062619,1.579469,122.428759,-0.021225,0.03949,1.083298,1.08996,0.041083,-0.039045,66.282623,28.829575,-146.748398,,,
729861857.511244,5.384296,1.587291,122.407713,-0.024872,0.053711,1.066315,1.08996,0.041083,-0.039045,66.282623,28.829575,-146.748398,,,
729861857.514602,5.708347,1.589631,122.385491,-0.024872,0.053711,1.066315,1.132694,0.008221,-0.045727,66.282623,28.829575,-146.748398,,,
729861857.517995,5.708347,1.589631,122.385491,-0.024872,0.053711,1.066315,1.132694,0.008221,-0.045727,66.282623,28.829575,-146.748398,,,
729861857.52125,6.030027,1.586721,122.362245,-0.027954,0.069397,1.043594,1.132694,0.008221,-0.045727,66.282623,28.829575,-146.748398,,,
729861857.524578,6.347773,1.578712,122.338152,-0.027954,0.069397,1.043594,1.10979,-0.030892,-0.054032,66.282623,28.829575,-146.748398,,,
729861857.527877,6.347773,1.578712,122.338152,-0.027954,0.069397,1.043594,1.10979,-0.030892,-0.054032,66.282623,28.829575,-146.748398,,,
729861857.531237,6.661377,1.566553,122.312842,-0.028091,0.092453,0.998932,1.10979,-0.030892,-0.054032,66.282623,28.829575,-146.748398,,,
729861857.534274,6.970858,1.550906,122.286357,-0.028091,0.092453,0.998932,1.081737,-0.061159,-0.062483,66.282623,28.829575,-146.748398,,,
729861857.538013,6.970858,1.550906,122.286357,-0.028091,0.092453,0.998932,1.081737,-0.061159,-0.062483,66.282623,28.829575,-146.748398,,,
729861857.541236,7.277073,1.533488,122.259747,-0.024323,0.108459,0.986374,1.081737,-0.061159,-0.062483,66.282623,28.829575,-146.748398,,,
729861857.544572,7.58132,1.516293,122.234358,-0.024323,0.108459,0.986374,1.061189,-0.070508,-0.061708,66.226395,26.649826,-147.19014,,,
729861857.547908,7.58132,1.516293,122.234358,-0.024323,0.108459,0.986374,1.061189,-0.070508,-0.061708,66.226395,26.649826,-147.19014,,,
729861857.551264,7.888807,1.501215,122.210576,-0.024643,0.098572,0.992737,1.061189,-0.070508,-0.061708,66.226395,26.649826,-147.19014,,,
729861857.554571,8.204629,1.489743,122.187588,-0.024643,0.098572,0.992737,1.094621,-0.053021,-0.051744,66.226395,26.649826,-147.19014,,,
729861857.557898,8.204629,1.489743,122.187588,-0.024643,0.098572,0.992737,1.094621,-0.053021,-0.051744,66.226395,26.649826,-147.19014,,,
729861857.561244,8.52797,1.483806,122.164711,-0.024521,0.102249,1.02327,1.094621,-0.053021,-0.051744,66.226395,26.649826,-147.19014,,,
729861857.564561,8.853819,1.482017,122.141739,-0.024521,0.102249,1.02327,1.137955,-0.01789,-0.050607,66.226395,26.649826,-147.19014,,,
729861857.567631,8.853819,1.482017,122.141739,-0.024521,0.102249,1.02327,1.137955,-0.01789,-0.050607,66.226395,26.649826,-147.19014,,,
729861857.57128,9.17855,1.482969,122.118892,-0.017929,0.153442,1.050858,1.137955,-0.01789,-0.050607,66.226395,26.649826,-147.19014,,,
729861857.574315,9.502898,1.484891,122.095534,-0.017929,0.153442,1.050858,1.132206,-0.002678,-0.05196,66.226395,26.649826,-147.19014,,,
729861857.578035,9.502898,1.484891,122.095534,-0.017929,0.153442,1.050858,1.132206,-0.002678,-0.05196,66.226395,26.649826,-147.19014,,,
729861857.581247,9.82974,1.486151,122.070619,-0.015625,0.136414,1.014389,1.132206,-0.002678,-0.05196,66.226395,26.649826,-147.19014,,,
729861857.584564,10.161121,1.486707,122.044266,-0.015625,0.136414,1.014389,1.149597,-0.010354,-0.058546,66.30986,24.583344,-147.825958,,,
729861857.587889,10.161121,1.486707,122.044266,-0.015625,0.136414,1.014389,1.149597,-0.010354,-0.058546,66.30986,24.583344,-147.825958,,,
729861857.591297,10.497925,1.487468,122.016161,-0.014984,0.142273,1.013855,1.149597,-0.010354,-0.058546,66.30986,24.583344,-147.825958,,,
729861857.594549,10.840771,1.486645,121.986875,-0.014984,0.142273,1.013855,1.191406,-0.016097,-0.06941,66.30986,24.583344,-147.825958,,,
729861857.597907,10.840771,1.486645,121.986875,-0.014984,0.142273,1.013855,1.191406,-0.016097,-0.06941,66.30986,24.583344,-147.825958,,,
729861857.600965,11.189151,1.484018,121.956086,-0.014328,0.1465,1.034393,1.191406,-0.016097,-0.06941,66.30986,24.583344,-147.825958,,,
729861857.604666,11.542238,1.478826,121.922959,-0.014328,0.1465,1.034393,1.230672,-0.034235,-0.07952,66.30986,24.583344,-147.825958,,,
729861857.607954,11.542238,1.478826,121.922959,-0.014328,0.1465,1.034393,1.230672,-0.034235,-0.07952,66.30986,24.583344,-147.825958,,,
729861857.611226,11.899016,1.47198,121.88762,-0.012955,0.152847,1.031723,1.230672,-0.034235,-0.07952,66.30986,24.583344,-147.825958,,,
729861857.614567,12.259121,1.463581,121.849778,-0.012955,0.152847,1.031723,1.253546,-0.054395,-0.09573,66.30986,24.583344,-147.825958,,,
729861857.617902,12.259121,1.463581,121.849778,-0.012955,0.152847,1.031723,1.253546,-0.054395,-0.09573,66.30986,24.583344,-147.825958,,,
729861857.621234,12.622405,1.455399,121.809315,-0.00972,0.169952,1.019012,1.253546,-0.054395,-0.09573,66.30986,24.583344,-147.825958,,,
729861857.624579,12.990474,1.4488,121.767392,-0.00972,0.169952,1.019012,1.278298,-0.054001,-0.109829,66.027847,22.169693,-147.987686,,,
729861857.627893,12.990474,1.4488,121.767392,-0.00972,0.169952,1.019012,1.278298,-0.054001,-0.109829,66.027847,22.169693,-147.987686,,,
729861857.631198,13.365253,1.444808,121.72397,-0.009354,0.184067,1.017548,1.278298,-0.054001,-0.109829,66.027847,22.169693,-147.987686,,,
729861857.634509,13.74837,1.442759,121.679557,-0.009354,0.184067,1.017548,1.330688,-0.043298,-0.116744,66.027847,22.169693,-147.987686,,,
729861857.637665,13.74837,1.442759,121.679557,-0.009354,0.184067,1.017548,1.330688,-0.043298,-0.116744,66.027847,22.169693,-147.987686,,,
729861857.64124,14.141177,1.443184,121.634697,-0.008728,0.188461,1.036362,1.330688,-0.043298,-0.116744,66.027847,22.169693,-147.987686,,,
729861857.644521,14.543012,1.445879,121.588992,-0.008728,0.188461,1.036362,1.396569,-0.027759,-0.12033,66.027847,22.169693,-147.987686,,,
729861857.647867,14.543012,1.445879,121.588992,-0.008728,0.188461,1.036362,1.396569,-0.027759,-0.12033,66.027847,22.169693,-147.987686,,,
729861857.65124,14.951708,1.451402,121.542036,-0.009583,0.191086,1.042435,1.396569,-0.027759,-0.12033,66.027847,22.169693,-147.987686,,,
729861857.654521,15.365695,1.458866,121.494728,-0.009583,0.191086,1.042435,1.443263,-0.016264,-0.122484,66.027847,22.169693,-147.987686,,,
729861857.657891,15.365695,1.458866,121.494728,-0.009583,0.191086,1.042435,1.443263,-0.016264,-0.122484,66.027847,22.169693,-147.987686,,,
729861857.661218,15.783181,1.469496,121.447095,-0.012161,0.201096,1.026215,1.443263,-0.016264,-0.122484,66.027847,22.169693,-147.987686,,,
729861857.66454,16.20412,1.483782,121.399005,-0.012161,0.201096,1.026215,1.467793,0.000935,-0.122459,66.027847,22.169693,-147.987686,,,
729861857.667659,16.20412,1.483782,121.399005,-0.012161,0.201096,1.026215,1.467793,0.000935,-0.122459,65.983368,19.117493,-147.975006,,,
729861857.671285,16.628753,1.504283,121.349865,-0.014542,0.220642,0.998856,1.467793,0.000935,-0.122459,65.983368,19.117493,-147.975006,,,
729861857.674557,17.058951,1.531745,121.300188,-0.014542,0.220642,0.998856,1.497447,0.040932,-0.1264,65.983368,19.117493,-147.975006,,,
729861857.677987,17.058951,1.531745,121.300188,-0.014542,0.220642,0.998856,1.497447,0.040932,-0.1264,65.983368,19.117493,-147.975006,,,
729861857.681228,17.496154,1.567762,121.250745,-0.017242,0.236084,0.99678,1.497447,0.040932,-0.1264,65.983368,19.117493,-147.975006,,,
729861857.684554,17.940678,1.610378,121.202261,-0.017242,0.236084,0.99678,1.545743,0.097067,-0.122443,65.983368,19.117493,-147.975006,,,
729861857.687907,17.940678,1.610378,121.202261,-0.017242,0.236084,0.99678,1.545743,0.097067,-0.122443,65.983368,19.117493,-147.975006,,,
729861857.691224,18.391784,1.657851,121.153386,-0.022079,0.238083,1.008865,1.545743,0.097067,-0.122443,65.983368,19.117493,-147.975006,,,
729861857.694594,18.851196,1.706757,121.103458,-0.022079,0.238083,1.008865,1.595964,0.116767,-0.117864,65.983368,19.117493,-147.975006,,,
729861857.697912,18.851196,1.706757,121.103458,-0.022079,0.238083,1.008865,1.595964,0.116767,-0.117864,65.983368,19.117493,-147.975006,,,
729861857.700972,19.318381,1.75609,121.050814,-0.022095,0.241241,0.997604,1.595964,0.116767,-0.117864,65.983368,19.117493,-147.975006,,,
729861857.704663,19.793994,1.803954,120.994219,-0.022095,0.241241,0.997604,1.654013,0.10945,-0.132131,65.983368,19.117493,-147.975006,,,
729861857.707902,19.793994,1.803954,120.994219,-0.022095,0.241241,0.997604,1.654013,0.10945,-0.132131,66.143433,15.95314,-147.964478,,,
729861857.711232,20.277102,1.851976,120.932018,-0.01619,0.258789,0.983429,1.654013,0.10945,-0.132131,66.143433,15.95314,-147.964478,,,
729861857.714621,20.766011,1.899605,120.863149,-0.01619,0.258789,0.983429,1.708452,0.085564,-0.162943,66.143433,15.95314,-147.964478,,,
729861857.717935,20.766011,1.899605,120.863149,-0.01619,0.258789,0.983429,1.708452,0.085564,-0.162943,66.143433,15.95314,-147.964478,,,
729861857.721228,21.258544,1.949446,120.787869,-0.013336,0.278458,0.965027,1.708452,0.085564,-0.162943,66.143433,15.95314,-147.964478,,,
729861857.724556,21.755454,2.001487,120.708292,-0.013336,0.278458,0.965027,1.734587,0.078509,-0.196971,66.143433,15.95314,-147.964478,,,
729861857.727897,21.755454,2.001487,120.708292,-0.013336,0.278458,0.965027,1.734587,0.078509,-0.196971,66.143433,15.95314,-147.964478,,,
729861857.73129,22.257178,2.059126,120.624552,-0.0168,0.297653,0.947342,1.734587,0.078509,-0.196971,66.143433,15.95314,-147.964478,,,
729861857.734381,22.257178,2.059126,120.537089,-0.0168,0.297653,0.947342,1.734587,0.078509,-0.196971,66.143433,15.95314,-147.964478,,,
729861857.737936,22.768398,2.122915,120.537089,-0.0168,0.297653,0.947342,1.781286,0.099164,-0.215563,66.143433,15.95314,-147.964478,,,
729861857.741225,23.29308,2.196202,120.446307,-0.020248,0.303329,0.959595,1.781286,0.099164,-0.215563,66.143433,15.95314,-147.964478,,,
729861857.744601,23.835229,2.281409,120.352546,-0.020248,0.303329,0.959595,1.882145,0.157665,-0.225918,66.143433,15.95314,-147.964478,,,
729861857.747881,23.835229,2.281409,120.352546,-0.020248,0.303329,0.959595,1.882145,0.157665,-0.225918,66.520905,12.127197,-147.711792,,,
729861857.751224,24.396745,2.383489,120.254912,-0.019745,0.294601,1.000916,1.882145,0.157665,-0.225918,66.520905,12.127197,-147.711792,,,
729861857.754618,24.979725,2.506296,120.15317,-0.019745,0.294601,1.000916,2.024065,0.262693,-0.234387,66.520905,12.127197,-147.711792,,,
729861857.75789,24.979725,2.506296,120.15317,-0.019745,0.294601,1.000916,2.024065,0.262693,-0.234387,66.520905,12.127197,-147.711792,,,
729861857.761243,25.581532,2.653669,120.045932,-0.014435,0.288132,1.035065,2.024065,0.262693,-0.234387,66.520905,12.127197,-147.711792,,,
729861857.764582,26.198673,2.822063,119.932927,-0.014435,0.288132,1.035065,2.155909,0.405207,-0.249975,66.520905,12.127197,-147.711792,,,
729861857.767728,26.198673,2.822063,119.932927,-0.014435,0.288132,1.035065,2.155909,0.405207,-0.249975,66.520905,12.127197,-147.711792,,,
729861857.771263,26.825974,3.008007,119.812112,0.003448,0.297989,1.036072,2.155909,0.405207,-0.249975,66.520905,12.127197,-147.711792,,,
729861857.774578,26.825974,3.206447,119.682246,0.003448,0.297989,1.036072,2.224912,0.484875,-0.276583,66.520905,12.127197,-147.711792,,,
729861857.77791,27.46038,3.206447,119.682246,0.003448,0.297989,1.036072,2.224912,0.484875,-0.276583,66.520905,12.127197,-147.711792,,,
729861857.781322,28.0994,3.415258,119.54131,0.003189,0.325882,0.96843,2.224912,0.484875,-0.276583,66.520905,12.127197,-147.711792,,,
729861857.784579,28.745893,3.631131,119.388626,0.003189,0.325882,0.96843,2.267876,0.50203,-0.324284,66.520905,12.127197,-147.711792,,,
729861857.787897,28.745893,3.631131,119.388626,0.003189,0.325882,0.96843,2.267876,0.50203,-0.324284,66.520905,12.127197,-147.711792,,,
729861857.79125,29.400515,3.854763,119.222908,0.000977,0.360703,0.916794,2.267876,0.50203,-0.324284,67.448715,7.462006,-146.90741,,,
729861857.794626,29.400515,4.084358,119.045144,0.000977,0.360703,0.916794,2.267876,0.497698,-0.371339,67.448715,7.462006,-146.90741,,,
729861857.797888,30.065738,4.084358,119.045144,0.000977,0.360703,0.916794,2.339952,0.497698,-0.371339,67.448715,7.462006,-146.90741,,,
729861857.800932,30.739861,4.319716,118.856087,-0.003723,0.379059,0.91214,2.339952,0.497698,-0.371339,67.448715,7.462006,-146.90741,,,
729861857.804689,31.421876,4.559468,118.657986,-0.003723,0.379059,0.91214,2.41165,0.483112,-0.403993,67.448715,7.462006,-146.90741,,,
729861857.807955,31.421876,4.559468,118.657986,-0.003723,0.379059,0.91214,2.41165,0.483112,-0.403993,67.448715,7.462006,-146.90741,,,
729861857.811241,32.107009,4.804492,118.45289,-0.024231,0.385422,0.89949,2.41165,0.483112,-0.403993,67.448715,7.462006,-146.90741,,,
729861857.814622,32.107009,4.804492,118.242795,-0.024231,0.385422,0.89949,2.433357,0.483972,-0.412016,67.448715,7.462006,-146.90741,,,
729861857.817894,32.792033,5.056506,118.242795,-0.024231,0.385422,0.89949,2.433357,0.483972,-0.412016,67.448715,7.462006,-146.90741,,,
729861857.821307,33.4713,5.318662,118.029096,-0.044815,0.409958,0.843781,2.433357,0.483972,-0.412016,67.448715,7.462006,-146.90741,,,
729861857.824607,33.4713,5.318662,117.81494,-0.044815,0.409958,0.843781,2.392526,0.528562,-0.40166,67.448715,7.462006,-146.90741,,,
729861857.827895,34.141174,5.589654,117.81494,-0.044815,0.409958,0.843781,2.392526,0.528562,-0.40166,67.448715,7.462006,-146.90741,,,
729861857.831228,34.795962,5.866805,117.603865,-0.063049,0.45369,0.781769,2.392526,0.528562,-0.40166,69.083527,2.531357,-145.230927,,,
729861857.834283,34.795962,5.866805,117.603865,-0.063049,0.45369,0.781769,2.392526,0.528562,-0.40166,69.083527,2.531357,-145.230927,,,
729861857.837945,35.434203,6.144975,117.398918,-0.063049,0.45369,0.781769,2.286275,0.561215,-0.357491,69.083527,2.531357,-145.230927,,,
729861857.841229,36.05445,6.419073,117.201046,-0.090744,0.499863,0.710052,2.286275,0.561215,-0.357491,69.083527,2.531357,-145.230927,,,
729861857.844558,36.05445,6.419073,117.201046,-0.090744,0.499863,0.710052,2.157202,0.541402,-0.295428,69.083527,2.531357,-145.230927,,,
729861857.847889,36.654574,6.682352,117.013316,-0.090744,0.499863,0.710052,2.157202,0.541402,-0.295428,69.083527,2.531357,-145.230927,,,
729861857.851223,37.231122,6.932002,116.83777,-0.120422,0.540253,0.654404,2.157202,0.541402,-0.295428,69.083527,2.531357,-145.230927,,,
729861857.854562,37.231122,6.932002,116.83777,-0.120422,0.540253,0.654404,1.991403,0.481594,-0.223173,69.083527,2.531357,-145.230927,,,
729861857.857956,37.787428,7.168016,116.673138,-0.120422,0.540253,0.654404,1.991403,0.481594,-0.223173,69.083527,2.531357,-145.230927,,,
729861857.86091,38.331102,7.391622,116.516942,-0.141541,0.572662,0.618088,1.991403,0.481594,-0.223173,69.083527,2.531357,-145.230927,,,
729861857.864699,38.331102,7.391622,116.369354,-0.141541,0.572662,0.618088,1.991403,0.481594,-0.223173,69.083527,2.531357,-145.230927,,,
729861857.867681,38.866846,7.601201,116.369354,-0.141541,0.572662,0.618088,1.910711,0.423491,-0.164676,69.083527,2.531357,-145.230927,,,
729861857.87127,39.392069,7.794309,116.231584,-0.145203,0.596405,0.643417,1.910711,0.423491,-0.164676,70.114975,-1.509293,-143.973831,,,
729861857.874566,39.392069,7.794309,116.231584,-0.145203,0.596405,0.643417,1.910711,0.423491,-0.164676,70.114975,-1.509293,-143.973831,,,
729861857.877915,39.904487,7.969689,116.104195,-0.145203,0.596405,0.643417,1.829684,0.341735,-0.103566,70.114975,-1.509293,-143.973831,,,
729861857.881236,40.405391,8.127188,115.986911,-0.154922,0.601868,0.652557,1.829684,0.341735,-0.103566,70.114975,-1.509293,-143.973831,,,
729861857.884596,40.405391,8.127188,115.986911,-0.154922,0.601868,0.652557,1.829684,0.341735,-0.103566,70.114975,-1.509293,-143.973831,,,
729861857.887897,40.898217,8.268334,115.878903,-0.154922,0.601868,0.652557,1.742868,0.257544,-0.0467,70.114975,-1.509293,-143.973831,,,
729861857.891086,41.384786,8.396846,115.778461,-0.148514,0.614044,0.642105,1.742868,0.257544,-0.0467,70.114975,-1.509293,-143.973831,,,
729861857.894728,41.384786,8.396846,115.778461,-0.148514,0.614044,0.642105,1.742868,0.257544,-0.0467,70.114975,-1.509293,-143.973831,,,
729861857.897945,41.867304,8.517977,115.683886,-0.148514,0.614044,0.642105,1.699659,0.204942,-0.000641,70.114975,-1.509293,-143.973831,,,
729861857.900975,42.3483,8.637292,115.594118,-0.140594,0.626724,0.673386,1.699659,0.204942,-0.000641,70.114975,-1.509293,-143.973831,,,
729861857.90461,42.3483,8.637292,115.594118,-0.140594,0.626724,0.673386,1.699659,0.204942,-0.000641,70.114975,-1.509293,-143.973831,,,
729861857.907893,42.828317,8.756621,115.509584,-0.140594,0.626724,0.673386,1.689787,0.214017,0.034937,70.114975,-1.509293,-143.973831,,,
729861857.911232,43.305222,8.876044,115.430849,-0.134827,0.627228,0.713394,1.689787,0.214017,0.034937,70.54126,-4.563843,-142.841476,,,
729861857.91461,43.305222,8.876044,115.430849,-0.134827,0.627228,0.713394,1.689787,0.214017,0.034937,70.54126,-4.563843,-142.841476,,,
729861857.917898,43.777997,8.995966,115.358019,-0.134827,0.627228,0.713394,1.660352,0.241415,0.067416,70.54126,-4.563843,-142.841476,,,
729861857.921229,44.245982,9.116847,115.28983,-0.129547,0.630798,0.716797,1.660352,0.241415,0.067416,70.54126,-4.563843,-142.841476,,,
729861857.924639,44.245982,9.116847,115.28983,-0.129547,0.630798,0.716797,1.660352,0.241415,0.067416,70.54126,-4.563843,-142.841476,,,
729861857.927902,44.707363,9.236721,115.224963,-0.129547,0.630798,0.716797,1.620722,0.261963,0.095095,70.54126,-4.563843,-142.841476,,,
729861857.931226,45.158954,9.353532,115.161613,-0.12854,0.648453,0.701126,1.620722,0.261963,0.095095,70.54126,-4.563843,-142.841476,,,
729861857.934294,45.158954,9.353532,115.161613,-0.12854,0.648453,0.701126,1.620722,0.261963,0.095095,70.54126,-4.563843,-142.841476,,,
729861857.937995,45.59918,9.465905,115.098056,-0.12854,0.648453,0.701126,1.549538,0.242362,0.098379,70.54126,-4.563843,-142.841476,,,
729861857.941216,46.028598,9.574884,115.031653,-0.120773,0.676132,0.657379,1.549538,0.242362,0.098379,70.54126,-4.563843,-142.841476,,,
729861857.944614,46.028598,9.574884,115.031653,-0.120773,0.676132,0.657379,1.549538,0.242362,0.098379,70.54126,-4.563843,-142.841476,,,
729861857.947905,46.448637,9.680351,114.962103,-0.120773,0.676132,0.657379,1.476872,0.203063,0.079631,70.54126,-4.563843,-142.841476,,,
729861857.951226,46.859843,9.78245,114.889341,-0.115112,0.707703,0.620834,1.476872,0.203063,0.079631,70.733749,-7.561615,-140.914276,,,
729861857.954555,46.859843,9.78245,114.889341,-0.115112,0.707703,0.620834,1.476872,0.203063,0.079631,70.733749,-7.561615,-140.914276,,,
729861857.957903,47.262777,9.881772,114.814361,-0.115112,0.707703,0.620834,1.419642,0.163622,0.065282,70.733749,-7.561615,-140.914276,,,
729861857.961302,47.655675,9.977522,114.738907,-0.115417,0.725937,0.614166,1.419642,0.163622,0.065282,70.733749,-7.561615,-140.914276,,,
729861857.964448,47.655675,9.977522,114.738907,-0.115417,0.725937,0.614166,1.419642,0.163622,0.065282,70.733749,-7.561615,-140.914276,,,
729861857.96766,48.035425,10.068675,114.663625,-0.115417,0.725937,0.614166,1.348522,0.132007,0.058164,70.733749,-7.561615,-140.914276,,,
729861857.971285,48.398646,10.157044,114.58692,-0.113892,0.739304,0.581512,1.348522,0.132007,0.058164,70.733749,-7.561615,-140.914276,,,
729861857.974579,48.398646,10.157044,114.58692,-0.113892,0.739304,0.581512,1.348522,0.132007,0.058164,70.733749,-7.561615,-140.914276,,,
729861857.977973,48.74242,10.242854,114.507851,-0.113892,0.739304,0.581512,1.229944,0.100911,0.034955,70.733749,-7.561615,-140.914276,,,
729861857.981223,49.063836,10.327486,114.426905,-0.103439,0.767166,0.529648,1.229944,0.100911,0.034955,70.733749,-7.561615,-140.914276,,,
729861857.984582,49.063836,10.327486,114.426905,-0.103439,0.767166,0.529648,1.229944,0.100911,0.034955,70.733749,-7.561615,-140.914276,,,
729861857.987915,49.361479,10.415274,114.345883,-0.103439,0.767166,0.529648,1.073225,0.086976,0.004254,70.733749,-7.561615,-140.914276,,,
729861857.99123,49.63699,10.511297,114.267179,-0.101974,0.798431,0.480286,1.073225,0.086976,0.004254,70.733749,-7.561615,-140.914276,,,
729861857.994559,49.63699,10.511297,114.267179,-0.101974,0.798431,0.480286,1.073225,0.086976,0.004254,71.037735,-9.583771,-139.463577,,,
729861857.99792,49.893693,10.61918,114.194357,-0.101974,0.798431,0.480286,0.92368,0.170307,-0.002801,71.037735,-9.583771,-139.463577,,,
729861858.001235,50.134609,10.737792,114.132758,-0.112076,0.803207,0.488876,0.92368,0.170307,-0.002801,71.037735,-9.583771,-139.463577,,,
729861858.004581,50.134609,10.737792,114.132758,-0.112076,0.803207,0.488876,0.92368,0.170307,-0.002801,71.037735,-9.583771,-139.463577,,,
729861858.007923,50.363632,10.864198,114.085558,-0.112076,0.803207,0.488876,0.812201,0.300588,0.037085,71.037735,-9.583771,-139.463577,,,
729861858.011237,50.585482,10.995818,114.052859,-0.12709,0.782684,0.530991,0.812201,0.300588,0.037085,71.037735,-9.583771,-139.463577,,,
729861858.014647,50.585482,10.995818,114.052859,-0.12709,0.782684,0.530991,0.812201,0.300588,0.037085,71.037735,-9.583771,-139.463577,,,
729861858.01791,50.804849,11.129812,114.031488,-0.12709,0.782684,0.530991,0.757454,0.408441,0.094586,71.037735,-9.583771,-139.463577,,,
729861858.021224,51.026435,11.264696,114.016059,-0.141663,0.755157,0.567413,0.757454,0.408441,0.094586,71.037735,-9.583771,-139.463577,,,
729861858.024285,51.026435,11.264696,114.016059,-0.141663,0.755157,0.567413,0.757454,0.408441,0.094586,71.037735,-9.583771,-139.463577,,,
729861858.027993,51.25239,11.399138,114.001374,-0.141663,0.755157,0.567413,0.774605,0.434452,0.12272,71.037735,-9.583771,-139.463577,,,
729861858.031214,51.481874,11.531273,113.98306,-0.138077,0.740082,0.605392,0.774605,0.434452,0.12272,71.037735,-9.583771,-139.463577,,,
729861858.034294,51.481874,11.531273,113.98306,-0.138077,0.740082,0.605392,0.774605,0.434452,0.12272,71.235626,-10.850952,-138.590317,,,
729861858.037939,51.713318,11.65681,113.959161,-0.138077,0.740082,0.605392,0.798916,0.388552,0.112582,71.235626,-10.850952,-138.590317,,,
729861858.041222,51.943992,11.771629,113.928132,-0.134262,0.742966,0.605896,0.798916,0.388552,0.112582,71.235626,-10.850952,-138.590317,,,
729861858.044572,51.943992,11.771629,113.928132,-0.134262,0.742966,0.605896,0.798916,0.388552,0.112582,71.235626,-10.850952,-138.590317,,,
729861858.04766,52.172604,11.871193,113.891148,-0.134262,0.742966,0.605896,0.800954,0.266778,0.087624,71.235626,-10.850952,-138.590317,,,
729861858.051297,52.397415,11.954898,113.849064,-0.135757,0.759506,0.570084,0.800954,0.266778,0.087624,71.235626,-10.850952,-138.590317,,,
729861858.054549,52.397415,11.954898,113.849064,-0.135757,0.759506,0.570084,0.800954,0.266778,0.087624,71.235626,-10.850952,-138.590317,,,
729861858.057909,52.615152,12.024172,113.802919,-0.135757,0.759506,0.570084,0.771105,0.127845,0.063362,71.235626,-10.850952,-138.590317,,,
729861858.061223,52.82184,12.082144,113.755548,-0.139908,0.777649,0.532181,0.771105,0.127845,0.063362,71.235626,-10.850952,-138.590317,,,
729861858.06465,52.82184,12.082144,113.755548,-0.139908,0.777649,0.532181,0.771105,0.127845,0.063362,71.235626,-10.850952,-138.590317,,,
729861858.067636,53.014694,12.131295,113.71349,-0.139908,0.777649,0.532181,0.690072,0.056103,0.04988,71.235626,-10.850952,-138.590317,,,
729861858.071257,53.190857,12.173224,113.683043,-0.146286,0.800415,0.49176,0.690072,0.056103,0.04988,71.235626,-10.850952,-138.590317,,,
729861858.074549,53.190857,12.173224,113.683043,-0.146286,0.800415,0.49176,0.690072,0.056103,0.04988,71.584213,-12.055176,-137.763489,,,
729861858.077965,53.346638,12.209036,113.669833,-0.146286,0.800415,0.49176,0.557769,0.080285,0.07942,71.584213,-12.055176,-137.763489,,,
729861858.081217,53.479573,12.237762,113.679255,-0.154602,0.826813,0.459045,0.557769,0.080285,0.07942,71.584213,-12.055176,-137.763489,,,
729861858.084612,53.479573,12.237762,113.679255,-0.154602,0.826813,0.459045,0.557769,0.080285,0.07942,71.584213,-12.055176,-137.763489,,,
729861858.0879,53.588765,12.257844,113.713384,-0.154602,0.826813,0.459045,0.379459,0.160661,0.139988,71.584213,-12.055176,-137.763489,,,
729861858.091223,53.674562,12.267282,113.771292,-0.163391,0.845795,0.413223,0.379459,0.160661,0.139988,71.584213,-12.055176,-137.763489,,,
729861858.094569,53.674562,12.267282,113.771292,-0.163391,0.845795,0.413223,0.379459,0.160661,0.139988,71.584213,-12.055176,-137.763489,,,
729861858.097894,53.738912,12.265142,113.848145,-0.163391,0.845795,0.413223,0.204986,0.214262,0.19822,71.584213,-12.055176,-137.763489,,,
729861858.100947,53.783145,12.248702,113.938723,-0.16066,0.855347,0.394806,0.204986,0.214262,0.19822,71.584213,-12.055176,-137.763489,,,
729861858.104636,53.783145,12.248702,113.938723,-0.16066,0.855347,0.394806,0.204986,0.214262,0.19822,71.584213,-12.055176,-137.763489,,,
729861858.107886,53.808651,12.21311,114.03711,-0.16066,0.855347,0.394806,0.058476,0.17434,0.217996,71.584213,-12.055176,-137.763489,,,
729861858.111227,53.815946,12.156115,114.135058,-0.146667,0.858673,0.386993,0.058476,0.17434,0.217996,71.584213,-12.055176,-137.763489,,,
729861858.114618,53.815946,12.156115,114.135058,-0.146667,0.858673,0.386993,0.058476,0.17434,0.217996,71.584213,-12.055176,-137.763489,,,
729861858.117996,53.804377,12.074803,114.227791,-0.146667,0.858673,0.386993,-0.063486,0.009923,0.184014,71.401871,-12.633041,-137.821915,,,
729861858.121213,53.772126,11.96795,114.312158,-0.127701,0.86235,0.367874,-0.063486,0.009923,0.184014,71.401871,-12.633041,-137.821915,,,
729861858.124569,53.772126,11.96795,114.312158,-0.127701,0.86235,0.367874,-0.063486,0.009923,0.184014,71.401871,-12.633041,-137.821915,,,
729861858.127903,53.718426,11.838482,114.384847,-0.127701,0.86235,0.367874,-0.197029,-0.218517,0.116016,71.401871,-12.633041,-137.821915,,,
729861858.131223,53.643513,11.693135,114.44446,-0.107788,0.879379,0.346054,-0.197029,-0.218517,0.116016,71.401871,-12.633041,-137.821915,,,
729861858.134294,53.643513,11.693135,114.44446,-0.107788,0.879379,0.346054,-0.197029,-0.218517,0.116016,71.401871,-12.633041,-137.821915,,,
729861858.137949,53.547425,11.537367,114.494065,-0.107788,0.879379,0.346054,-0.333672,-0.392358,0.039837,71.401871,-12.633041,-137.821915,,,
729861858.14122,53.430644,11.377262,114.537685,-0.089172,0.875153,0.360229,-0.333672,-0.392358,0.039837,71.401871,-12.633041,-137.821915,,,
729861858.144439,53.430644,11.377262,114.537685,-0.089172,0.875153,0.360229,-0.333672,-0.392358,0.039837,71.401871,-12.633041,-137.821915,,,
729861858.147932,53.292611,11.219969,114.5794,-0.089172,0.875153,0.360229,-0.468722,-0.436614,-0.010448,71.401871,-12.633041,-137.821915,,,
729861858.151267,53.133413,11.07389,114.622374,-0.083206,0.860535,0.395966,-0.468722,-0.436614,-0.010448,71.401871,-12.633041,-137.821915,,,
729861858.154583,53.133413,11.07389,114.622374,-0.083206,0.860535,0.395966,-0.468722,-0.436614,-0.010448,71.401871,-12.633041,-137.821915,,,
729861858.157964,52.955726,10.945857,114.670955,-0.083206,0.860535,0.395966,-0.611567,-0.332859,-0.022656,70.477631,-11.688248,-138.001968,,,
729861858.161222,52.764881,10.840469,114.727635,-0.083008,0.8461,0.439941,-0.611567,-0.332859,-0.022656,70.477631,-11.688248,-138.001968,,,
729861858.164558,52.764881,10.840469,114.727635,-0.083008,0.8461,0.439941,-0.611567,-0.332859,-0.022656,70.477631,-11.688248,-138.001968,,,
729861858.167663,52.566709,10.759282,114.791976,-0.083008,0.8461,0.439941,-0.700046,-0.125856,-0.000663,70.477631,-11.688248,-138.001968,,,
729861858.171259,52.364754,10.700213,114.862799,-0.087372,0.808258,0.53241,-0.700046,-0.125856,-0.000663,70.477631,-11.688248,-138.001968,,,
729861858.174574,52.364754,10.700213,114.862799,-0.087372,0.808258,0.53241,-0.700046,-0.125856,-0.000663,70.477631,-11.688248,-138.001968,,,
729861858.177904,52.160663,10.659489,114.938088,-0.087372,0.808258,0.53241,-0.723701,0.055699,0.025354,70.477631,-11.688248,-138.001968,,,
729861858.181229,51.954117,10.634098,115.015569,-0.091125,0.774872,0.591843,-0.723701,0.055699,0.025354,70.477631,-11.688248,-138.001968,,,
729861858.184643,51.954117,10.634098,115.015569,-0.091125,0.774872,0.591843,-0.723701,0.055699,0.025354,70.477631,-11.688248,-138.001968,,,
729861858.1879,51.744227,10.619984,115.093383,-0.091125,0.774872,0.591843,-0.74586,0.159683,0.028529,70.477631,-11.688248,-138.001968,,,
729861858.191229,51.529223,10.610631,115.171507,-0.09726,0.777908,0.595535,-0.74586,0.159683,0.028529,70.477631,-11.688248,-138.001968,,,
729861858.194575,51.529223,10.610631,115.171507,-0.09726,0.777908,0.595535,-0.74586,0.159683,0.028529,70.477631,-11.688248,-138.001968,,,
729861858.197968,51.305675,10.598387,115.251063,-0.09726,0.777908,0.595535,-0.785234,0.183968,0.027222,70.756439,-10.564026,-139.053909,,,
729861858.200954,51.068742,10.576943,115.332789,-0.109421,0.787262,0.56778,-0.785234,0.183968,0.027222,70.756439,-10.564026,-139.053909,,,
729861858.204604,51.068742,10.576943,115.332789,-0.109421,0.787262,0.56778,-0.785234,0.183968,0.027222,70.756439,-10.564026,-139.053909,,,
729861858.207916,50.812954,10.542083,115.418714,-0.109421,0.787262,0.56778,-0.891999,0.123956,0.018656,70.756439,-10.564026,-139.053909,,,
729861858.211229,50.535938,10.491438,115.511803,-0.123871,0.801559,0.501297,-0.891999,0.123956,0.018656,70.756439,-10.564026,-139.053909,,,
729861858.214571,50.535938,10.491438,115.511803,-0.123871,0.801559,0.501297,-0.891999,0.123956,0.018656,70.756439,-10.564026,-139.053909,,,
729861858.217948,50.239008,10.419245,115.616434,-0.123871,0.801559,0.501297,-1.04126,0.047206,0.031919,70.756439,-10.564026,-139.053909,,,
729861858.221222,49.923301,10.318774,115.735677,-0.145752,0.822159,0.459167,-1.04126,0.047206,0.031919,70.756439,-10.564026,-139.053909,,,
729861858.224636,49.923301,10.318774,115.735677,-0.145752,0.822159,0.459167,-1.04126,0.047206,0.031919,70.756439,-10.564026,-139.053909,,,
729861858.227906,49.58817,10.183961,115.871259,-0.145752,0.822159,0.459167,-1.184249,-0.082528,0.08397,70.756439,-10.564026,-139.053909,,,
729861858.231229,49.232531,10.013836,116.022277,-0.167618,0.824203,0.465637,-1.184249,-0.082528,0.08397,70.756439,-10.564026,-139.053909,,,
729861858.234308,49.232531,10.013836,116.022277,-0.167618,0.824203,0.465637,-1.184249,-0.082528,0.08397,70.756439,-10.564026,-139.053909,,,
729861858.237933,48.854087,9.81364,116.185793,-0.167618,0.824203,0.465637,-1.342248,-0.250903,0.133062,70.734146,-8.481491,-140.537003,,,
729861858.241234,48.451468,9.592405,116.357357,-0.1642,0.810333,0.457764,-1.342248,-0.250903,0.133062,70.734146,-8.481491,-140.537003,,,
729861858.244572,48.451468,9.592405,116.357357,-0.1642,0.810333,0.457764,-1.342248,-0.250903,0.133062,70.734146,-8.481491,-140.537003,,,
729861858.247915,48.026411,9.358653,116.5336,-0.1642,0.810333,0.457764,-1.509516,-0.350417,0.156759,70.734146,-8.481491,-140.537003,,,
729861858.251267,47.580124,9.117303,116.714808,-0.147202,0.802231,0.482544,-1.509516,-0.350417,0.156759,70.734146,-8.481491,-140.537003,,,
729861858.254567,47.580124,9.117303,116.714808,-0.147202,0.802231,0.482544,-1.509516,-0.350417,0.156759,70.734146,-8.481491,-140.537003,,,
729861858.257914,47.111198,8.872628,116.901814,-0.147202,0.802231,0.482544,-1.657508,-0.372808,0.175479,70.734146,-8.481491,-140.537003,,,
729861858.261227,46.616793,8.630286,117.092583,-0.127609,0.782104,0.525085,-1.657508,-0.372808,0.175479,70.734146,-8.481491,-140.537003,,,
729861858.264625,46.616793,8.630286,117.092583,-0.127609,0.782104,0.525085,-1.657508,-0.372808,0.175479,70.734146,-8.481491,-140.537003,,,
729861858.267659,46.092646,8.392503,117.287042,-0.127609,0.782104,0.525085,-1.844012,-0.340733,0.190107,70.734146,-8.481491,-140.537003,,,
729861858.271261,45.532202,8.160678,117.485859,-0.11293,0.771149,0.517822,-1.844012,-0.340733,0.190107,70.734146,-8.481491,-140.537003,,,
729861858.274564,45.532202,8.160678,117.485859,-0.11293,0.771149,0.517822,-1.844012,-0.340733,0.190107,70.734146,-8.481491,-140.537003,,,
729861858.277942,44.927631,7.936798,117.689721,-0.11293,0.771149,0.517822,-2.109304,-0.281936,0.19689,70.734146,-8.481491,-140.537003,,,
729861858.281249,44.272509,7.722971,117.900149,-0.102768,0.783493,0.459,-2.109304,-0.281936,0.19689,69.913849,-4.998245,-142.255524,,,
729861858.284637,44.272509,7.722971,117.900149,-0.102768,0.783493,0.459,-2.109304,-0.281936,0.19689,69.913849,-4.998245,-142.255524,,,
729861858.287977,43.563988,7.52368,118.119023,-0.102768,0.783493,0.459,-2.47159,-0.186344,0.211139,69.913849,-4.998245,-142.255524,,,
729861858.291227,42.808099,7.343491,118.349572,-0.099869,0.785355,0.39476,-2.47159,-0.186344,0.211139,69.913849,-4.998245,-142.255524,,,
729861858.294594,42.808099,7.343491,118.349572,-0.099869,0.785355,0.39476,-2.47159,-0.186344,0.211139,69.913849,-4.998245,-142.255524,,,
729861858.297912,42.022144,7.18255,118.594187,-0.099869,0.785355,0.39476,-2.783448,-0.00357,0.26587,69.913849,-4.998245,-142.255524,,,
729861858.300963,41.227254,7.03433,118.852386,-0.11203,0.711823,0.468506,-2.783448,-0.00357,0.26587,69.913849,-4.998245,-142.255524,,,
729861858.304595,41.227254,7.03433,118.852386,-0.11203,0.711823,0.468506,-2.783448,-0.00357,0.26587,69.913849,-4.998245,-142.255524,,,
729861858.307912,40.441814,6.889005,119.119251,-0.11203,0.711823,0.468506,-2.821654,0.112319,0.358428,69.913849,-4.998245,-142.255524,,,
729861858.311229,39.680925,6.740924,119.384824,-0.122025,0.561386,0.716507,-2.821654,0.112319,0.358428,69.913849,-4.998245,-142.255524,,,
729861858.314664,39.680925,6.740924,119.384824,-0.122025,0.561386,0.716507,-2.821654,0.112319,0.358428,69.913849,-4.998245,-142.255524,,,
729861858.317945,38.956035,6.588911,119.637102,-0.122025,0.561386,0.716507,-2.623698,0.04895,0.392402,69.913849,-4.998245,-142.255524,,,
729861858.321224,38.273449,6.435948,119.863339,-0.094025,0.457428,0.894775,-2.623698,0.04895,0.392402,69.670242,0.312134,-144.546158,,,
729861858.32457,38.273449,6.435948,119.863339,-0.094025,0.457428,0.894775,-2.623698,0.04895,0.392402,69.670242,0.312134,-144.546158,,,
729861858.327965,37.634266,6.285379,120.053131,-0.094025,0.457428,0.894775,-2.306206,-0.09293,0.293673,69.670242,0.312134,-144.546158,,,
729861858.331218,37.033658,6.137437,120.199427,-0.05101,0.43718,0.988373,-2.306206,-0.09293,0.293673,69.670242,0.312134,-144.546158,,,
729861858.334282,37.033658,6.137437,120.199427,-0.05101,0.43718,0.988373,-2.306206,-0.09293,0.293673,69.670242,0.312134,-144.546158,,,
729861858.337943,36.461336,5.990083,120.300499,-0.05101,0.43718,0.988373,-2.028412,-0.272299,0.095362,69.670242,0.312134,-144.546158,,,
729861858.341219,35.902215,5.843767,120.359752,-0.007217,0.472961,0.952682,-2.028412,-0.272299,0.095362,69.670242,0.312134,-144.546158,,,
729861858.344597,35.902215,5.843767,120.359752,-0.007217,0.472961,0.952682,-2.028412,-0.272299,0.095362,69.670242,0.312134,-144.546158,,,
729861858.3479,35.337567,5.701702,120.384395,-0.007217,0.472961,0.952682,-1.942031,-0.435833,-0.110568,69.670242,0.312134,-144.546158,,,
729861858.351264,34.749118,5.568998,120.38571,0.007599,0.546921,0.807602,-1.942031,-0.435833,-0.110568,69.670242,0.312134,-144.546158,,,
729861858.354614,34.749118,5.568998,120.38571,0.007599,0.546921,0.807602,-1.942031,-0.435833,-0.110568,69.670242,0.312134,-144.546158,,,
729861858.357932,34.122563,5.450815,120.377204,0.007599,0.546921,0.807602,-2.12635,-0.444204,-0.234245,69.670242,0.312134,-144.546158,,,
729861858.361269,33.446562,5.352143,120.371982,-0.010498,0.590073,0.644257,-2.12635,-0.444204,-0.234245,68.855743,4.302002,-145.967422,,,
729861858.364573,33.446562,5.352143,120.371982,-0.010498,0.590073,0.644257,-2.12635,-0.444204,-0.234245,68.855743,4.302002,-145.967422,,,
729861858.367669,32.717663,5.276703,120.384371,-0.010498,0.590073,0.644257,-2.487333,-0.271881,-0.221129,68.855743,4.302002,-145.967422,,,
729861858.371259,31.945314,5.22774,120.427767,-0.053986,0.615082,0.539413,-2.487333,-0.271881,-0.221129,68.855743,4.302002,-145.967422,,,
729861858.374584,31.945314,5.22774,120.427767,-0.053986,0.615082,0.539413,-2.487333,-0.271881,-0.221129,68.855743,4.302002,-145.967422,,,
729861858.377911,31.145708,5.206505,120.511346,-0.053986,0.615082,0.539413,-2.783031,0.03758,-0.039998,68.855743,4.302002,-145.967422,,,
729861858.381228,30.334528,5.207707,120.638021,-0.12796,0.550415,0.605835,-2.783031,0.03758,-0.039998,68.855743,4.302002,-145.967422,,,
729861858.384631,30.334528,5.207707,120.638021,-0.12796,0.550415,0.605835,-2.783031,0.03758,-0.039998,68.855743,4.302002,-145.967422,,,
729861858.38791,29.525487,5.221931,120.803608,-0.12796,0.550415,0.605835,-2.860092,0.324041,0.211709,68.855743,4.302002,-145.967422,,,
729861858.391226,28.730109,5.241855,120.998709,-0.167679,0.385056,0.786087,-2.860092,0.324041,0.211709,68.855743,4.302002,-145.967422,,,
729861858.394635,28.730109,5.241855,120.998709,-0.167679,0.385056,0.786087,-2.860092,0.324041,0.211709,68.855743,4.302002,-145.967422,,,
729861858.397912,27.957064,5.26054,121.211104,-0.167679,0.385056,0.786087,-2.765166,0.425861,0.394174,68.855743,4.302002,-145.967422,,,
729861858.400974,27.957064,5.26054,121.211104,-0.149567,0.299194,0.879318,-2.765166,0.425861,0.394174,68.855743,4.302002,-145.967422,,,
729861858.404612,27.210927,5.271046,121.42607,-0.149567,0.299194,0.879318,-2.765166,0.425861,0.394174,69.203323,10.126877,-147.56105,,,
