Time (sec),Pitch (deg),Roll (deg),Yaw(deg),X-Acceleration (g),Y-Acceleration (g),Z-Acceleration (g),Pitch Rate (deg/sec),Roll Rate (deg/sec),Yaw Rate (deg/sec),Magnetic Field in X direction (uT),Magnetic Field in Y direction (uT),Magnetic Field in Z Direction (uT),Latitude (deg),Longitude (deg),Altitude (m)
729861305.175707,0.138696,4.085835,43.104341,-0.067719,-0.000259,0.998352,0.009787,-0.077856,-0.017586,72.254715,9.406677,-153.738922,,,
729861305.17902,0.141501,4.061428,43.100939,-0.067719,-0.000259,0.998352,0.011864,-0.08024,-0.012395,72.254715,9.406677,-153.738922,,,
729861305.182415,0.141501,4.061428,43.100939,-0.067719,-0.000259,0.998352,0.011864,-0.08024,-0.012395,72.254715,9.406677,-153.738922,,,
729861305.185701,0.147712,4.038024,43.097444,-0.059555,0.000351,1.014679,0.011864,-0.08024,-0.012395,72.254715,9.406677,-153.738922,,,
729861305.189022,0.150526,4.022417,43.093694,-0.059555,0.000351,1.014679,0.011921,-0.038535,-0.014134,72.254715,9.406677,-153.738922,,,
729861305.19237,0.150526,4.022417,43.093694,-0.059555,0.000351,1.014679,0.011921,-0.038535,-0.014134,72.254715,9.406677,-153.738922,,,
729861305.195764,0.156994,4.010193,43.089776,-0.046936,4.6e-05,1.025162,0.011921,-0.038535,-0.014134,72.254715,9.406677,-153.738922,,,
729861305.19902,0.160119,4.01279,43.086191,-0.046936,4.6e-05,1.025162,0.013731,0.028724,-0.011564,72.254715,9.406677,-153.738922,,,
729861305.202369,0.160119,4.01279,43.086191,-0.046936,4.6e-05,1.025162,0.013731,0.028724,-0.011564,72.254715,9.406677,-153.738922,,,
729861305.205697,0.165216,4.019803,43.082737,-0.04686,0.00209,1.027939,0.013731,0.028724,-0.011564,72.254715,9.406677,-153.738922,,,
729861305.209032,0.168223,4.041816,43.079288,-0.04686,0.00209,1.027939,0.010691,0.091554,-0.011617,72.345901,9.177994,-153.925919,,,
729861305.212355,0.168223,4.041816,43.079288,-0.04686,0.00209,1.027939,0.010691,0.091554,-0.011617,72.345901,9.177994,-153.925919,,,
729861305.215689,0.170873,4.067667,43.075665,-0.055176,0.003647,1.01564,0.010691,0.091554,-0.011617,72.345901,9.177994,-153.925919,,,
729861305.219022,0.172833,4.098972,43.070862,-0.055176,0.003647,1.01564,0.007163,0.115192,-0.020096,72.345901,9.177994,-153.925919,,,
729861305.222408,0.172833,4.098972,43.070862,-0.055176,0.003647,1.01564,0.007163,0.115192,-0.020096,72.345901,9.177994,-153.925919,,,
729861305.225692,0.174336,4.128781,43.065738,-0.071854,0.005859,0.999207,0.007163,0.115192,-0.020096,72.345901,9.177994,-153.925919,,,
729861305.229023,0.175416,4.156366,43.06081,-0.071854,0.005859,0.999207,0.005515,0.089773,-0.018806,72.345901,9.177994,-153.925919,,,
729861305.232361,0.175416,4.156366,43.06081,-0.071854,0.005859,0.999207,0.005515,0.089773,-0.018806,72.345901,9.177994,-153.925919,,,
729861305.235689,0.177233,4.176915,43.055973,-0.09201,0.006271,0.987915,0.005515,0.089773,-0.018806,72.345901,9.177994,-153.925919,,,
729861305.239025,0.177233,4.176915,43.051402,-0.09201,0.006271,0.987915,0.018049,0.02903,-0.016007,72.345901,9.177994,-153.925919,,,
729861305.242078,0.181234,4.189041,43.051402,-0.09201,0.006271,0.987915,0.018049,0.02903,-0.016007,72.345901,9.177994,-153.925919,,,
729861305.245725,0.186353,4.192837,43.047221,-0.100754,0.003525,0.983337,0.018049,0.02903,-0.016007,72.345901,9.177994,-153.925919,,,
729861305.249021,0.193496,4.187759,43.043816,-0.100754,0.003525,0.983337,0.026853,-0.026439,-0.009925,72.345901,9.177994,-153.925919,,,
729861305.252354,0.193496,4.187759,43.043816,-0.100754,0.003525,0.983337,0.026853,-0.026439,-0.009925,72.466751,9.116684,-153.615921,,,
729861305.255694,0.199666,4.176072,43.041318,-0.100296,-0.002182,0.982422,0.026853,-0.026439,-0.009925,72.466751,9.116684,-153.615921,,,
729861305.259086,0.205822,4.16118,43.040083,-0.100296,-0.002182,0.982422,0.019367,-0.054472,-0.001652,72.466751,9.116684,-153.615921,,,
729861305.262382,0.205822,4.16118,43.040083,-0.100296,-0.002182,0.982422,0.019367,-0.054472,-0.001652,72.466751,9.116684,-153.615921,,,
729861305.265696,0.210589,4.140334,43.040253,-0.089569,-0.001266,0.986023,0.019367,-0.054472,-0.001652,72.466751,9.116684,-153.615921,,,
729861305.269083,0.210589,4.122248,43.041291,-0.089569,-0.001266,0.986023,0.020075,-0.059728,0.004448,72.466751,9.116684,-153.615921,,,
729861305.272416,0.216372,4.122248,43.041291,-0.089569,-0.001266,0.986023,0.020075,-0.059728,0.004448,72.466751,9.116684,-153.615921,,,
729861305.275691,0.222478,4.098186,43.042641,-0.078201,-0.004059,1.003265,0.020075,-0.059728,0.004448,72.466751,9.116684,-153.615921,,,
729861305.279044,0.222478,4.098186,43.042641,-0.078201,-0.004059,1.003265,0.037926,-0.030171,0.008262,72.466751,9.116684,-153.615921,,,
729861305.282368,0.231986,4.085983,43.044319,-0.078201,-0.004059,1.003265,0.037926,-0.030171,0.008262,72.466751,9.116684,-153.615921,,,
729861305.285692,0.242961,4.070984,43.045735,-0.071442,-0.009033,1.027847,0.037926,-0.030171,0.008262,72.466751,9.116684,-153.615921,,,
729861305.289025,0.242961,4.070984,43.045735,-0.071442,-0.009033,1.027847,0.037926,-0.030171,0.008262,72.466751,9.116684,-153.615921,,,
729861305.292361,0.255455,4.070706,43.046741,-0.071442,-0.009033,1.027847,0.044453,0.012314,0.00609,72.014343,9.20076,-153.745636,,,
729861305.295691,0.268424,4.069491,43.047691,-0.066544,-0.012787,1.029388,0.044453,0.012314,0.00609,72.014343,9.20076,-153.745636,,,
729861305.29908,0.268424,4.069491,43.047691,-0.066544,-0.012787,1.029388,0.044453,0.044915,0.00401,72.014343,9.20076,-153.745636,,,
729861305.302374,0.282391,4.079269,43.048263,-0.066544,-0.012787,1.029388,0.04932,0.044915,0.00401,72.014343,9.20076,-153.745636,,,
729861305.305691,0.296647,4.090588,43.049126,-0.069397,-0.003601,1.016281,0.04932,0.044915,0.00401,72.014343,9.20076,-153.745636,,,
729861305.309053,0.296647,4.090588,43.049126,-0.069397,-0.003601,1.016281,0.04932,0.044915,0.00401,72.014343,9.20076,-153.745636,,,
729861305.312366,0.309724,4.104392,43.050741,-0.069397,-0.003601,1.016281,0.041778,0.052022,0.008758,72.014343,9.20076,-153.745636,,,
729861305.315699,0.320853,4.122578,43.053046,-0.079666,0.002991,0.99411,0.041778,0.052022,0.008758,72.014343,9.20076,-153.745636,,,
729861305.319053,0.320853,4.122578,43.053046,-0.079666,0.002991,0.99411,0.041778,0.052022,0.008758,72.014343,9.20076,-153.745636,,,
729861305.322374,0.32915,4.131704,43.055982,-0.079666,0.002991,0.99411,0.023618,0.025689,0.011654,72.014343,9.20076,-153.745636,,,
729861305.325697,0.334358,4.144081,43.058321,-0.081924,0.008209,0.968704,0.023618,0.025689,0.011654,72.014343,9.20076,-153.745636,,,
729861305.329041,0.334358,4.144081,43.058321,-0.081924,0.008209,0.968704,0.023618,0.025689,0.011654,72.014343,9.20076,-153.745636,,,
729861305.332363,0.338165,4.140308,43.059319,-0.081924,0.008209,0.968704,0.012178,-0.022181,0.001119,72.222641,9.196274,-153.590347,,,
729861305.335702,0.339897,4.140464,43.059036,-0.078552,0.011047,0.969498,0.012178,-0.022181,0.001119,72.222641,9.196274,-153.590347,,,
729861305.339099,0.339897,4.140464,43.059036,-0.078552,0.011047,0.969498,0.012178,-0.022181,0.001119,72.222641,9.196274,-153.590347,,,
729861305.342399,0.344212,4.126966,43.058466,-0.078552,0.011047,0.969498,0.018968,-0.04793,-0.000828,72.222641,9.196274,-153.590347,,,
729861305.3457,0.349171,4.118831,43.059127,-0.077927,-0.000137,0.984863,0.018968,-0.04793,-0.000828,72.222641,9.196274,-153.590347,,,
729861305.349062,0.349171,4.118831,43.059127,-0.077927,-0.000137,0.984863,0.018968,-0.04793,-0.000828,72.222641,9.196274,-153.590347,,,
729861305.352404,0.358152,4.10391,43.061384,-0.077927,-0.000137,0.984863,0.035046,-0.046453,0.01113,72.222641,9.196274,-153.590347,,,
729861305.355686,0.366845,4.094282,43.065158,-0.074768,0.002243,0.999176,0.035046,-0.046453,0.01113,72.222641,9.196274,-153.590347,,,
729861305.359063,0.366845,4.094282,43.065158,-0.074768,0.002243,0.999176,0.035046,-0.046453,0.01113,72.222641,9.196274,-153.590347,,,
729861305.362352,0.379387,4.085553,43.070647,-0.074768,0.002243,0.999176,0.045925,-0.021124,0.023756,72.222641,9.196274,-153.590347,,,
729861305.365714,0.389727,4.081143,43.076861,-0.065125,0.003067,1.004318,0.045925,-0.021124,0.023756,72.222641,9.196274,-153.590347,,,
729861305.369048,0.389727,4.081143,43.076861,-0.065125,0.003067,1.004318,0.045925,-0.021124,0.023756,72.222641,9.196274,-153.590347,,,
729861305.372352,0.40404,4.082012,43.082282,-0.065125,0.003067,1.004318,0.049472,0.015075,0.018539,72.087448,9.037384,-153.364929,,,
729861305.375688,0.413685,4.085361,43.085887,-0.053619,0.002899,0.998734,0.049472,0.015075,0.018539,72.087448,9.037384,-153.364929,,,
729861305.379022,0.413685,4.085361,43.085887,-0.053619,0.002899,0.998734,0.049472,0.015075,0.018539,72.087448,9.037384,-153.364929,,,
729861305.382367,0.426704,4.09281,43.087705,-0.053619,0.002899,0.998734,0.042313,0.029708,0.00567,72.087448,9.037384,-153.364929,,,
729861305.385691,0.434489,4.099068,43.087638,-0.054337,0.006287,0.982635,0.042313,0.029708,0.00567,72.087448,9.037384,-153.364929,,,
729861305.389104,0.434489,4.099068,43.087638,-0.054337,0.006287,0.982635,0.042313,0.029708,0.00567,72.087448,9.037384,-153.364929,,,
729861305.392358,0.443575,4.106288,43.086137,-0.054337,0.006287,0.982635,0.028286,0.025833,-0.005279,72.087448,9.037384,-153.364929,,,
729861305.395692,0.448783,4.112965,43.084703,-0.062515,0.008713,0.973938,0.028286,0.025833,-0.005279,72.087448,9.037384,-153.364929,,,
729861305.399024,0.448783,4.112965,43.084703,-0.062515,0.008713,0.973938,0.028286,0.025833,-0.005279,72.087448,9.037384,-153.364929,,,
729861305.402427,0.453464,4.115367,43.083633,-0.062515,0.008713,0.973938,0.015228,0.00742,-0.003666,72.087448,9.037384,-153.364929,,,
729861305.405709,0.456433,4.120023,43.082723,-0.067154,0.006882,0.966873,0.015228,0.00742,-0.003666,72.087448,9.037384,-153.364929,,,
729861305.40905,0.456433,4.120023,43.082723,-0.067154,0.006882,0.966873,0.015228,0.00742,-0.003666,72.087448,9.037384,-153.364929,,,
729861305.412372,0.458533,4.118857,43.081709,-0.067154,0.006882,0.966873,0.00589,-0.005037,-0.005249,72.087448,9.037384,-153.364929,,,
729861305.415692,0.460023,4.119938,43.079422,-0.063995,0.008331,0.968857,0.00589,-0.005037,-0.005249,72.0065,8.81694,-153.339294,,,
729861305.419046,0.460023,4.119938,43.079422,-0.063995,0.008331,0.968857,0.00589,-0.005037,-0.005249,72.0065,8.81694,-153.339294,,,
729861305.422407,0.458105,4.118419,43.075599,-0.063995,0.008331,0.968857,-0.008486,-0.000825,-0.017184,72.0065,8.81694,-153.339294,,,
729861305.425763,0.453145,4.12034,43.070339,-0.065201,0.00679,0.967987,-0.008486,-0.000825,-0.017184,72.0065,8.81694,-153.339294,,,
729861305.429202,0.453145,4.12034,43.070339,-0.065201,0.00679,0.967987,-0.008486,-0.000825,-0.017184,72.0065,8.81694,-153.339294,,,
729861305.43237,0.448262,4.121343,43.063793,-0.065201,0.00679,0.967987,-0.016505,0.008074,-0.026791,72.0065,8.81694,-153.339294,,,
729861305.435717,0.442011,4.1244,43.057005,-0.062759,0.005539,0.976044,-0.016505,0.008074,-0.026791,72.0065,8.81694,-153.339294,,,
729861305.439081,0.442011,4.1244,43.057005,-0.062759,0.005539,0.976044,-0.016505,0.008074,-0.026791,72.0065,8.81694,-153.339294,,,
729861305.442384,0.43857,4.125478,43.050492,-0.062759,0.005539,0.976044,-0.007578,0.005083,-0.02435,72.0065,8.81694,-153.339294,,,
729861305.445692,0.434308,4.124047,43.04465,-0.072006,0.000992,0.982239,-0.007578,0.005083,-0.02435,72.0065,8.81694,-153.339294,,,
729861305.449044,0.434308,4.124047,43.04465,-0.072006,0.000992,0.982239,-0.007578,0.005083,-0.02435,72.0065,8.81694,-153.339294,,,
729861305.452469,0.431205,4.123411,43.0403,-0.072006,0.000992,0.982239,-0.007175,0.000374,-0.013847,72.0065,8.81694,-153.339294,,,
729861305.455752,0.428151,4.118601,43.037383,-0.075424,-0.000763,0.983353,-0.007175,0.000374,-0.013847,72.024857,8.92421,-153.398514,,,
729861305.459085,0.428151,4.118601,43.037383,-0.075424,-0.000763,0.983353,-0.007175,0.000374,-0.013847,72.024857,8.92421,-153.398514,,,
729861305.462377,0.42624,4.117971,43.035465,-0.075424,-0.000763,0.983353,-0.006116,0.00259,-0.006653,72.024857,8.92421,-153.398514,,,
729861305.465702,0.423208,4.114041,43.034771,-0.070419,0.003693,0.982697,-0.006116,0.00259,-0.006653,72.024857,8.92421,-153.398514,,,
729861305.469031,0.423208,4.114041,43.034771,-0.070419,0.003693,0.982697,-0.006116,0.00259,-0.006653,72.024857,8.92421,-153.398514,,,
729861305.472373,0.417952,4.113298,43.034687,-0.070419,0.003693,0.982697,-0.02343,-0.000527,-0.003354,72.024857,8.92421,-153.398514,,,
729861305.475701,0.409521,4.110168,43.0345,-0.067337,0.008865,0.970535,-0.02343,-0.000527,-0.003354,72.024857,8.92421,-153.398514,,,
729861305.479108,0.409521,4.110168,43.0345,-0.067337,0.008865,0.970535,-0.02343,-0.000527,-0.003354,72.024857,8.92421,-153.398514,,,
729861305.482374,0.397737,4.107881,43.033947,-0.067337,0.008865,0.970535,-0.045119,-0.006208,-0.007377,72.024857,8.92421,-153.398514,,,
729861305.48569,0.383233,4.104669,43.0324,-0.064255,0.011566,0.970856,-0.045119,-0.006208,-0.007377,72.024857,8.92421,-153.398514,,,
729861305.48905,0.383233,4.104669,43.0324,-0.064255,0.011566,0.970856,-0.045119,-0.006208,-0.007377,72.024857,8.92421,-153.398514,,,
729861305.492416,0.366861,4.102396,43.029594,-0.064255,0.011566,0.970856,-0.057827,-0.003625,-0.017006,72.024857,8.92421,-153.398514,,,
729861305.495695,0.349919,4.099607,43.025887,-0.064316,0.008362,0.980576,-0.057827,-0.003625,-0.017006,72.053696,9.232468,-153.406479,,,
729861305.499045,0.349919,4.099607,43.025887,-0.064316,0.008362,0.980576,-0.057827,-0.003625,-0.017006,72.053696,9.232468,-153.406479,,,
729861305.502383,0.332944,4.097576,43.021317,-0.064316,0.008362,0.980576,-0.055592,-0.005955,-0.022806,72.053696,9.232468,-153.406479,,,
729861305.505792,0.316492,4.094154,43.016125,-0.067245,0.007492,0.986938,-0.055592,-0.005955,-0.022806,72.053696,9.232468,-153.406479,,,
729861305.509041,0.316492,4.094154,43.016125,-0.067245,0.007492,0.986938,-0.055592,-0.005955,-0.022806,72.053696,9.232468,-153.406479,,,
729861305.512371,0.29913,4.09114,43.010445,-0.067245,0.007492,0.986938,-0.05999,-0.008465,-0.026523,72.053696,9.232468,-153.406479,,,
729861305.515692,0.281441,4.087875,43.004275,-0.070251,0.005264,0.98439,-0.05999,-0.008465,-0.026523,72.053696,9.232468,-153.406479,,,
729861305.519088,0.281441,4.087875,43.004275,-0.070251,0.005264,0.98439,-0.05999,-0.008465,-0.026523,72.053696,9.232468,-153.406479,,,
729861305.52236,0.263304,4.088367,42.997703,-0.070251,0.005264,0.98439,-0.062186,0.008817,-0.029516,72.053696,9.232468,-153.406479,,,
729861305.525694,0.244157,4.091401,42.991343,-0.074661,0.005081,0.989594,-0.062186,0.008817,-0.029516,72.053696,9.232468,-153.406479,,,
729861305.529039,0.244157,4.091401,42.991343,-0.074661,0.005081,0.989594,-0.062186,0.008817,-0.029516,72.053696,9.232468,-153.406479,,,
729861305.53242,0.224578,4.098014,42.985554,-0.074661,0.005081,0.989594,-0.067559,0.031941,-0.025842,72.053696,9.232468,-153.406479,,,
729861305.535685,0.204064,4.108581,42.981038,-0.078827,0.004166,1.000305,-0.067559,0.031941,-0.025842,72.091339,9.160263,-153.280182,,,
729861305.539023,0.204064,4.108581,42.981038,-0.078827,0.004166,1.000305,-0.067559,0.031941,-0.025842,72.091339,9.160263,-153.280182,,,
729861305.542375,0.185139,4.120137,42.978595,-0.078827,0.004166,1.000305,-0.061209,0.045493,-0.010968,72.091339,9.160263,-153.280182,,,
729861305.545689,0.169534,4.131935,42.977909,-0.09079,-0.000748,1.012161,-0.061209,0.045493,-0.010968,72.091339,9.160263,-153.280182,,,
729861305.54904,0.169534,4.131935,42.977909,-0.09079,-0.000748,1.012161,-0.061209,0.045493,-0.010968,72.091339,9.160263,-153.280182,,,
729861305.552367,0.159002,4.141152,42.978903,-0.09079,-0.000748,1.012161,-0.02716,0.029527,0.003194,72.091339,9.160263,-153.280182,,,
729861305.555692,0.154831,4.146248,42.981127,-0.100052,-0.006683,1.02449,-0.02716,0.029527,0.003194,72.091339,9.160263,-153.280182,,,
729861305.559088,0.154831,4.146248,42.981127,-0.100052,-0.006683,1.02449,-0.02716,0.029527,0.003194,72.091339,9.160263,-153.280182,,,
729861305.56236,0.15563,4.147356,42.983445,-0.100052,-0.006683,1.02449,0.013549,-0.002241,0.006848,72.091339,9.160263,-153.280182,,,
729861305.565698,0.163988,4.142559,42.985999,-0.099655,-0.006882,1.029358,0.013549,-0.002241,0.006848,72.091339,9.160263,-153.280182,,,
729861305.569036,0.163988,4.142559,42.985999,-0.099655,-0.006882,1.029358,0.013549,-0.002241,0.006848,72.091339,9.160263,-153.280182,,,
729861305.572421,0.173559,4.136516,42.989109,-0.099655,-0.006882,1.029358,0.038143,-0.02251,0.01259,72.091339,9.160263,-153.280182,,,
729861305.575688,0.186766,4.126028,42.992589,-0.09137,0.002991,1.0168,0.038143,-0.02251,0.01259,72.091339,9.160263,-153.280182,,,
729861305.579039,0.186766,4.126028,42.992589,-0.09137,0.002991,1.0168,0.038143,-0.02251,0.01259,72.188889,9.102646,-153.729675,,,
729861305.582382,0.198514,4.115142,42.996589,-0.09137,0.002991,1.0168,0.037491,-0.039046,0.016147,72.188889,9.102646,-153.729675,,,
729861305.585689,0.209198,4.100555,43.000939,-0.08197,0.012817,0.996338,0.037491,-0.039046,0.016147,72.188889,9.102646,-153.729675,,,
729861305.589043,0.209198,4.100555,43.000939,-0.08197,0.012817,0.996338,0.037491,-0.039046,0.016147,72.188889,9.102646,-153.729675,,,
729861305.592367,0.215825,4.086059,43.005435,-0.08197,0.012817,0.996338,0.016301,-0.049155,0.015673,72.188889,9.102646,-153.729675,,,
729861305.595695,0.21954,4.070932,43.010372,-0.075439,0.017609,0.986984,0.016301,-0.049155,0.015673,72.188889,9.102646,-153.729675,,,
729861305.599084,0.21954,4.070932,43.010372,-0.075439,0.017609,0.986984,0.016301,-0.049155,0.015673,72.188889,9.102646,-153.729675,,,
729861305.602375,0.218788,4.056723,43.015568,-0.075439,0.017609,0.986984,-0.011236,-0.043853,0.015509,72.188889,9.102646,-153.729675,,,
729861305.605693,0.215486,4.045946,43.020318,-0.06662,0.02037,0.993652,-0.011236,-0.043853,0.015509,72.188889,9.102646,-153.729675,,,
729861305.609031,0.215486,4.045946,43.020318,-0.06662,0.02037,0.993652,-0.011236,-0.043853,0.015509,72.188889,9.102646,-153.729675,,,
729861305.612438,0.21192,4.037607,43.024375,-0.06662,0.02037,0.993652,-0.010017,-0.018083,0.01075,72.188889,9.102646,-153.729675,,,
729861305.61569,0.210162,4.036641,43.028144,-0.06366,0.013855,1.01915,-0.010017,-0.018083,0.01075,72.188889,9.102646,-153.729675,,,
729861305.619025,0.210162,4.036641,43.028144,-0.06366,0.013855,1.01915,-0.010017,-0.018083,0.01075,72.281052,9.017563,-154.047623,,,
729861305.622389,0.209924,4.038703,43.032204,-0.06366,0.013855,1.01915,0.002881,0.017839,0.013634,72.281052,9.017563,-154.047623,,,
729861305.625686,0.211243,4.04983,43.036354,-0.063202,0.006729,1.028839,0.002881,0.017839,0.013634,72.281052,9.017563,-154.047623,,,
729861305.629037,0.211243,4.04983,43.036354,-0.063202,0.006729,1.028839,0.002881,0.017839,0.013634,72.281052,9.017563,-154.047623,,,
729861305.632358,0.214095,4.05823,43.040194,-0.063202,0.006729,1.028839,0.009286,0.033747,0.011793,72.281052,9.017563,-154.047623,,,
729861305.6357,0.214491,4.074465,43.043199,-0.063187,0.012146,1.013321,0.009286,0.033747,0.011793,72.281052,9.017563,-154.047623,,,
729861305.639118,0.214491,4.074465,43.043199,-0.063187,0.012146,1.013321,0.009286,0.033747,0.011793,72.281052,9.017563,-154.047623,,,
729861305.642367,0.216551,4.079756,43.044906,-0.063187,0.012146,1.013321,0.005734,0.014766,0.002255,72.281052,9.017563,-154.047623,,,
729861305.645704,0.21654,4.089499,43.044804,-0.061554,0.011292,1.001678,0.005734,0.014766,0.002255,72.281052,9.017563,-154.047623,,,
729861305.649054,0.21654,4.089499,43.044804,-0.061554,0.011292,1.001678,0.005734,0.014766,0.002255,72.281052,9.017563,-154.047623,,,
729861305.652434,0.221192,4.087222,43.042542,-0.061554,0.011292,1.001678,0.021222,-0.010451,-0.011998,72.281052,9.017563,-154.047623,,,
729861305.655695,0.227651,4.089476,43.038277,-0.062744,0.004974,1.010849,0.021222,-0.010451,-0.011998,72.281052,9.017563,-154.047623,,,
729861305.659032,0.227651,4.089476,43.038277,-0.062744,0.004974,1.010849,0.021222,-0.010451,-0.011998,72.176834,8.867737,-153.660492,,,
729861305.662386,0.238073,4.084416,43.033184,-0.062744,0.004974,1.010849,0.042347,-0.016137,-0.016454,72.176834,8.867737,-153.660492,,,
729861305.665698,0.252559,4.083334,43.027721,-0.066193,0.003769,1.019943,0.042347,-0.016137,-0.016454,72.176834,8.867737,-153.660492,,,
729861305.66905,0.252559,4.083334,43.027721,-0.066193,0.003769,1.019943,0.042347,-0.016137,-0.016454,72.176834,8.867737,-153.660492,,,
729861305.672365,0.267826,4.078911,43.022367,-0.066193,0.003769,1.019943,0.058348,-0.011496,-0.014559,72.176834,8.867737,-153.660492,,,
729861305.675698,0.286467,4.076755,43.018768,-0.067474,0.004593,1.015472,0.058348,-0.011496,-0.014559,72.176834,8.867737,-153.660492,,,
729861305.679098,0.286467,4.076755,43.018768,-0.067474,0.004593,1.015472,0.058348,-0.011496,-0.014559,72.176834,8.867737,-153.660492,,,
729861305.682369,0.302505,4.074181,43.01738,-0.067474,0.004593,1.015472,0.054971,-0.003015,0.000586,72.176834,8.867737,-153.660492,,,
729861305.6857,0.319349,4.072918,43.017624,-0.067154,0.007462,0.999084,0.054971,-0.003015,0.000586,72.176834,8.867737,-153.660492,,,
729861305.689041,0.319349,4.072918,43.017624,-0.067154,0.007462,0.999084,0.054971,-0.003015,0.000586,72.176834,8.867737,-153.660492,,,
729861305.692456,0.330529,4.074031,43.01922,-0.067154,0.007462,0.999084,0.03263,0.011906,0.008462,72.176834,8.867737,-153.660492,,,
729861305.695691,0.339087,4.076018,43.021116,-0.057602,0.01564,0.981461,0.03263,0.011906,0.008462,72.176834,8.867737,-153.660492,,,
729861305.699082,0.339087,4.076018,43.021116,-0.057602,0.01564,0.981461,0.03263,0.011906,0.008462,72.176834,8.867737,-153.660492,,,
729861305.702371,0.340285,4.082292,43.022377,-0.057602,0.01564,0.981461,-0.004495,0.027261,0.001516,72.269928,8.887375,-153.568909,,,
729861305.705721,0.33712,4.08796,43.021839,-0.05397,0.017715,0.972641,-0.004495,0.027261,0.001516,72.269928,8.887375,-153.568909,,,
729861305.709075,0.33712,4.08796,43.021839,-0.05397,0.017715,0.972641,-0.004495,0.027261,0.001516,72.269928,8.887375,-153.568909,,,
729861305.712378,0.330375,4.098025,43.019206,-0.05397,0.017715,0.972641,-0.026336,0.039511,-0.014613,72.269928,8.887375,-153.568909,,,
729861305.715699,0.323112,4.106144,43.014645,-0.056152,0.013611,0.976273,-0.026336,0.039511,-0.014613,72.269928,8.887375,-153.568909,,,
729861305.719095,0.323112,4.106144,43.014645,-0.056152,0.013611,0.976273,-0.026336,0.039511,-0.014613,72.269928,8.887375,-153.568909,,,
729861305.722376,0.313887,4.118452,43.007545,-0.056152,0.013611,0.976273,-0.03039,0.048053,-0.03248,72.269928,8.887375,-153.568909,,,
729861305.725699,0.306044,4.127724,42.998753,-0.062286,0.009933,0.982071,-0.03039,0.048053,-0.03248,72.269928,8.887375,-153.568909,,,
729861305.729034,0.306044,4.127724,42.998753,-0.062286,0.009933,0.982071,-0.03039,0.048053,-0.03248,72.269928,8.887375,-153.568909,,,
729861305.732431,0.296381,4.140287,42.989133,-0.062286,0.009933,0.982071,-0.029948,0.047843,-0.038143,72.269928,8.887375,-153.568909,,,
729861305.735695,0.287477,4.14934,42.979273,-0.07222,0.002426,0.985855,-0.029948,0.047843,-0.038143,72.269928,8.887375,-153.568909,,,
729861305.739059,0.287477,4.14934,42.979273,-0.07222,0.002426,0.985855,-0.029948,0.047843,-0.038143,72.269928,8.887375,-153.568909,,,
729861305.742386,0.279962,4.160474,42.969614,-0.07222,0.002426,0.985855,-0.018365,0.037082,-0.035751,72.375504,8.696518,-153.482391,,,
729861305.745698,0.275727,4.165346,42.961174,-0.085602,-0.004028,0.995361,-0.018365,0.037082,-0.035751,72.375504,8.696518,-153.482391,,,
729861305.749038,0.275727,4.165346,42.961174,-0.085602,-0.004028,0.995361,-0.018365,0.037082,-0.035751,72.375504,8.696518,-153.482391,,,
729861305.75241,0.276689,4.166425,42.954195,-0.085602,-0.004028,0.995361,0.014455,-0.006037,-0.023089,72.375504,8.696518,-153.482391,,,
729861305.755712,0.282342,4.157968,42.947507,-0.091736,-0.010712,0.994186,0.014455,-0.006037,-0.023089,72.375504,8.696518,-153.482391,,,
729861305.75911,0.282342,4.157968,42.947507,-0.091736,-0.010712,0.994186,0.014455,-0.006037,-0.023089,72.375504,8.696518,-153.482391,,,
729861305.762373,0.291787,4.144768,42.940802,-0.091736,-0.010712,0.994186,0.040953,-0.054251,-0.021165,72.375504,8.696518,-153.482391,,,
729861305.765694,0.304002,4.124701,42.934333,-0.088501,-0.011108,0.988876,0.040953,-0.054251,-0.021165,72.375504,8.696518,-153.482391,,,
729861305.769038,0.304002,4.124701,42.934333,-0.088501,-0.011108,0.988876,0.040953,-0.054251,-0.021165,72.375504,8.696518,-153.482391,,,
729861305.772428,0.31723,4.103484,42.927794,-0.088501,-0.011108,0.988876,0.049639,-0.073608,-0.020895,72.375504,8.696518,-153.482391,,,
729861305.77568,0.33344,4.079264,42.921299,-0.076218,-0.006256,0.997513,0.049639,-0.073608,-0.020895,72.375504,8.696518,-153.482391,,,
729861305.779041,0.33344,4.079264,42.921299,-0.076218,-0.006256,0.997513,0.049639,-0.073608,-0.020895,72.375504,8.696518,-153.482391,,,
729861305.782366,0.347593,4.062091,42.915449,-0.076218,-0.006256,0.997513,0.04817,-0.048099,-0.01638,72.255066,8.670685,-153.700104,,,
729861305.785694,0.362667,4.044626,42.91081,-0.069321,-0.001373,1.000809,0.04817,-0.048099,-0.01638,72.255066,8.670685,-153.700104,,,
729861305.78904,0.362667,4.044626,42.91081,-0.069321,-0.001373,1.000809,0.04817,-0.048099,-0.01638,72.255066,8.670685,-153.700104,,,
729861305.792393,0.371707,4.037007,42.907359,-0.069321,-0.001373,1.000809,0.025573,-0.014171,-0.009573,72.255066,8.670685,-153.700104,,,
729861305.795681,0.379799,4.029208,42.905942,-0.071198,0.003479,0.990753,0.025573,-0.014171,-0.009573,72.255066,8.670685,-153.700104,,,
729861305.7991,0.379799,4.029208,42.905942,-0.071198,0.003479,0.990753,0.025573,-0.014171,-0.009573,72.255066,8.670685,-153.700104,,,
729861305.80236,0.384102,4.0287,42.906624,-0.071198,0.003479,0.990753,0.012383,0.004125,0.004392,72.255066,8.670685,-153.700104,,,
729861305.805696,0.387077,4.026846,42.908737,-0.079666,0.00853,0.982071,0.012383,0.004125,0.004392,72.255066,8.670685,-153.700104,,,
729861305.809052,0.387077,4.026846,42.908737,-0.079666,0.00853,0.982071,0.012383,0.004125,0.004392,72.255066,8.670685,-153.700104,,,
729861305.812452,0.386309,4.027778,42.912057,-0.079666,0.00853,0.982071,-0.007569,0.005226,0.011532,72.255066,8.670685,-153.700104,,,
729861305.815758,0.382607,4.027004,42.916661,-0.081863,0.009842,0.969177,-0.007569,0.005226,0.011532,72.255066,8.670685,-153.700104,,,
729861305.819026,0.382607,4.027004,42.916661,-0.081863,0.009842,0.969177,-0.007569,0.005226,0.011532,72.255066,8.670685,-153.700104,,,
729861305.822363,0.377431,4.022689,42.9224,-0.081863,0.009842,0.969177,-0.022979,-0.01817,0.018386,72.231766,8.670425,-153.597519,,,
729861305.825726,0.368256,4.018543,42.928276,-0.078003,0.008774,0.957138,-0.022979,-0.01817,0.018386,72.231766,8.670425,-153.597519,,,
729861305.829044,0.368256,4.018543,42.928276,-0.078003,0.008774,0.957138,-0.022979,-0.01817,0.018386,72.231766,8.670425,-153.597519,,,
729861305.832386,0.359798,4.006542,42.933562,-0.078003,0.008774,0.957138,-0.032109,-0.045439,0.013371,72.231766,8.670425,-153.597519,,,
729861305.835763,0.346759,3.996221,42.937519,-0.070236,0.012756,0.952515,-0.032109,-0.045439,0.013371,72.231766,8.670425,-153.597519,,,
729861305.839092,0.346759,3.996221,42.937519,-0.070236,0.012756,0.952515,-0.032109,-0.045439,0.013371,72.231766,8.670425,-153.597519,,,
729861305.842376,0.333807,3.979058,42.939832,-0.070236,0.012756,0.952515,-0.049663,-0.059554,0.000562,72.231766,8.670425,-153.597519,,,
729861305.845737,0.317544,3.966687,42.940197,-0.056274,0.012054,0.965942,-0.049663,-0.059554,0.000562,72.231766,8.670425,-153.597519,,,
729861305.849046,0.317544,3.966687,42.940197,-0.056274,0.012054,0.965942,-0.049663,-0.059554,0.000562,72.231766,8.670425,-153.597519,,,
729861305.852442,0.305095,3.95507,42.938038,-0.056274,0.012054,0.965942,-0.039456,-0.026803,-0.016506,72.231766,8.670425,-153.597519,,,
729861305.855751,0.293041,3.952665,42.934388,-0.047409,0.002304,1.004044,-0.039456,-0.026803,-0.016506,72.231766,8.670425,-153.597519,,,
729861305.859044,0.293041,3.952665,42.934388,-0.047409,0.002304,1.004044,-0.039456,-0.026803,-0.016506,72.231766,8.670425,-153.597519,,,
729861305.862371,0.286137,3.956281,42.929965,-0.047409,0.002304,1.004044,-0.016888,0.028846,-0.020449,72.231766,8.670425,-153.597519,,,
729861305.865786,0.280481,3.966782,42.924328,-0.046494,-0.004639,1.021393,-0.016888,0.028846,-0.020449,72.163391,8.586655,-153.460693,,,
729861305.869035,0.280481,3.966782,42.924328,-0.046494,-0.004639,1.021393,-0.016888,0.028846,-0.020449,72.163391,8.586655,-153.460693,,,
729861305.872367,0.277643,3.980267,42.917431,-0.046494,-0.004639,1.021393,-0.006159,0.051424,-0.0285,72.163391,8.586655,-153.460693,,,
729861305.875701,0.27414,3.993846,42.908992,-0.054367,0.000305,1.008102,-0.006159,0.051424,-0.0285,72.163391,8.586655,-153.460693,,,
729861305.879087,0.27414,3.993846,42.908992,-0.054367,0.000305,1.008102,-0.006159,0.051424,-0.0285,72.163391,8.586655,-153.460693,,,
729861305.882359,0.26972,4.005194,42.899161,-0.054367,0.000305,1.008102,-0.016058,0.037694,-0.038907,72.163391,8.586655,-153.460693,,,
729861305.885701,0.264038,4.015825,42.888338,-0.065613,0.002472,0.992645,-0.016058,0.037694,-0.038907,72.163391,8.586655,-153.460693,,,
729861305.889036,0.264038,4.015825,42.888338,-0.065613,0.002472,0.992645,-0.016058,0.037694,-0.038907,72.163391,8.586655,-153.460693,,,
729861305.892362,0.256129,4.018435,42.876949,-0.065613,0.002472,0.992645,-0.026834,0.002095,-0.043757,72.163391,8.586655,-153.460693,,,
729861305.895724,0.248058,4.020118,42.865555,-0.079285,0.000198,0.98761,-0.026834,0.002095,-0.043757,72.163391,8.586655,-153.460693,,,
729861305.899024,0.248058,4.020118,42.865555,-0.079285,0.000198,0.98761,-0.026834,0.002095,-0.043757,72.163391,8.586655,-153.460693,,,
729861305.902377,0.236943,4.011293,42.855076,-0.079285,0.000198,0.98761,-0.038238,-0.039611,-0.038325,72.163391,8.586655,-153.460693,,,
729861305.905773,0.224131,4.000893,42.846579,-0.086075,0.002472,0.982437,-0.038238,-0.039611,-0.038325,72.225006,8.659149,-153.873093,,,
729861305.90902,0.224131,4.000893,42.846579,-0.086075,0.002472,0.982437,-0.038238,-0.039611,-0.038325,72.225006,8.659149,-153.873093,,,
729861305.912366,0.207197,3.982903,42.841335,-0.086075,0.002472,0.982437,-0.060844,-0.064384,-0.017271,72.225006,8.659149,-153.873093,,,
729861305.915722,0.207197,3.965466,42.838651,-0.086899,0.003662,0.984482,-0.060844,-0.064384,-0.017271,72.225006,8.659149,-153.873093,,,
729861305.919162,0.189787,3.965466,42.838651,-0.086899,0.003662,0.984482,-0.060844,-0.064384,-0.017271,72.225006,8.659149,-153.873093,,,
729861305.92238,0.169477,3.946769,42.837209,-0.086899,0.003662,0.984482,-0.069042,-0.058402,-0.0091,72.225006,8.659149,-153.873093,,,
729861305.925715,0.152393,3.929268,42.836525,-0.076355,0.001831,1.004578,-0.069042,-0.058402,-0.0091,72.225006,8.659149,-153.873093,,,
729861305.92914,0.152393,3.929268,42.836525,-0.076355,0.001831,1.004578,-0.069042,-0.058402,-0.0091,72.225006,8.659149,-153.873093,,,
729861305.932379,0.135462,3.918772,42.836415,-0.076355,0.001831,1.004578,-0.052282,-0.025276,-0.003873,72.225006,8.659149,-153.873093,,,
729861305.9357,0.135462,3.918772,42.836513,-0.067337,-0.009277,1.034637,-0.052282,-0.025276,-0.003873,72.225006,8.659149,-153.873093,,,
729861305.939022,0.124182,3.907508,42.836513,-0.067337,-0.009277,1.034637,-0.052282,-0.025276,-0.003873,72.225006,8.659149,-153.873093,,,
729861305.942368,0.119109,3.907595,42.835505,-0.067337,-0.009277,1.034637,-0.003105,0.01375,-0.008097,72.225006,8.659149,-153.873093,,,
729861305.945723,0.119109,3.908975,42.833397,-0.067017,-0.015198,1.053452,-0.003105,0.01375,-0.008097,72.183533,8.760162,-153.663696,,,
729861305.949038,0.120352,3.908975,42.833397,-0.067017,-0.015198,1.053452,-0.003105,0.01375,-0.008097,72.183533,8.760162,-153.663696,,,
729861305.95237,0.129306,3.920383,42.831204,-0.067017,-0.015198,1.053452,0.04418,0.051634,-0.005391,72.183533,8.760162,-153.663696,,,
729861305.955695,0.129306,3.920383,42.831204,-0.072113,-0.016571,1.051483,0.04418,0.051634,-0.005391,72.183533,8.760162,-153.663696,,,
729861305.959115,0.143241,3.934143,42.828847,-0.072113,-0.016571,1.051483,0.04418,0.051634,-0.005391,72.183533,8.760162,-153.663696,,,
729861305.962384,0.159197,3.952718,42.826981,-0.072113,-0.016571,1.051483,0.055105,0.068814,-0.001162,72.183533,8.760162,-153.663696,,,
729861305.965771,0.173753,3.968783,42.82698,-0.078918,-0.009399,1.014053,0.055105,0.068814,-0.001162,72.183533,8.760162,-153.663696,,,
729861305.96903,0.173753,3.968783,42.82698,-0.078918,-0.009399,1.014053,0.055105,0.068814,-0.001162,72.183533,8.760162,-153.663696,,,
729861305.972439,0.185331,3.981038,42.828246,-0.078918,-0.009399,1.014053,0.034222,0.035806,0.006224,72.183533,8.760162,-153.663696,,,
729861305.975684,0.185331,3.981038,42.828246,-0.082016,0.007248,0.977783,0.034222,0.035806,0.006224,72.183533,8.760162,-153.663696,,,
729861305.979045,0.193245,3.988028,42.829639,-0.082016,0.007248,0.977783,0.034222,0.035806,0.006224,72.183533,8.760162,-153.663696,,,
729861305.982356,0.197673,3.9878,42.830691,-0.082016,0.007248,0.977783,0.008191,-0.007241,0.002002,72.183533,8.760162,-153.663696,,,
729861305.985765,0.197673,3.9878,42.830691,-0.082764,0.007339,0.975525,0.008191,-0.007241,0.002002,72.143402,8.901962,-153.797089,,,
729861305.989045,0.19804,3.985318,42.831448,-0.082764,0.007339,0.975525,0.008191,-0.007241,0.002002,72.143402,8.901962,-153.797089,,,
729861305.992378,0.195963,3.976763,42.832513,-0.082764,0.007339,0.975525,-0.010028,-0.032351,0.002842,72.143402,8.901962,-153.797089,,,
729861305.995715,0.195963,3.976763,42.832513,-0.082764,0.007339,0.975525,-0.010028,-0.032351,0.002842,72.143402,8.901962,-153.797089,,,
729861305.999081,0.192878,3.968488,42.835433,-0.087006,-0.002167,0.987778,-0.010028,-0.032351,0.002842,72.143402,8.901962,-153.797089,,,
729861306.002397,0.189631,3.954178,42.840604,-0.087006,-0.002167,0.987778,-0.011753,-0.049747,0.018347,72.143402,8.901962,-153.797089,,,
729861306.005725,0.189631,3.954178,42.840604,-0.089874,0.000198,0.990402,-0.011753,-0.049747,0.018347,72.143402,8.901962,-153.797089,,,
729861306.00905,0.185056,3.94121,42.848256,-0.089874,0.000198,0.990402,-0.011753,-0.049747,0.018347,72.143402,8.901962,-153.797089,,,
729861306.012438,0.178906,3.927542,42.859109,-0.089874,0.000198,0.990402,-0.024216,-0.039817,0.039855,72.143402,8.901962,-153.797089,,,
729861306.015706,0.178906,3.927542,42.859109,-0.089874,0.000198,0.990402,-0.024216,-0.039817,0.039855,72.143402,8.901962,-153.797089,,,
729861306.019047,0.170585,3.917076,42.871536,-0.078079,0.003464,0.993668,-0.024216,-0.039817,0.039855,72.143402,8.901962,-153.797089,,,
729861306.022367,0.163711,3.912799,42.883906,-0.078079,0.003464,0.993668,-0.025257,0.000753,0.039368,72.143402,8.901962,-153.797089,,,
729861306.025765,0.163711,3.912799,42.883906,-0.059967,-0.000488,1.010559,-0.025257,0.000753,0.039368,72.143402,8.901962,-153.797089,,,
729861306.029056,0.15544,3.914187,42.894827,-0.059967,-0.000488,1.010559,-0.025257,0.000753,0.039368,71.862961,9.053345,-153.673431,,,
729861306.032366,0.153324,3.922976,42.904093,-0.059967,-0.000488,1.010559,-0.001724,0.043766,0.029478,71.862961,9.053345,-153.673431,,,
729861306.035738,0.153324,3.922976,42.904093,-0.059967,-0.000488,1.010559,-0.001724,0.043766,0.029478,71.862961,9.053345,-153.673431,,,
729861306.039117,0.151115,3.936047,42.91224,-0.059647,-0.005203,1.015274,-0.001724,0.043766,0.029478,71.862961,9.053345,-153.673431,,,
729861306.042379,0.15391,3.952004,42.918824,-0.059647,-0.005203,1.015274,0.012969,0.061005,0.019613,71.862961,9.053345,-153.673431,,,
729861306.045754,0.15391,3.952004,42.918824,-0.059647,-0.005203,1.015274,0.012969,0.061005,0.019613,71.862961,9.053345,-153.673431,,,
729861306.04903,0.156451,3.970712,42.924198,-0.065994,-0.004181,1.003754,0.012969,0.061005,0.019613,71.862961,9.053345,-153.673431,,,
729861306.052368,0.16255,3.987757,42.928634,-0.065994,-0.004181,1.003754,0.020134,0.059628,0.013633,71.862961,9.053345,-153.673431,,,
729861306.055742,0.16255,3.987757,42.928634,-0.065994,-0.004181,1.003754,0.020134,0.059628,0.013633,71.862961,9.053345,-153.673431,,,
729861306.059032,0.16922,4.005796,42.932808,-0.074417,-0.000717,0.99176,0.020134,0.059628,0.013633,71.862961,9.053345,-153.673431,,,
729861306.062443,0.176727,4.017051,42.937702,-0.074417,-0.000717,0.99176,0.027257,0.033511,0.019108,71.862961,9.053345,-153.673431,,,
729861306.065711,0.176727,4.017051,42.937702,-0.074417,-0.000717,0.99176,0.027257,0.033511,0.019108,71.862961,9.053345,-153.673431,,,
729861306.069026,0.18649,4.025863,42.944284,-0.086777,-0.004196,0.985489,0.027257,0.033511,0.019108,71.947952,8.90242,-153.733765,,,
729861306.072395,0.196288,4.024726,42.953207,-0.086777,-0.004196,0.985489,0.034075,-0.012336,0.035837,71.947952,8.90242,-153.733765,,,
729861306.075825,0.196288,4.024726,42.953207,-0.086777,-0.004196,0.985489,0.034075,-0.012336,0.035837,71.947952,8.90242,-153.733765,,,
729861306.079028,0.2061,4.020716,42.963765,-0.08876,-0.003754,0.981674,0.034075,-0.012336,0.035837,71.947952,8.90242,-153.733765,,,
729861306.08238,0.216428,4.006206,42.975379,-0.08876,-0.003754,0.981674,0.032086,-0.058541,0.042932,71.947952,8.90242,-153.733765,,,
729861306.085731,0.216428,4.006206,42.975379,-0.08876,-0.003754,0.981674,0.032086,-0.058541,0.042932,71.947952,8.90242,-153.733765,,,
729861306.089087,0.225266,3.99108,42.987322,-0.07724,0.003693,0.981323,0.032086,-0.058541,0.042932,71.947952,8.90242,-153.733765,,,
729861306.092374,0.234682,3.968077,42.998502,-0.07724,0.003693,0.981323,0.030244,-0.082735,0.037317,71.947952,8.90242,-153.733765,,,
729861306.095693,0.234682,3.968077,42.998502,-0.07724,0.003693,0.981323,0.030244,-0.082735,0.037317,71.947952,8.90242,-153.733765,,,
729861306.099045,0.243625,3.947001,43.00847,-0.058853,0.002731,0.982895,0.030244,-0.082735,0.037317,71.947952,8.90242,-153.733765,,,
729861306.102361,0.251802,3.925198,43.01693,-0.058853,0.002731,0.982895,0.024281,-0.065528,0.026233,71.947952,8.90242,-153.733765,,,
729861306.105703,0.251802,3.925198,43.01693,-0.058853,0.002731,0.982895,0.024281,-0.065528,0.026233,71.947952,8.90242,-153.733765,,,
729861306.109027,0.257498,3.905929,43.02361,-0.042145,0.005157,0.992859,0.024281,-0.065528,0.026233,71.798172,9.070663,-153.674744,,,
729861306.112359,0.261446,3.894473,43.02883,-0.042145,0.005157,0.992859,0.006369,-0.02387,0.014866,71.798172,9.070663,-153.674744,,,
729861306.115756,0.261446,3.894473,43.02883,-0.042145,0.005157,0.992859,0.006369,-0.02387,0.014866,71.798172,9.070663,-153.674744,,,
729861306.119028,0.259585,3.887111,43.032689,-0.035706,0.013901,0.991226,0.006369,-0.02387,0.014866,71.798172,9.070663,-153.674744,,,
729861306.122378,0.256956,3.889879,43.036026,-0.035706,0.013901,0.991226,-0.013796,0.024187,0.009856,71.798172,9.070663,-153.674744,,,
729861306.125693,0.256956,3.889879,43.036026,-0.035706,0.013901,0.991226,-0.013796,0.024187,0.009856,71.798172,9.070663,-153.674744,,,
729861306.129116,0.249939,3.897676,43.040126,-0.03627,0.012939,0.989746,-0.013796,0.024187,0.009856,71.798172,9.070663,-153.674744,,,
729861306.132381,0.244334,3.911851,43.045498,-0.03627,0.012939,0.989746,-0.021192,0.060721,0.018273,71.798172,9.070663,-153.674744,,,
729861306.135761,0.244334,3.911851,43.045498,-0.03627,0.012939,0.989746,-0.021192,0.060721,0.018273,71.798172,9.070663,-153.674744,,,
729861306.139037,0.236988,3.930657,43.052402,-0.043808,0.006577,0.98497,-0.021192,0.060721,0.018273,71.798172,9.070663,-153.674744,,,
729861306.142367,0.230646,3.949832,43.060008,-0.043808,0.006577,0.98497,-0.023587,0.071025,0.022973,71.798172,9.070663,-153.674744,,,
729861306.145705,0.230646,3.949832,43.060008,-0.043808,0.006577,0.98497,-0.023587,0.071025,0.022973,71.798172,9.070663,-153.674744,,,
729861306.149077,0.223084,3.972714,43.066626,-0.047379,0.00827,0.982178,-0.023587,0.071025,0.022973,71.798172,9.070663,-153.674744,,,
729861306.15236,0.219081,3.987221,43.070823,-0.047379,0.00827,0.982178,-0.009896,0.04648,0.006876,72.07579,9.095306,-153.96434,,,
729861306.15574,0.219081,3.987221,43.070823,-0.047379,0.00827,0.982178,-0.009896,0.04648,0.006876,72.07579,9.095306,-153.96434,,,
729861306.159052,0.214873,4.004055,43.071992,-0.048248,0.008682,0.984879,-0.009896,0.04648,0.006876,72.07579,9.095306,-153.96434,,,
729861306.162367,0.213508,4.008823,43.069964,-0.048248,0.008682,0.984879,-0.002427,0.010406,-0.015138,72.07579,9.095306,-153.96434,,,
729861306.165794,0.213508,4.008823,43.069964,-0.048248,0.008682,0.984879,-0.002427,0.010406,-0.015138,72.07579,9.095306,-153.96434,,,
729861306.169053,0.213055,4.011866,43.064764,-0.0522,0.003342,0.977188,-0.002427,0.010406,-0.015138,72.07579,9.095306,-153.96434,,,
729861306.172358,0.21335,4.005576,43.057548,-0.0522,0.003342,0.977188,0.001654,-0.027243,-0.02914,72.07579,9.095306,-153.96434,,,
729861306.175716,0.21335,4.005576,43.057548,-0.0522,0.003342,0.977188,0.001654,-0.027243,-0.02914,72.07579,9.095306,-153.96434,,,
729861306.179036,0.212799,3.993087,43.049315,-0.058624,0.005264,0.975769,0.001654,-0.027243,-0.02914,72.07579,9.095306,-153.96434,,,
729861306.182365,0.210618,3.977833,43.040489,-0.058624,0.005264,0.975769,-0.009889,-0.056933,-0.034078,72.07579,9.095306,-153.96434,,,
729861306.185709,0.210618,3.977833,43.040489,-0.058624,0.005264,0.975769,-0.009889,-0.056933,-0.034078,72.07579,9.095306,-153.96434,,,
729861306.189053,0.205301,3.953389,43.031554,-0.06221,0.010468,0.978424,-0.009889,-0.056933,-0.034078,72.07579,9.095306,-153.96434,,,
729861306.192361,0.196563,3.937216,43.022815,-0.06221,0.010468,0.978424,-0.033833,-0.05019,-0.034221,71.795578,9.258575,-153.814575,,,
729861306.195763,0.196563,3.937216,43.022815,-0.06221,0.010468,0.978424,-0.033833,-0.05019,-0.034221,71.795578,9.258575,-153.814575,,,
729861306.199031,0.185954,3.916663,43.014391,-0.058228,0.013046,0.984497,-0.033833,-0.05019,-0.034221,71.795578,9.258575,-153.814575,,,
729861306.202364,0.171205,3.90862,43.006732,-0.058228,0.013046,0.984497,-0.05158,-0.016797,-0.029901,71.795578,9.258575,-153.814575,,,
729861306.205706,0.171205,3.90862,43.006732,-0.058228,0.013046,0.984497,-0.05158,-0.016797,-0.029901,71.795578,9.258575,-153.814575,,,
729861306.209095,0.157954,3.898212,43.000025,-0.057602,0.006775,0.99794,-0.05158,-0.016797,-0.029901,71.795578,9.258575,-153.814575,,,
729861306.212356,0.143467,3.899733,42.994556,-0.057602,0.006775,0.99794,-0.047201,0.013847,-0.020777,71.795578,9.258575,-153.814575,,,
729861306.21571,0.143467,3.899733,42.994556,-0.057602,0.006775,0.99794,-0.047201,0.013847,-0.020777,71.795578,9.258575,-153.814575,,,
729861306.219043,0.129268,3.898209,42.990263,-0.062439,0.006104,0.999176,-0.047201,0.013847,-0.020777,71.795578,9.258575,-153.814575,,,
729861306.222363,0.113423,3.904945,42.986708,-0.062439,0.006104,0.999176,-0.052642,0.028672,-0.015964,71.795578,9.258575,-153.814575,,,
729861306.225708,0.113423,3.904945,42.986708,-0.062439,0.006104,0.999176,-0.052642,0.028672,-0.015964,71.795578,9.258575,-153.814575,,,
729861306.229038,0.099116,3.90865,42.982874,-0.06131,0.008331,0.990234,-0.052642,0.028672,-0.015964,71.795578,9.258575,-153.814575,,,
729861306.232374,0.083595,3.919988,42.977971,-0.06131,0.008331,0.990234,-0.053093,0.04649,-0.023401,72.049332,9.149277,-153.970444,,,
729861306.235692,0.083595,3.919988,42.977971,-0.06131,0.008331,0.990234,-0.053093,0.04649,-0.023401,72.049332,9.149277,-153.970444,,,
729861306.239037,0.069179,3.928499,42.972242,-0.062256,0.007507,0.991806,-0.053093,0.04649,-0.023401,72.049332,9.149277,-153.970444,,,
729861306.242365,0.052406,3.943958,42.96619,-0.062256,0.007507,0.991806,-0.058239,0.058774,-0.02601,72.049332,9.149277,-153.970444,,,
729861306.24571,0.052406,3.943958,42.96619,-0.062256,0.007507,0.991806,-0.058239,0.058774,-0.02601,72.049332,9.149277,-153.970444,,,
729861306.249027,0.034673,3.956075,42.96108,-0.074249,0.003448,0.988556,-0.058239,0.058774,-0.02601,72.049332,9.149277,-153.970444,,,
729861306.252385,0.01483,3.972747,42.957387,-0.074249,0.003448,0.988556,-0.06833,0.058361,-0.016896,72.049332,9.149277,-153.970444,,,
729861306.255744,0.01483,3.972747,42.957387,-0.074249,0.003448,0.988556,-0.06833,0.058361,-0.016896,72.049332,9.149277,-153.970444,,,
729861306.259029,-0.003484,3.983728,42.954954,-0.082993,0.000824,0.993088,-0.06833,0.058361,-0.016896,72.049332,9.149277,-153.970444,,,
729861306.262367,-0.019227,3.992992,42.953108,-0.082993,0.000824,0.993088,-0.045353,0.026119,-0.011227,72.049332,9.149277,-153.970444,,,
729861306.265717,-0.019227,3.992992,42.953108,-0.082993,0.000824,0.993088,-0.045353,0.026119,-0.011227,72.049332,9.149277,-153.970444,,,
729861306.269039,-0.027337,3.995052,42.95149,-0.094437,-0.009659,1.013443,-0.045353,0.026119,-0.011227,72.049332,9.149277,-153.970444,,,
729861306.272366,-0.03201,3.994844,42.949893,-0.094437,-0.009659,1.013443,-0.005694,-0.005061,-0.008353,71.920853,9.436447,-154.061295,,,
729861306.275771,-0.03201,3.994844,42.949893,-0.094437,-0.009659,1.013443,-0.005694,-0.005061,-0.008353,71.920853,9.436447,-154.061295,,,
729861306.279021,-0.027499,3.988297,42.947824,-0.093826,-0.014709,1.029419,-0.005694,-0.005061,-0.008353,71.920853,9.436447,-154.061295,,,
729861306.282366,-0.021118,3.981336,42.945476,-0.093826,-0.014709,1.029419,0.030522,-0.026654,-0.007772,71.920853,9.436447,-154.061295,,,
729861306.285708,-0.021118,3.981336,42.945476,-0.093826,-0.014709,1.029419,0.030522,-0.026654,-0.007772,71.920853,9.436447,-154.061295,,,
729861306.289088,-0.008944,3.967985,42.943163,-0.089645,-0.012619,1.02948,0.030522,-0.026654,-0.007772,71.920853,9.436447,-154.061295,,,
729861306.292358,0.003104,3.957101,42.941448,-0.089645,-0.012619,1.02948,0.043294,-0.035625,-0.002822,71.920853,9.436447,-154.061295,,,
729861306.29571,0.003104,3.957101,42.941448,-0.089645,-0.012619,1.02948,0.043294,-0.035625,-0.002822,71.920853,9.436447,-154.061295,,,
729861306.299044,0.01601,3.944071,42.940646,-0.087799,-0.006973,1.014847,0.043294,-0.035625,-0.002822,71.920853,9.436447,-154.061295,,,
729861306.302361,0.025273,3.933816,42.940863,-0.087799,-0.006973,1.014847,0.026923,-0.032244,0.003176,71.920853,9.436447,-154.061295,,,
729861306.305773,0.025273,3.933816,42.940863,-0.087799,-0.006973,1.014847,0.026923,-0.032244,0.003176,71.920853,9.436447,-154.061295,,,
729861306.309042,0.032255,3.92266,42.942431,-0.084259,0.006653,0.992859,0.026923,-0.032244,0.003176,71.920853,9.436447,-154.061295,,,
729861306.312416,0.03199,3.914374,42.944858,-0.084259,0.006653,0.992859,-0.011796,-0.025387,0.006546,71.920853,9.436447,-154.061295,,,
729861306.315743,0.03199,3.914374,42.944858,-0.084259,0.006653,0.992859,-0.011796,-0.025387,0.006546,71.845413,9.329315,-154.313904,,,
729861306.319077,0.027914,3.903836,42.947957,-0.07634,0.013275,0.973083,-0.011796,-0.025387,0.006546,71.845413,9.329315,-154.313904,,,
729861306.322377,0.017394,3.895235,42.951501,-0.07634,0.013275,0.973083,-0.044108,-0.027984,0.007487,71.845413,9.329315,-154.313904,,,
729861306.325691,0.017394,3.895235,42.951501,-0.07634,0.013275,0.973083,-0.044108,-0.027984,0.007487,71.845413,9.329315,-154.313904,,,
729861306.329043,0.004131,3.887156,42.955164,-0.072937,0.013474,0.970749,-0.044108,-0.027984,0.007487,71.845413,9.329315,-154.313904,,,
729861306.332363,-0.012101,3.877784,42.959094,-0.072937,0.013474,0.970749,-0.058554,-0.028987,0.008427,71.845413,9.329315,-154.313904,,,
729861306.335696,-0.012101,3.877784,42.959094,-0.072937,0.013474,0.970749,-0.058554,-0.028987,0.008427,71.845413,9.329315,-154.313904,,,
729861306.339029,-0.028059,3.873649,42.963335,-0.072876,0.008575,0.985703,-0.058554,-0.028987,0.008427,71.845413,9.329315,-154.313904,,,
729861306.342376,-0.043098,3.86665,42.968562,-0.072876,0.008575,0.985703,-0.050324,-0.017433,0.015874,71.845413,9.329315,-154.313904,,,
729861306.34572,-0.043098,3.86665,42.968562,-0.072876,0.008575,0.985703,-0.050324,-0.017433,0.015874,71.845413,9.329315,-154.313904,,,
729861306.349102,-0.057542,3.869782,42.974733,-0.069504,0.000351,1.005356,-0.050324,-0.017433,0.015874,71.845413,9.329315,-154.313904,,,
729861306.352367,-0.067365,3.868245,42.981308,-0.069504,0.000351,1.005356,-0.028371,0.000762,0.020175,71.845413,9.329315,-154.313904,,,
729861306.355704,-0.067365,3.868245,42.981308,-0.069504,0.000351,1.005356,-0.028371,0.000762,0.020175,71.995956,9.413208,-154.312469,,,
729861306.359042,-0.076315,3.87738,42.988011,-0.06665,-0.003754,1.023483,-0.028371,0.000762,0.020175,71.995956,9.413208,-154.312469,,,
729861306.362363,-0.077807,3.882047,42.993579,-0.06665,-0.003754,1.023483,0.002038,0.024573,0.014431,71.995956,9.413208,-154.312469,,,
729861306.365723,-0.077807,3.882047,42.993579,-0.06665,-0.003754,1.023483,0.002038,0.024573,0.014431,71.995956,9.413208,-154.312469,,,
729861306.369044,-0.077407,3.894396,42.997714,-0.059982,-0.006119,1.032043,0.002038,0.024573,0.014431,71.995956,9.413208,-154.312469,,,
729861306.372365,-0.069993,3.900643,43.00022,-0.059982,-0.006119,1.032043,0.03299,0.02499,0.005255,71.995956,9.413208,-154.312469,,,
729861306.37577,-0.069993,3.900643,43.00022,-0.059982,-0.006119,1.032043,0.03299,0.02499,0.005255,71.995956,9.413208,-154.312469,,,
729861306.37903,-0.062131,3.911974,43.000312,-0.060715,-0.004807,1.02774,0.03299,0.02499,0.005255,71.995956,9.413208,-154.312469,,,
729861306.382364,-0.052441,3.91595,42.9986,-0.060715,-0.004807,1.02774,0.033804,0.012505,-0.007257,71.995956,9.413208,-154.312469,,,
729861306.38571,-0.052441,3.91595,42.9986,-0.060715,-0.004807,1.02774,0.033804,0.012505,-0.007257,71.995956,9.413208,-154.312469,,,
729861306.389086,-0.042382,3.922451,42.996196,-0.069061,-0.001175,1.010025,0.033804,0.012505,-0.007257,71.995956,9.413208,-154.312469,,,
729861306.392359,-0.033742,3.91943,42.994609,-0.069061,-0.001175,1.010025,0.029585,-0.016702,-0.001761,71.995956,9.413208,-154.312469,,,
729861306.395695,-0.033742,3.91943,42.994609,-0.069061,-0.001175,1.010025,0.029585,-0.016702,-0.001761,72.056641,9.161911,-154.126968,,,
729861306.399051,-0.022322,3.91461,42.995035,-0.0755,-0.001465,0.997528,0.029585,-0.016702,-0.001761,72.056641,9.161911,-154.126968,,,
729861306.402363,-0.013878,3.901305,42.997442,-0.0755,-0.001465,0.997528,0.029431,-0.051306,0.012048,72.056641,9.161911,-154.126968,,,
729861306.405723,-0.013878,3.901305,42.997442,-0.0755,-0.001465,0.997528,0.029431,-0.051306,0.012048,72.056641,9.161911,-154.126968,,,
729861306.409045,-0.003354,3.886487,43.001733,-0.078613,0.000336,0.991821,0.029431,-0.051306,0.012048,72.056641,9.161911,-154.126968,,,
729861306.412366,0.001084,3.867333,43.008061,-0.078613,0.000336,0.991821,0.009479,-0.066875,0.024864,72.056641,9.161911,-154.126968,,,
729861306.41577,0.001084,3.867333,43.008061,-0.078613,0.000336,0.991821,0.009479,-0.066875,0.024864,72.056641,9.161911,-154.126968,,,
729861306.419029,0.005616,3.849305,43.016101,-0.077118,0.004578,0.978912,0.009479,-0.066875,0.024864,72.056641,9.161911,-154.126968,,,
729861306.422364,0.005405,3.828845,43.025542,-0.077118,0.004578,0.978912,-0.006911,-0.068263,0.033547,72.056641,9.161911,-154.126968,,,
729861306.425702,0.005405,3.828845,43.025542,-0.077118,0.004578,0.978912,-0.006911,-0.068263,0.033547,72.056641,9.161911,-154.126968,,,
729861306.429068,0.003199,3.81,43.035515,-0.061264,0.00975,0.976669,-0.006911,-0.068263,0.033547,72.056641,9.161911,-154.126968,,,
729861306.432362,-0.001359,3.791987,43.045212,-0.061264,0.00975,0.976669,-0.019295,-0.055412,0.030818,72.056641,9.161911,-154.126968,,,
729861306.435698,-0.001359,3.791987,43.045212,-0.061264,0.00975,0.976669,-0.019295,-0.055412,0.030818,71.763123,9.300964,-154.211655,,,
729861306.439032,-0.007673,3.777501,43.053826,-0.047455,0.008575,0.978607,-0.019295,-0.055412,0.030818,71.763123,9.300964,-154.211655,,,
729861306.442364,-0.013726,3.769311,43.060602,-0.047455,0.008575,0.978607,-0.021293,-0.012607,0.017811,71.763123,9.300964,-154.211655,,,
729861306.445717,-0.013726,3.769311,43.060602,-0.047455,0.008575,0.978607,-0.021293,-0.012607,0.017811,71.763123,9.300964,-154.211655,,,
729861306.449026,-0.019928,3.766492,43.065876,-0.044037,0.003387,0.993454,-0.021293,-0.012607,0.017811,71.763123,9.300964,-154.211655,,,
729861306.452367,-0.021824,3.772367,43.070787,-0.044037,0.003387,0.993454,0.000407,0.033255,0.016791,71.763123,9.300964,-154.211655,,,
729861306.455779,-0.021824,3.772367,43.070787,-0.044037,0.003387,0.993454,0.000407,0.033255,0.016791,71.763123,9.300964,-154.211655,,,
729861306.459031,-0.020363,3.78143,43.075618,-0.049164,-0.004974,1.010773,0.000407,0.033255,0.016791,71.763123,9.300964,-154.211655,,,
729861306.462364,-0.012168,3.797724,43.08023,-0.049164,-0.004974,1.010773,0.038348,0.065219,0.017753,71.763123,9.300964,-154.211655,,,
729861306.465712,-0.012168,3.797724,43.08023,-0.049164,-0.004974,1.010773,0.038348,0.065219,0.017753,71.763123,9.300964,-154.211655,,,
729861306.46908,0.00058,3.816048,43.085297,-0.062347,-0.011032,1.014816,0.038348,0.065219,0.017753,71.763123,9.300964,-154.211655,,,
729861306.472357,0.016567,3.835694,43.091142,-0.062347,-0.011032,1.014816,0.05824,0.071192,0.024554,71.763123,9.300964,-154.211655,,,
729861306.475715,0.016567,3.835694,43.091142,-0.062347,-0.011032,1.014816,0.05824,0.071192,0.024554,71.763123,9.300964,-154.211655,,,
729861306.479046,0.033553,3.855918,43.097596,-0.070312,-0.009842,0.999435,0.05824,0.071192,0.024554,72.058853,9.111298,-154.115204,,,
729861306.482363,0.050591,3.869426,43.103795,-0.070312,-0.009842,0.999435,0.056577,0.040871,0.022671,72.058853,9.111298,-154.115204,,,
729861306.485705,0.050591,3.869426,43.103795,-0.070312,-0.009842,0.999435,0.056577,0.040871,0.022671,72.058853,9.111298,-154.115204,,,
729861306.488822,0.065543,3.879445,43.108326,-0.071487,0.001694,0.973404,0.056577,0.040871,0.022671,72.058853,9.111298,-154.115204,,,
729861306.492392,0.076915,3.878386,43.110931,-0.071487,0.001694,0.973404,0.030341,-0.013671,0.007491,72.058853,9.111298,-154.115204,,,
729861306.495746,0.076915,3.878386,43.110931,-0.071487,0.001694,0.973404,0.030341,-0.013671,0.007491,72.058853,9.111298,-154.115204,,,
729861306.499047,0.08423,3.874942,43.112436,-0.074585,0.006607,0.957901,0.030341,-0.013671,0.007491,72.058853,9.111298,-154.115204,,,
729861306.502365,0.086975,3.863747,43.112831,-0.074585,0.006607,0.957901,0.002131,-0.04285,-0.002183,72.058853,9.111298,-154.115204,,,
729861306.505732,0.086975,3.863747,43.112831,-0.074585,0.006607,0.957901,0.002131,-0.04285,-0.002183,72.058853,9.111298,-154.115204,,,
729861306.509055,0.08726,3.849321,43.113322,-0.071671,0.003403,0.961823,0.002131,-0.04285,-0.002183,72.058853,9.111298,-154.115204,,,
729861306.512361,0.083206,3.832557,43.115245,-0.071671,0.003403,0.961823,-0.017908,-0.058809,0.006459,72.058853,9.111298,-154.115204,,,
729861306.51571,0.083206,3.832557,43.115245,-0.071671,0.003403,0.961823,-0.017908,-0.058809,0.006459,72.058853,9.111298,-154.115204,,,
729861306.519104,0.077655,3.809735,43.118718,-0.069382,0.004944,0.971786,-0.017908,-0.058809,0.006459,71.954269,9.116043,-154.022919,,,
729861306.522357,0.066978,3.788803,43.122794,-0.069382,0.004944,0.971786,-0.043292,-0.074937,0.009012,71.954269,9.116043,-154.022919,,,
729861306.525695,0.066978,3.788803,43.122794,-0.069382,0.004944,0.971786,-0.043292,-0.074937,0.009012,71.954269,9.116043,-154.022919,,,
729861306.529032,0.053459,3.75975,43.126245,-0.062469,0.010056,0.969696,-0.043292,-0.074937,0.009012,71.954269,9.116043,-154.022919,,,
729861306.532391,0.036217,3.738489,43.128471,-0.062469,0.010056,0.969696,-0.062078,-0.066499,-0.000666,71.954269,9.116043,-154.022919,,,
729861306.535708,0.036217,3.738489,43.128471,-0.062469,0.010056,0.969696,-0.062078,-0.066499,-0.000666,71.954269,9.116043,-154.022919,,,
729861306.53903,0.016644,3.716993,43.12917,-0.052536,0.005768,0.986115,-0.062078,-0.066499,-0.000666,71.954269,9.116043,-154.022919,,,
729861306.542363,-0.001961,3.70659,43.128327,-0.052536,0.005768,0.986115,-0.061136,-0.022605,-0.011248,71.954269,9.116043,-154.022919,,,
729861306.545808,-0.001961,3.70659,43.128327,-0.052536,0.005768,0.986115,-0.061136,-0.022605,-0.011248,71.954269,9.116043,-154.022919,,,
729861306.549056,-0.020595,3.700357,43.126313,-0.046997,-0.001373,1.01062,-0.061136,-0.022605,-0.011248,71.954269,9.116043,-154.022919,,,
729861306.552374,-0.034537,3.701314,43.123614,-0.046997,-0.001373,1.01062,-0.041506,0.015,-0.014798,71.954269,9.116043,-154.022919,,,
729861306.555714,-0.034537,3.701314,43.123614,-0.046997,-0.001373,1.01062,-0.041506,0.015,-0.014798,71.954269,9.116043,-154.022919,,,
729861306.559041,-0.047104,3.708584,43.119708,-0.04866,-0.008438,1.026672,-0.041506,0.015,-0.014798,71.929977,9.014755,-154.502609,,,
729861306.562371,-0.05288,3.718647,43.114894,-0.04866,-0.008438,1.026672,-0.010838,0.04268,-0.019136,71.929977,9.014755,-154.502609,,,
729861306.565703,-0.05288,3.718647,43.114894,-0.04866,-0.008438,1.026672,-0.010838,0.04268,-0.019136,71.929977,9.014755,-154.502609,,,
729861306.569058,-0.053397,3.732106,43.109984,-0.060745,-0.015961,1.035751,-0.010838,0.04268,-0.019136,71.929977,9.014755,-154.502609,,,
729861306.572369,-0.047888,3.742672,43.105537,-0.060745,-0.015961,1.035751,0.031004,0.036732,-0.013149,71.929977,9.014755,-154.502609,,,
729861306.575716,-0.047888,3.742672,43.105537,-0.060745,-0.015961,1.035751,0.031004,0.036732,-0.013149,71.929977,9.014755,-154.502609,,,
729861306.579067,-0.036322,3.753507,43.102368,-0.076538,-0.019852,1.033203,0.031004,0.036732,-0.013149,71.929977,9.014755,-154.502609,,,
729861306.58237,-0.023646,3.758621,43.100506,-0.076538,-0.019852,1.033203,0.046033,0.013761,-0.003062,71.929977,9.014755,-154.502609,,,
729861306.585705,-0.023646,3.758621,43.100506,-0.076538,-0.019852,1.033203,0.046033,0.013761,-0.003062,71.929977,9.014755,-154.502609,,,
729861306.589057,-0.011167,3.760215,43.098998,-0.078339,-0.009888,1.005249,0.046033,0.013761,-0.003062,71.929977,9.014755,-154.502609,,,
729861306.592372,-0.002654,3.754037,43.097413,-0.078339,-0.009888,1.005249,0.023378,-0.027076,-0.005102,71.929977,9.014755,-154.502609,,,
729861306.595812,-0.002654,3.754037,43.097413,-0.078339,-0.009888,1.005249,0.023378,-0.027076,-0.005102,71.929977,9.014755,-154.502609,,,
729861306.599046,0.001173,3.744804,43.095843,-0.073914,0.002274,0.976593,0.023378,-0.027076,-0.005102,71.929977,9.014755,-154.502609,,,
729861306.602374,-0.002348,3.73066,43.094404,-0.073914,0.002274,0.976593,-0.022808,-0.05169,-0.007253,71.977554,8.99765,-154.508484,,,
729861306.605721,-0.002348,3.73066,43.094404,-0.073914,0.002274,0.976593,-0.022808,-0.05169,-0.007253,71.977554,8.99765,-154.508484,,,
729861306.609104,-0.010546,3.715166,43.093104,-0.068863,0.007935,0.966309,-0.022808,-0.05169,-0.007253,71.977554,8.99765,-154.508484,,,
729861306.612366,-0.026173,3.699813,43.091832,-0.068863,0.007935,0.966309,-0.064802,-0.048392,-0.00977,71.977554,8.99765,-154.508484,,,
729861306.615722,-0.026173,3.699813,43.091832,-0.068863,0.007935,0.966309,-0.064802,-0.048392,-0.00977,71.977554,8.99765,-154.508484,,,
729861306.619049,-0.045694,3.684919,43.091651,-0.069107,0.009689,0.976196,-0.064802,-0.048392,-0.00977,71.977554,8.99765,-154.508484,,,
729861306.622373,-0.068914,3.675017,43.093495,-0.069107,0.009689,0.976196,-0.083188,-0.024599,0.003259,71.977554,8.99765,-154.508484,,,
729861306.625712,-0.068914,3.675017,43.093495,-0.069107,0.009689,0.976196,-0.083188,-0.024599,0.003259,71.977554,8.99765,-154.508484,,,
729861306.629055,-0.092955,3.665704,43.097461,-0.070801,0.003647,0.992493,-0.083188,-0.024599,0.003259,71.977554,8.99765,-154.508484,,,
729861306.632372,-0.116394,3.663839,43.102921,-0.070801,0.003647,0.992493,-0.078354,0.003571,0.014028,71.977554,8.99765,-154.508484,,,
729861306.635787,-0.116394,3.663839,43.102921,-0.070801,0.003647,0.992493,-0.078354,0.003571,0.014028,71.977554,8.99765,-154.508484,,,
729861306.639054,-0.137016,3.662156,43.108562,-0.062943,0.002136,1.006851,-0.078354,0.003571,0.014028,71.977554,8.99765,-154.508484,,,
729861306.64243,-0.152188,3.668269,43.1131,-0.062943,0.002136,1.006851,-0.044651,0.032005,0.0084,72.055847,9.086655,-154.292587,,,
729861306.645743,-0.152188,3.668269,43.1131,-0.062943,0.002136,1.006851,-0.044651,0.032005,0.0084,72.055847,9.086655,-154.292587,,,
729861306.64905,-0.163746,3.678137,43.115378,-0.052307,-0.004044,1.023712,-0.044651,0.032005,0.0084,72.055847,9.086655,-154.292587,,,
