Time (sec),Pitch (deg),Roll (deg),Yaw(deg),X-Acceleration (g),Y-Acceleration (g),Z-Acceleration (g),Pitch Rate (deg/sec),Roll Rate (deg/sec),Yaw Rate (deg/sec),Magnetic Field in X direction (uT),Magnetic Field in Y direction (uT),Magnetic Field in Z Direction (uT),Latitude (deg),Longitude (deg),Altitude (m)
729861813.174342,-0.095103,1.050805,128.640503,-0.001175,0.004272,1.00145,-0.037764,0.024491,0.006531,66.465408,34.792664,-145.778366,,,
729861813.177682,-0.102597,1.055688,128.640067,-0.001175,0.004272,1.00145,-0.02511,0.022739,-0.002216,66.465408,34.792664,-145.778366,,,
729861813.181107,-0.102597,1.055688,128.640067,-0.001175,0.004272,1.00145,-0.02511,0.022739,-0.002216,66.465408,34.792664,-145.778366,,,
729861813.184337,-0.110646,1.060341,128.639597,-0.000885,0.001831,1.006653,-0.02511,0.022739,-0.002216,66.465408,34.792664,-145.778366,,,
729861813.187672,-0.112777,1.062622,128.639122,-0.000885,0.001831,1.006653,-0.008945,0.011695,-0.00293,66.465408,34.792664,-145.778366,,,
729861813.191006,-0.112777,1.062622,128.639122,-0.000885,0.001831,1.006653,-0.008945,0.011695,-0.00293,66.465408,34.792664,-145.778366,,,
729861813.194328,-0.116114,1.062241,128.638288,-0.002914,-0.001862,1.010941,-0.008945,0.011695,-0.00293,66.465408,34.792664,-145.778366,,,
729861813.19773,-0.115431,1.061525,128.636079,-0.002914,-0.001862,1.010941,0.002261,0.000658,-0.008378,66.465408,34.792664,-145.778366,,,
729861813.20099,-0.115431,1.061525,128.636079,-0.002914,-0.001862,1.010941,0.002261,0.000658,-0.008378,66.465408,34.792664,-145.778366,,,
729861813.204332,-0.116573,1.059418,128.632878,-0.003128,-0.002045,1.006302,0.002261,0.000658,-0.008378,66.780075,34.538284,-145.810196,,,
729861813.207662,-0.115622,1.060733,128.628939,-0.003128,-0.002045,1.006302,0.004121,0.007845,-0.014526,66.780075,34.538284,-145.810196,,,
729861813.210985,-0.115622,1.060733,128.628939,-0.003128,-0.002045,1.006302,0.004121,0.007845,-0.014526,66.780075,34.538284,-145.810196,,,
729861813.214365,-0.115302,1.061164,128.62437,-0.004257,-0.001053,1.000275,0.004121,0.007845,-0.014526,66.780075,34.538284,-145.810196,,,
729861813.217684,-0.115302,1.061164,128.619754,-0.004257,-0.001053,1.000275,-0.001247,0.020019,-0.017978,66.780075,34.538284,-145.810196,,,
729861813.221067,-0.116233,1.06612,128.619754,-0.004257,-0.001053,1.000275,-0.001247,0.020019,-0.017978,66.780075,34.538284,-145.810196,,,
729861813.224363,-0.118278,1.068408,128.615365,-0.009796,-0.001968,0.994614,-0.001247,0.020019,-0.017978,66.780075,34.538284,-145.810196,,,
729861813.227714,-0.124427,1.078205,128.611817,-0.009796,-0.001968,0.994614,-0.018541,0.036466,-0.014625,66.780075,34.538284,-145.810196,,,
729861813.231046,-0.124427,1.078205,128.611817,-0.009796,-0.001968,0.994614,-0.018541,0.036466,-0.014625,66.780075,34.538284,-145.810196,,,
729861813.234407,-0.13128,1.085657,128.609466,-0.016434,-0.000381,0.985825,-0.018541,0.036466,-0.014625,66.780075,34.538284,-145.810196,,,
729861813.237659,-0.13128,1.085657,128.609466,-0.016434,-0.000381,0.985825,-0.018541,0.036466,-0.014625,66.780075,34.538284,-145.810196,,,
729861813.241008,-0.143834,1.100071,128.608718,-0.016434,-0.000381,0.985825,-0.039717,0.049384,-0.006885,66.780075,34.538284,-145.810196,,,
729861813.244316,-0.157193,1.108272,128.609726,-0.025772,-0.002151,0.982834,-0.039717,0.049384,-0.006885,66.880569,34.59082,-145.68158,,,
729861813.247757,-0.157193,1.108272,128.611796,-0.025772,-0.002151,0.982834,-0.059045,0.052991,0.002443,66.880569,34.59082,-145.68158,,,
729861813.25098,-0.175059,1.122675,128.611796,-0.025772,-0.002151,0.982834,-0.059045,0.052991,0.002443,66.880569,34.59082,-145.68158,,,
729861813.254321,-0.192521,1.12849,128.614195,-0.028473,-0.002853,0.978958,-0.059045,0.052991,0.002443,66.880569,34.59082,-145.68158,,,
729861813.257734,-0.192521,1.12849,128.614195,-0.028473,-0.002853,0.978958,-0.059045,0.052991,0.002443,66.880569,34.59082,-145.68158,,,
729861813.261047,-0.212942,1.141024,128.616816,-0.028473,-0.002853,0.978958,-0.073224,0.049887,0.006328,66.880569,34.59082,-145.68158,,,
729861813.264382,-0.232204,1.143036,128.619187,-0.029144,-0.004227,0.981888,-0.073224,0.049887,0.006328,66.880569,34.59082,-145.68158,,,
729861813.26766,-0.232204,1.143036,128.619187,-0.029144,-0.004227,0.981888,-0.073224,0.049887,0.006328,66.880569,34.59082,-145.68158,,,
729861813.270988,-0.252155,1.148589,128.620852,-0.029144,-0.004227,0.981888,-0.06969,0.025655,0.003422,66.880569,34.59082,-145.68158,,,
729861813.274323,-0.270228,1.142746,128.621432,-0.028,-0.004517,0.987488,-0.06969,0.025655,0.003422,66.880569,34.59082,-145.68158,,,
729861813.277672,-0.270228,1.142746,128.621432,-0.028,-0.004517,0.987488,-0.06969,0.025655,0.003422,66.880569,34.59082,-145.68158,,,
729861813.281109,-0.28711,1.140902,128.621263,-0.028,-0.004517,0.987488,-0.061067,-0.002526,-0.001909,66.880569,34.59082,-145.68158,,,
729861813.284364,-0.300183,1.131614,128.620341,-0.027512,-0.006042,0.989349,-0.061067,-0.002526,-0.001909,66.646332,34.911728,-145.483047,,,
729861813.287663,-0.300183,1.131614,128.620341,-0.027512,-0.006042,0.989349,-0.061067,-0.002526,-0.001909,66.646332,34.911728,-145.483047,,,
729861813.291014,-0.309663,1.130617,128.619619,-0.027512,-0.006042,0.989349,-0.035956,-0.005702,-0.004256,66.646332,34.911728,-145.483047,,,
729861813.294334,-0.313507,1.126139,128.620832,-0.032059,-0.011322,1.007263,-0.035956,-0.005702,-0.004256,66.646332,34.911728,-145.483047,,,
729861813.297837,-0.314474,1.128497,128.625156,-0.032059,-0.011322,1.007263,-0.035956,-0.005702,-0.004256,66.646332,34.911728,-145.483047,,,
729861813.300967,-0.314474,1.128497,128.625156,-0.032059,-0.011322,1.007263,-0.00864,0.010875,0.008842,66.646332,34.911728,-145.483047,,,
729861813.30434,-0.311365,1.128169,128.632958,-0.040756,-0.018188,1.018585,-0.00864,0.010875,0.008842,66.646332,34.911728,-145.483047,,,
729861813.307649,-0.311365,1.128169,128.632958,-0.040756,-0.018188,1.018585,-0.00864,0.010875,0.008842,66.646332,34.911728,-145.483047,,,
729861813.310993,-0.307992,1.131284,128.643069,-0.040756,-0.018188,1.018585,0.011877,0.012913,0.032072,66.646332,34.911728,-145.483047,,,
729861813.314368,-0.304275,1.134861,128.654458,-0.04541,-0.021149,1.009735,0.011877,0.012913,0.032072,66.646332,34.911728,-145.483047,,,
729861813.317705,-0.304275,1.134861,128.654458,-0.04541,-0.021149,1.009735,0.011877,0.012913,0.032072,66.646332,34.911728,-145.483047,,,
729861813.321021,-0.304778,1.137058,128.666408,-0.04541,-0.021149,1.009735,0.002466,0.010114,0.040211,66.646332,34.911728,-145.483047,,,
729861813.324313,-0.308387,1.140542,128.677988,-0.042145,-0.012512,0.99379,0.002466,0.010114,0.040211,66.646332,34.911728,-145.483047,,,
729861813.327785,-0.308387,1.140542,128.677988,-0.042145,-0.012512,0.99379,0.002466,0.010114,0.040211,66.858307,34.931015,-145.61232,,,
729861813.331069,-0.316406,1.137985,128.689143,-0.042145,-0.012512,0.99379,-0.027814,-0.001171,0.036034,66.858307,34.931015,-145.61232,,,
729861813.334304,-0.327349,1.136408,128.699379,-0.033493,-0.003006,0.980881,-0.027814,-0.001171,0.036034,66.858307,34.931015,-145.61232,,,
729861813.337693,-0.327349,1.136408,128.699379,-0.033493,-0.003006,0.980881,-0.027814,-0.001171,0.036034,66.858307,34.931015,-145.61232,,,
729861813.340983,-0.340767,1.129585,128.707851,-0.033493,-0.003006,0.980881,-0.046487,-0.019973,0.030472,66.858307,34.931015,-145.61232,,,
729861813.344306,-0.354138,1.12654,128.714768,-0.027664,0.000381,0.983322,-0.046487,-0.019973,0.030472,66.858307,34.931015,-145.61232,,,
729861813.347802,-0.354138,1.12654,128.714768,-0.027664,0.000381,0.983322,-0.046487,-0.019973,0.030472,66.858307,34.931015,-145.61232,,,
729861813.351052,-0.368428,1.119553,128.720457,-0.027664,0.000381,0.983322,-0.051396,-0.022748,0.018496,66.858307,34.931015,-145.61232,,,
729861813.354306,-0.381619,1.116406,128.724696,-0.020599,-0.003952,0.998322,-0.051396,-0.022748,0.018496,66.858307,34.931015,-145.61232,,,
729861813.357433,-0.381619,1.116406,128.724696,-0.020599,-0.003952,0.998322,-0.051396,-0.022748,0.018496,66.858307,34.931015,-145.61232,,,
729861813.361094,-0.394104,1.110918,128.727708,-0.020599,-0.003952,0.998322,-0.044207,-0.019218,0.008973,66.858307,34.931015,-145.61232,,,
729861813.364382,-0.40545,1.111153,128.730552,-0.013443,-0.004486,1.005981,-0.044207,-0.019218,0.008973,66.858307,34.931015,-145.61232,,,
729861813.367659,-0.40545,1.111153,128.730552,-0.013443,-0.004486,1.005981,-0.044207,-0.019218,0.008973,66.887085,34.787399,-145.663742,,,
729861813.371084,-0.41434,1.110966,128.733035,-0.013443,-0.004486,1.005981,-0.034031,-0.00044,0.006548,66.887085,34.787399,-145.663742,,,
729861813.37432,-0.422893,1.119829,128.735206,-0.009644,-0.006927,1.009689,-0.034031,-0.00044,0.006548,66.887085,34.787399,-145.663742,,,
729861813.377586,-0.422893,1.119829,128.735206,-0.009644,-0.006927,1.009689,-0.034031,-0.00044,0.006548,66.887085,34.787399,-145.663742,,,
729861813.381084,-0.427625,1.12563,128.737589,-0.009644,-0.006927,1.009689,-0.017632,0.021752,0.005283,66.887085,34.787399,-145.663742,,,
729861813.384361,-0.434561,1.143533,128.74042,-0.013565,-0.009918,1.012131,-0.017632,0.021752,0.005283,66.887085,34.787399,-145.663742,,,
729861813.387675,-0.434561,1.143533,128.74042,-0.013565,-0.009918,1.012131,-0.017632,0.021752,0.005283,66.887085,34.787399,-145.663742,,,
729861813.39101,-0.437482,1.154281,128.744078,-0.013565,-0.009918,1.012131,-0.011384,0.03944,0.008951,66.887085,34.787399,-145.663742,,,
729861813.394271,-0.443654,1.175514,128.748926,-0.016693,-0.012054,1.003311,-0.011384,0.03944,0.008951,66.887085,34.787399,-145.663742,,,
729861813.39774,-0.443654,1.175514,128.748926,-0.016693,-0.012054,1.003311,-0.011384,0.03944,0.008951,66.887085,34.787399,-145.663742,,,
729861813.401012,-0.44647,1.186289,128.754282,-0.016693,-0.012054,1.003311,-0.009283,0.04187,0.016117,66.887085,34.787399,-145.663742,,,
729861813.404326,-0.449807,1.203188,128.759614,-0.015213,-0.010422,0.99707,-0.009283,0.04187,0.016117,66.887085,34.787399,-145.663742,,,
729861813.407653,-0.449807,1.203188,128.759614,-0.015213,-0.010422,0.99707,-0.009283,0.04187,0.016117,66.58493,34.900375,-145.4534,,,
729861813.411656,-0.453261,1.211929,128.764587,-0.015213,-0.010422,0.99707,-0.009509,0.033571,0.014562,66.58493,34.900375,-145.4534,,,
729861813.414348,-0.454273,1.223523,128.768577,-0.012543,-0.008484,0.995239,-0.009509,0.033571,0.014562,66.58493,34.900375,-145.4534,,,
729861813.417692,-0.454273,1.223523,128.768577,-0.012543,-0.008484,0.995239,-0.009509,0.033571,0.014562,66.58493,34.900375,-145.4534,,,
729861813.420998,-0.457237,1.229078,128.770681,-0.012543,-0.008484,0.995239,-0.009994,0.023282,0.009881,66.58493,34.900375,-145.4534,,,
729861813.424313,-0.459181,1.234351,128.770676,-0.009399,-0.00412,0.995651,-0.009994,0.023282,0.009881,66.58493,34.900375,-145.4534,,,
729861813.427559,-0.459181,1.234351,128.770676,-0.009399,-0.00412,0.995651,-0.009994,0.023282,0.009881,66.58493,34.900375,-145.4534,,,
729861813.431095,-0.464564,1.236963,128.768516,-0.009399,-0.00412,0.995651,-0.017196,0.012537,-0.00761,66.58493,34.900375,-145.4534,,,
729861813.434326,-0.471475,1.237388,128.764734,-0.00708,-0.000854,0.989609,-0.017196,0.012537,-0.00761,66.58493,34.900375,-145.4534,,,
729861813.43768,-0.471475,1.237388,128.764734,-0.00708,-0.000854,0.989609,-0.017196,0.012537,-0.00761,66.58493,34.900375,-145.4534,,,
729861813.441006,-0.481225,1.239492,128.760254,-0.00708,-0.000854,0.989609,-0.032767,0.009099,-0.016864,66.58493,34.900375,-145.4534,,,
729861813.444204,-0.491557,1.238127,128.754884,-0.007004,0.001663,0.98381,-0.032767,0.009099,-0.016864,66.58493,34.900375,-145.4534,,,
729861813.447752,-0.491557,1.238127,128.754884,-0.007004,0.001663,0.98381,-0.032767,0.009099,-0.016864,66.766983,34.904968,-145.286636,,,
729861813.45101,-0.505551,1.242309,128.748796,-0.007004,0.001663,0.98381,-0.043331,0.01574,-0.024156,66.766983,34.904968,-145.286636,,,
729861813.454326,-0.522607,1.243385,128.742676,-0.008163,0.001755,0.98053,-0.043331,0.01574,-0.024156,66.766983,34.904968,-145.286636,,,
729861813.457722,-0.522607,1.243385,128.742676,-0.008163,0.001755,0.98053,-0.043331,0.01574,-0.024156,66.766983,34.904968,-145.286636,,,
729861813.460804,-0.543037,1.250041,128.73674,-0.008163,0.001755,0.98053,-0.066939,0.027402,-0.022388,66.766983,34.904968,-145.286636,,,
729861813.46443,-0.566714,1.254796,128.731388,-0.011627,-0.000702,0.977005,-0.066939,0.027402,-0.022388,66.766983,34.904968,-145.286636,,,
729861813.467668,-0.566714,1.254796,128.731388,-0.011627,-0.000702,0.977005,-0.066939,0.027402,-0.022388,66.766983,34.904968,-145.286636,,,
729861813.471,-0.591925,1.263334,128.726416,-0.011627,-0.000702,0.977005,-0.087445,0.030371,-0.022863,66.766983,34.904968,-145.286636,,,
729861813.474326,-0.618691,1.269899,128.721545,-0.015656,-0.001999,0.975815,-0.087445,0.030371,-0.022863,66.766983,34.904968,-145.286636,,,
729861813.477478,-0.618691,1.269899,128.721545,-0.015656,-0.001999,0.975815,-0.087445,0.030371,-0.022863,66.766983,34.904968,-145.286636,,,
729861813.481093,-0.643717,1.278685,128.717394,-0.015656,-0.001999,0.975815,-0.088698,0.033818,-0.019331,66.766983,34.904968,-145.286636,,,
729861813.484318,-0.664712,1.283444,128.714107,-0.020493,-0.009735,0.991196,-0.088698,0.033818,-0.019331,66.766983,34.904968,-145.286636,,,
729861813.487682,-0.664712,1.283444,128.714107,-0.020493,-0.009735,0.991196,-0.088698,0.033818,-0.019331,66.766983,34.904968,-145.286636,,,
729861813.491012,-0.68018,1.290944,128.711739,-0.020493,-0.009735,0.991196,-0.059549,0.030889,-0.01008,66.838455,34.903778,-145.446838,,,
729861813.494134,-0.686214,1.293154,128.710224,-0.026474,-0.020523,1.020828,-0.059549,0.030889,-0.01008,66.838455,34.903778,-145.446838,,,
729861813.497748,-0.686214,1.293154,128.710224,-0.026474,-0.020523,1.020828,-0.059549,0.030889,-0.01008,66.838455,34.903778,-145.446838,,,
729861813.501005,-0.686346,1.297986,128.709725,-0.026474,-0.020523,1.020828,-0.006468,0.02052,-0.002401,66.838455,34.903778,-145.446838,,,
729861813.504325,-0.677035,1.295859,128.709574,-0.026947,-0.02803,1.051468,-0.006468,0.02052,-0.002401,66.838455,34.903778,-145.446838,,,
729861813.507728,-0.677035,1.295859,128.709574,-0.026947,-0.02803,1.051468,-0.006468,0.02052,-0.002401,66.838455,34.903778,-145.446838,,,
729861813.510798,-0.665329,1.297153,128.708922,-0.026947,-0.02803,1.051468,0.038632,0.006989,-0.001976,66.838455,34.903778,-145.446838,,,
729861813.514416,-0.647658,1.291653,128.707059,-0.024582,-0.024399,1.054214,0.038632,0.006989,-0.001976,66.838455,34.903778,-145.446838,,,
729861813.517676,-0.647658,1.291653,128.707059,-0.024582,-0.024399,1.054214,0.038632,0.006989,-0.001976,66.838455,34.903778,-145.446838,,,
729861813.520999,-0.630432,1.289354,128.704023,-0.024582,-0.024399,1.054214,0.059365,-0.00341,-0.011185,66.838455,34.903778,-145.446838,,,
729861813.524323,-0.610881,1.282307,128.700907,-0.025681,-0.016983,1.041962,0.059365,-0.00341,-0.011185,66.838455,34.903778,-145.446838,,,
729861813.527487,-0.610881,1.282307,128.700907,-0.025681,-0.016983,1.041962,0.059365,-0.00341,-0.011185,66.838455,34.903778,-145.446838,,,
729861813.531132,-0.595291,1.279904,128.698304,-0.025681,-0.016983,1.041962,0.056336,-0.00577,-0.006915,66.604019,34.928909,-145.11351,,,
729861813.534335,-0.579773,1.276973,128.696305,-0.028076,-0.011765,1.025482,0.056336,-0.00577,-0.006915,66.604019,34.928909,-145.11351,,,
729861813.537684,-0.579773,1.276973,128.696305,-0.028076,-0.011765,1.025482,0.056336,-0.00577,-0.006915,66.604019,34.928909,-145.11351,,,
729861813.541,-0.569157,1.280972,128.695882,-0.028076,-0.011765,1.025482,0.039247,0.008245,-0.003187,66.604019,34.928909,-145.11351,,,
729861813.544236,-0.559655,1.28618,128.696981,-0.027252,-0.008987,1.016617,0.039247,0.008245,-0.003187,66.604019,34.928909,-145.11351,,,
729861813.547751,-0.559655,1.28618,128.696981,-0.027252,-0.008987,1.016617,0.039247,0.008245,-0.003187,66.604019,34.928909,-145.11351,,,
729861813.550999,-0.554351,1.297736,128.699195,-0.027252,-0.008987,1.016617,0.021129,0.040616,0.00347,66.604019,34.928909,-145.11351,,,
729861813.554327,-0.549579,1.310865,128.701827,-0.027252,-0.009628,1.016556,0.021129,0.040616,0.00347,66.604019,34.928909,-145.11351,,,
729861813.557693,-0.549579,1.310865,128.701827,-0.027252,-0.009628,1.016556,0.021129,0.040616,0.00347,66.604019,34.928909,-145.11351,,,
729861813.560826,-0.546517,1.326441,128.704277,-0.027252,-0.009628,1.016556,0.00937,0.058499,0.006824,66.604019,34.928909,-145.11351,,,
729861813.564447,-0.54564,1.34115,128.705798,-0.024521,-0.006165,1.010864,0.00937,0.058499,0.006824,66.604019,34.928909,-145.11351,,,
729861813.567667,-0.54564,1.34115,128.705798,-0.024521,-0.006165,1.010864,0.00937,0.058499,0.006824,66.604019,34.928909,-145.11351,,,
729861813.570999,-0.544694,1.354385,128.705768,-0.024521,-0.006165,1.010864,0.004085,0.050582,-0.001849,66.900833,35.08783,-145.398636,,,
729861813.574326,-0.544856,1.36664,128.70418,-0.023804,-0.004333,1.007004,0.004085,0.050582,-0.001849,66.900833,35.08783,-145.398636,,,
729861813.577501,-0.544856,1.36664,128.70418,-0.023804,-0.004333,1.007004,0.004085,0.050582,-0.001849,66.900833,35.08783,-145.398636,,,
729861813.581106,-0.53951,1.376111,128.701172,-0.023804,-0.004333,1.007004,0.01469,0.038535,-0.009996,66.900833,35.08783,-145.398636,,,
729861813.584377,-0.534181,1.383808,128.698184,-0.02655,-0.008545,1.013382,0.01469,0.038535,-0.009996,66.900833,35.08783,-145.398636,,,
729861813.587678,-0.534181,1.383808,128.698184,-0.02655,-0.008545,1.013382,0.01469,0.038535,-0.009996,66.900833,35.08783,-145.398636,,,
729861813.591063,-0.521467,1.390015,128.696971,-0.02655,-0.008545,1.013382,0.041327,0.025413,-0.006169,66.900833,35.08783,-145.398636,,,
729861813.594413,-0.506424,1.394802,128.698889,-0.034943,-0.017288,1.022263,0.041327,0.025413,-0.006169,66.900833,35.08783,-145.398636,,,
729861813.597749,-0.506424,1.394802,128.698889,-0.034943,-0.017288,1.022263,0.041327,0.025413,-0.006169,66.900833,35.08783,-145.398636,,,
729861813.600975,-0.484631,1.39818,128.704012,-0.034943,-0.017288,1.022263,0.073387,0.016748,0.014479,66.900833,35.08783,-145.398636,,,
729861813.604272,-0.460558,1.400038,128.71147,-0.041931,-0.024063,1.02536,0.073387,0.016748,0.014479,66.900833,35.08783,-145.398636,,,
729861813.607434,-0.460558,1.400038,128.71147,-0.041931,-0.024063,1.02536,0.073387,0.016748,0.014479,66.900833,35.08783,-145.398636,,,
729861813.610981,-0.432997,1.400513,128.720916,-0.041931,-0.024063,1.02536,0.092531,0.005161,0.032712,66.888901,34.838608,-145.428894,,,
729861813.614423,-0.404386,1.401118,128.731097,-0.040604,-0.022263,1.013443,0.092531,0.005161,0.032712,66.888901,34.838608,-145.428894,,,
729861813.617576,-0.404386,1.401118,128.731097,-0.040604,-0.022263,1.013443,0.092531,0.005161,0.032712,66.888901,34.838608,-145.428894,,,
729861813.620983,-0.37546,1.400486,128.741045,-0.040604,-0.022263,1.013443,0.099697,1.6e-05,0.037769,66.888901,34.838608,-145.428894,,,
729861813.624165,-0.348363,1.399138,128.750544,-0.035538,-0.01297,1.003357,0.099697,1.6e-05,0.037769,66.888901,34.838608,-145.428894,,,
729861813.627692,-0.348363,1.399138,128.750544,-0.035538,-0.01297,1.003357,0.099697,1.6e-05,0.037769,66.888901,34.838608,-145.428894,,,
729861813.631076,-0.323454,1.395211,128.759879,-0.035538,-0.01297,1.003357,0.087382,-0.009652,0.03594,66.888901,34.838608,-145.428894,,,
729861813.634321,-0.302694,1.389398,128.768942,-0.030334,-0.005646,0.989166,0.087382,-0.009652,0.03594,66.888901,34.838608,-145.428894,,,
729861813.637681,-0.302694,1.389398,128.768942,-0.030334,-0.005646,0.989166,0.087382,-0.009652,0.03594,66.888901,34.838608,-145.428894,,,
729861813.641002,-0.286348,1.381472,128.776867,-0.030334,-0.005646,0.989166,0.060954,-0.019759,0.029097,66.888901,34.838608,-145.428894,,,
729861813.64432,-0.275169,1.372747,128.783799,-0.026169,0.001343,0.972488,0.060954,-0.019759,0.029097,66.888901,34.838608,-145.428894,,,
729861813.647767,-0.275169,1.372747,128.783799,-0.026169,0.001343,0.972488,0.060954,-0.019759,0.029097,66.888901,34.838608,-145.428894,,,
729861813.650993,-0.269527,1.363663,128.789904,-0.026169,0.001343,0.972488,0.024752,-0.029572,0.023605,66.888901,34.838608,-145.428894,,,
729861813.654362,-0.269918,1.354097,128.795087,-0.024841,0.005844,0.965927,0.024752,-0.029572,0.023605,66.803635,34.727173,-145.465561,,,
729861813.657684,-0.269918,1.354097,128.795087,-0.024841,0.005844,0.965927,0.024752,-0.029572,0.023605,66.803635,34.727173,-145.465561,,,
729861813.661,-0.274798,1.343664,128.799295,-0.024841,0.005844,0.965927,-0.013367,-0.032837,0.016493,66.803635,34.727173,-145.465561,,,
729861813.66438,-0.284272,1.334864,128.802461,-0.020416,0.008392,0.963608,-0.013367,-0.032837,0.016493,66.803635,34.727173,-145.465561,,,
729861813.667674,-0.284272,1.334864,128.802461,-0.020416,0.008392,0.963608,-0.013367,-0.032837,0.016493,66.803635,34.727173,-145.465561,,,
729861813.671014,-0.29476,1.326281,128.804554,-0.020416,0.008392,0.963608,-0.036004,-0.0258,0.004556,66.803635,34.727173,-145.465561,,,
729861813.674324,-0.309785,1.324164,128.805016,-0.012238,0.004532,0.966705,-0.036004,-0.0258,0.004556,66.803635,34.727173,-145.465561,,,
729861813.677656,-0.309785,1.324164,128.805016,-0.012238,0.004532,0.966705,-0.036004,-0.0258,0.004556,66.803635,34.727173,-145.465561,,,
729861813.68105,-0.320601,1.320033,128.805089,-0.012238,0.004532,0.966705,-0.038343,-0.013223,-0.002393,66.803635,34.727173,-145.465561,,,
729861813.684319,-0.334583,1.326276,128.807018,-0.01564,-0.003204,0.980026,-0.038343,-0.013223,-0.002393,66.803635,34.727173,-145.465561,,,
729861813.687724,-0.334583,1.326276,128.807018,-0.01564,-0.003204,0.980026,-0.038343,-0.013223,-0.002393,66.803635,34.727173,-145.465561,,,
729861813.690996,-0.341983,1.328535,128.810995,-0.01564,-0.003204,0.980026,-0.024106,0.009934,0.005992,66.803635,34.727173,-145.465561,,,
729861813.694328,-0.350578,1.338962,128.817566,-0.023895,-0.013306,0.992142,-0.024106,0.009934,0.005992,66.683762,35.200089,-145.747055,,,
729861813.697724,-0.350578,1.338962,128.817566,-0.023895,-0.013306,0.992142,-0.024106,0.009934,0.005992,66.683762,35.200089,-145.747055,,,
729861813.700996,-0.353094,1.344717,128.826664,-0.023895,-0.013306,0.992142,-0.010398,0.021768,0.030746,66.683762,35.200089,-145.747055,,,
729861813.704327,-0.355186,1.354122,128.837588,-0.030975,-0.018967,0.994888,-0.010398,0.021768,0.030746,66.683762,35.200089,-145.747055,,,
729861813.707666,-0.355186,1.354122,128.837588,-0.030975,-0.018967,0.994888,-0.010398,0.021768,0.030746,66.683762,35.200089,-145.747055,,,
729861813.711023,-0.355728,1.357385,128.849294,-0.030975,-0.018967,0.994888,-0.002876,0.017236,0.040046,66.683762,35.200089,-145.747055,,,
729861813.714393,-0.355408,1.358902,128.860637,-0.029037,-0.017105,0.990631,-0.002876,0.017236,0.040046,66.683762,35.200089,-145.747055,,,
729861813.717643,-0.355408,1.358902,128.860637,-0.029037,-0.017105,0.990631,-0.002876,0.017236,0.040046,66.683762,35.200089,-145.747055,,,
729861813.721016,-0.356492,1.353689,128.870594,-0.029037,-0.017105,0.990631,-0.000863,-0.012249,0.035971,66.683762,35.200089,-145.747055,,,
729861813.724357,-0.35568,1.343909,128.878617,-0.023911,-0.012772,0.984772,-0.000863,-0.012249,0.035971,66.683762,35.200089,-145.747055,,,
729861813.727761,-0.35568,1.343909,128.878617,-0.023911,-0.012772,0.984772,-0.000863,-0.012249,0.035971,66.683762,35.200089,-145.747055,,,
729861813.731088,-0.357707,1.327696,128.884153,-0.023911,-0.012772,0.984772,-0.006512,-0.049812,0.018906,66.683762,35.200089,-145.747055,,,
729861813.73431,-0.355645,1.308511,128.887025,-0.01796,-0.006943,0.985016,-0.006512,-0.049812,0.018906,66.984558,35.071259,-145.547684,,,
729861813.737684,-0.355645,1.308511,128.887025,-0.01796,-0.006943,0.985016,-0.006512,-0.049812,0.018906,66.984558,35.071259,-145.547684,,,
729861813.741069,-0.357801,1.286799,128.887544,-0.01796,-0.006943,0.985016,-0.008339,-0.074196,0.001664,66.984558,35.071259,-145.547684,,,
729861813.744317,-0.35643,1.263564,128.885892,-0.013107,-0.004593,0.990814,-0.008339,-0.074196,0.001664,66.984558,35.071259,-145.547684,,,
729861813.747717,-0.35643,1.263564,128.885892,-0.013107,-0.004593,0.990814,-0.008339,-0.074196,0.001664,66.984558,35.071259,-145.547684,,,
729861813.751009,-0.359109,1.244243,128.883011,-0.013107,-0.004593,0.990814,-0.009303,-0.064727,-0.011561,66.984558,35.071259,-145.547684,,,
729861813.754326,-0.359813,1.225325,128.879832,-0.008255,-0.002106,0.995483,-0.009303,-0.064727,-0.011561,66.984558,35.071259,-145.547684,,,
729861813.757683,-0.359813,1.225325,128.879832,-0.008255,-0.002106,0.995483,-0.009303,-0.064727,-0.011561,66.984558,35.071259,-145.547684,,,
729861813.761012,-0.362104,1.213112,128.876774,-0.008255,-0.002106,0.995483,-0.009702,-0.041811,-0.012353,66.984558,35.071259,-145.547684,,,
729861813.764376,-0.364615,1.204477,128.874406,-0.008362,-0.004333,0.998596,-0.009702,-0.041811,-0.012353,66.984558,35.071259,-145.547684,,,
729861813.767712,-0.364615,1.204477,128.874406,-0.008362,-0.004333,0.998596,-0.009702,-0.041811,-0.012353,66.984558,35.071259,-145.547684,,,
729861813.770993,-0.366398,1.200455,128.873419,-0.008362,-0.004333,0.998596,-0.004197,-0.014214,-0.004989,66.984558,35.071259,-145.547684,,,
729861813.774371,-0.370063,1.201538,128.873535,-0.014664,-0.006516,1.000641,-0.004197,-0.014214,-0.004989,66.984558,35.071259,-145.547684,,,
729861813.777668,-0.370063,1.201538,128.873535,-0.014664,-0.006516,1.000641,-0.004197,-0.014214,-0.004989,66.690857,35.13533,-145.227417,,,
729861813.781124,-0.372984,1.202908,128.873614,-0.014664,-0.006516,1.000641,-0.006967,0.007012,-0.001309,66.690857,35.13533,-145.227417,,,
729861813.784323,-0.380902,1.208612,128.872868,-0.015762,-0.004593,0.993973,-0.006967,0.007012,-0.001309,66.690857,35.13533,-145.227417,,,
729861813.78766,-0.380902,1.208612,128.872868,-0.015762,-0.004593,0.993973,-0.006967,0.007012,-0.001309,66.690857,35.13533,-145.227417,,,
729861813.791017,-0.389445,1.21256,128.871502,-0.015762,-0.004593,0.993973,-0.025962,0.016082,-0.007653,66.690857,35.13533,-145.227417,,,
729861813.794327,-0.402457,1.218178,128.868953,-0.018082,-0.001724,0.98114,-0.025962,0.016082,-0.007653,66.690857,35.13533,-145.227417,,,
729861813.79772,-0.402457,1.218178,128.868953,-0.018082,-0.001724,0.98114,-0.025962,0.016082,-0.007653,66.690857,35.13533,-145.227417,,,
729861813.800989,-0.417032,1.22137,128.865158,-0.018082,-0.001724,0.98114,-0.047973,0.014327,-0.014096,66.690857,35.13533,-145.227417,,,
729861813.804328,-0.435065,1.223223,128.861312,-0.021667,-0.000839,0.973129,-0.047973,0.014327,-0.014096,66.690857,35.13533,-145.227417,,,
729861813.807725,-0.435065,1.223223,128.861312,-0.021667,-0.000839,0.973129,-0.047973,0.014327,-0.014096,66.690857,35.13533,-145.227417,,,
729861813.811009,-0.455666,1.223242,128.857572,-0.021667,-0.000839,0.973129,-0.06845,0.001164,-0.017074,66.690857,35.13533,-145.227417,,,
729861813.814367,-0.477647,1.220578,128.8541,-0.030319,-0.006851,0.969055,-0.06845,0.001164,-0.017074,66.690857,35.13533,-145.227417,,,
729861813.817667,-0.477647,1.220578,128.8541,-0.030319,-0.006851,0.969055,-0.06845,0.001164,-0.017074,66.740891,35.319992,-145.638168,,,
729861813.821013,-0.499623,1.218434,128.85193,-0.030319,-0.006851,0.969055,-0.07728,-0.005202,-0.010919,66.740891,35.319992,-145.638168,,,
729861813.824326,-0.52019,1.212256,128.851536,-0.038986,-0.011093,0.974701,-0.07728,-0.005202,-0.010919,66.740891,35.319992,-145.638168,,,
729861813.827673,-0.52019,1.212256,128.851536,-0.038986,-0.011093,0.974701,-0.07728,-0.005202,-0.010919,66.740891,35.319992,-145.638168,,,
729861813.831136,-0.540821,1.207149,128.853293,-0.038986,-0.011093,0.974701,-0.071189,-0.011671,0.002243,66.740891,35.319992,-145.638168,,,
729861813.834316,-0.55876,1.19459,128.8573,-0.044739,-0.018341,0.988419,-0.071189,-0.011671,0.002243,66.740891,35.319992,-145.638168,,,
729861813.837652,-0.55876,1.19459,128.8573,-0.044739,-0.018341,0.988419,-0.071189,-0.011671,0.002243,66.740891,35.319992,-145.638168,,,
729861813.841009,-0.577067,1.183395,128.863491,-0.044739,-0.018341,0.988419,-0.067377,-0.03235,0.016959,66.740891,35.319992,-145.638168,,,
729861813.844409,-0.592082,1.16498,128.870579,-0.045746,-0.022644,0.996841,-0.067377,-0.03235,0.016959,66.740891,35.319992,-145.638168,,,
729861813.847723,-0.592082,1.16498,128.870579,-0.045746,-0.022644,0.996841,-0.067377,-0.03235,0.016959,66.740891,35.319992,-145.638168,,,
729861813.850997,-0.604815,1.148708,128.877276,-0.045746,-0.022644,0.996841,-0.047419,-0.053207,0.0215,66.740891,35.319992,-145.638168,,,
729861813.854328,-0.610518,1.130897,128.883142,-0.03656,-0.022446,1.009094,-0.047419,-0.053207,0.0215,66.740891,35.319992,-145.638168,,,
729861813.857654,-0.610518,1.130897,128.883142,-0.03656,-0.022446,1.009094,-0.047419,-0.053207,0.0215,66.611771,35.254669,-145.217575,,,
729861813.861045,-0.610782,1.116107,128.888632,-0.03656,-0.022446,1.009094,-0.007764,-0.049366,0.017516,66.611771,35.254669,-145.217575,,,
729861813.864421,-0.602834,1.102818,128.894041,-0.027481,-0.024185,1.032913,-0.007764,-0.049366,0.017516,66.611771,35.254669,-145.217575,,,
729861813.867736,-0.602834,1.102818,128.894041,-0.027481,-0.024185,1.032913,-0.007764,-0.049366,0.017516,66.611771,35.254669,-145.217575,,,
729861813.871111,-0.591544,1.093867,128.8999,-0.027481,-0.024185,1.032913,0.036487,-0.032046,0.018614,66.611771,35.254669,-145.217575,,,
729861813.874427,-0.573611,1.089118,128.906654,-0.020691,-0.027313,1.04274,0.036487,-0.032046,0.018614,66.611771,35.254669,-145.217575,,,
729861813.877675,-0.573611,1.089118,128.906654,-0.020691,-0.027313,1.04274,0.036487,-0.032046,0.018614,66.611771,35.254669,-145.217575,,,
729861813.881061,-0.556589,1.088787,128.91371,-0.020691,-0.027313,1.04274,0.05919,-0.002385,0.02433,66.611771,35.254669,-145.217575,,,
729861813.884335,-0.537279,1.094734,128.92093,-0.019455,-0.024445,1.035126,0.05919,-0.002385,0.02433,66.611771,35.254669,-145.217575,,,
729861813.887653,-0.537279,1.094734,128.92093,-0.019455,-0.024445,1.035126,0.05919,-0.002385,0.02433,66.611771,35.254669,-145.217575,,,
729861813.891039,-0.521138,1.102796,128.927764,-0.019455,-0.024445,1.035126,0.059364,0.028273,0.025537,66.611771,35.254669,-145.217575,,,
729861813.894327,-0.507819,1.119832,128.933981,-0.016617,-0.013809,1.01796,0.059364,0.028273,0.025537,66.611771,35.254669,-145.217575,,,
729861813.89773,-0.507819,1.119832,128.933981,-0.016617,-0.013809,1.01796,0.059364,0.028273,0.025537,66.819855,35.099823,-145.300125,,,
729861813.90099,-0.497628,1.132051,128.939524,-0.016617,-0.013809,1.01796,0.036892,0.046479,0.020293,66.819855,35.099823,-145.300125,,,
729861813.904323,-0.497628,1.132051,128.939524,-0.014008,-0.006271,0.998535,0.036892,0.046479,0.020293,66.819855,35.099823,-145.300125,,,
729861813.907764,-0.492226,1.152104,128.944004,-0.014008,-0.006271,0.998535,0.036892,0.046479,0.020293,66.819855,35.099823,-145.300125,,,
729861813.910982,-0.48941,1.162073,128.946125,-0.014008,-0.006271,0.998535,0.012544,0.039555,0.009667,66.819855,35.099823,-145.300125,,,
729861813.914372,-0.492902,1.179712,128.945117,-0.008942,0.000763,0.983109,0.012544,0.039555,0.009667,66.819855,35.099823,-145.300125,,,
729861813.917654,-0.492902,1.179712,128.945117,-0.008942,0.000763,0.983109,0.012544,0.039555,0.009667,66.819855,35.099823,-145.300125,,,
729861813.921085,-0.494975,1.187484,128.940244,-0.008942,0.000763,0.983109,-0.007488,0.031778,-0.014879,66.819855,35.099823,-145.300125,,,
729861813.924312,-0.494975,1.187484,128.940244,-0.003021,0.006561,0.98262,-0.007488,0.031778,-0.014879,66.819855,35.099823,-145.300125,,,
729861813.927668,-0.500392,1.202642,128.932594,-0.003021,0.006561,0.98262,-0.007488,0.031778,-0.014879,66.819855,35.099823,-145.300125,,,
729861813.931056,-0.500591,1.210788,128.923938,-0.003021,0.006561,0.98262,-0.001624,0.029506,-0.031655,66.819855,35.099823,-145.300125,,,
729861813.934322,-0.500591,1.210788,128.923938,-0.007889,-0.000198,0.994705,-0.001624,0.029506,-0.031655,66.819855,35.099823,-145.300125,,,
729861813.937682,-0.501366,1.223557,128.914989,-0.007889,-0.000198,0.994705,-0.001624,0.029506,-0.031655,66.819855,35.099823,-145.300125,,,
729861813.941004,-0.496598,1.233742,128.906307,-0.007889,-0.000198,0.994705,0.016879,0.037914,-0.033129,66.874878,35.203094,-145.434464,,,
729861813.944324,-0.496598,1.233742,128.906307,-0.016922,-0.011627,1.003296,0.016879,0.037914,-0.033129,66.874878,35.203094,-145.434464,,,
729861813.947792,-0.492952,1.245546,128.898943,-0.016922,-0.011627,1.003296,0.016879,0.037914,-0.033129,66.874878,35.203094,-145.434464,,,
729861813.951,-0.482494,1.257618,128.893988,-0.016922,-0.011627,1.003296,0.035603,0.04635,-0.020122,66.874878,35.203094,-145.434464,,,
729861813.954421,-0.482494,1.269197,128.891575,-0.026871,-0.018402,1.006332,0.035603,0.04635,-0.020122,66.874878,35.203094,-145.434464,,,
729861813.95771,-0.474581,1.269197,128.891575,-0.026871,-0.018402,1.006332,0.035603,0.04635,-0.020122,66.874878,35.203094,-145.434464,,,
729861813.961054,-0.46085,1.281676,128.890795,-0.026871,-0.018402,1.006332,0.04867,0.045858,-0.003242,66.874878,35.203094,-145.434464,,,
729861813.964382,-0.46085,1.281676,128.890795,-0.032761,-0.017654,1.002075,0.04867,0.045858,-0.003242,66.874878,35.203094,-145.434464,,,
729861813.96766,-0.449168,1.290833,128.891681,-0.032761,-0.017654,1.002075,0.04867,0.045858,-0.003242,66.874878,35.203094,-145.434464,,,
729861813.971013,-0.433973,1.299027,128.89411,-0.032761,-0.017654,1.002075,0.056236,0.033265,0.008782,66.874878,35.203094,-145.434464,,,
729861813.974348,-0.433973,1.299027,128.89411,-0.032944,-0.014893,0.994751,0.056236,0.033265,0.008782,66.874878,35.203094,-145.434464,,,
729861813.977669,-0.419849,1.300975,128.896826,-0.032944,-0.014893,0.994751,0.056236,0.033265,0.008782,66.874878,35.203094,-145.434464,,,
729861813.981037,-0.406058,1.302109,128.899455,-0.032944,-0.014893,0.994751,0.051119,0.011946,0.010809,66.803131,34.975479,-145.69516,,,
729861813.984347,-0.406058,1.302109,128.899455,-0.03125,-0.010376,0.980728,0.051119,0.011946,0.010809,66.803131,34.975479,-145.69516,,,
729861813.987693,-0.393468,1.295406,128.901622,-0.03125,-0.010376,0.980728,0.051119,0.011946,0.010809,66.803131,34.975479,-145.69516,,,
729861813.991132,-0.384877,1.289981,128.903105,-0.03125,-0.010376,0.980728,0.031679,-0.01428,0.004269,66.803131,34.975479,-145.69516,,,
729861813.994367,-0.384877,1.289981,128.903105,-0.03125,-0.010376,0.980728,0.031679,-0.01428,0.004269,66.803131,34.975479,-145.69516,,,
729861813.99775,-0.37818,1.276606,128.904065,-0.026093,-0.004547,0.96933,0.031679,-0.01428,0.004269,66.803131,34.975479,-145.69516,,,
729861814.001006,-0.380277,1.267921,128.904371,-0.026093,-0.004547,0.96933,-0.003846,-0.025947,0.001257,66.803131,34.975479,-145.69516,,,
729861814.004365,-0.380277,1.267921,128.904371,-0.026093,-0.004547,0.96933,-0.003846,-0.025947,0.001257,66.803131,34.975479,-145.69516,,,
729861814.007691,-0.385756,1.252582,128.904251,-0.023758,0.00032,0.962082,-0.003846,-0.025947,0.001257,66.803131,34.975479,-145.69516,,,
729861814.011006,-0.399408,1.243451,128.904472,-0.023758,0.00032,0.962082,-0.044749,-0.029693,-0.001981,66.803131,34.975479,-145.69516,,,
729861814.014433,-0.399408,1.243451,128.904472,-0.021027,0.000916,0.963211,-0.044749,-0.029693,-0.001981,66.803131,34.975479,-145.69516,,,
729861814.017675,-0.416382,1.232224,128.904821,-0.021027,0.000916,0.963211,-0.044749,-0.029693,-0.001981,66.803131,34.975479,-145.69516,,,
729861814.020995,-0.436018,1.225786,128.905645,-0.021027,0.000916,0.963211,-0.068371,-0.02161,-0.000713,66.943222,35.13765,-145.438568,,,
729861814.02434,-0.436018,1.225786,128.905645,-0.021027,0.000916,0.963211,-0.068371,-0.02161,-0.000713,66.943222,35.13765,-145.438568,,,
729861814.027734,-0.457467,1.221302,128.90716,-0.01796,-0.004639,0.979706,-0.068371,-0.02161,-0.000713,66.943222,35.13765,-145.438568,,,
729861814.031146,-0.474332,1.220083,128.908797,-0.01796,-0.004639,0.979706,-0.061545,-0.003648,0.004,66.943222,35.13765,-145.438568,,,
729861814.034324,-0.474332,1.220083,128.908797,-0.01796,-0.004639,0.979706,-0.061545,-0.003648,0.004,66.943222,35.13765,-145.438568,,,
729861814.037678,-0.489868,1.225893,128.910402,-0.015808,-0.012207,1.006378,-0.061545,-0.003648,0.004,66.943222,35.13765,-145.438568,,,
729861814.040998,-0.496817,1.231078,128.91144,-0.015808,-0.012207,1.006378,-0.029918,0.018853,0.001912,66.943222,35.13765,-145.438568,,,
729861814.044401,-0.496817,1.231078,128.91144,-0.015808,-0.012207,1.006378,-0.029918,0.018853,0.001912,66.943222,35.13765,-145.438568,,,
729861814.047715,-0.500168,1.243422,128.91182,-0.011551,-0.02002,1.030884,-0.029918,0.018853,0.001912,66.943222,35.13765,-145.438568,,,
729861814.050989,-0.495579,1.252796,128.912504,-0.011551,-0.02002,1.030884,0.009927,0.037101,0.000917,66.943222,35.13765,-145.438568,,,
729861814.054384,-0.495579,1.252796,128.912504,-0.011551,-0.02002,1.030884,0.009927,0.037101,0.000917,66.943222,35.13765,-145.438568,,,
729861814.057663,-0.486425,1.266814,128.913548,-0.012543,-0.021774,1.039413,0.009927,0.037101,0.000917,66.943222,35.13765,-145.438568,,,
729861814.060986,-0.471895,1.277213,128.914813,-0.012543,-0.021774,1.039413,0.048375,0.040976,0.003402,66.884689,35.08757,-145.759598,,,
729861814.064395,-0.471895,1.277213,128.914813,-0.012543,-0.021774,1.039413,0.048375,0.040976,0.003402,66.884689,35.08757,-145.759598,,,
729861814.067726,-0.454867,1.289,128.917161,-0.019318,-0.021866,1.032593,0.048375,0.040976,0.003402,66.884689,35.08757,-145.759598,,,
729861814.070987,-0.436997,1.296316,128.91972,-0.019318,-0.021866,1.032593,0.063195,0.032722,0.012041,66.884689,35.08757,-145.759598,,,
729861814.074375,-0.436997,1.296316,128.91972,-0.019318,-0.021866,1.032593,0.063195,0.032722,0.012041,66.884689,35.08757,-145.759598,,,
729861814.077655,-0.419745,1.301919,128.92191,-0.02417,-0.016525,1.009689,0.063195,0.032722,0.012041,66.884689,35.08757,-145.759598,,,
729861814.081066,-0.406287,1.30442,128.923019,-0.02417,-0.016525,1.009689,0.049165,0.011787,0.008754,66.884689,35.08757,-145.759598,,,
729861814.084353,-0.406287,1.30442,128.923019,-0.02417,-0.016525,1.009689,0.049165,0.011787,0.008754,66.884689,35.08757,-145.759598,,,
729861814.087653,-0.395007,1.304593,128.922801,-0.020737,-0.005615,0.981903,0.049165,0.011787,0.008754,66.884689,35.08757,-145.759598,,,
729861814.090998,-0.391293,1.302352,128.921369,-0.020737,-0.005615,0.981903,0.019257,-0.003801,-0.004414,66.884689,35.08757,-145.759598,,,
729861814.094359,-0.391293,1.302352,128.921369,-0.020737,-0.005615,0.981903,0.019257,-0.003801,-0.004414,66.884689,35.08757,-145.759598,,,
729861814.097717,-0.392629,1.297213,128.918521,-0.018814,0.003784,0.962997,0.019257,-0.003801,-0.004414,66.884689,35.08757,-145.759598,,,
729861814.100991,-0.400876,1.290795,128.914935,-0.018814,0.003784,0.962997,-0.022447,-0.018782,-0.014719,66.884689,35.08757,-145.759598,,,
729861814.104325,-0.400876,1.290795,128.914935,-0.018814,0.003784,0.962997,-0.022447,-0.018782,-0.014719,66.864334,35.071915,-145.718521,,,
729861814.107721,-0.415394,1.283118,128.910806,-0.020401,0.008301,0.949707,-0.022447,-0.018782,-0.014719,66.864334,35.071915,-145.718521,,,
729861814.110987,-0.435625,1.278514,128.906074,-0.020401,0.008301,0.949707,-0.063858,-0.015247,-0.017822,66.864334,35.071915,-145.718521,,,
729861814.1144,-0.435625,1.278514,128.906074,-0.020401,0.008301,0.949707,-0.063858,-0.015247,-0.017822,66.864334,35.071915,-145.718521,,,
729861814.117661,-0.461043,1.275978,128.901185,-0.02063,0.006165,0.954544,-0.063858,-0.015247,-0.017822,66.864334,35.071915,-145.718521,,,
729861814.120997,-0.487276,1.280797,128.897136,-0.02063,0.006165,0.954544,-0.091928,0.013509,-0.017591,66.864334,35.071915,-145.718521,,,
729861814.124343,-0.487276,1.280797,128.897136,-0.02063,0.006165,0.954544,-0.091928,0.013509,-0.017591,66.864334,35.071915,-145.718521,,,
729861814.127667,-0.514162,1.288376,128.895148,-0.026154,-0.004196,0.97435,-0.091928,0.013509,-0.017591,66.864334,35.071915,-145.718521,,,
729861814.131043,-0.537209,1.302163,128.896466,-0.026154,-0.004196,0.97435,-0.081834,0.051106,-0.00331,66.864334,35.071915,-145.718521,,,
729861814.134437,-0.537209,1.302163,128.896466,-0.026154,-0.004196,0.97435,-0.081834,0.051106,-0.00331,66.864334,35.071915,-145.718521,,,
729861814.137662,-0.558775,1.31717,128.900765,-0.036728,-0.015396,1.000977,-0.081834,0.051106,-0.00331,66.864334,35.071915,-145.718521,,,
729861814.140993,-0.574966,1.335461,128.907544,-0.036728,-0.015396,1.000977,-0.057743,0.067196,0.021099,66.864334,35.071915,-145.718521,,,
729861814.144321,-0.574966,1.335461,128.907544,-0.036728,-0.015396,1.000977,-0.057743,0.067196,0.021099,66.986771,35.029587,-145.696838,,,
729861814.147731,-0.589478,1.353273,128.916322,-0.042419,-0.024979,1.016846,-0.057743,0.067196,0.021099,66.986771,35.029587,-145.696838,,,
729861814.150989,-0.599453,1.369667,128.926161,-0.042419,-0.024979,1.016846,-0.038776,0.062536,0.031102,66.986771,35.029587,-145.696838,,,
729861814.154337,-0.599453,1.369667,128.926161,-0.042419,-0.024979,1.016846,-0.038776,0.062536,0.031102,66.986771,35.029587,-145.696838,,,
729861814.157671,-0.606313,1.382857,128.935413,-0.041153,-0.023315,1.017151,-0.038776,0.062536,0.031102,66.986771,35.029587,-145.696838,,,
729861814.160995,-0.609665,1.392352,128.942853,-0.041153,-0.023315,1.017151,-0.015875,0.041572,0.026055,66.986771,35.029587,-145.696838,,,
729861814.16438,-0.609665,1.392352,128.942853,-0.041153,-0.023315,1.017151,-0.015875,0.041572,0.026055,66.986771,35.029587,-145.696838,,,
729861814.167653,-0.608813,1.397032,128.948695,-0.032562,-0.01918,1.015045,-0.015875,0.041572,0.026055,66.986771,35.029587,-145.696838,,,
729861814.171014,-0.606296,1.398539,128.953823,-0.032562,-0.01918,1.015045,0.008274,0.011949,0.015727,66.986771,35.029587,-145.696838,,,
729861814.174412,-0.606296,1.398539,128.953823,-0.032562,-0.01918,1.015045,0.008274,0.011949,0.015727,66.986771,35.029587,-145.696838,,,
729861814.17769,-0.599225,1.395565,128.959183,-0.030563,-0.019547,1.012405,0.008274,0.011949,0.015727,66.986771,35.029587,-145.696838,,,
729861814.181081,-0.594292,1.390516,128.965262,-0.030563,-0.019547,1.012405,0.018863,-0.013408,0.016328,66.986771,35.029587,-145.696838,,,
729861814.184323,-0.594292,1.390516,128.965262,-0.030563,-0.019547,1.012405,0.018863,-0.013408,0.016328,67.133041,35.076996,-145.26326,,,
729861814.187682,-0.585894,1.382756,128.972364,-0.030624,-0.017029,1.008179,0.018863,-0.013408,0.016328,67.133041,35.076996,-145.26326,,,
729861814.191,-0.581495,1.37408,128.980098,-0.030624,-0.017029,1.008179,0.018512,-0.026563,0.025172,67.133041,35.076996,-145.26326,,,
729861814.194368,-0.581495,1.37408,128.980098,-0.030624,-0.017029,1.008179,0.018512,-0.026563,0.025172,67.133041,35.076996,-145.26326,,,
729861814.197775,-0.577775,1.364764,128.987438,-0.029175,-0.014404,0.999222,0.018512,-0.026563,0.025172,67.133041,35.076996,-145.26326,,,
729861814.200992,-0.579457,1.356652,128.993406,-0.029175,-0.014404,0.999222,-0.00469,-0.026759,0.022034,67.133041,35.076996,-145.26326,,,
729861814.204338,-0.579457,1.356652,128.993406,-0.029175,-0.014404,0.999222,-0.00469,-0.026759,0.022034,67.133041,35.076996,-145.26326,,,
729861814.207774,-0.584827,1.350997,128.997463,-0.020432,-0.0065,0.991257,-0.00469,-0.026759,0.022034,67.133041,35.076996,-145.26326,,,
729861814.211,-0.594426,1.343476,128.999748,-0.020432,-0.0065,0.991257,-0.031077,-0.022302,0.008824,67.133041,35.076996,-145.26326,,,
729861814.214405,-0.594426,1.343476,128.999748,-0.020432,-0.0065,0.991257,-0.031077,-0.022302,0.008824,67.133041,35.076996,-145.26326,,,
729861814.21768,-0.608902,1.341516,129.000606,-0.01088,0.000824,0.983795,-0.031077,-0.022302,0.008824,67.133041,35.076996,-145.26326,,,
729861814.220991,-0.622878,1.33545,129.00017,-0.01088,0.000824,0.983795,-0.048977,-0.018415,-0.00349,67.133041,35.076996,-145.26326,,,
729861814.224376,-0.622878,1.33545,129.00017,-0.01088,0.000824,0.983795,-0.048977,-0.018415,-0.00349,67.133041,35.076996,-145.26326,,,
729861814.227674,-0.640975,1.338369,128.998526,-0.007095,0.000977,0.985016,-0.048977,-0.018415,-0.00349,66.842728,35.122513,-144.982529,,,
729861814.231038,-0.654039,1.33604,128.996023,-0.007095,0.000977,0.985016,-0.045422,-0.009798,-0.011243,66.842728,35.122513,-144.982529,,,
729861814.234412,-0.654039,1.33604,128.996023,-0.007095,0.000977,0.985016,-0.045422,-0.009798,-0.011243,66.842728,35.122513,-144.982529,,,
729861814.237673,-0.667861,1.341542,128.99356,-0.006104,-0.004135,1.004013,-0.045422,-0.009798,-0.011243,66.842728,35.122513,-144.982529,,,
729861814.240999,-0.676818,1.345178,128.9912,-0.006104,-0.004135,1.004013,-0.032223,0.014141,-0.0111,66.842728,35.122513,-144.982529,,,
729861814.24434,-0.676818,1.345178,128.9912,-0.006104,-0.004135,1.004013,-0.032223,0.014141,-0.0111,66.842728,35.122513,-144.982529,,,
729861814.247746,-0.684829,1.352491,128.989269,-0.007935,-0.011932,1.019913,-0.032223,0.014141,-0.0111,66.842728,35.122513,-144.982529,,,
729861814.250991,-0.68821,1.357656,128.988169,-0.007935,-0.011932,1.019913,-0.015036,0.019889,-0.006434,66.842728,35.122513,-144.982529,,,
729861814.254343,-0.68821,1.357656,128.988169,-0.007935,-0.011932,1.019913,-0.015036,0.019889,-0.006434,66.842728,35.122513,-144.982529,,,
729861814.257683,-0.690377,1.364648,128.988198,-0.013626,-0.018967,1.025589,-0.015036,0.019889,-0.006434,66.842728,35.122513,-144.982529,,,
729861814.261075,-0.688563,1.367032,128.989142,-0.013626,-0.018967,1.025589,0.0028,0.014246,0.002011,66.842728,35.122513,-144.982529,,,
729861814.264407,-0.688563,1.367032,128.989142,-0.013626,-0.018967,1.025589,0.0028,0.014246,0.002011,66.842728,35.122513,-144.982529,,,
729861814.267665,-0.685342,1.369171,128.991526,-0.018402,-0.022308,1.025436,0.0028,0.014246,0.002011,66.947769,35.253967,-145.209137,,,
729861814.271003,-0.67893,1.364994,128.994673,-0.018402,-0.022308,1.025436,0.02186,-0.008481,0.00913,66.947769,35.253967,-145.209137,,,
729861814.274422,-0.67893,1.364994,128.994673,-0.018402,-0.022308,1.025436,0.02186,-0.008481,0.00913,66.947769,35.253967,-145.209137,,,
729861814.277684,-0.671901,1.358228,128.997497,-0.019348,-0.023575,1.02092,0.02186,-0.008481,0.00913,66.947769,35.253967,-145.209137,,,
729861814.281057,-0.664138,1.347042,128.999701,-0.019348,-0.023575,1.02092,0.02802,-0.033759,0.009515,66.947769,35.253967,-145.209137,,,
729861814.28437,-0.664138,1.347042,128.999701,-0.019348,-0.023575,1.02092,0.02802,-0.033759,0.009515,66.947769,35.253967,-145.209137,,,
729861814.28774,-0.653407,1.330649,129.000275,-0.015305,-0.018127,1.013992,0.02802,-0.033759,0.009515,66.947769,35.253967,-145.209137,,,
729861814.290993,-0.645518,1.316232,128.998579,-0.015305,-0.018127,1.013992,0.026584,-0.050877,-0.003723,66.947769,35.253967,-145.209137,,,
729861814.294327,-0.645518,1.316232,128.998579,-0.015305,-0.018127,1.013992,0.026584,-0.050877,-0.003723,66.947769,35.253967,-145.209137,,,
729861814.297723,-0.634009,1.295844,128.994028,-0.005524,-0.011642,1.008972,0.026584,-0.050877,-0.003723,66.947769,35.253967,-145.209137,,,
729861814.300991,-0.627723,1.282335,128.986176,-0.005524,-0.011642,1.008972,0.027014,-0.044878,-0.023268,66.947769,35.253967,-145.209137,,,
729861814.304344,-0.627723,1.282335,128.986176,-0.005524,-0.011642,1.008972,0.027014,-0.044878,-0.023268,66.947769,35.253967,-145.209137,,,
729861814.307664,-0.620708,1.26411,128.975534,0.002731,-0.002884,1.002319,0.027014,-0.044878,-0.023268,66.79538,35.140396,-145.108749,,,
729861814.311129,-0.619511,1.254109,128.962982,0.002731,-0.002884,1.002319,0.007126,-0.029717,-0.043591,66.79538,35.140396,-145.108749,,,
729861814.314402,-0.619511,1.254109,128.962982,0.002731,-0.002884,1.002319,0.007126,-0.029717,-0.043591,66.79538,35.140396,-145.108749,,,
729861814.31769,-0.620141,1.241316,128.948957,0.001877,-0.000504,0.996078,0.007126,-0.029717,-0.043591,66.79538,35.140396,-145.108749,,,
729861814.320994,-0.624421,1.238865,128.933959,0.001877,-0.000504,0.996078,-0.01058,-0.009726,-0.053967,66.79538,35.140396,-145.108749,,,
729861814.324342,-0.624421,1.238865,128.933959,0.001877,-0.000504,0.996078,-0.01058,-0.009726,-0.053967,66.79538,35.140396,-145.108749,,,
729861814.327702,-0.632083,1.23634,128.918618,-0.002121,0.002594,0.990768,-0.01058,-0.009726,-0.053967,66.79538,35.140396,-145.108749,,,
729861814.331068,-0.639654,1.24265,128.903544,-0.002121,0.002594,0.990768,-0.025639,0.021707,-0.055164,66.79538,35.140396,-145.108749,,,
729861814.334338,-0.639654,1.24265,128.903544,-0.002121,0.002594,0.990768,-0.025639,0.021707,-0.055164,66.79538,35.140396,-145.108749,,,
729861814.337795,-0.650176,1.250028,128.888632,-0.011444,-9.2e-05,0.994141,-0.025639,0.021707,-0.055164,66.79538,35.140396,-145.108749,,,
729861814.34101,-0.657968,1.263175,128.874595,-0.011444,-9.2e-05,0.994141,-0.027301,0.049412,-0.05131,66.79538,35.140396,-145.108749,,,
729861814.344399,-0.657968,1.263175,128.874595,-0.011444,-9.2e-05,0.994141,-0.027301,0.049412,-0.05131,66.79538,35.140396,-145.108749,,,
729861814.347714,-0.667699,1.275491,128.861221,-0.019867,-0.00621,0.998352,-0.027301,0.049412,-0.05131,66.914734,35.177155,-145.289368,,,
729861814.350997,-0.672738,1.288464,128.848565,-0.019867,-0.00621,0.998352,-0.018258,0.049826,-0.044938,66.914734,35.177155,-145.289368,,,
729861814.354345,-0.672738,1.288464,128.848565,-0.019867,-0.00621,0.998352,-0.018258,0.049826,-0.044938,66.914734,35.177155,-145.289368,,,
729861814.357668,-0.679001,1.297315,128.837204,-0.032196,-0.01123,0.994278,-0.018258,0.049826,-0.044938,66.914734,35.177155,-145.289368,,,
729861814.361045,-0.680816,1.304146,128.827244,-0.032196,-0.01123,0.994278,-0.006054,0.03151,-0.03807,66.914734,35.177155,-145.289368,,,
729861814.364396,-0.680816,1.304146,128.827244,-0.032196,-0.01123,0.994278,-0.006054,0.03151,-0.03807,66.914734,35.177155,-145.289368,,,
729861814.367673,-0.682421,1.301586,128.818957,-0.04213,-0.01535,0.988388,-0.006054,0.03151,-0.03807,66.914734,35.177155,-145.289368,,,
729861814.371,-0.682215,1.298184,128.812946,-0.04213,-0.01535,0.988388,0.001359,-0.003683,-0.024913,66.914734,35.177155,-145.289368,,,
729861814.3744,-0.682215,1.298184,128.812946,-0.04213,-0.01535,0.988388,0.001359,-0.003683,-0.024913,66.914734,35.177155,-145.289368,,,
729861814.377667,-0.680353,1.280884,128.809501,-0.053848,-0.016098,0.981918,0.001359,-0.003683,-0.024913,66.914734,35.177155,-145.289368,,,
729861814.381041,-0.679545,1.266863,128.808567,-0.053848,-0.016098,0.981918,0.004277,-0.042194,-0.00629,66.914734,35.177155,-145.289368,,,
729861814.384333,-0.679545,1.266863,128.808567,-0.053848,-0.016098,0.981918,0.004277,-0.042194,-0.00629,66.914734,35.177155,-145.289368,,,
729861814.387768,-0.67676,1.238718,128.809228,-0.056793,-0.017227,0.979584,0.004277,-0.042194,-0.00629,66.914734,35.177155,-145.289368,,,
729861814.390988,-0.676773,1.217913,128.811372,-0.056793,-0.017227,0.979584,-0.000619,-0.069909,0.006208,66.783981,35.233994,-145.205597,,,
729861814.394348,-0.676773,1.217913,128.811372,-0.056793,-0.017227,0.979584,-0.000619,-0.069909,0.006208,66.783981,35.233994,-145.205597,,,
729861814.397722,-0.672353,1.186202,128.814453,-0.051727,-0.018692,0.989548,-0.000619,-0.069909,0.006208,66.783981,35.233994,-145.205597,,,
729861814.400987,-0.670639,1.162832,128.818069,-0.051727,-0.018692,0.989548,0.005041,-0.07839,0.010378,66.783981,35.233994,-145.205597,,,
729861814.404341,-0.670639,1.162832,128.818069,-0.051727,-0.018692,0.989548,0.005041,-0.07839,0.010378,66.783981,35.233994,-145.205597,,,
729861814.407667,-0.664239,1.133502,128.82131,-0.043442,-0.017014,0.998993,0.005041,-0.07839,0.010378,66.783981,35.233994,-145.205597,,,
729861814.410998,-0.660066,1.111389,128.823841,-0.043442,-0.017014,0.998993,0.012697,-0.075046,0.00948,66.783981,35.233994,-145.205597,,,
729861814.414448,-0.660066,1.111389,128.823841,-0.043442,-0.017014,0.998993,0.012697,-0.075046,0.00948,66.783981,35.233994,-145.205597,,,
729861814.417668,-0.652036,1.091055,128.825166,-0.031906,-0.014481,1.008606,0.012697,-0.075046,0.00948,66.783981,35.233994,-145.205597,,,
729861814.421005,-0.646155,1.077553,128.82502,-0.031906,-0.014481,1.008606,0.018393,-0.045732,-0.00059,66.783981,35.233994,-145.205597,,,
729861814.424053,-0.646155,1.077553,128.82502,-0.031906,-0.014481,1.008606,0.018393,-0.045732,-0.00059,66.783981,35.233994,-145.205597,,,
729861814.427768,-0.63875,1.071566,128.823991,-0.019333,-0.009705,1.015015,0.018393,-0.045732,-0.00059,66.783981,35.233994,-145.205597,,,
729861814.43104,-0.632029,1.069569,128.822323,-0.019333,-0.009705,1.015015,0.023744,-0.008137,-0.007569,66.640305,35.21521,-145.321915,,,
729861814.434332,-0.632029,1.069569,128.822323,-0.019333,-0.009705,1.015015,0.023744,-0.008137,-0.007569,66.640305,35.21521,-145.321915,,,
729861814.437679,-0.624935,1.079189,128.820267,-0.015686,-0.009445,1.014252,0.023744,-0.008137,-0.007569,66.640305,35.21521,-145.321915,,,
729861814.440991,-0.617298,1.084808,128.818548,-0.015686,-0.009445,1.014252,0.027542,0.019916,-0.00558,66.640305,35.21521,-145.321915,,,
729861814.444338,-0.617298,1.084808,128.818548,-0.015686,-0.009445,1.014252,0.027542,0.019916,-0.00558,66.640305,35.21521,-145.321915,,,
729861814.447711,-0.611326,1.10421,128.81837,-0.019058,-0.013199,1.007568,0.027542,0.019916,-0.00558,66.640305,35.21521,-145.321915,,,
729861814.450985,-0.602998,1.114392,128.81916,-0.019058,-0.013199,1.007568,0.027831,0.038541,0.000482,66.640305,35.21521,-145.321915,,,
729861814.454324,-0.602998,1.114392,128.81916,-0.019058,-0.013199,1.007568,0.027831,0.038541,0.000482,66.640305,35.21521,-145.321915,,,
729861814.457715,-0.595709,1.140424,128.82041,-0.021286,-0.014297,1.002121,0.027831,0.038541,0.000482,66.640305,35.21521,-145.321915,,,
729861814.460986,-0.58691,1.151049,128.821854,-0.021286,-0.014297,1.002121,0.030123,0.041563,0.004108,66.640305,35.21521,-145.321915,,,
729861814.464412,-0.58691,1.151049,128.821854,-0.021286,-0.014297,1.002121,0.030123,0.041563,0.004108,66.640305,35.21521,-145.321915,,,
729861814.467648,-0.580864,1.176049,128.823673,-0.024673,-0.014862,0.994232,0.030123,0.041563,0.004108,66.640305,35.21521,-145.321915,,,
729861814.471031,-0.573692,1.185858,128.825227,-0.024673,-0.014862,0.994232,0.02805,0.035892,0.004905,66.846909,35.175247,-145.22345,,,
729861814.474352,-0.573692,1.185858,128.825227,-0.024673,-0.014862,0.994232,0.02805,0.035892,0.004905,66.846909,35.175247,-145.22345,,,
729861814.477759,-0.569728,1.205827,128.826849,-0.025726,-0.01207,0.988083,0.02805,0.035892,0.004905,66.846909,35.175247,-145.22345,,,
729861814.481045,-0.565006,1.213587,128.828682,-0.025726,-0.01207,0.988083,0.017138,0.029354,0.004644,66.846909,35.175247,-145.22345,,,
729861814.484343,-0.565006,1.213587,128.828682,-0.025726,-0.01207,0.988083,0.017138,0.029354,0.004644,66.846909,35.175247,-145.22345,,,
729861814.487671,-0.563755,1.22695,128.831261,-0.029205,-0.011612,0.981628,0.017138,0.029354,0.004644,66.846909,35.175247,-145.22345,,,
729861814.491109,-0.562031,1.229769,128.834292,-0.029205,-0.011612,0.981628,0.007597,0.014926,0.01105,66.846909,35.175247,-145.22345,,,
729861814.494375,-0.562031,1.229769,128.834292,-0.029205,-0.011612,0.981628,0.007597,0.014926,0.01105,66.846909,35.175247,-145.22345,,,
729861814.497759,-0.562634,1.231951,128.837769,-0.031174,-0.009689,0.977768,0.007597,0.014926,0.01105,66.846909,35.175247,-145.22345,,,
729861814.500987,-0.563437,1.231574,128.842261,-0.031174,-0.009689,0.977768,-0.000987,0.000545,0.015108,66.846909,35.175247,-145.22345,,,
729861814.504408,-0.563437,1.231574,128.842261,-0.031174,-0.009689,0.977768,-0.000987,0.000545,0.015108,66.846909,35.175247,-145.22345,,,
729861814.507665,-0.563662,1.228975,128.847596,-0.03154,-0.012131,0.977844,-0.000987,0.000545,0.015108,66.846909,35.175247,-145.22345,,,
729861814.51099,-0.563148,1.22811,128.85356,-0.03154,-0.012131,0.977844,0.001752,-0.000198,0.019838,66.786835,35.04007,-145.078033,,,
729861814.514386,-0.563148,1.22811,128.85356,-0.03154,-0.012131,0.977844,0.001752,-0.000198,0.019838,66.786835,35.04007,-145.078033,,,
729861814.517662,-0.561481,1.22494,128.860421,-0.028412,-0.014679,0.990387,0.001752,-0.000198,0.019838,66.786835,35.04007,-145.078033,,,
729861814.520989,-0.557745,1.222799,128.86777,-0.028412,-0.014679,0.990387,0.011701,-0.003865,0.025457,66.786835,35.04007,-145.078033,,,
729861814.524337,-0.557745,1.222799,128.86777,-0.028412,-0.014679,0.990387,0.011701,-0.003865,0.025457,66.786835,35.04007,-145.078033,,,
729861814.527662,-0.554524,1.219064,128.875416,-0.02652,-0.016235,0.999008,0.011701,-0.003865,0.025457,66.786835,35.04007,-145.078033,,,
729861814.531043,-0.549519,1.215198,128.882876,-0.02652,-0.016235,0.999008,0.015818,-0.012319,0.028413,66.786835,35.04007,-145.078033,,,
729861814.534362,-0.549519,1.215198,128.882876,-0.02652,-0.016235,0.999008,0.015818,-0.012319,0.028413,66.786835,35.04007,-145.078033,,,
729861814.537686,-0.545166,1.21092,128.889198,-0.01976,-0.015274,1.002487,0.015818,-0.012319,0.028413,66.786835,35.04007,-145.078033,,,
729861814.541003,-0.538438,1.20602,128.89452,-0.01976,-0.015274,1.002487,0.021771,-0.012601,0.018464,66.786835,35.04007,-145.078033,,,
729861814.544433,-0.538438,1.20602,128.89452,-0.01976,-0.015274,1.002487,0.021771,-0.012601,0.018464,66.786835,35.04007,-145.078033,,,
729861814.547727,-0.532138,1.203502,128.898327,-0.012955,-0.014954,1.006149,0.021771,-0.012601,0.018464,66.786835,35.04007,-145.078033,,,
729861814.550998,-0.524109,1.200269,128.899952,-0.012955,-0.014954,1.006149,0.027736,-0.01037,0.008194,66.786835,35.04007,-145.078033,,,
729861814.554348,-0.524109,1.200269,128.899952,-0.012955,-0.014954,1.006149,0.027736,-0.01037,0.008194,66.687057,35.063889,-145.10408,,,
729861814.557755,-0.51695,1.201733,128.900094,-0.005417,-0.010925,1.010101,0.027736,-0.01037,0.008194,66.687057,35.063889,-145.10408,,,
729861814.560992,-0.509688,1.203284,128.898676,-0.005417,-0.010925,1.010101,0.024866,0.00552,-0.006847,66.687057,35.063889,-145.10408,,,
729861814.564394,-0.509688,1.203284,128.898676,-0.005417,-0.010925,1.010101,0.024866,0.00552,-0.006847,66.687057,35.063889,-145.10408,,,
729861814.567657,-0.503425,1.211274,128.895582,-0.001389,-0.007965,1.008316,0.024866,0.00552,-0.006847,66.687057,35.063889,-145.10408,,,
729861814.570995,-0.49794,1.218234,128.891183,-0.001389,-0.007965,1.008316,0.020474,0.023438,-0.017115,66.687057,35.063889,-145.10408,,,
729861814.574335,-0.49794,1.218234,128.891183,-0.001389,-0.007965,1.008316,0.020474,0.023438,-0.017115,66.687057,35.063889,-145.10408,,,
729861814.577677,-0.495192,1.231328,128.8868,-0.003876,-0.006165,1.002045,0.020474,0.023438,-0.017115,66.687057,35.063889,-145.10408,,,
729861814.581035,-0.493483,1.241259,128.883236,-0.003876,-0.006165,1.002045,0.007887,0.036503,-0.016843,66.687057,35.063889,-145.10408,,,
729861814.584324,-0.493483,1.241259,128.883236,-0.003876,-0.006165,1.002045,0.007887,0.036503,-0.016843,66.687057,35.063889,-145.10408,,,
729861814.587738,-0.49382,1.255707,128.879857,-0.010406,-0.006973,0.993149,0.007887,0.036503,-0.016843,66.687057,35.063889,-145.10408,,,
729861814.59099,-0.494411,1.266522,128.876388,-0.010406,-0.006973,0.993149,0.000584,0.041993,-0.015047,66.687057,35.063889,-145.10408,,,
729861814.594339,-0.494411,1.266522,128.876388,-0.010406,-0.006973,0.993149,0.000584,0.041993,-0.015047,67.006424,35.051605,-145.450989,,,
729861814.597715,-0.497871,1.279334,128.87319,-0.015625,-0.006226,0.987839,0.000584,0.041993,-0.015047,67.006424,35.051605,-145.450989,,,
729861814.600988,-0.499944,1.28901,128.870272,-0.015625,-0.006226,0.987839,-0.00465,0.037526,-0.011962,67.006424,35.051605,-145.450989,,,
729861814.604358,-0.499944,1.28901,128.870272,-0.015625,-0.006226,0.987839,-0.00465,0.037526,-0.011962,67.006424,35.051605,-145.450989,,,
729861814.607729,-0.504454,1.297063,128.867773,-0.022125,-0.008514,0.989014,-0.00465,0.037526,-0.011962,67.006424,35.051605,-145.450989,,,
729861814.610985,-0.508084,1.301483,128.865411,-0.022125,-0.008514,0.989014,-0.010446,0.022428,-0.008987,67.006424,35.051605,-145.450989,,,
729861814.614379,-0.508084,1.301483,128.865411,-0.022125,-0.008514,0.989014,-0.010446,0.022428,-0.008987,67.006424,35.051605,-145.450989,,,
