Time (sec),Pitch (deg),Roll (deg),Yaw(deg),X-Acceleration (g),Y-Acceleration (g),Z-Acceleration (g),Pitch Rate (deg/sec),Roll Rate (deg/sec),Yaw Rate (deg/sec),Magnetic Field in X direction (uT),Magnetic Field in Y direction (uT),Magnetic Field in Z Direction (uT),Latitude (deg),Longitude (deg),Altitude (m)
729860589.11582,-0.946019,-4.377327,-26.19659,0.078186,-0.017258,0.998123,0.021486,-0.074334,-0.003588,76.861633,4.321243,-148.333572,,,
729860589.119142,-0.93697,-4.400205,-26.199112,0.082504,-0.017715,0.997406,0.03583,-0.078667,-0.014162,76.861633,4.321243,-148.333572,,,
729860589.122459,-0.927227,-4.422494,-26.202018,0.082504,-0.017715,0.997406,0.03583,-0.078667,-0.014162,76.861633,4.321243,-148.333572,,,
729860589.125835,-0.927227,-4.422494,-26.202018,0.082504,-0.017715,0.997406,0.03583,-0.078667,-0.014162,76.861633,4.321243,-148.333572,,,
729860589.129147,-0.918301,-4.442219,-26.204615,0.082092,-0.021423,0.995941,0.032033,-0.063699,-0.012723,76.861633,4.321243,-148.333572,,,
729860589.132461,-0.911537,-4.456466,-26.206297,0.082092,-0.021423,0.995941,0.032033,-0.063699,-0.012723,76.861633,4.321243,-148.333572,,,
729860589.135875,-0.911537,-4.456466,-26.206297,0.082092,-0.021423,0.995941,0.032033,-0.063699,-0.012723,76.861633,4.321243,-148.333572,,,
729860589.139152,-0.908596,-4.467076,-26.207031,0.081177,-0.018188,0.992538,0.009188,-0.030371,-0.002207,76.861633,4.321243,-148.333572,,,
729860589.142464,-0.910232,-4.468281,-26.207146,0.081177,-0.018188,0.992538,0.009188,-0.030371,-0.002207,76.734375,4.280228,-148.304718,,,
729860589.14582,-0.910232,-4.468281,-26.207146,0.081177,-0.018188,0.992538,0.009188,-0.030371,-0.002207,76.734375,4.280228,-148.304718,,,
729860589.149222,-0.916231,-4.467078,-26.206653,0.08136,-0.0159,0.988998,-0.025698,0.012218,0.004383,76.734375,4.280228,-148.304718,,,
729860589.152559,-0.928293,-4.456676,-26.205589,0.08136,-0.0159,0.988998,-0.025698,0.012218,0.004383,76.734375,4.280228,-148.304718,,,
729860589.155805,-0.928293,-4.456676,-26.205589,0.08136,-0.0159,0.988998,-0.025698,0.012218,0.004383,76.734375,4.280228,-148.304718,,,
729860589.159145,-0.9453,-4.446714,-26.204568,0.081009,-0.01329,0.981613,-0.061645,0.040672,0.007275,76.734375,4.280228,-148.304718,,,
729860589.162463,-0.966108,-4.431057,-26.203255,0.081009,-0.01329,0.981613,-0.061645,0.040672,0.007275,76.734375,4.280228,-148.304718,,,
729860589.16581,-0.966108,-4.431057,-26.203255,0.081009,-0.01329,0.981613,-0.061645,0.040672,0.007275,76.734375,4.280228,-148.304718,,,
729860589.169139,-0.987746,-4.418368,-26.201214,0.077988,-0.011337,0.986298,-0.077907,0.048405,0.011896,76.734375,4.280228,-148.304718,,,
729860589.172534,-1.009288,-4.404195,-26.198445,0.077988,-0.011337,0.986298,-0.077907,0.048405,0.011896,76.734375,4.280228,-148.304718,,,
729860589.175866,-1.009288,-4.404195,-26.198445,0.077988,-0.011337,0.986298,-0.077907,0.048405,0.011896,76.734375,4.280228,-148.304718,,,
729860589.179122,-1.028214,-4.39584,-26.195235,0.072464,-0.016586,0.995087,-0.061786,0.026365,0.014122,76.734375,4.280228,-148.304718,,,
729860589.182543,-1.044053,-4.391854,-26.191526,0.072464,-0.016586,0.995087,-0.061786,0.026365,0.014122,76.671402,4.512848,-148.22493,,,
729860589.185822,-1.044053,-4.391854,-26.191526,0.072464,-0.016586,0.995087,-0.061786,0.026365,0.014122,76.671402,4.512848,-148.22493,,,
729860589.189135,-1.056029,-4.393037,-26.187713,0.071442,-0.020218,1.001831,-0.037521,-0.004621,0.016172,76.671402,4.512848,-148.22493,,,
729860589.192545,-1.063506,-4.399262,-26.18396,0.071442,-0.020218,1.001831,-0.037521,-0.004621,0.016172,76.671402,4.512848,-148.22493,,,
729860589.195823,-1.063506,-4.399262,-26.18396,0.071442,-0.020218,1.001831,-0.037521,-0.004621,0.016172,76.671402,4.512848,-148.22493,,,
729860589.199196,-1.067177,-4.407772,-26.180839,0.072937,-0.020767,1.007339,-0.005144,-0.027549,0.007334,76.671402,4.512848,-148.22493,,,
729860589.202532,-1.067521,-4.41885,-26.178693,0.072937,-0.020767,1.007339,-0.005144,-0.027549,0.007334,76.671402,4.512848,-148.22493,,,
729860589.205814,-1.067521,-4.41885,-26.178693,0.072937,-0.020767,1.007339,-0.005144,-0.027549,0.007334,76.671402,4.512848,-148.22493,,,
729860589.209127,-1.064791,-4.427693,-26.177409,0.078796,-0.021606,1.01442,0.012353,-0.026966,0.002689,76.671402,4.512848,-148.22493,,,
729860589.212548,-1.059619,-4.435298,-26.176179,0.078796,-0.021606,1.01442,0.012353,-0.026966,0.002689,76.671402,4.512848,-148.22493,,,
729860589.215801,-1.059619,-4.435298,-26.176179,0.078796,-0.021606,1.01442,0.012353,-0.026966,0.002689,76.671402,4.512848,-148.22493,,,
729860589.219142,-1.052846,-4.43827,-26.174475,0.081345,-0.022766,1.017715,0.025756,-0.003243,0.002398,76.671402,4.512848,-148.22493,,,
729860589.222535,-1.045995,-4.437752,-26.172721,0.081345,-0.022766,1.017715,0.025756,-0.003243,0.002398,76.671402,4.512848,-148.22493,,,
729860589.22584,-1.045995,-4.437752,-26.172721,0.081345,-0.022766,1.017715,0.025756,-0.003243,0.002398,76.802155,4.267517,-148.485123,,,
729860589.229139,-1.040273,-4.431177,-26.170199,0.080734,-0.02298,1.018112,0.021241,0.030776,0.009324,76.802155,4.267517,-148.485123,,,
729860589.232472,-1.035333,-4.420613,-26.16674,0.080734,-0.02298,1.018112,0.021241,0.030776,0.009324,76.802155,4.267517,-148.485123,,,
729860589.235809,-1.035333,-4.420613,-26.16674,0.080734,-0.02298,1.018112,0.021241,0.030776,0.009324,76.802155,4.267517,-148.485123,,,
729860589.23918,-1.031689,-4.40403,-26.162589,0.081207,-0.019943,1.011978,0.009599,0.066079,0.011737,76.802155,4.267517,-148.485123,,,
729860589.24247,-1.028547,-4.385313,-26.158448,0.081207,-0.019943,1.011978,0.009599,0.066079,0.011737,76.802155,4.267517,-148.485123,,,
729860589.245898,-1.028547,-4.385313,-26.158448,0.081207,-0.019943,1.011978,0.009599,0.066079,0.011737,76.802155,4.267517,-148.485123,,,
729860589.249179,-1.027177,-4.363571,-26.154421,0.081299,-0.017487,1.005981,0.005683,0.082199,0.010668,76.802155,4.267517,-148.485123,,,
729860589.252561,-1.026605,-4.340484,-26.150504,0.081299,-0.017487,1.005981,0.005683,0.082199,0.010668,76.802155,4.267517,-148.485123,,,
729860589.255792,-1.026605,-4.340484,-26.150504,0.081299,-0.017487,1.005981,0.005683,0.082199,0.010668,76.802155,4.267517,-148.485123,,,
729860589.259137,-1.027549,-4.318505,-26.147668,0.077515,-0.016846,0.998367,-0.002721,0.080442,0.008257,76.802155,4.267517,-148.485123,,,
729860589.26248,-1.029854,-4.298094,-26.145612,0.077515,-0.016846,0.998367,-0.002721,0.080442,0.008257,76.802155,4.267517,-148.485123,,,
729860589.265869,-1.029854,-4.298094,-26.145612,0.077515,-0.016846,0.998367,-0.002721,0.080442,0.008257,77.024017,4.263992,-148.434586,,,
729860589.269131,-1.032193,-4.282828,-26.143598,0.070801,-0.014236,0.99321,-0.006884,0.050439,0.005702,77.024017,4.263992,-148.434586,,,
729860589.272521,-1.033986,-4.271957,-26.141876,0.070801,-0.014236,0.99321,-0.006884,0.050439,0.005702,77.024017,4.263992,-148.434586,,,
729860589.275803,-1.033986,-4.271957,-26.141876,0.070801,-0.014236,0.99321,-0.006884,0.050439,0.005702,77.024017,4.263992,-148.434586,,,
729860589.279236,-1.034507,-4.267637,-26.140734,0.069412,-0.019196,0.989685,0.000439,0.010219,0.004502,77.024017,4.263992,-148.434586,,,
729860589.282503,-1.033641,-4.269037,-26.139962,0.069412,-0.019196,0.989685,0.000439,0.010219,0.004502,77.024017,4.263992,-148.434586,,,
729860589.285814,-1.033641,-4.269037,-26.139962,0.069412,-0.019196,0.989685,0.000439,0.010219,0.004502,77.024017,4.263992,-148.434586,,,
729860589.289149,-1.030902,-4.275319,-26.139255,0.06842,-0.020721,0.988907,0.012728,-0.022089,0.000781,77.024017,4.263992,-148.434586,,,
729860589.292582,-1.026967,-4.286352,-26.138617,0.06842,-0.020721,0.988907,0.012728,-0.022089,0.000781,77.024017,4.263992,-148.434586,,,
729860589.295799,-1.026967,-4.286352,-26.138617,0.06842,-0.020721,0.988907,0.012728,-0.022089,0.000781,77.024017,4.263992,-148.434586,,,
729860589.299161,-1.020652,-4.297681,-26.138123,0.068649,-0.022797,0.99675,0.026226,-0.038939,-0.001226,77.024017,4.263992,-148.434586,,,
729860589.30247,-1.020652,-4.310314,-26.13736,0.068649,-0.022797,0.99675,0.026226,-0.038939,-0.001226,77.024017,4.263992,-148.434586,,,
729860589.305789,-1.012507,-4.310314,-26.13736,0.068649,-0.022797,0.99675,0.026226,-0.038939,-0.001226,76.704422,4.32457,-148.606857,,,
729860589.309137,-1.000847,-4.320676,-26.135483,0.069855,-0.022675,1.007584,0.042615,-0.033175,0.002263,76.704422,4.32457,-148.606857,,,
729860589.312505,-1.000847,-4.320676,-26.135483,0.069855,-0.022675,1.007584,0.042615,-0.033175,0.002263,76.704422,4.32457,-148.606857,,,
729860589.315807,-0.986436,-4.329328,-26.132562,0.069855,-0.022675,1.007584,0.042615,-0.033175,0.002263,76.704422,4.32457,-148.606857,,,
729860589.319204,-0.969128,-4.333097,-26.128623,0.073395,-0.026642,1.016846,0.061514,-0.007853,0.007755,76.704422,4.32457,-148.606857,,,
729860589.322636,-0.950775,-4.333875,-26.123428,0.073395,-0.026642,1.016846,0.061514,-0.007853,0.007755,76.704422,4.32457,-148.606857,,,
729860589.325804,-0.950775,-4.333875,-26.123428,0.073395,-0.026642,1.016846,0.061514,-0.007853,0.007755,76.704422,4.32457,-148.606857,,,
729860589.329138,-0.932002,-4.329709,-26.117739,0.073593,-0.023682,1.015854,0.069166,0.018431,0.013792,76.704422,4.32457,-148.606857,,,
729860589.332544,-0.932002,-4.329709,-26.117739,0.073593,-0.023682,1.015854,0.069166,0.018431,0.013792,76.704422,4.32457,-148.606857,,,
729860589.335798,-0.913623,-4.323882,-26.112194,0.073593,-0.023682,1.015854,0.069166,0.018431,0.013792,76.704422,4.32457,-148.606857,,,
729860589.339135,-0.895646,-4.315224,-26.106712,0.076813,-0.020798,1.003494,0.065506,0.035124,0.013741,76.704422,4.32457,-148.606857,,,
729860589.342483,-0.895646,-4.315224,-26.106712,0.076813,-0.020798,1.003494,0.065506,0.035124,0.013741,76.704422,4.32457,-148.606857,,,
729860589.345888,-0.87854,-4.304768,-26.101791,0.076813,-0.020798,1.003494,0.065506,0.035124,0.013741,76.704422,4.32457,-148.606857,,,
729860589.349145,-0.863977,-4.295176,-26.098013,0.07753,-0.013062,0.987228,0.049074,0.037252,0.005717,76.795959,4.235336,-148.549484,,,
729860589.352476,-0.863977,-4.295176,-26.098013,0.07753,-0.013062,0.987228,0.049074,0.037252,0.005717,76.795959,4.235336,-148.549484,,,
729860589.355821,-0.852525,-4.285885,-26.095463,0.07753,-0.013062,0.987228,0.049074,0.037252,0.005717,76.795959,4.235336,-148.549484,,,
729860589.359191,-0.843815,-4.279731,-26.094588,0.074341,-0.008698,0.972397,0.02496,0.02225,-0.001935,76.795959,4.235336,-148.549484,,,
729860589.362476,-0.843815,-4.279731,-26.094588,0.074341,-0.008698,0.972397,0.02496,0.02225,-0.001935,76.795959,4.235336,-148.549484,,,
729860589.365804,-0.839525,-4.274371,-26.09513,0.074341,-0.008698,0.972397,0.02496,0.02225,-0.001935,76.795959,4.235336,-148.549484,,,
729860589.369138,-0.837213,-4.272598,-26.09566,0.068039,-0.006531,0.963699,0.007804,0.007319,-0.003433,76.795959,4.235336,-148.549484,,,
729860589.372536,-0.837213,-4.272598,-26.09566,0.068039,-0.006531,0.963699,0.007804,0.007319,-0.003433,76.795959,4.235336,-148.549484,,,
729860589.375807,-0.837016,-4.272596,-26.095469,0.068039,-0.006531,0.963699,0.007804,0.007319,-0.003433,76.795959,4.235336,-148.549484,,,
729860589.379139,-0.836871,-4.276983,-26.094675,0.06427,-0.009125,0.963821,0.00063,-0.013626,0.001824,76.795959,4.235336,-148.549484,,,
729860589.382469,-0.836871,-4.276983,-26.094675,0.06427,-0.009125,0.963821,0.00063,-0.013626,0.001824,76.795959,4.235336,-148.549484,,,
729860589.385799,-0.838248,-4.282513,-26.09291,0.06427,-0.009125,0.963821,0.00063,-0.013626,0.001824,76.795959,4.235336,-148.549484,,,
729860589.389222,-0.838399,-4.292411,-26.089526,0.059753,-0.017075,0.966248,0.001935,-0.033937,0.01189,76.667664,4.177872,-148.324081,,,
729860589.39253,-0.838399,-4.292411,-26.089526,0.059753,-0.017075,0.966248,0.001935,-0.033937,0.01189,76.667664,4.177872,-148.324081,,,
729860589.395859,-0.839352,-4.304099,-26.084446,0.059753,-0.017075,0.966248,0.001935,-0.033937,0.01189,76.667664,4.177872,-148.324081,,,
729860589.399152,-0.839258,-4.318765,-26.078484,0.061432,-0.017487,0.970535,0.002641,-0.04864,0.018202,76.667664,4.177872,-148.324081,,,
729860589.402499,-0.839258,-4.318765,-26.078484,0.061432,-0.017487,0.970535,0.002641,-0.04864,0.018202,76.667664,4.177872,-148.324081,,,
729860589.405888,-0.840462,-4.332707,-26.072304,0.061432,-0.017487,0.970535,0.002641,-0.04864,0.018202,76.667664,4.177872,-148.324081,,,
729860589.409123,-0.84022,-4.346317,-26.066705,0.070724,-0.015167,0.970734,0.001205,-0.044178,0.01532,76.667664,4.177872,-148.324081,,,
729860589.412537,-0.84022,-4.346317,-26.066705,0.070724,-0.015167,0.970734,0.001205,-0.044178,0.01532,76.667664,4.177872,-148.324081,,,
729860589.415789,-0.841264,-4.357481,-26.062148,0.070724,-0.015167,0.970734,0.001205,-0.044178,0.01532,76.667664,4.177872,-148.324081,,,
729860589.419144,-0.843494,-4.366195,-26.058543,0.074173,-0.014801,0.973724,-0.008621,-0.025646,0.008025,76.667664,4.177872,-148.324081,,,
729860589.422466,-0.843494,-4.366195,-26.058543,0.074173,-0.014801,0.973724,-0.008621,-0.025646,0.008025,76.667664,4.177872,-148.324081,,,
729860589.425843,-0.848026,-4.37218,-26.055664,0.074173,-0.014801,0.973724,-0.008621,-0.025646,0.008025,76.667664,4.177872,-148.324081,,,
729860589.429131,-0.85482,-4.374245,-26.053247,0.07547,-0.012329,0.975906,-0.022519,-0.001562,0.007471,76.759659,4.273666,-148.037338,,,
729860589.432478,-0.85482,-4.374245,-26.053247,0.07547,-0.012329,0.975906,-0.022519,-0.001562,0.007471,76.759659,4.273666,-148.037338,,,
729860589.43582,-0.863277,-4.372982,-26.050957,0.07547,-0.012329,0.975906,-0.022519,-0.001562,0.007471,76.759659,4.273666,-148.037338,,,
729860589.439193,-0.873118,-4.368463,-26.048484,0.075806,-0.013992,0.978516,-0.031343,0.020802,0.009317,76.759659,4.273666,-148.037338,,,
729860589.442463,-0.873118,-4.368463,-26.048484,0.075806,-0.013992,0.978516,-0.031343,0.020802,0.009317,76.759659,4.273666,-148.037338,,,
729860589.445819,-0.88269,-4.361555,-26.045507,0.075806,-0.013992,0.978516,-0.031343,0.020802,0.009317,76.759659,4.273666,-148.037338,,,
729860589.449127,-0.893733,-4.354934,-26.042372,0.075989,-0.016296,0.983582,-0.038017,0.025402,0.01413,76.759659,4.273666,-148.037338,,,
729860589.452465,-0.893733,-4.354934,-26.042372,0.075989,-0.016296,0.983582,-0.038017,0.025402,0.01413,76.759659,4.273666,-148.037338,,,
729860589.455817,-0.90483,-4.347839,-26.039107,0.075989,-0.016296,0.983582,-0.038017,0.025402,0.01413,76.759659,4.273666,-148.037338,,,
729860589.459132,-0.916748,-4.344011,-26.03632,0.073227,-0.014618,0.981949,-0.039519,0.014632,0.010983,76.759659,4.273666,-148.037338,,,
729860589.462558,-0.916748,-4.344011,-26.03632,0.073227,-0.014618,0.981949,-0.039519,0.014632,0.010983,76.759659,4.273666,-148.037338,,,
729860589.465823,-0.929697,-4.34089,-26.034133,0.073227,-0.014618,0.981949,-0.039519,0.014632,0.010983,76.759659,4.273666,-148.037338,,,
729860589.469138,-0.944704,-4.341961,-26.031911,0.071289,-0.013947,0.972336,-0.053591,-0.005635,0.007594,76.795532,4.265457,-148.426392,,,
729860589.472472,-0.944704,-4.341961,-26.031911,0.071289,-0.013947,0.972336,-0.053591,-0.005635,0.007594,76.795532,4.265457,-148.426392,,,
729860589.475868,-0.962173,-4.343834,-26.030596,0.071289,-0.013947,0.972336,-0.053591,-0.005635,0.007594,76.795532,4.265457,-148.426392,,,
729860589.479131,-0.982449,-4.349756,-26.029917,0.070618,-0.012878,0.965607,-0.072718,-0.019212,0.007179,76.795532,4.265457,-148.426392,,,
729860589.482477,-0.982449,-4.349756,-26.029917,0.070618,-0.012878,0.965607,-0.072718,-0.019212,0.007179,76.795532,4.265457,-148.426392,,,
729860589.485828,-1.005546,-4.355664,-26.029446,0.070618,-0.012878,0.965607,-0.072718,-0.019212,0.007179,76.795532,4.265457,-148.426392,,,
729860589.489236,-1.030174,-4.361103,-26.029536,0.069565,-0.016556,0.971146,-0.085884,-0.016226,0.007464,76.795532,4.265457,-148.426392,,,
729860589.492457,-1.030174,-4.361103,-26.029536,0.069565,-0.016556,0.971146,-0.085884,-0.016226,0.007464,76.795532,4.265457,-148.426392,,,
729860589.495818,-1.05611,-4.364571,-26.028919,0.069565,-0.016556,0.971146,-0.085884,-0.016226,0.007464,76.795532,4.265457,-148.426392,,,
729860589.49913,-1.083383,-4.366335,-26.026684,0.069214,-0.018951,0.988541,-0.095107,-0.000534,0.014948,76.795532,4.265457,-148.426392,,,
729860589.502464,-1.083383,-4.366335,-26.026684,0.069214,-0.018951,0.988541,-0.095107,-0.000534,0.014948,76.795532,4.265457,-148.426392,,,
729860589.50584,-1.11103,-4.366773,-26.023004,0.069214,-0.018951,0.988541,-0.095107,-0.000534,0.014948,76.795532,4.265457,-148.426392,,,
729860589.509131,-1.139074,-4.366408,-26.018353,0.066071,-0.026505,0.997574,-0.097584,0.005487,0.024265,76.795532,4.265457,-148.426392,,,
729860589.512536,-1.139074,-4.366408,-26.018353,0.066071,-0.026505,0.997574,-0.097584,0.005487,0.024265,76.865082,4.459885,-148.37323,,,
729860589.515808,-1.165399,-4.365942,-26.013753,0.066071,-0.026505,0.997574,-0.097584,0.005487,0.024265,76.865082,4.459885,-148.37323,,,
729860589.51914,-1.189727,-4.364649,-26.010077,0.069565,-0.028702,1.008438,-0.08182,0.009115,0.019221,76.865082,4.459885,-148.37323,,,
729860589.522461,-1.189727,-4.364649,-26.010077,0.069565,-0.028702,1.008438,-0.08182,0.009115,0.019221,76.865082,4.459885,-148.37323,,,
729860589.525865,-1.210493,-4.362205,-26.007183,0.069565,-0.028702,1.008438,-0.08182,0.009115,0.019221,76.865082,4.459885,-148.37323,,,
729860589.529125,-1.227231,-4.358373,-26.004666,0.075226,-0.029663,1.022873,-0.054392,0.017711,0.009367,76.865082,4.459885,-148.37323,,,
729860589.532476,-1.227231,-4.358373,-26.004666,0.075226,-0.029663,1.022873,-0.054392,0.017711,0.009367,76.865082,4.459885,-148.37323,,,
729860589.535808,-1.238708,-4.353983,-26.002507,0.075226,-0.029663,1.022873,-0.054392,0.017711,0.009367,76.865082,4.459885,-148.37323,,,
729860589.539132,-1.245787,-4.350196,-25.999854,0.070221,-0.031952,1.031586,-0.019599,0.01615,0.011894,76.865082,4.459885,-148.37323,,,
729860589.542477,-1.245787,-4.350196,-25.999854,0.070221,-0.031952,1.031586,-0.019599,0.01615,0.011894,76.865082,4.459885,-148.37323,,,
729860589.545825,-1.247304,-4.347483,-25.995563,0.070221,-0.031952,1.031586,-0.019599,0.01615,0.011894,76.865082,4.459885,-148.37323,,,
729860589.549172,-1.244391,-4.347659,-25.988625,0.061798,-0.03331,1.027817,0.01489,-0.001272,0.025175,76.865082,4.459885,-148.37323,,,
729860589.552474,-1.244391,-4.347659,-25.988625,0.061798,-0.03331,1.027817,0.01489,-0.001272,0.025175,76.933136,4.329025,-148.261673,,,
729860589.55582,-1.236336,-4.349232,-25.979617,0.061798,-0.03331,1.027817,0.01489,-0.001272,0.025175,76.933136,4.329025,-148.261673,,,
729860589.559138,-1.226344,-4.35276,-25.970041,0.062531,-0.032288,1.021454,0.042173,-0.010134,0.029914,76.933136,4.329025,-148.261673,,,
729860589.562468,-1.226344,-4.35276,-25.970041,0.062531,-0.032288,1.021454,0.042173,-0.010134,0.029914,76.933136,4.329025,-148.261673,,,
729860589.565814,-1.214094,-4.355325,-25.960666,0.062531,-0.032288,1.021454,0.042173,-0.010134,0.029914,76.933136,4.329025,-148.261673,,,
729860589.56914,-1.202895,-4.357806,-25.952502,0.071762,-0.02771,1.014709,0.040566,-0.005959,0.023579,76.933136,4.329025,-148.261673,,,
729860589.572511,-1.202895,-4.357806,-25.952502,0.071762,-0.02771,1.014709,0.040566,-0.005959,0.023579,76.933136,4.329025,-148.261673,,,
729860589.575888,-1.193967,-4.358213,-25.945189,0.071762,-0.02771,1.014709,0.040566,-0.005959,0.023579,76.933136,4.329025,-148.261673,,,
729860589.57913,-1.188651,-4.35843,-25.938557,0.077591,-0.022614,1.003326,0.017848,0.001908,0.019581,76.933136,4.329025,-148.261673,,,
729860589.58248,-1.188651,-4.35843,-25.938557,0.077591,-0.022614,1.003326,0.017848,0.001908,0.019581,76.933136,4.329025,-148.261673,,,
729860589.585822,-1.18778,-4.355336,-25.932463,0.077591,-0.022614,1.003326,0.017848,0.001908,0.019581,76.933136,4.329025,-148.261673,,,
729860589.58914,-1.190177,-4.354225,-25.92685,0.077179,-0.019974,0.997421,-0.007059,0.003913,0.018261,76.933136,4.329025,-148.261673,,,
729860589.592467,-1.190177,-4.354225,-25.92685,0.077179,-0.019974,0.997421,-0.007059,0.003913,0.018261,76.648834,4.508987,-148.141373,,,
729860589.595813,-1.195387,-4.351825,-25.921597,0.077179,-0.019974,0.997421,-0.007059,0.003913,0.018261,76.648834,4.508987,-148.141373,,,
729860589.599138,-1.20012,-4.35293,-25.916331,0.076675,-0.022614,0.999924,-0.016534,-0.00315,0.01872,76.648834,4.508987,-148.141373,,,
729860589.602467,-1.20012,-4.35293,-25.916331,0.076675,-0.022614,0.999924,-0.016534,-0.00315,0.01872,76.648834,4.508987,-148.141373,,,
729860589.605824,-1.205062,-4.355058,-25.910723,0.076675,-0.022614,0.999924,-0.016534,-0.00315,0.01872,76.648834,4.508987,-148.141373,,,
729860589.609133,-1.206673,-4.361066,-25.904636,0.072266,-0.026627,1.008926,-0.000742,-0.021208,0.019512,76.648834,4.508987,-148.141373,,,
729860589.612477,-1.206673,-4.361066,-25.904636,0.072266,-0.026627,1.008926,-0.000742,-0.021208,0.019512,76.648834,4.508987,-148.141373,,,
729860589.615814,-1.205821,-4.368717,-25.897731,0.072266,-0.026627,1.008926,-0.000742,-0.021208,0.019512,76.648834,4.508987,-148.141373,,,
729860589.619134,-1.200824,-4.380812,-25.890363,0.071381,-0.026566,1.015686,0.022138,-0.040724,0.023668,76.648834,4.508987,-148.141373,,,
729860589.622466,-1.200824,-4.380812,-25.890363,0.071381,-0.026566,1.015686,0.022138,-0.040724,0.023668,76.648834,4.508987,-148.141373,,,
729860589.625811,-1.193225,-4.392209,-25.882318,0.071381,-0.026566,1.015686,0.022138,-0.040724,0.023668,76.648834,4.508987,-148.141373,,,
729860589.629134,-1.179652,-4.408175,-25.873564,0.07486,-0.025452,1.021011,0.052506,-0.054042,0.021881,76.648834,4.508987,-148.141373,,,
729860589.632466,-1.179652,-4.408175,-25.873564,0.07486,-0.025452,1.021011,0.052506,-0.054042,0.021881,76.720169,4.442764,-148.316879,,,
729860589.635827,-1.16328,-4.419325,-25.864825,0.07486,-0.025452,1.021011,0.052506,-0.054042,0.021881,76.720169,4.442764,-148.316879,,,
729860589.639133,-1.142986,-4.431722,-25.856135,0.07991,-0.022339,1.026352,0.074147,-0.038983,0.024362,76.720169,4.442764,-148.316879,,,
729860589.642469,-1.142986,-4.431722,-25.856135,0.07991,-0.022339,1.026352,0.074147,-0.038983,0.024362,76.720169,4.442764,-148.316879,,,
729860589.645815,-1.121755,-4.438915,-25.847546,0.07991,-0.022339,1.026352,0.074147,-0.038983,0.024362,76.720169,4.442764,-148.316879,,,
729860589.649135,-1.099653,-4.443365,-25.839438,0.086258,-0.017822,1.019958,0.079091,-0.007608,0.023125,76.720169,4.442764,-148.316879,,,
729860589.652476,-1.099653,-4.443365,-25.839438,0.086258,-0.017822,1.019958,0.079091,-0.007608,0.023125,76.720169,4.442764,-148.316879,,,
729860589.655856,-1.078972,-4.443025,-25.831782,0.086258,-0.017822,1.019958,0.079091,-0.007608,0.023125,76.720169,4.442764,-148.316879,,,
729860589.659187,-1.058472,-4.43881,-25.82534,0.091125,-0.014618,1.012177,0.075476,0.020658,0.013994,76.720169,4.442764,-148.316879,,,
729860589.662553,-1.058472,-4.43881,-25.82534,0.091125,-0.014618,1.012177,0.075476,0.020658,0.013994,76.720169,4.442764,-148.316879,,,
729860589.665821,-1.039452,-4.430361,-25.820134,0.091125,-0.014618,1.012177,0.075476,0.020658,0.013994,76.720169,4.442764,-148.316879,,,
729860589.669143,-1.022943,-4.417974,-25.815444,0.090652,-0.012756,1.007004,0.056685,0.051351,0.008404,76.720169,4.442764,-148.316879,,,
729860589.672491,-1.022943,-4.417974,-25.815444,0.090652,-0.012756,1.007004,0.056685,0.051351,0.008404,76.720169,4.442764,-148.316879,,,
729860589.675906,-1.009267,-4.403938,-25.811295,0.090652,-0.012756,1.007004,0.056685,0.051351,0.008404,76.628098,4.274536,-148.407349,,,
729860589.679161,-0.998797,-4.390415,-25.807737,0.084534,-0.011963,0.994766,0.036829,0.048128,0.0086,76.628098,4.274536,-148.407349,,,
729860589.682478,-0.998797,-4.390415,-25.807737,0.084534,-0.011963,0.994766,0.036829,0.048128,0.0086,76.628098,4.274536,-148.407349,,,
729860589.685828,-0.992697,-4.377892,-25.804247,0.084534,-0.011963,0.994766,0.036829,0.048128,0.0086,76.628098,4.274536,-148.407349,,,
729860589.689145,-0.989723,-4.367919,-25.80086,0.079178,-0.008987,0.977264,0.007809,0.033531,0.010631,76.628098,4.274536,-148.407349,,,
729860589.692486,-0.989723,-4.367919,-25.80086,0.079178,-0.008987,0.977264,0.007809,0.033531,0.010631,76.628098,4.274536,-148.407349,,,
729860589.695809,-0.992046,-4.358846,-25.797451,0.079178,-0.008987,0.977264,0.007809,0.033531,0.010631,76.628098,4.274536,-148.407349,,,
729860589.699218,-0.997645,-4.352883,-25.793493,0.072998,-0.008072,0.965866,-0.017792,0.020151,0.015271,76.628098,4.274536,-148.407349,,,
729860589.702465,-0.997645,-4.352883,-25.793493,0.072998,-0.008072,0.965866,-0.017792,0.020151,0.015271,76.628098,4.274536,-148.407349,,,
729860589.705812,-1.007291,-4.34831,-25.788112,0.072998,-0.008072,0.965866,-0.017792,0.020151,0.015271,76.628098,4.274536,-148.407349,,,
729860589.709138,-1.018201,-4.347393,-25.781097,0.069321,-0.008392,0.96463,-0.037441,0.003175,0.026629,76.628098,4.274536,-148.407349,,,
729860589.712504,-1.018201,-4.347393,-25.781097,0.069321,-0.008392,0.96463,-0.037441,0.003175,0.026629,76.628098,4.274536,-148.407349,,,
729860589.715799,-1.030634,-4.34781,-25.772633,0.069321,-0.008392,0.96463,-0.037441,0.003175,0.026629,76.685944,4.121002,-148.066284,,,
729860589.719138,-1.040971,-4.34838,-25.762447,0.06929,-0.011856,0.972672,-0.031811,5.6e-05,0.038645,76.685944,4.121002,-148.066284,,,
729860589.722467,-1.040971,-4.34838,-25.762447,0.06929,-0.011856,0.972672,-0.031811,5.6e-05,0.038645,76.685944,4.121002,-148.066284,,,
729860589.725835,-1.047493,-4.349807,-25.750387,0.06929,-0.011856,0.972672,-0.031811,5.6e-05,0.038645,76.685944,4.121002,-148.066284,,,
729860589.729131,-1.049113,-4.348449,-25.737273,0.070679,-0.017273,0.996902,0.00155,0.006705,0.047128,76.685944,4.121002,-148.066284,,,
729860589.732467,-1.049113,-4.348449,-25.737273,0.070679,-0.017273,0.996902,0.00155,0.006705,0.047128,76.685944,4.121002,-148.066284,,,
729860589.735802,-1.044867,-4.348651,-25.722984,0.070679,-0.017273,0.996902,0.00155,0.006705,0.047128,76.685944,4.121002,-148.066284,,,
729860589.739136,-1.035522,-4.344203,-25.706606,0.077408,-0.023254,1.018311,0.043328,0.019589,0.053504,76.685944,4.121002,-148.066284,,,
729860589.742466,-1.035522,-4.344203,-25.706606,0.077408,-0.023254,1.018311,0.043328,0.019589,0.053504,76.685944,4.121002,-148.066284,,,
729860589.745801,-1.021715,-4.342194,-25.689283,0.077408,-0.023254,1.018311,0.043328,0.019589,0.053504,76.685944,4.121002,-148.066284,,,
729860589.749137,-1.006635,-4.335147,-25.67192,0.081467,-0.023743,1.015778,0.058471,0.028582,0.054266,76.685944,4.121002,-148.066284,,,
729860589.752483,-1.006635,-4.335147,-25.67192,0.081467,-0.023743,1.015778,0.058471,0.028582,0.054266,76.685944,4.121002,-148.066284,,,
729860589.755866,-0.990326,-4.330224,-25.655647,0.081467,-0.023743,1.015778,0.058471,0.028582,0.054266,76.605164,4.199219,-148.193497,,,
729860589.759187,-0.975165,-4.322518,-25.641944,0.0905,-0.016571,0.996185,0.053916,0.028856,0.038201,76.605164,4.199219,-148.193497,,,
729860589.762621,-0.975165,-4.322518,-25.641944,0.0905,-0.016571,0.996185,0.053916,0.028856,0.038201,76.605164,4.199219,-148.193497,,,
729860589.765822,-0.961439,-4.316902,-25.631908,0.0905,-0.016571,0.996185,0.053916,0.028856,0.038201,76.605164,4.199219,-148.193497,,,
729860589.76915,-0.951172,-4.310869,-25.625093,0.093994,-0.007278,0.976212,0.037218,0.019954,0.017099,76.605164,4.199219,-148.193497,,,
729860589.772482,-0.951172,-4.310869,-25.625093,0.093994,-0.007278,0.976212,0.037218,0.019954,0.017099,76.605164,4.199219,-148.193497,,,
729860589.775813,-0.942575,-4.308191,-25.621714,0.093994,-0.007278,0.976212,0.037218,0.019954,0.017099,76.605164,4.199219,-148.193497,,,
729860589.779149,-0.937833,-4.309557,-25.621416,0.092789,-0.00267,0.961624,0.01493,-0.006295,-0.004234,76.605164,4.199219,-148.193497,,,
729860589.782487,-0.937833,-4.309557,-25.621416,0.092789,-0.00267,0.961624,0.01493,-0.006295,-0.004234,76.605164,4.199219,-148.193497,,,
729860589.785876,-0.935658,-4.315745,-25.623269,0.092789,-0.00267,0.961624,0.01493,-0.006295,-0.004234,76.605164,4.199219,-148.193497,,,
729860589.789139,-0.937133,-4.327343,-25.627083,0.086395,-0.004456,0.948166,-0.008763,-0.042073,-0.013528,76.605164,4.199219,-148.193497,,,
729860589.792492,-0.937133,-4.327343,-25.627083,0.086395,-0.004456,0.948166,-0.008763,-0.042073,-0.013528,76.605164,4.199219,-148.193497,,,
729860589.795832,-0.940389,-4.341862,-25.632013,0.086395,-0.004456,0.948166,-0.008763,-0.042073,-0.013528,76.587036,4.304733,-148.041107,,,
729860589.799143,-0.945357,-4.359624,-25.638332,0.083221,-0.007217,0.951935,-0.022,-0.057783,-0.023286,76.587036,4.304733,-148.041107,,,
729860589.802475,-0.945357,-4.359624,-25.638332,0.083221,-0.007217,0.951935,-0.022,-0.057783,-0.023286,76.587036,4.304733,-148.041107,,,
729860589.805803,-0.950964,-4.377285,-25.645324,0.083221,-0.007217,0.951935,-0.022,-0.057783,-0.023286,76.587036,4.304733,-148.041107,,,
729860589.809138,-0.957641,-4.39555,-25.652174,0.083817,-0.014435,0.967377,-0.025117,-0.057915,-0.023819,76.587036,4.304733,-148.041107,,,
729860589.812561,-0.957641,-4.39555,-25.652174,0.083817,-0.014435,0.967377,-0.025117,-0.057915,-0.023819,76.587036,4.304733,-148.041107,,,
729860589.81582,-0.965337,-4.412683,-25.65946,0.083817,-0.014435,0.967377,-0.025117,-0.057915,-0.023819,76.587036,4.304733,-148.041107,,,
729860589.819147,-0.973082,-4.428865,-25.666725,0.081192,-0.019455,0.97905,-0.029057,-0.05114,-0.020599,76.587036,4.304733,-148.041107,,,
729860589.822471,-0.973082,-4.428865,-25.666725,0.081192,-0.019455,0.97905,-0.029057,-0.05114,-0.020599,76.587036,4.304733,-148.041107,,,
729860589.825816,-0.981586,-4.442513,-25.673452,0.081192,-0.019455,0.97905,-0.029057,-0.05114,-0.020599,76.587036,4.304733,-148.041107,,,
729860589.829139,-0.989418,-4.451884,-25.679785,0.084213,-0.023468,0.985962,-0.025608,-0.026243,-0.023143,76.587036,4.304733,-148.041107,,,
729860589.832487,-0.989418,-4.451884,-25.679785,0.084213,-0.023468,0.985962,-0.025608,-0.026243,-0.023143,76.587036,4.304733,-148.041107,,,
729860589.835883,-0.996629,-4.456226,-25.685529,0.084213,-0.023468,0.985962,-0.025608,-0.026243,-0.023143,76.587036,4.304733,-148.041107,,,
729860589.839155,-1.00273,-4.452822,-25.690429,0.082214,-0.027756,1.004074,-0.020634,0.021027,-0.015763,76.698883,4.323242,-148.033844,,,
729860589.842473,-1.00273,-4.452822,-25.690429,0.082214,-0.027756,1.004074,-0.020634,0.021027,-0.015763,76.698883,4.323242,-148.033844,,,
729860589.845826,-1.008519,-4.445776,-25.694455,0.082214,-0.027756,1.004074,-0.020634,0.021027,-0.015763,76.698883,4.323242,-148.033844,,,
729860589.849143,-1.01643,-4.430515,-25.697481,0.078827,-0.02681,1.008301,-0.027562,0.058657,-0.009355,76.698883,4.323242,-148.033844,,,
729860589.85248,-1.01643,-4.430515,-25.697481,0.078827,-0.02681,1.008301,-0.027562,0.058657,-0.009355,76.698883,4.323242,-148.033844,,,
729860589.855853,-1.024792,-4.415716,-25.699927,0.078827,-0.02681,1.008301,-0.027562,0.058657,-0.009355,76.698883,4.323242,-148.033844,,,
729860589.859175,-1.036126,-4.396633,-25.702227,0.076797,-0.024216,0.997192,-0.041386,0.071473,-0.006483,76.698883,4.323242,-148.033844,,,
729860589.862584,-1.036126,-4.396633,-25.702227,0.076797,-0.024216,0.997192,-0.041386,0.071473,-0.006483,76.698883,4.323242,-148.033844,,,
729860589.865823,-1.048095,-4.381757,-25.705155,0.076797,-0.024216,0.997192,-0.041386,0.071473,-0.006483,76.698883,4.323242,-148.033844,,,
729860589.869144,-1.062256,-4.365286,-25.709148,0.075211,-0.022339,0.985916,-0.049203,0.058586,-0.012001,76.698883,4.323242,-148.033844,,,
729860589.872474,-1.062256,-4.365286,-25.709148,0.075211,-0.022339,0.985916,-0.049203,0.058586,-0.012001,76.698883,4.323242,-148.033844,,,
729860589.875808,-1.075139,-4.354923,-25.714816,0.075211,-0.022339,0.985916,-0.049203,0.058586,-0.012001,76.698883,4.323242,-148.033844,,,
729860589.879147,-1.090101,-4.346004,-25.722019,0.072906,-0.021469,0.982864,-0.055591,0.032972,-0.023352,76.619278,4.454239,-148.197189,,,
729860589.882469,-1.090101,-4.346004,-25.722019,0.072906,-0.021469,0.982864,-0.055591,0.032972,-0.023352,76.619278,4.454239,-148.197189,,,
729860589.885831,-1.1045,-4.344,-25.730678,0.072906,-0.021469,0.982864,-0.055591,0.032972,-0.023352,76.619278,4.454239,-148.197189,,,
729860589.889142,-1.118245,-4.344441,-25.739883,0.069046,-0.022507,0.987045,-0.048793,-0.002096,-0.031809,76.619278,4.454239,-148.197189,,,
729860589.892473,-1.118245,-4.344441,-25.739883,0.069046,-0.022507,0.987045,-0.048793,-0.002096,-0.031809,76.619278,4.454239,-148.197189,,,
729860589.895811,-1.129089,-4.351271,-25.749156,0.069046,-0.022507,0.987045,-0.048793,-0.002096,-0.031809,76.619278,4.454239,-148.197189,,,
729860589.899145,-1.136175,-4.359762,-25.758352,0.06572,-0.026871,0.999161,-0.022669,-0.027485,-0.031219,76.619278,4.454239,-148.197189,,,
729860589.902471,-1.136175,-4.359762,-25.758352,0.06572,-0.026871,0.999161,-0.022669,-0.027485,-0.031219,76.619278,4.454239,-148.197189,,,
729860589.905809,-1.139022,-4.37186,-25.766855,0.06572,-0.026871,0.999161,-0.022669,-0.027485,-0.031219,76.619278,4.454239,-148.197189,,,
729860589.909142,-1.138465,-4.382481,-25.774107,0.0634,-0.030991,1.015244,0.003112,-0.035411,-0.024608,76.619278,4.454239,-148.197189,,,
729860589.912515,-1.138465,-4.382481,-25.774107,0.0634,-0.030991,1.015244,0.003112,-0.035411,-0.024608,76.619278,4.454239,-148.197189,,,
729860589.915808,-1.136376,-4.393264,-25.77967,0.0634,-0.030991,1.015244,0.003112,-0.035411,-0.024608,76.619278,4.454239,-148.197189,,,
729860589.919151,-1.132143,-4.400807,-25.782968,0.058411,-0.031784,1.020569,0.015362,-0.019095,-0.008986,76.748154,4.590225,-147.969116,,,
729860589.922505,-1.132143,-4.400807,-25.782968,0.058411,-0.031784,1.020569,0.015362,-0.019095,-0.008986,76.748154,4.590225,-147.969116,,,
729860589.925903,-1.128066,-4.406122,-25.783875,0.058411,-0.031784,1.020569,0.015362,-0.019095,-0.008986,76.748154,4.590225,-147.969116,,,
729860589.929134,-1.123875,-4.407771,-25.783218,0.058929,-0.029144,1.015793,0.01411,0.000268,0.003047,76.748154,4.590225,-147.969116,,,
729860589.932486,-1.123875,-4.407771,-25.783218,0.058929,-0.029144,1.015793,0.01411,0.000268,0.003047,76.748154,4.590225,-147.969116,,,
729860589.93582,-1.121329,-4.406407,-25.781641,0.058929,-0.029144,1.015793,0.01411,0.000268,0.003047,76.748154,4.590225,-147.969116,,,
729860589.939144,-1.120041,-4.401985,-25.779136,0.059677,-0.027084,1.009521,0.003629,0.020411,0.00785,76.748154,4.590225,-147.969116,,,
729860589.942501,-1.120041,-4.401985,-25.779136,0.059677,-0.027084,1.009521,0.003629,0.020411,0.00785,76.748154,4.590225,-147.969116,,,
729860589.945815,-1.122163,-4.395285,-25.77605,0.059677,-0.027084,1.009521,0.003629,0.020411,0.00785,76.748154,4.590225,-147.969116,,,
729860589.94914,-1.127237,-4.387126,-25.772265,0.060211,-0.023743,1.000168,-0.018706,0.0303,0.013911,76.748154,4.590225,-147.969116,,,
729860589.95248,-1.127237,-4.387126,-25.772265,0.060211,-0.023743,1.000168,-0.018706,0.0303,0.013911,76.748154,4.590225,-147.969116,,,
729860589.955836,-1.135933,-4.378007,-25.767325,0.060211,-0.023743,1.000168,-0.018706,0.0303,0.013911,76.748154,4.590225,-147.969116,,,
729860589.959137,-1.146893,-4.370118,-25.760734,0.057343,-0.021652,0.992111,-0.037505,0.029321,0.024955,76.748154,4.590225,-147.969116,,,
729860589.962543,-1.146893,-4.370118,-25.760734,0.057343,-0.021652,0.992111,-0.037505,0.029321,0.024955,76.664398,4.6091,-148.221863,,,
729860589.965814,-1.158184,-4.363625,-25.752378,0.057343,-0.021652,0.992111,-0.037505,0.029321,0.024955,76.664398,4.6091,-148.221863,,,
729860589.969146,-1.167927,-4.362448,-25.742843,0.056137,-0.024948,0.991425,-0.034845,0.004734,0.035499,76.664398,4.6091,-148.221863,,,
729860589.972476,-1.167927,-4.362448,-25.742843,0.056137,-0.024948,0.991425,-0.034845,0.004734,0.035499,76.664398,4.6091,-148.221863,,,
729860589.975807,-1.176049,-4.363698,-25.732281,0.056137,-0.024948,0.991425,-0.034845,0.004734,0.035499,76.664398,4.6091,-148.221863,,,
729860589.979141,-1.180484,-4.371492,-25.721083,0.059708,-0.027069,0.995682,-0.009926,-0.032968,0.03821,76.664398,4.6091,-148.221863,,,
729860589.982477,-1.180484,-4.371492,-25.721083,0.059708,-0.027069,0.995682,-0.009926,-0.032968,0.03821,76.664398,4.6091,-148.221863,,,
729860589.985815,-1.182509,-4.379959,-25.709828,0.059708,-0.027069,0.995682,-0.009926,-0.032968,0.03821,76.664398,4.6091,-148.221863,,,
729860589.989141,-1.180191,-4.394413,-25.698955,0.065384,-0.027878,1.00322,0.016144,-0.051465,0.037617,76.664398,4.6091,-148.221863,,,
729860589.99248,-1.180191,-4.394413,-25.698955,0.065384,-0.027878,1.00322,0.016144,-0.051465,0.037617,76.664398,4.6091,-148.221863,,,
729860589.995816,-1.176124,-4.406264,-25.688158,0.065384,-0.027878,1.00322,0.016144,-0.051465,0.037617,76.664398,4.6091,-148.221863,,,
729860589.999138,-1.168874,-4.423522,-25.67744,0.072281,-0.028015,1.008362,0.03257,-0.056764,0.032788,76.664398,4.6091,-148.221863,,,
729860590.002474,-1.168874,-4.423522,-25.67744,0.072281,-0.028015,1.008362,0.03257,-0.056764,0.032788,76.576904,4.412643,-148.199234,,,
729860590.00583,-1.161039,-4.434541,-25.666326,0.072281,-0.028015,1.008362,0.03257,-0.056764,0.032788,76.576904,4.412643,-148.199234,,,
729860590.00916,-1.161039,-4.447739,-25.655229,0.074463,-0.02774,1.007339,0.036415,-0.043657,0.034665,76.576904,4.412643,-148.199234,,,
729860590.012484,-1.151673,-4.447739,-25.655229,0.074463,-0.02774,1.007339,0.036415,-0.043657,0.034665,76.576904,4.412643,-148.199234,,,
729860590.015815,-1.144053,-4.452414,-25.644178,0.074463,-0.02774,1.007339,0.036415,-0.043657,0.034665,76.576904,4.412643,-148.199234,,,
729860590.019164,-1.144053,-4.456831,-25.633338,0.080643,-0.022064,1.001831,0.024978,-0.009395,0.03378,76.576904,4.412643,-148.199234,,,
729860590.022481,-1.137543,-4.456831,-25.633338,0.080643,-0.022064,1.001831,0.024978,-0.009395,0.03378,76.576904,4.412643,-148.199234,,,
729860590.025815,-1.134365,-4.451895,-25.622561,0.080643,-0.022064,1.001831,0.024978,-0.009395,0.03378,76.576904,4.412643,-148.199234,,,
729860590.029141,-1.134599,-4.447497,-25.611946,0.083099,-0.017914,0.991669,-0.000123,0.019942,0.035531,76.576904,4.412643,-148.199234,,,
729860590.032484,-1.134599,-4.447497,-25.611946,0.083099,-0.017914,0.991669,-0.000123,0.019942,0.035531,76.576904,4.412643,-148.199234,,,
729860590.035817,-1.139554,-4.436574,-25.601608,0.083099,-0.017914,0.991669,-0.000123,0.019942,0.035531,76.576904,4.412643,-148.199234,,,
729860590.039151,-1.139554,-4.430029,-25.59219,0.082794,-0.01384,0.974426,-0.030706,0.026306,0.033102,76.576904,4.412643,-148.199234,,,
729860590.042481,-1.148201,-4.430029,-25.59219,0.082794,-0.01384,0.974426,-0.030706,0.026306,0.033102,76.492508,4.551285,-148.451981,,,
729860590.045814,-1.160596,-4.419152,-25.583711,0.082794,-0.01384,0.974426,-0.030706,0.026306,0.033102,76.492508,4.551285,-148.451981,,,
729860590.049173,-1.174706,-4.414827,-25.576706,0.0858,-0.012909,0.964432,-0.050014,0.017412,0.024324,76.492508,4.551285,-148.451981,,,
729860590.052558,-1.174706,-4.414827,-25.576706,0.0858,-0.012909,0.964432,-0.050014,0.017412,0.024324,76.492508,4.551285,-148.451981,,,
729860590.055838,-1.191014,-4.407658,-25.571231,0.0858,-0.012909,0.964432,-0.050014,0.017412,0.024324,76.492508,4.551285,-148.451981,,,
729860590.059157,-1.191014,-4.40731,-25.566946,0.0858,-0.012909,0.964432,-0.050014,0.017412,0.024324,76.492508,4.551285,-148.451981,,,
729860590.062501,-1.207409,-4.40731,-25.566946,0.086227,-0.016281,0.967773,-0.056176,0.002227,0.017792,76.492508,4.551285,-148.451981,,,
729860590.065916,-1.224376,-4.40547,-25.562938,0.086227,-0.016281,0.967773,-0.056176,0.002227,0.017792,76.492508,4.551285,-148.451981,,,
729860590.069133,-1.224376,-4.40547,-25.559094,0.086227,-0.016281,0.967773,-0.056176,0.002227,0.017792,76.492508,4.551285,-148.451981,,,
729860590.072516,-1.240575,-4.407825,-25.559094,0.085312,-0.020844,0.975494,-0.058375,-0.005539,0.015319,76.492508,4.551285,-148.451981,,,
729860590.075851,-1.25701,-4.407754,-25.55499,0.085312,-0.020844,0.975494,-0.058375,-0.005539,0.015319,76.492508,4.551285,-148.451981,,,
729860590.079148,-1.272278,-4.40858,-25.549886,0.085312,-0.020844,0.975494,-0.051165,0.003945,0.021371,76.492508,4.551285,-148.451981,,,
729860590.082486,-1.272278,-4.40858,-25.549886,0.082703,-0.021591,0.987656,-0.051165,0.003945,0.021371,76.449905,4.72406,-148.455353,,,
729860590.085821,-1.287971,-4.406421,-25.543906,0.082703,-0.021591,0.987656,-0.051165,0.003945,0.021371,76.449905,4.72406,-148.455353,,,
729860590.089188,-1.287971,-4.406421,-25.543906,0.082703,-0.021591,0.987656,-0.04759,0.016737,0.02433,76.449905,4.72406,-148.455353,,,
729860590.092591,-1.302471,-4.402657,-25.538141,0.081955,-0.023621,0.994415,-0.04759,0.016737,0.02433,76.449905,4.72406,-148.455353,,,
729860590.095798,-1.317202,-4.396631,-25.53255,0.081955,-0.023621,0.994415,-0.04759,0.016737,0.02433,76.449905,4.72406,-148.455353,,,
729860590.099189,-1.317202,-4.396631,-25.53255,0.081955,-0.023621,0.994415,-0.052189,0.036618,0.018438,76.449905,4.72406,-148.455353,,,
729860590.102482,-1.33241,-4.387373,-25.527731,0.086777,-0.020859,0.994064,-0.052189,0.036618,0.018438,76.449905,4.72406,-148.455353,,,
729860590.10581,-1.34907,-4.37669,-25.524813,0.086777,-0.020859,0.994064,-0.052189,0.036618,0.018438,76.449905,4.72406,-148.455353,,,
729860590.10917,-1.34907,-4.37669,-25.524813,0.086777,-0.020859,0.994064,-0.067916,0.056966,0.005351,76.449905,4.72406,-148.455353,,,
729860590.112497,-1.368303,-4.361471,-25.52374,0.089554,-0.019501,0.991714,-0.067916,0.056966,0.005351,76.449905,4.72406,-148.455353,,,
729860590.115818,-1.388084,-4.346218,-25.524357,0.089554,-0.019501,0.991714,-0.067916,0.056966,0.005351,76.449905,4.72406,-148.455353,,,
729860590.119151,-1.388084,-4.346218,-25.524357,0.089554,-0.019501,0.991714,-0.067916,0.056966,0.005351,76.449905,4.72406,-148.455353,,,
729860590.122526,-1.409945,-4.32898,-25.52696,0.086044,-0.017212,0.991257,-0.076541,0.062831,-0.007544,76.449905,4.72406,-148.455353,,,
729860590.125809,-1.429907,-4.315087,-25.530832,0.086044,-0.017212,0.991257,-0.076541,0.062831,-0.007544,76.464371,4.781555,-147.882004,,,
729860590.129214,-1.429907,-4.315087,-25.530832,0.086044,-0.017212,0.991257,-0.076541,0.062831,-0.007544,76.464371,4.781555,-147.882004,,,
729860590.13249,-1.449468,-4.29907,-25.534892,0.083038,-0.020798,0.996399,-0.069023,0.056247,-0.010527,76.464371,4.781555,-147.882004,,,
729860590.135809,-1.466266,-4.289264,-25.539678,0.083038,-0.020798,0.996399,-0.069023,0.056247,-0.010527,76.464371,4.781555,-147.882004,,,
729860590.139196,-1.466266,-4.289264,-25.539678,0.083038,-0.020798,0.996399,-0.069023,0.056247,-0.010527,76.464371,4.781555,-147.882004,,,
729860590.142527,-1.481903,-4.279807,-25.544521,0.075531,-0.024689,1.00206,-0.051128,0.031349,-0.013296,76.464371,4.781555,-147.882004,,,
729860590.145811,-1.493813,-4.277883,-25.548655,0.075531,-0.024689,1.00206,-0.051128,0.031349,-0.013296,76.464371,4.781555,-147.882004,,,
729860590.149216,-1.493813,-4.277883,-25.548655,0.075531,-0.024689,1.00206,-0.051128,0.031349,-0.013296,76.464371,4.781555,-147.882004,,,
729860590.152484,-1.502799,-4.276144,-25.551283,0.067154,-0.029907,1.003601,-0.028133,0.008323,-0.008545,76.464371,4.781555,-147.882004,,,
729860590.155839,-1.507396,-4.278677,-25.55215,0.067154,-0.029907,1.003601,-0.028133,0.008323,-0.008545,76.464371,4.781555,-147.882004,,,
729860590.159166,-1.507396,-4.278677,-25.55215,0.067154,-0.029907,1.003601,-0.028133,0.008323,-0.008545,76.464371,4.781555,-147.882004,,,
729860590.162494,-1.50905,-4.27951,-25.551045,0.063202,-0.031433,1.011002,-0.000129,0.000606,0.00281,76.464371,4.781555,-147.882004,,,
729860590.165815,-1.507971,-4.282429,-25.548368,0.063202,-0.031433,1.011002,-0.000129,0.000606,0.00281,76.668365,4.954163,-148.26207,,,
729860590.169297,-1.507971,-4.282429,-25.548368,0.063202,-0.031433,1.011002,-0.000129,0.000606,0.00281,76.668365,4.954163,-148.26207,,,
729860590.172496,-1.505889,-4.283107,-25.544093,0.061462,-0.032471,1.013092,0.010968,0.000981,0.013416,76.668365,4.954163,-148.26207,,,
729860590.175946,-1.503922,-4.285034,-25.539175,0.061462,-0.032471,1.013092,0.010968,0.000981,0.013416,76.668365,4.954163,-148.26207,,,
729860590.17919,-1.503922,-4.285034,-25.539175,0.061462,-0.032471,1.013092,0.010968,0.000981,0.013416,76.668365,4.954163,-148.26207,,,
729860590.182482,-1.504279,-4.283116,-25.534094,0.066971,-0.028625,1.002991,0.000208,0.008917,0.018781,76.668365,4.954163,-148.26207,,,
729860590.185824,-1.506282,-4.283901,-25.529603,0.066971,-0.028625,1.002991,0.000208,0.008917,0.018781,76.668365,4.954163,-148.26207,,,
729860590.189204,-1.506282,-4.283901,-25.529603,0.066971,-0.028625,1.002991,0.000208,0.008917,0.018781,76.668365,4.954163,-148.26207,,,
729860590.19252,-1.512585,-4.27981,-25.526464,0.074265,-0.023941,0.992798,-0.02335,0.020163,0.010472,76.668365,4.954163,-148.26207,,,
729860590.195815,-1.520674,-4.278172,-25.524703,0.074265,-0.023941,0.992798,-0.02335,0.020163,0.010472,76.668365,4.954163,-148.26207,,,
729860590.199206,-1.520674,-4.278172,-25.524703,0.074265,-0.023941,0.992798,-0.02335,0.020163,0.010472,76.668365,4.954163,-148.26207,,,
729860590.202474,-1.531959,-4.273967,-25.524024,0.075043,-0.020691,0.987778,-0.042594,0.017073,0.003235,76.668365,4.954163,-148.26207,,,
729860590.20582,-1.544152,-4.274094,-25.524502,0.075043,-0.020691,0.987778,-0.042594,0.017073,0.003235,76.630295,4.841553,-148.122391,,,
729860590.209182,-1.544152,-4.274094,-25.524502,0.075043,-0.020691,0.987778,-0.042594,0.017073,0.003235,76.630295,4.841553,-148.122391,,,
729860590.21248,-1.557642,-4.274631,-25.525237,0.075638,-0.02272,0.985641,-0.048986,-0.001523,0.00039,76.630295,4.841553,-148.122391,,,
729860590.215819,-1.569559,-4.280643,-25.525929,0.075638,-0.02272,0.985641,-0.048986,-0.001523,0.00039,76.630295,4.841553,-148.122391,,,
729860590.219142,-1.569559,-4.280643,-25.525929,0.075638,-0.02272,0.985641,-0.048986,-0.001523,0.00039,76.630295,4.841553,-148.122391,,,
729860590.22259,-1.578377,-4.291097,-25.526399,0.071075,-0.026932,0.988052,-0.024133,-0.038592,-0.000524,76.630295,4.841553,-148.122391,,,
729860590.225807,-1.582964,-4.305358,-25.526916,0.071075,-0.026932,0.988052,-0.024133,-0.038592,-0.000524,76.630295,4.841553,-148.122391,,,
729860590.229266,-1.582964,-4.305358,-25.526916,0.071075,-0.026932,0.988052,-0.024133,-0.038592,-0.000524,76.630295,4.841553,-148.122391,,,
729860590.232489,-1.582925,-4.324687,-25.527851,0.071854,-0.029633,0.997284,0.006548,-0.068805,-0.005132,76.630295,4.841553,-148.122391,,,
729860590.235818,-1.578477,-4.342448,-25.528727,0.071854,-0.029633,0.997284,0.006548,-0.068805,-0.005132,76.630295,4.841553,-148.122391,,,
729860590.239148,-1.578477,-4.342448,-25.528727,0.071854,-0.029633,0.997284,0.006548,-0.068805,-0.005132,76.630295,4.841553,-148.122391,,,
729860590.242551,-1.57093,-4.362982,-25.530083,0.073853,-0.030609,1.008667,0.0299,-0.066881,-0.010326,76.630295,4.841553,-148.122391,,,
729860590.245871,-1.562823,-4.377535,-25.531153,0.073853,-0.030609,1.008667,0.0299,-0.066881,-0.010326,76.345032,4.904709,-148.165787,,,
729860590.249155,-1.562823,-4.377535,-25.531153,0.073853,-0.030609,1.008667,0.0299,-0.066881,-0.010326,76.345032,4.904709,-148.165787,,,
729860590.252492,-1.555118,-4.391421,-25.532254,0.077942,-0.024246,1.008972,0.024972,-0.041209,-0.007416,76.345032,4.904709,-148.165787,,,
729860590.255812,-1.550113,-4.395205,-25.533063,0.077942,-0.024246,1.008972,0.024972,-0.041209,-0.007416,76.345032,4.904709,-148.165787,,,
729860590.25915,-1.550113,-4.395205,-25.533063,0.077942,-0.024246,1.008972,0.024972,-0.041209,-0.007416,76.345032,4.904709,-148.165787,,,
729860590.262494,-1.545897,-4.395652,-25.532139,0.080368,-0.022598,1.001358,0.017747,0.005526,0.002508,76.345032,4.904709,-148.165787,,,
729860590.265817,-1.542159,-4.389384,-25.529449,0.080368,-0.022598,1.001358,0.017747,0.005526,0.002508,76.345032,4.904709,-148.165787,,,
729860590.26915,-1.542159,-4.389384,-25.529449,0.080368,-0.022598,1.001358,0.017747,0.005526,0.002508,76.345032,4.904709,-148.165787,,,
729860590.272485,-1.540647,-4.379455,-25.52614,0.079239,-0.027618,0.99826,0.004028,0.040862,0.009688,76.345032,4.904709,-148.165787,,,
729860590.275809,-1.542074,-4.366626,-25.522666,0.079239,-0.027618,0.99826,0.004028,0.040862,0.009688,76.345032,4.904709,-148.165787,,,
729860590.279143,-1.542074,-4.366626,-25.522666,0.079239,-0.027618,0.99826,0.004028,0.040862,0.009688,76.345032,4.904709,-148.165787,,,
729860590.282503,-1.547968,-4.353047,-25.519555,0.077332,-0.022476,0.984024,-0.023657,0.048682,0.011401,76.345032,4.904709,-148.165787,,,
729860590.285821,-1.557031,-4.340352,-25.517392,0.077332,-0.022476,0.984024,-0.023657,0.048682,0.011401,76.345032,4.904709,-148.165787,,,
729860590.289179,-1.557031,-4.340352,-25.517392,0.077332,-0.022476,0.984024,-0.023657,0.048682,0.011401,76.481995,4.93071,-148.109055,,,
729860590.292572,-1.570414,-4.330137,-25.516759,0.077042,-0.017151,0.968018,-0.050277,0.036906,0.000306,76.481995,4.93071,-148.109055,,,
729860590.295811,-1.586272,-4.323046,-25.518281,0.077042,-0.017151,0.968018,-0.050277,0.036906,0.000306,76.481995,4.93071,-148.109055,,,
729860590.299166,-1.586272,-4.323046,-25.518281,0.077042,-0.017151,0.968018,-0.050277,0.036906,0.000306,76.481995,4.93071,-148.109055,,,
729860590.302501,-1.603305,-4.320708,-25.52182,0.078613,-0.01741,0.967087,-0.058568,0.00688,-0.00831,76.481995,4.93071,-148.109055,,,
729860590.305817,-1.62033,-4.32153,-25.526173,0.078613,-0.01741,0.967087,-0.058568,0.00688,-0.00831,76.481995,4.93071,-148.109055,,,
729860590.309177,-1.62033,-4.32153,-25.526173,0.078613,-0.01741,0.967087,-0.058568,0.00688,-0.00831,76.481995,4.93071,-148.109055,,,
729860590.312491,-1.636195,-4.326682,-25.530232,0.074066,-0.021576,0.976303,-0.056375,-0.014492,-0.012582,76.481995,4.93071,-148.109055,,,
729860590.315821,-1.650867,-4.333257,-25.533612,0.074066,-0.021576,0.976303,-0.056375,-0.014492,-0.012582,76.481995,4.93071,-148.109055,,,
729860590.319148,-1.650867,-4.333257,-25.533612,0.074066,-0.021576,0.976303,-0.056375,-0.014492,-0.012582,76.481995,4.93071,-148.109055,,,
729860590.3225,-1.662782,-4.342664,-25.535716,0.067734,-0.029129,0.990417,-0.039787,-0.030979,-0.005148,76.481995,4.93071,-148.109055,,,
729860590.32582,-1.669788,-4.352911,-25.536105,0.067734,-0.029129,0.990417,-0.039787,-0.030979,-0.005148,76.481995,4.93071,-148.109055,,,
729860590.329073,-1.669788,-4.352911,-25.536105,0.067734,-0.029129,0.990417,-0.039787,-0.030979,-0.005148,76.51593,5.04866,-148.173721,,,
729860590.33254,-1.671728,-4.362657,-25.534566,0.068436,-0.034348,1.007599,-0.000257,-0.027914,0.006445,76.51593,5.04866,-148.173721,,,
729860590.335826,-1.666894,-4.371484,-25.531384,0.068436,-0.034348,1.007599,-0.000257,-0.027914,0.006445,76.51593,5.04866,-148.173721,,,
729860590.339222,-1.666894,-4.371484,-25.531384,0.068436,-0.034348,1.007599,-0.000257,-0.027914,0.006445,76.51593,5.04866,-148.173721,,,
729860590.342556,-1.658154,-4.377344,-25.527003,0.072388,-0.037918,1.025513,0.034319,-0.014929,0.01226,76.51593,5.04866,-148.173721,,,
729860590.34581,-1.646051,-4.381846,-25.522024,0.072388,-0.037918,1.025513,0.034319,-0.014929,0.01226,76.51593,5.04866,-148.173721,,,
729860590.34917,-1.646051,-4.381846,-25.522024,0.072388,-0.037918,1.025513,0.034319,-0.014929,0.01226,76.51593,5.04866,-148.173721,,,
729860590.352502,-1.6327,-4.383523,-25.517471,0.078629,-0.032761,1.020721,0.046723,0.000869,0.008105,76.51593,5.04866,-148.173721,,,
729860590.355818,-1.618859,-4.384173,-25.514301,0.078629,-0.032761,1.020721,0.046723,0.000869,0.008105,76.51593,5.04866,-148.173721,,,
729860590.359144,-1.618859,-4.384173,-25.514301,0.078629,-0.032761,1.020721,0.046723,0.000869,0.008105,76.51593,5.04866,-148.173721,,,
729860590.362504,-1.606317,-4.38405,-25.51303,0.086075,-0.026352,1.001312,0.04204,0.00536,-0.001454,76.51593,5.04866,-148.173721,,,
729860590.365815,-1.594823,-4.384601,-25.513806,0.086075,-0.026352,1.001312,0.04204,0.00536,-0.001454,76.51593,5.04866,-148.173721,,,
729860590.369154,-1.594823,-4.384601,-25.513806,0.086075,-0.026352,1.001312,0.04204,0.00536,-0.001454,76.500381,5.17308,-147.995209,,,
729860590.372498,-1.58713,-4.385589,-25.516734,0.087158,-0.02121,0.982056,0.025257,0.000324,-0.014899,76.500381,5.17308,-147.995209,,,
729860590.375821,-1.581826,-4.389616,-25.521595,0.087158,-0.02121,0.982056,0.025257,0.000324,-0.014899,76.500381,5.17308,-147.995209,,,
729860590.379223,-1.581826,-4.389616,-25.521595,0.087158,-0.02121,0.982056,0.025257,0.000324,-0.014899,76.500381,5.17308,-147.995209,,,
729860590.382474,-1.581739,-4.394452,-25.527426,0.083725,-0.019272,0.970474,-0.005915,-0.014833,-0.02299,76.500381,5.17308,-147.995209,,,
729860590.385847,-1.585137,-4.402045,-25.533726,0.083725,-0.019272,0.970474,-0.005915,-0.014833,-0.02299,76.500381,5.17308,-147.995209,,,
729860590.389255,-1.585137,-4.402045,-25.533726,0.083725,-0.019272,0.970474,-0.005915,-0.014833,-0.02299,76.500381,5.17308,-147.995209,,,
729860590.392555,-1.594268,-4.410944,-25.539912,0.080978,-0.021408,0.960464,-0.038358,-0.027757,-0.01878,76.500381,5.17308,-147.995209,,,
729860590.395822,-1.607198,-4.419135,-25.545711,0.080978,-0.021408,0.960464,-0.038358,-0.027757,-0.01878,76.500381,5.17308,-147.995209,,,
729860590.399156,-1.607198,-4.419135,-25.545711,0.080978,-0.021408,0.960464,-0.038358,-0.027757,-0.01878,76.500381,5.17308,-147.995209,,,
729860590.402506,-1.622586,-4.429482,-25.551032,0.078384,-0.026779,0.961502,-0.056764,-0.030015,-0.013365,76.500381,5.17308,-147.995209,,,
729860590.405823,-1.639401,-4.437216,-25.555721,0.078384,-0.026779,0.961502,-0.056764,-0.030015,-0.013365,76.500381,5.17308,-147.995209,,,
729860590.409164,-1.639401,-4.437216,-25.555721,0.078384,-0.026779,0.961502,-0.056764,-0.030015,-0.013365,76.500381,5.17308,-147.995209,,,
729860590.412505,-1.655297,-4.445938,-25.559627,0.077606,-0.032837,0.983185,-0.055273,-0.023662,-0.010971,76.424438,4.948746,-148.209473,,,
729860590.41582,-1.669393,-4.45016,-25.5622,0.077606,-0.032837,0.983185,-0.055273,-0.023662,-0.010971,76.424438,4.948746,-148.209473,,,
729860590.41916,-1.669393,-4.45016,-25.5622,0.077606,-0.032837,0.983185,-0.055273,-0.023662,-0.010971,76.424438,4.948746,-148.209473,,,
729860590.422535,-1.677778,-4.454455,-25.563605,0.077316,-0.03627,1.010803,-0.024586,-0.009039,-0.002815,76.424438,4.948746,-148.209473,,,
729860590.42583,-1.681474,-4.456043,-25.56403,0.077316,-0.03627,1.010803,-0.024586,-0.009039,-0.002815,76.424438,4.948746,-148.209473,,,
729860590.429152,-1.681474,-4.456043,-25.56403,0.077316,-0.03627,1.010803,-0.024586,-0.009039,-0.002815,76.424438,4.948746,-148.209473,,,
729860590.432505,-1.679229,-4.457307,-25.56356,0.079041,-0.039139,1.027374,0.011758,2.3e-05,-6.3e-05,76.424438,4.948746,-148.209473,,,
729860590.435823,-1.672601,-4.458232,-25.562604,0.079041,-0.039139,1.027374,0.011758,2.3e-05,-6.3e-05,76.424438,4.948746,-148.209473,,,
729860590.439157,-1.672601,-4.458232,-25.562604,0.079041,-0.039139,1.027374,0.011758,2.3e-05,-6.3e-05,76.424438,4.948746,-148.209473,,,
729860590.442573,-1.663272,-4.456557,-25.561897,0.081146,-0.037735,1.026398,0.035447,0.010273,-0.002099,76.424438,4.948746,-148.209473,,,
729860590.445806,-1.652562,-4.455308,-25.562858,0.081146,-0.037735,1.026398,0.035447,0.010273,-0.002099,76.424438,4.948746,-148.209473,,,
729860590.449166,-1.652562,-4.455308,-25.562858,0.081146,-0.037735,1.026398,0.035447,0.010273,-0.002099,76.424438,4.948746,-148.209473,,,
729860590.452493,-1.644181,-4.450581,-25.566073,0.085266,-0.03125,1.011459,0.026316,0.021948,-0.015491,76.369125,5.147049,-148.215164,,,
729860590.455816,-1.63797,-4.446549,-25.570709,0.085266,-0.03125,1.011459,0.026316,0.021948,-0.015491,76.369125,5.147049,-148.215164,,,
729860590.459148,-1.63797,-4.446549,-25.570709,0.085266,-0.03125,1.011459,0.026316,0.021948,-0.015491,76.369125,5.147049,-148.215164,,,
729860590.462497,-1.636004,-4.440012,-25.577163,0.084198,-0.024811,0.988968,0.001447,0.025797,-0.023811,76.369125,5.147049,-148.215164,,,
729860590.465821,-1.637725,-4.434891,-25.585428,0.084198,-0.024811,0.988968,0.001447,0.025797,-0.023811,76.369125,5.147049,-148.215164,,,
729860590.469152,-1.637725,-4.434891,-25.585428,0.084198,-0.024811,0.988968,0.001447,0.025797,-0.023811,76.369125,5.147049,-148.215164,,,
729860590.472501,-1.644758,-4.428013,-25.594131,0.079895,-0.023987,0.974411,-0.030888,0.027003,-0.030659,76.369125,5.147049,-148.215164,,,
729860590.475822,-1.655441,-4.422719,-25.602313,0.079895,-0.023987,0.974411,-0.030888,0.027003,-0.030659,76.369125,5.147049,-148.215164,,,
729860590.479219,-1.655441,-4.422719,-25.602313,0.079895,-0.023987,0.974411,-0.030888,0.027003,-0.030659,76.369125,5.147049,-148.215164,,,
729860590.482484,-1.669172,-4.417283,-25.609128,0.069778,-0.02919,0.972992,-0.051525,0.022471,-0.019445,76.369125,5.147049,-148.215164,,,
729860590.485822,-1.685844,-4.413217,-25.614322,0.069778,-0.02919,0.972992,-0.051525,0.022471,-0.019445,76.369125,5.147049,-148.215164,,,
729860590.489151,-1.685844,-4.413217,-25.614322,0.069778,-0.02919,0.972992,-0.051525,0.022471,-0.019445,76.369125,5.147049,-148.215164,,,
729860590.492551,-1.704389,-4.410399,-25.617306,0.063187,-0.033722,0.974426,-0.068147,0.011937,-0.004675,76.58783,5.032059,-147.915771,,,
729860590.495815,-1.724255,-4.40974,-25.617999,0.063187,-0.033722,0.974426,-0.068147,0.011937,-0.004675,76.58783,5.032059,-147.915771,,,
729860590.499166,-1.724255,-4.40974,-25.617999,0.063187,-0.033722,0.974426,-0.068147,0.011937,-0.004675,76.58783,5.032059,-147.915771,,,
729860590.502498,-1.743675,-4.411538,-25.6171,0.062042,-0.036469,0.981293,-0.067394,-0.007589,0.009612,76.58783,5.032059,-147.915771,,,
729860590.505819,-1.761609,-4.414998,-25.615097,0.062042,-0.036469,0.981293,-0.067394,-0.007589,0.009612,76.58783,5.032059,-147.915771,,,
729860590.509165,-1.761609,-4.414998,-25.615097,0.062042,-0.036469,0.981293,-0.067394,-0.007589,0.009612,76.58783,5.032059,-147.915771,,,
729860590.512494,-1.775078,-4.419496,-25.613075,0.069794,-0.035019,0.999023,-0.042598,-0.012542,0.010331,76.58783,5.032059,-147.915771,,,
729860590.515822,-1.785683,-4.423614,-25.611701,0.069794,-0.035019,0.999023,-0.042598,-0.012542,0.010331,76.58783,5.032059,-147.915771,,,
729860590.519175,-1.785683,-4.423614,-25.611701,0.069794,-0.035019,0.999023,-0.042598,-0.012542,0.010331,76.58783,5.032059,-147.915771,,,
729860590.522549,-1.792344,-4.425641,-25.611298,0.078857,-0.03627,1.017487,-0.018463,-0.00249,0.000116,76.58783,5.032059,-147.915771,,,
729860590.525861,-1.795855,-4.426893,-25.612534,0.078857,-0.03627,1.017487,-0.018463,-0.00249,0.000116,76.58783,5.032059,-147.915771,,,
729860590.529188,-1.795855,-4.426893,-25.612534,0.078857,-0.03627,1.017487,-0.018463,-0.00249,0.000116,76.58783,5.032059,-147.915771,,,
729860590.532487,-1.796552,-4.424557,-25.614832,0.083221,-0.037857,1.0224,-0.002649,0.013748,-0.009978,76.528015,4.98616,-147.98494,,,
729860590.535819,-1.795678,-4.42037,-25.6175,0.083221,-0.037857,1.0224,-0.002649,0.013748,-0.009978,76.528015,4.98616,-147.98494,,,
729860590.539179,-1.795678,-4.42037,-25.6175,0.083221,-0.037857,1.0224,-0.002649,0.013748,-0.009978,76.528015,4.98616,-147.98494,,,
729860590.542499,-1.794395,-4.410533,-25.620494,0.084412,-0.035629,1.020645,0.005023,0.043167,-0.012891,76.528015,4.98616,-147.98494,,,
729860590.545818,-1.792053,-4.398014,-25.62372,0.084412,-0.035629,1.020645,0.005023,0.043167,-0.012891,76.528015,4.98616,-147.98494,,,
729860590.549204,-1.792053,-4.398014,-25.62372,0.084412,-0.035629,1.020645,0.005023,0.043167,-0.012891,76.528015,4.98616,-147.98494,,,
729860590.552511,-1.791025,-4.382228,-25.626236,0.077011,-0.037888,1.014328,0.004287,0.057505,-0.009129,76.528015,4.98616,-147.98494,,,
729860590.555832,-1.790385,-4.36633,-25.627842,0.077011,-0.037888,1.014328,0.004287,0.057505,-0.009129,76.528015,4.98616,-147.98494,,,
729860590.559172,-1.790385,-4.36633,-25.627842,0.077011,-0.037888,1.014328,0.004287,0.057505,-0.009129,76.528015,4.98616,-147.98494,,,
729860590.562532,-1.791299,-4.352137,-25.62954,0.07132,-0.035934,0.997925,-0.00299,0.048825,-0.008385,76.528015,4.98616,-147.98494,,,
729860590.565814,-1.793673,-4.338522,-25.63142,0.07132,-0.035934,0.997925,-0.00299,0.048825,-0.008385,76.528015,4.98616,-147.98494,,,
