Time (sec),Pitch (deg),Roll (deg),Yaw(deg),X-Acceleration (g),Y-Acceleration (g),Z-Acceleration (g),Pitch Rate (deg/sec),Roll Rate (deg/sec),Yaw Rate (deg/sec),Magnetic Field in X direction (uT),Magnetic Field in Y direction (uT),Magnetic Field in Z Direction (uT),Latitude (deg),Longitude (deg),Altitude (m)
729860837.278022,-1.3282,2.151297,54.758823,-0.036545,-0.021072,0.996902,-0.006197,-0.027031,0.009728,60.507309,19.522125,-145.901474,,,
729860837.281295,-1.329805,2.143312,54.762692,-0.036545,-0.021072,0.996902,-0.006197,-0.027031,0.009728,60.507309,19.522125,-145.901474,,,
729860837.284722,-1.331368,2.134503,54.766252,-0.036545,-0.021072,0.996902,-0.006197,-0.027031,0.009728,60.507309,19.522125,-145.901474,,,
729860837.287991,-1.331368,2.134503,54.770304,-0.03537,-0.017853,0.997589,-0.004187,-0.029014,0.012804,60.507309,19.522125,-145.901474,,,
729860837.291307,-1.333129,2.128246,54.770304,-0.03537,-0.017853,0.997589,-0.004187,-0.029014,0.012804,60.507309,19.522125,-145.901474,,,
729860837.294697,-1.334484,2.119894,54.773949,-0.03537,-0.017853,0.997589,-0.004187,-0.029014,0.012804,60.507309,19.522125,-145.901474,,,
729860837.297945,-1.334484,2.119894,54.773949,-0.03537,-0.017853,0.997589,-0.005266,-0.019234,0.008282,60.507309,19.522125,-145.901474,,,
729860837.301405,-1.336655,2.11693,54.777048,-0.03096,-0.013611,1.004028,-0.005266,-0.019234,0.008282,60.507309,19.522125,-145.901474,,,
729860837.30461,-1.337449,2.112097,54.779472,-0.03096,-0.013611,1.004028,-0.005266,-0.019234,0.008282,60.507309,19.522125,-145.901474,,,
729860837.308041,-1.337449,2.112097,54.779472,-0.023315,-0.017273,1.008041,-0.002743,-0.00221,0.001304,60.465118,19.387238,-145.61972,,,
729860837.311302,-1.338781,2.112347,54.780946,-0.023315,-0.017273,1.008041,-0.002743,-0.00221,0.001304,60.465118,19.387238,-145.61972,,,
729860837.314638,-1.340103,2.112117,54.78073,-0.023315,-0.017273,1.008041,-0.002743,-0.00221,0.001304,60.465118,19.387238,-145.61972,,,
729860837.318021,-1.340103,2.112117,54.78073,-0.023315,-0.017273,1.008041,-0.000328,0.009723,-0.007579,60.465118,19.387238,-145.61972,,,
729860837.321405,-1.341848,2.114562,54.779245,-0.025391,-0.019867,1.007996,-0.000328,0.009723,-0.007579,60.465118,19.387238,-145.61972,,,
729860837.324638,-1.341924,2.116333,54.777278,-0.025391,-0.019867,1.007996,-0.000328,0.009723,-0.007579,60.465118,19.387238,-145.61972,,,
729860837.327986,-1.341924,2.116333,54.777278,-0.025391,-0.019867,1.007996,-0.000328,0.009723,-0.007579,60.465118,19.387238,-145.61972,,,
729860837.331312,-1.341628,2.117885,54.775299,-0.030365,-0.018799,1.005875,0.003556,0.006944,-0.007532,60.465118,19.387238,-145.61972,,,
729860837.334622,-1.340617,2.119207,54.773111,-0.030365,-0.018799,1.005875,0.003556,0.006944,-0.007532,60.465118,19.387238,-145.61972,,,
729860837.337952,-1.340617,2.119207,54.773111,-0.030365,-0.018799,1.005875,0.010321,0.006234,-0.009518,60.465118,19.387238,-145.61972,,,
729860837.341282,-1.338723,2.121484,54.77062,-0.035995,-0.020859,1.004471,0.010321,0.006234,-0.009518,60.465118,19.387238,-145.61972,,,
729860837.344738,-1.335277,2.122092,54.768646,-0.035995,-0.020859,1.004471,0.010321,0.006234,-0.009518,60.465118,19.387238,-145.61972,,,
729860837.348017,-1.335277,2.122092,54.768646,-0.035995,-0.020859,1.004471,0.010321,0.006234,-0.009518,60.465118,19.387238,-145.61972,,,
729860837.351355,-1.330969,2.123167,54.767342,-0.036713,-0.02005,1.003021,0.012789,0.002169,-0.004977,60.545639,19.476471,-145.646912,,,
729860837.354615,-1.327756,2.1233,54.766037,-0.036713,-0.02005,1.003021,0.012789,0.002169,-0.004977,60.545639,19.476471,-145.646912,,,
729860837.357988,-1.327756,2.1233,54.766037,-0.036713,-0.02005,1.003021,0.012789,0.002169,-0.004977,60.545639,19.476471,-145.646912,,,
729860837.361353,-1.324222,2.124457,54.764988,-0.033203,-0.019531,0.995453,0.012367,0.00808,-0.003204,60.545639,19.476471,-145.646912,,,
729860837.364626,-1.321873,2.126641,54.764118,-0.033203,-0.019531,0.995453,0.012367,0.00808,-0.003204,60.545639,19.476471,-145.646912,,,
729860837.36801,-1.321873,2.126641,54.764118,-0.033203,-0.019531,0.995453,-0.00392,0.018453,-0.001153,60.545639,19.476471,-145.646912,,,
729860837.371262,-1.321086,2.129858,54.763628,-0.032104,-0.017548,0.992966,-0.00392,0.018453,-0.001153,60.545639,19.476471,-145.646912,,,
729860837.374663,-1.323645,2.134503,54.763964,-0.032104,-0.017548,0.992966,-0.00392,0.018453,-0.001153,60.545639,19.476471,-145.646912,,,
729860837.377956,-1.323645,2.134503,54.763964,-0.032104,-0.017548,0.992966,-0.00392,0.018453,-0.001153,60.545639,19.476471,-145.646912,,,
729860837.381284,-1.327539,2.137961,54.7648,-0.034256,-0.016861,0.982819,-0.022897,0.015813,0.001819,60.545639,19.476471,-145.646912,,,
729860837.384605,-1.334699,2.141722,54.765694,-0.034256,-0.016861,0.982819,-0.022897,0.015813,0.001819,60.545639,19.476471,-145.646912,,,
729860837.38805,-1.334699,2.141722,54.765694,-0.034256,-0.016861,0.982819,-0.022897,0.015813,0.001819,60.545639,19.476471,-145.646912,,,
729860837.391272,-1.341021,2.143652,54.766467,-0.033524,-0.01709,0.987701,-0.026358,0.0203,0.001258,60.45903,19.63765,-145.712204,,,
729860837.394609,-1.34818,2.149583,54.767546,-0.033524,-0.01709,0.987701,-0.026358,0.0203,0.001258,60.45903,19.63765,-145.712204,,,
729860837.398017,-1.34818,2.149583,54.767546,-0.033524,-0.01709,0.987701,-0.026358,0.0203,0.001258,60.45903,19.63765,-145.712204,,,
729860837.401327,-1.353649,2.154401,54.768695,-0.039062,-0.025955,1.002701,-0.018876,0.029467,0.002393,60.45903,19.63765,-145.712204,,,
729860837.404608,-1.358245,2.161197,54.770662,-0.039062,-0.025955,1.002701,-0.018876,0.029467,0.002393,60.45903,19.63765,-145.712204,,,
729860837.407958,-1.358245,2.161197,54.770662,-0.039062,-0.025955,1.002701,-0.018876,0.029467,0.002393,60.45903,19.63765,-145.712204,,,
729860837.411269,-1.360303,2.163973,54.772864,-0.044022,-0.027939,1.003586,-0.006393,0.011387,0.00474,60.45903,19.63765,-145.712204,,,
729860837.414592,-1.360693,2.164257,54.774024,-0.044022,-0.027939,1.003586,-0.006393,0.011387,0.00474,60.45903,19.63765,-145.712204,,,
729860837.417949,-1.360693,2.164257,54.774024,-0.044022,-0.027939,1.003586,-0.006393,0.011387,0.00474,60.45903,19.63765,-145.712204,,,
729860837.421268,-1.357706,2.160792,54.773508,-0.036865,-0.027771,1.004074,0.013053,-0.010469,-0.006166,60.45903,19.63765,-145.712204,,,
729860837.424606,-1.353637,2.156259,54.770352,-0.036865,-0.027771,1.004074,0.013053,-0.010469,-0.006166,60.45903,19.63765,-145.712204,,,
729860837.428055,-1.353637,2.156259,54.770352,-0.036865,-0.027771,1.004074,0.013053,-0.010469,-0.006166,60.45903,19.63765,-145.712204,,,
729860837.431268,-1.348114,2.150868,54.765296,-0.033691,-0.03157,1.005875,0.019575,-0.016112,-0.019147,60.36264,19.436249,-145.575867,,,
729860837.434605,-1.342186,2.145113,54.759306,-0.033691,-0.03157,1.005875,0.019575,-0.016112,-0.019147,60.36264,19.436249,-145.575867,,,
729860837.437988,-1.342186,2.145113,54.759306,-0.033691,-0.03157,1.005875,0.019575,-0.016112,-0.019147,60.36264,19.436249,-145.575867,,,
729860837.441316,-1.335197,2.138429,54.752664,-0.037735,-0.031708,1.003296,0.023739,-0.019198,-0.023491,60.36264,19.436249,-145.575867,,,
729860837.444604,-1.328878,2.132273,54.746588,-0.037735,-0.031708,1.003296,0.023739,-0.019198,-0.023491,60.36264,19.436249,-145.575867,,,
729860837.447946,-1.328878,2.132273,54.746588,-0.037735,-0.031708,1.003296,0.023739,-0.019198,-0.023491,60.36264,19.436249,-145.575867,,,
729860837.451253,-1.322018,2.125931,54.741981,-0.040298,-0.02977,1.00383,0.022482,-0.01399,-0.013107,60.36264,19.436249,-145.575867,,,
729860837.454667,-1.316477,2.122624,54.739015,-0.040298,-0.02977,1.00383,0.022482,-0.01399,-0.013107,60.36264,19.436249,-145.575867,,,
729860837.457958,-1.316477,2.122624,54.739015,-0.040298,-0.02977,1.00383,0.022482,-0.01399,-0.013107,60.36264,19.436249,-145.575867,,,
729860837.461303,-1.311131,2.121452,54.737303,-0.044144,-0.029724,1.003738,0.014659,0.003997,-0.004604,60.36264,19.436249,-145.575867,,,
729860837.464588,-1.307358,2.123082,54.737361,-0.044144,-0.029724,1.003738,0.014659,0.003997,-0.004604,60.36264,19.436249,-145.575867,,,
729860837.468008,-1.307358,2.123082,54.737361,-0.044144,-0.029724,1.003738,0.014659,0.003997,-0.004604,60.36264,19.436249,-145.575867,,,
729860837.471238,-1.303091,2.126821,54.739506,-0.044571,-0.03067,1.003311,0.010726,0.022562,0.009968,60.535202,19.365143,-145.984589,,,
729860837.47459,-1.300022,2.13299,54.742695,-0.044571,-0.03067,1.003311,0.010726,0.022562,0.009968,60.535202,19.365143,-145.984589,,,
729860837.477922,-1.300022,2.13299,54.742695,-0.044571,-0.03067,1.003311,0.010726,0.022562,0.009968,60.535202,19.365143,-145.984589,,,
729860837.481236,-1.296509,2.139888,54.746893,-0.045563,-0.028091,1.002579,0.014541,0.028919,0.017184,60.535202,19.365143,-145.984589,,,
729860837.484604,-1.292322,2.147152,54.752736,-0.045563,-0.028091,1.002579,0.014541,0.028919,0.017184,60.535202,19.365143,-145.984589,,,
729860837.487918,-1.292322,2.147152,54.752736,-0.045563,-0.028091,1.002579,0.014541,0.028919,0.017184,60.535202,19.365143,-145.984589,,,
729860837.491237,-1.289639,2.154514,54.759433,-0.048218,-0.023926,0.993362,0.009661,0.020995,0.022769,60.535202,19.365143,-145.984589,,,
729860837.49466,-1.286904,2.158894,54.765641,-0.048218,-0.023926,0.993362,0.009661,0.020995,0.022769,60.535202,19.365143,-145.984589,,,
729860837.497897,-1.286904,2.158894,54.765641,-0.048218,-0.023926,0.993362,0.009661,0.020995,0.022769,60.535202,19.365143,-145.984589,,,
729860837.501257,-1.285638,2.162401,54.77059,-0.043884,-0.018967,0.984161,0.004575,0.012922,0.013711,60.535202,19.365143,-145.984589,,,
729860837.504608,-1.28426,2.165451,54.77466,-0.043884,-0.018967,0.984161,0.004575,0.012922,0.013711,60.535202,19.365143,-145.984589,,,
729860837.507967,-1.28426,2.165451,54.77466,-0.043884,-0.018967,0.984161,0.004575,0.012922,0.013711,60.535202,19.365143,-145.984589,,,
729860837.511277,-1.28376,2.167921,54.778385,-0.041092,-0.021759,0.991547,0.007469,0.014722,0.011602,60.535202,19.365143,-145.984589,,,
729860837.514576,-1.281361,2.170932,54.781677,-0.041092,-0.021759,0.991547,0.007469,0.014722,0.011602,60.315308,19.438675,-145.849136,,,
729860837.517929,-1.281361,2.170932,54.781677,-0.041092,-0.021759,0.991547,0.007469,0.014722,0.011602,60.315308,19.438675,-145.849136,,,
729860837.521238,-1.279888,2.173003,54.784636,-0.045609,-0.023773,0.991455,0.011904,0.008762,0.009476,60.315308,19.438675,-145.849136,,,
729860837.524585,-1.276174,2.173358,54.787428,-0.045609,-0.023773,0.991455,0.011904,0.008762,0.009476,60.315308,19.438675,-145.849136,,,
729860837.527904,-1.276174,2.173358,54.787428,-0.045609,-0.023773,0.991455,0.011904,0.008762,0.009476,60.315308,19.438675,-145.849136,,,
729860837.53125,-1.272118,2.17151,54.789592,-0.041534,-0.020081,0.991562,0.023184,-0.007995,0.005482,60.315308,19.438675,-145.849136,,,
729860837.53462,-1.264406,2.167915,54.79146,-0.041534,-0.020081,0.991562,0.023184,-0.007995,0.005482,60.315308,19.438675,-145.849136,,,
729860837.537897,-1.264406,2.167915,54.79146,-0.041534,-0.020081,0.991562,0.023184,-0.007995,0.005482,60.315308,19.438675,-145.849136,,,
729860837.54124,-1.255915,2.164055,54.793042,-0.038925,-0.02327,0.997604,0.037125,-0.017424,0.003868,60.315308,19.438675,-145.849136,,,
729860837.54457,-1.245684,2.158328,54.794132,-0.038925,-0.02327,0.997604,0.037125,-0.017424,0.003868,60.315308,19.438675,-145.849136,,,
729860837.54798,-1.245684,2.158328,54.794132,-0.038925,-0.02327,0.997604,0.037125,-0.017424,0.003868,60.315308,19.438675,-145.849136,,,
729860837.551242,-1.237551,2.154439,54.794917,-0.034698,-0.022751,0.990692,0.03146,-0.013933,0.001267,60.315308,19.438675,-145.849136,,,
729860837.55458,-1.229961,2.150066,54.795408,-0.034698,-0.022751,0.990692,0.03146,-0.013933,0.001267,60.390137,19.354782,-145.594559,,,
729860837.55791,-1.229961,2.150066,54.795408,-0.034698,-0.022751,0.990692,0.03146,-0.013933,0.001267,60.390137,19.354782,-145.594559,,,
729860837.561292,-1.226254,2.147571,54.795586,-0.029282,-0.012711,0.982727,0.012963,-0.010485,-0.001757,60.390137,19.354782,-145.594559,,,
729860837.564589,-1.224615,2.143963,54.794963,-0.029282,-0.012711,0.982727,0.012963,-0.010485,-0.001757,60.390137,19.354782,-145.594559,,,
729860837.567898,-1.224615,2.143963,54.794963,-0.029282,-0.012711,0.982727,0.012963,-0.010485,-0.001757,60.390137,19.354782,-145.594559,,,
729860837.571239,-1.227306,2.143455,54.793786,-0.02449,-0.011154,0.974716,-0.012531,-0.002652,-0.006939,60.390137,19.354782,-145.594559,,,
729860837.574623,-1.233358,2.143032,54.792517,-0.02449,-0.011154,0.974716,-0.012531,-0.002652,-0.006939,60.390137,19.354782,-145.594559,,,
729860837.577952,-1.233358,2.143032,54.792517,-0.02449,-0.011154,0.974716,-0.012531,-0.002652,-0.006939,60.390137,19.354782,-145.594559,,,
729860837.581216,-1.242788,2.146893,54.791612,-0.028091,-0.016815,0.977814,-0.036943,0.016338,-0.005605,60.390137,19.354782,-145.594559,,,
729860837.584566,-1.254186,2.151571,54.791401,-0.028091,-0.016815,0.977814,-0.036943,0.016338,-0.005605,60.390137,19.354782,-145.594559,,,
729860837.58788,-1.254186,2.151571,54.791401,-0.028091,-0.016815,0.977814,-0.036943,0.016338,-0.005605,60.390137,19.354782,-145.594559,,,
729860837.591222,-1.266248,2.158184,54.792792,-0.034744,-0.01622,0.981827,-0.043734,0.024888,0.005183,60.390137,19.354782,-145.594559,,,
729860837.594564,-1.278909,2.164464,54.796411,-0.034744,-0.01622,0.981827,-0.043734,0.024888,0.005183,60.351715,19.458817,-145.412643,,,
729860837.597952,-1.278909,2.164464,54.796411,-0.034744,-0.01622,0.981827,-0.043734,0.024888,0.005183,60.351715,19.458817,-145.412643,,,
729860837.60123,-1.291977,2.171677,54.801684,-0.032135,-0.020538,0.986542,-0.044383,0.021219,0.016477,60.351715,19.458817,-145.412643,,,
729860837.604548,-1.303957,2.177063,54.806952,-0.032135,-0.020538,0.986542,-0.044383,0.021219,0.016477,60.351715,19.458817,-145.412643,,,
729860837.607888,-1.303957,2.177063,54.806952,-0.032135,-0.020538,0.986542,-0.044383,0.021219,0.016477,60.351715,19.458817,-145.412643,,,
729860837.611279,-1.314553,2.18392,54.810838,-0.026093,-0.021072,0.994797,-0.036239,0.024275,0.006965,60.351715,19.458817,-145.412643,,,
729860837.614537,-1.324719,2.19027,54.812513,-0.026093,-0.021072,0.994797,-0.036239,0.024275,0.006965,60.351715,19.458817,-145.412643,,,
729860837.617889,-1.324719,2.19027,54.812513,-0.026093,-0.021072,0.994797,-0.036239,0.024275,0.006965,60.351715,19.458817,-145.412643,,,
729860837.62124,-1.333374,2.197365,54.811751,-0.022675,-0.023148,1.001419,-0.025884,0.026966,-0.00965,60.351715,19.458817,-145.412643,,,
729860837.624623,-1.33977,2.204239,54.808999,-0.022675,-0.023148,1.001419,-0.025884,0.026966,-0.00965,60.351715,19.458817,-145.412643,,,
729860837.627864,-1.33977,2.204239,54.808999,-0.022675,-0.023148,1.001419,-0.025884,0.026966,-0.00965,60.351715,19.458817,-145.412643,,,
729860837.63123,-1.344115,2.210642,54.804461,-0.026321,-0.028229,1.008774,-0.009887,0.026594,-0.021462,60.351715,19.458817,-145.412643,,,
729860837.634543,-1.34603,2.216756,54.79815,-0.026321,-0.028229,1.008774,-0.009887,0.026594,-0.021462,60.358856,19.463272,-146.084076,,,
729860837.637951,-1.34603,2.216756,54.79815,-0.026321,-0.028229,1.008774,-0.009887,0.026594,-0.021462,60.358856,19.463272,-146.084076,,,
729860837.641213,-1.345384,2.220171,54.790894,-0.033768,-0.02829,1.009689,-0.00059,0.016484,-0.027482,60.358856,19.463272,-146.084076,,,
729860837.644546,-1.345504,2.222726,54.78335,-0.033768,-0.02829,1.009689,-0.00059,0.016484,-0.027482,60.358856,19.463272,-146.084076,,,
729860837.647882,-1.345504,2.222726,54.78335,-0.033768,-0.02829,1.009689,-0.00059,0.016484,-0.027482,60.358856,19.463272,-146.084076,,,
729860837.651273,-1.343468,2.220472,54.776243,-0.03743,-0.026382,0.997299,-0.00049,-7.6e-05,-0.024042,60.358856,19.463272,-146.084076,,,
729860837.654596,-1.34485,2.218367,54.769036,-0.03743,-0.026382,0.997299,-0.00049,-7.6e-05,-0.024042,60.358856,19.463272,-146.084076,,,
729860837.657859,-1.34485,2.218367,54.769036,-0.03743,-0.026382,0.997299,-0.00049,-7.6e-05,-0.024042,60.358856,19.463272,-146.084076,,,
729860837.66121,-1.347485,2.212492,54.760825,-0.035904,-0.023758,0.990555,-0.016596,-0.011142,-0.031287,60.358856,19.463272,-146.084076,,,
729860837.664532,-1.353289,2.20852,54.752434,-0.035904,-0.023758,0.990555,-0.016596,-0.011142,-0.031287,60.358856,19.463272,-146.084076,,,
729860837.667876,-1.353289,2.20852,54.752434,-0.035904,-0.023758,0.990555,-0.016596,-0.011142,-0.031287,60.358856,19.463272,-146.084076,,,
729860837.671215,-1.360127,2.204256,54.744359,-0.038239,-0.024521,0.98851,-0.031875,-0.007503,-0.029436,60.358856,19.463272,-146.084076,,,
729860837.67455,-1.369869,2.201197,54.73712,-0.038239,-0.024521,0.98851,-0.031875,-0.007503,-0.029436,60.358856,19.463272,-146.084076,,,
729860837.677963,-1.369869,2.201197,54.73712,-0.038239,-0.024521,0.98851,-0.031875,-0.007503,-0.029436,60.386597,19.480438,-145.856049,,,
729860837.681218,-1.379668,2.198196,54.731295,-0.041443,-0.027237,0.991089,-0.036832,-0.002099,-0.019614,60.386597,19.480438,-145.856049,,,
729860837.684554,-1.389931,2.197657,54.727433,-0.041443,-0.027237,0.991089,-0.036832,-0.002099,-0.019614,60.386597,19.480438,-145.856049,,,
729860837.687871,-1.389931,2.197657,54.727433,-0.041443,-0.027237,0.991089,-0.036832,-0.002099,-0.019614,60.386597,19.480438,-145.856049,,,
729860837.691267,-1.398477,2.196563,54.72525,-0.046326,-0.02861,1.004974,-0.02814,0.007607,-0.007222,60.386597,19.480438,-145.856049,,,
729860837.694533,-1.406071,2.199451,54.724223,-0.046326,-0.02861,1.004974,-0.02814,0.007607,-0.007222,60.386597,19.480438,-145.856049,,,
729860837.697876,-1.406071,2.199451,54.724223,-0.046326,-0.02861,1.004974,-0.02814,0.007607,-0.007222,60.386597,19.480438,-145.856049,,,
729860837.701199,-1.411186,2.202097,54.724216,-0.047333,-0.030396,1.010849,-0.014133,0.025039,0.000883,60.386597,19.480438,-145.856049,,,
729860837.704601,-1.415119,2.210293,54.724809,-0.047333,-0.030396,1.010849,-0.014133,0.025039,0.000883,60.386597,19.480438,-145.856049,,,
729860837.70786,-1.415119,2.210293,54.724809,-0.047333,-0.030396,1.010849,-0.014133,0.025039,0.000883,60.386597,19.480438,-145.856049,,,
729860837.711244,-1.418208,2.218902,54.724603,-0.042007,-0.027573,1.012482,-0.006371,0.04684,-0.003887,60.386597,19.480438,-145.856049,,,
729860837.714511,-1.419663,2.231604,54.723845,-0.042007,-0.027573,1.012482,-0.006371,0.04684,-0.003887,60.386597,19.480438,-145.856049,,,
729860837.717914,-1.419663,2.231604,54.723845,-0.042007,-0.027573,1.012482,-0.006371,0.04684,-0.003887,60.617447,19.364532,-145.931961,,,
729860837.721193,-1.420908,2.24214,54.722986,-0.046295,-0.027679,1.007568,-0.000301,0.041942,-0.00411,60.617447,19.364532,-145.931961,,,
729860837.724538,-1.421089,2.251653,54.721949,-0.046295,-0.027679,1.007568,-0.000301,0.041942,-0.00411,60.617447,19.364532,-145.931961,,,
729860837.727855,-1.421089,2.251653,54.721949,-0.046295,-0.027679,1.007568,-0.000301,0.041942,-0.00411,60.617447,19.364532,-145.931961,,,
729860837.731269,-1.421681,2.257508,54.720888,-0.055984,-0.026764,0.9953,-0.000252,0.019359,-0.004149,60.617447,19.364532,-145.931961,,,
729860837.734523,-1.421687,2.260007,54.720475,-0.055984,-0.026764,0.9953,-0.000252,0.019359,-0.004149,60.617447,19.364532,-145.931961,,,
729860837.737879,-1.421687,2.260007,54.720475,-0.055984,-0.026764,0.9953,-0.000252,0.019359,-0.004149,60.617447,19.364532,-145.931961,,,
729860837.741202,-1.421126,2.258065,54.72122,-0.058914,-0.024185,0.991241,0.003214,-0.008129,0.00411,60.617447,19.364532,-145.931961,,,
729860837.744587,-1.420411,2.252912,54.723323,-0.058914,-0.024185,0.991241,0.003214,-0.008129,0.00411,60.617447,19.364532,-145.931961,,,
729860837.747848,-1.420411,2.252912,54.723323,-0.058914,-0.024185,0.991241,0.003214,-0.008129,0.00411,60.617447,19.364532,-145.931961,,,
729860837.751199,-1.42002,2.244849,54.7263,-0.05571,-0.026642,0.991959,-9e-05,-0.027067,0.010096,60.617447,19.364532,-145.931961,,,
729860837.754521,-1.420577,2.235684,54.729821,-0.05571,-0.026642,0.991959,-9e-05,-0.027067,0.010096,60.617447,19.364532,-145.931961,,,
729860837.757842,-1.420577,2.235684,54.729821,-0.05571,-0.026642,0.991959,-9e-05,-0.027067,0.010096,60.533783,19.266632,-145.991257,,,
729860837.761175,-1.422678,2.226496,54.733566,-0.044876,-0.022919,0.990952,-0.00788,-0.030313,0.011347,60.533783,19.266632,-145.991257,,,
729860837.76453,-1.425554,2.217947,54.736146,-0.044876,-0.022919,0.990952,-0.00788,-0.030313,0.011347,60.533783,19.266632,-145.991257,,,
729860837.76797,-1.425554,2.217947,54.736146,-0.044876,-0.022919,0.990952,-0.00788,-0.030313,0.011347,60.533783,19.266632,-145.991257,,,
729860837.771215,-1.429306,2.212899,54.73711,-0.03241,-0.021576,0.995911,-0.010307,-0.01403,-0.000188,60.533783,19.266632,-145.991257,,,
729860837.774519,-1.432442,2.210042,54.736819,-0.03241,-0.021576,0.995911,-0.010307,-0.01403,-0.000188,60.533783,19.266632,-145.991257,,,
729860837.777849,-1.432442,2.210042,54.736819,-0.03241,-0.021576,0.995911,-0.010307,-0.01403,-0.000188,60.533783,19.266632,-145.991257,,,
729860837.781203,-1.43708,2.212443,54.735586,-0.027954,-0.025681,1.002441,-0.015103,0.011557,-0.007212,60.533783,19.266632,-145.991257,,,
729860837.784536,-1.441357,2.216385,54.734165,-0.027954,-0.025681,1.002441,-0.015103,0.011557,-0.007212,60.533783,19.266632,-145.991257,,,
729860837.787745,-1.441357,2.216385,54.734165,-0.027954,-0.025681,1.002441,-0.015103,0.011557,-0.007212,60.533783,19.266632,-145.991257,,,
729860837.791191,-1.446358,2.22318,54.733125,-0.034454,-0.027863,0.998566,-0.016431,0.026334,-0.004712,60.533783,19.266632,-145.991257,,,
729860837.794536,-1.450897,2.230283,54.732774,-0.034454,-0.027863,0.998566,-0.016431,0.026334,-0.004712,60.533783,19.266632,-145.991257,,,
729860837.797825,-1.450897,2.230283,54.732774,-0.034454,-0.027863,0.998566,-0.016431,0.026334,-0.004712,60.341812,19.428009,-145.870163,,,
729860837.801175,-1.454802,2.238389,54.733576,-0.036362,-0.025787,0.996948,-0.010559,0.027902,0.003487,60.341812,19.428009,-145.870163,,,
729860837.804525,-1.457747,2.245341,54.73546,-0.036362,-0.025787,0.996948,-0.010559,0.027902,0.003487,60.341812,19.428009,-145.870163,,,
729860837.807923,-1.457747,2.245341,54.73546,-0.036362,-0.025787,0.996948,-0.010559,0.027902,0.003487,60.341812,19.428009,-145.870163,,,
729860837.811184,-1.460088,2.253343,54.738528,-0.045151,-0.026337,0.999496,-0.003777,0.016638,0.011527,60.341812,19.428009,-145.870163,,,
729860837.814507,-1.460662,2.25654,54.742272,-0.045151,-0.026337,0.999496,-0.003777,0.016638,0.011527,60.341812,19.428009,-145.870163,,,
729860837.817838,-1.460662,2.25654,54.742272,-0.045151,-0.026337,0.999496,-0.003777,0.016638,0.011527,60.341812,19.428009,-145.870163,,,
729860837.821234,-1.46093,2.262002,54.745452,-0.040436,-0.02623,1.000839,-0.002581,0.006893,0.006899,60.341812,19.428009,-145.870163,,,
729860837.824507,-1.461246,2.262373,54.747545,-0.040436,-0.02623,1.000839,-0.002581,0.006893,0.006899,60.341812,19.428009,-145.870163,,,
729860837.827904,-1.461246,2.262373,54.747545,-0.040436,-0.02623,1.000839,-0.002581,0.006893,0.006899,60.341812,19.428009,-145.870163,,,
729860837.831172,-1.46128,2.264291,54.748661,-0.035004,-0.02272,1.000259,0.000244,-0.00667,-0.000441,60.341812,19.428009,-145.870163,,,
729860837.834561,-1.461723,2.261114,54.748328,-0.035004,-0.02272,1.000259,0.000244,-0.00667,-0.000441,60.341812,19.428009,-145.870163,,,
729860837.837817,-1.461723,2.261114,54.748328,-0.035004,-0.02272,1.000259,0.000244,-0.00667,-0.000441,60.341812,19.428009,-145.870163,,,
729860837.84116,-1.462228,2.258093,54.746456,-0.032089,-0.023361,0.999268,-0.001168,-0.015851,-0.011522,60.487396,19.404022,-145.952286,,,
729860837.844488,-1.463131,2.252356,54.743078,-0.032089,-0.023361,0.999268,-0.001168,-0.015851,-0.011522,60.487396,19.404022,-145.952286,,,
729860837.847826,-1.463131,2.252356,54.743078,-0.032089,-0.023361,0.999268,-0.001168,-0.015851,-0.011522,60.487396,19.404022,-145.952286,,,
729860837.851153,-1.463424,2.246126,54.739192,-0.03064,-0.02272,1.001755,-0.000481,-0.014512,-0.014902,60.487396,19.404022,-145.952286,,,
729860837.854507,-1.464143,2.241736,54.735281,-0.03064,-0.02272,1.001755,-0.000481,-0.014512,-0.014902,60.487396,19.404022,-145.952286,,,
729860837.857905,-1.464143,2.241736,54.735281,-0.03064,-0.02272,1.001755,-0.000481,-0.014512,-0.014902,60.487396,19.404022,-145.952286,,,
729860837.861164,-1.464552,2.237046,54.731742,-0.03215,-0.027786,1.006958,0.00059,-0.001888,-0.01178,60.487396,19.404022,-145.952286,,,
729860837.864503,-1.464174,2.236079,54.729093,-0.03215,-0.027786,1.006958,0.00059,-0.001888,-0.01178,60.487396,19.404022,-145.952286,,,
729860837.867831,-1.464174,2.236079,54.729093,-0.03215,-0.027786,1.006958,0.00059,-0.001888,-0.01178,60.487396,19.404022,-145.952286,,,
729860837.871221,-1.463091,2.23434,54.72703,-0.034515,-0.025467,1.003357,0.007697,-0.00014,-0.007203,60.487396,19.404022,-145.952286,,,
729860837.874496,-1.461471,2.232703,54.724753,-0.034515,-0.025467,1.003357,0.007697,-0.00014,-0.007203,60.487396,19.404022,-145.952286,,,
729860837.877838,-1.461471,2.232703,54.724753,-0.034515,-0.025467,1.003357,0.007697,-0.00014,-0.007203,60.487396,19.404022,-145.952286,,,
729860837.881155,-1.46084,2.229237,54.721096,-0.031326,-0.020111,0.995514,0.001866,-0.007889,-0.016982,60.393097,19.399414,-145.380829,,,
729860837.884555,-1.461429,2.226736,54.715663,-0.031326,-0.020111,0.995514,0.001866,-0.007889,-0.016982,60.393097,19.399414,-145.380829,,,
729860837.8879,-1.461429,2.226736,54.715663,-0.031326,-0.020111,0.995514,0.001866,-0.007889,-0.016982,60.393097,19.399414,-145.380829,,,
729860837.891155,-1.46336,2.226955,54.709517,-0.031403,-0.021286,0.987854,-0.00685,0.004519,-0.022522,60.393097,19.399414,-145.380829,,,
729860837.894486,-1.466783,2.228685,54.703866,-0.031403,-0.021286,0.987854,-0.00685,0.004519,-0.022522,60.393097,19.399414,-145.380829,,,
729860837.897886,-1.466783,2.228685,54.703866,-0.031403,-0.021286,0.987854,-0.00685,0.004519,-0.022522,60.393097,19.399414,-145.380829,,,
729860837.901163,-1.471627,2.233394,54.699889,-0.040237,-0.0242,0.988388,-0.015526,0.020037,-0.01133,60.393097,19.399414,-145.380829,,,
729860837.904474,-1.475779,2.238593,54.698544,-0.040237,-0.0242,0.988388,-0.015526,0.020037,-0.01133,60.393097,19.399414,-145.380829,,,
729860837.907828,-1.475779,2.238593,54.698544,-0.040237,-0.0242,0.988388,-0.015526,0.020037,-0.01133,60.393097,19.399414,-145.380829,,,
729860837.91122,-1.478141,2.243425,54.699809,-0.04541,-0.023148,0.993515,-0.006406,0.021171,0.007315,60.393097,19.399414,-145.380829,,,
729860837.914544,-1.47949,2.248516,54.7026,-0.04541,-0.023148,0.993515,-0.006406,0.021171,0.007315,60.393097,19.399414,-145.380829,,,
729860837.917828,-1.47949,2.248516,54.7026,-0.04541,-0.023148,0.993515,-0.006406,0.021171,0.007315,60.393097,19.399414,-145.380829,,,
729860837.921133,-1.478981,2.251239,54.705801,-0.041489,-0.023163,0.993881,0.004021,0.01229,0.01074,60.03447,19.615982,-145.770554,,,
729860837.924576,-1.477407,2.253468,54.708568,-0.041489,-0.023163,0.993881,0.004021,0.01229,0.01074,60.03447,19.615982,-145.770554,,,
729860837.92782,-1.477407,2.253468,54.708568,-0.041489,-0.023163,0.993881,0.004021,0.01229,0.01074,60.03447,19.615982,-145.770554,,,
729860837.931162,-1.473825,2.253256,54.709187,-0.036163,-0.026031,0.992096,0.014306,0.006618,-0.003609,60.03447,19.615982,-145.770554,,,
729860837.934484,-1.470404,2.253909,54.707141,-0.036163,-0.026031,0.992096,0.014306,0.006618,-0.003609,60.03447,19.615982,-145.770554,,,
729860837.937872,-1.470404,2.253909,54.707141,-0.036163,-0.026031,0.992096,0.014306,0.006618,-0.003609,60.03447,19.615982,-145.770554,,,
729860837.941137,-1.467341,2.25248,54.703662,-0.032898,-0.023499,0.992188,0.012162,0.003386,-0.013369,60.03447,19.615982,-145.770554,,,
729860837.944485,-1.464381,2.252705,54.700045,-0.032898,-0.023499,0.992188,0.012162,0.003386,-0.013369,60.03447,19.615982,-145.770554,,,
729860837.947814,-1.464381,2.252705,54.700045,-0.032898,-0.023499,0.992188,0.012162,0.003386,-0.013369,60.03447,19.615982,-145.770554,,,
729860837.951214,-1.461819,2.253154,54.695973,-0.035812,-0.024887,0.994019,0.010401,0.011549,-0.01644,60.03447,19.615982,-145.770554,,,
729860837.954471,-1.459943,2.255976,54.692089,-0.035812,-0.024887,0.994019,0.010401,0.011549,-0.01644,60.03447,19.615982,-145.770554,,,
729860837.957825,-1.459943,2.255976,54.692089,-0.035812,-0.024887,0.994019,0.010401,0.011549,-0.01644,60.03447,19.615982,-145.770554,,,
729860837.961262,-1.458684,2.25906,54.688847,-0.040176,-0.028671,0.993118,0.000882,0.022871,-0.012046,60.03447,19.615982,-145.770554,,,
729860837.964524,-1.459401,2.265333,54.685537,-0.040176,-0.028671,0.993118,0.000882,0.022871,-0.012046,60.297653,19.361633,-145.995224,,,
729860837.967803,-1.459401,2.265333,54.685537,-0.040176,-0.028671,0.993118,0.000882,0.022871,-0.012046,60.297653,19.361633,-145.995224,,,
729860837.971141,-1.460964,2.270747,54.681832,-0.040329,-0.02803,0.991394,-0.010269,0.029021,-0.014972,60.297653,19.361633,-145.995224,,,
729860837.974477,-1.464398,2.278038,54.678169,-0.040329,-0.02803,0.991394,-0.010269,0.029021,-0.014972,60.297653,19.361633,-145.995224,,,
729860837.977873,-1.464398,2.278038,54.678169,-0.040329,-0.02803,0.991394,-0.010269,0.029021,-0.014972,60.297653,19.361633,-145.995224,,,
729860837.981138,-1.46761,2.283964,54.674096,-0.045425,-0.027451,0.993469,-0.009827,0.022008,-0.01776,60.297653,19.361633,-145.995224,,,
729860837.984466,-1.470815,2.287403,54.669539,-0.045425,-0.027451,0.993469,-0.009827,0.022008,-0.01776,60.297653,19.361633,-145.995224,,,
729860837.987807,-1.470815,2.287403,54.669539,-0.045425,-0.027451,0.993469,-0.009827,0.022008,-0.01776,60.297653,19.361633,-145.995224,,,
729860837.991202,-1.473074,2.288649,54.665346,-0.053711,-0.033691,0.994019,-0.005429,-0.000903,-0.015161,60.297653,19.361633,-145.995224,,,
729860837.994467,-1.47409,2.285932,54.662219,-0.053711,-0.033691,0.994019,-0.005429,-0.000903,-0.015161,60.297653,19.361633,-145.995224,,,
729860837.997801,-1.47409,2.285932,54.662219,-0.053711,-0.033691,0.994019,-0.005429,-0.000903,-0.015161,60.297653,19.361633,-145.995224,,,
729860838.001253,-1.47383,2.281565,54.66078,-0.05574,-0.033966,0.997147,6.2e-05,-0.01558,-0.00325,60.297653,19.361633,-145.995224,,,
729860838.004459,-1.473995,2.275456,54.661375,-0.05574,-0.033966,0.997147,6.2e-05,-0.01558,-0.00325,60.645096,19.358887,-145.935364,,,
729860838.007814,-1.473995,2.275456,54.661375,-0.05574,-0.033966,0.997147,6.2e-05,-0.01558,-0.00325,60.645096,19.358887,-145.935364,,,
729860838.011125,-1.473598,2.267867,54.664241,-0.058762,-0.031433,1.001297,0.003878,-0.02393,0.012755,60.645096,19.358887,-145.935364,,,
729860838.014467,-1.472492,2.259868,54.668599,-0.058762,-0.031433,1.001297,0.003878,-0.02393,0.012755,60.645096,19.358887,-145.935364,,,
729860838.017823,-1.472492,2.259868,54.668599,-0.058762,-0.031433,1.001297,0.003878,-0.02393,0.012755,60.645096,19.358887,-145.935364,,,
729860838.021112,-1.471591,2.249908,54.673642,-0.050476,-0.02504,0.997391,0.001105,-0.02949,0.017608,60.645096,19.358887,-145.935364,,,
729860838.024462,-1.471118,2.242246,54.67887,-0.050476,-0.02504,0.997391,0.001105,-0.02949,0.017608,60.645096,19.358887,-145.935364,,,
729860838.027794,-1.471118,2.242246,54.67887,-0.050476,-0.02504,0.997391,0.001105,-0.02949,0.017608,60.645096,19.358887,-145.935364,,,
729860838.031202,-1.469926,2.236114,54.683317,-0.039658,-0.025452,1.001694,0.004207,-0.012771,0.012501,60.645096,19.358887,-145.935364,,,
729860838.034453,-1.469102,2.233578,54.686958,-0.039658,-0.025452,1.001694,0.004207,-0.012771,0.012501,60.645096,19.358887,-145.935364,,,
729860838.037795,-1.469102,2.233578,54.686958,-0.039658,-0.025452,1.001694,0.004207,-0.012771,0.012501,60.645096,19.358887,-145.935364,,,
729860838.041125,-1.468585,2.233639,54.690217,-0.032883,-0.02536,1.002747,0.005173,0.004063,0.009815,60.645096,19.358887,-145.935364,,,
729860838.044452,-1.466745,2.234454,54.693,-0.032883,-0.02536,1.002747,0.005173,0.004063,0.009815,60.545929,19.456116,-145.971802,,,
729860838.047809,-1.466745,2.234454,54.693,-0.032883,-0.02536,1.002747,0.005173,0.004063,0.009815,60.545929,19.456116,-145.971802,,,
729860838.051113,-1.465997,2.235908,54.695033,-0.028656,-0.023682,0.995361,0.001248,0.006487,0.004372,60.545929,19.456116,-145.971802,,,
729860838.054519,-1.465504,2.236693,54.696117,-0.028656,-0.023682,0.995361,0.001248,0.006487,0.004372,60.545929,19.456116,-145.971802,,,
729860838.057778,-1.465504,2.236693,54.696117,-0.028656,-0.023682,0.995361,0.001248,0.006487,0.004372,60.545929,19.456116,-145.971802,,,
729860838.061107,-1.464709,2.238162,54.696405,-0.028839,-0.025162,0.99295,0.005091,0.005853,-0.001103,60.545929,19.456116,-145.971802,,,
729860838.06446,-1.464483,2.24009,54.695652,-0.028839,-0.025162,0.99295,0.005091,0.005853,-0.001103,60.545929,19.456116,-145.971802,,,
729860838.067842,-1.464483,2.24009,54.695652,-0.028839,-0.025162,0.99295,0.005091,0.005853,-0.001103,60.545929,19.456116,-145.971802,,,
729860838.0711,-1.467001,2.245196,54.694251,-0.028702,-0.025162,0.997604,-0.006649,0.011925,-0.006464,60.545929,19.456116,-145.971802,,,
729860838.074439,-1.469829,2.247096,54.691857,-0.028702,-0.025162,0.997604,-0.006649,0.011925,-0.006464,60.545929,19.456116,-145.971802,,,
729860838.077777,-1.469829,2.247096,54.691857,-0.028702,-0.025162,0.997604,-0.006649,0.011925,-0.006464,60.545929,19.456116,-145.971802,,,
729860838.081103,-1.475157,2.250505,54.688072,-0.030945,-0.023636,0.991882,-0.014956,0.002053,-0.017079,60.545929,19.456116,-145.971802,,,
729860838.08444,-1.480124,2.249127,54.683307,-0.030945,-0.023636,0.991882,-0.014956,0.002053,-0.017079,60.309799,19.648148,-146.144714,,,
729860838.08777,-1.480124,2.249127,54.683307,-0.030945,-0.023636,0.991882,-0.014956,0.002053,-0.017079,60.309799,19.648148,-146.144714,,,
729860838.0911,-1.486938,2.249792,54.677566,-0.03334,-0.022659,0.990555,-0.019857,-0.008166,-0.024688,60.309799,19.648148,-146.144714,,,
729860838.094487,-1.493236,2.246346,54.671293,-0.03334,-0.022659,0.990555,-0.019857,-0.008166,-0.024688,60.309799,19.648148,-146.144714,,,
729860838.09777,-1.493236,2.246346,54.671293,-0.03334,-0.022659,0.990555,-0.019857,-0.008166,-0.024688,60.309799,19.648148,-146.144714,,,
729860838.101105,-1.49935,2.246067,54.665344,-0.041031,-0.026611,1.001221,-0.018493,-0.004588,-0.022861,60.309799,19.648148,-146.144714,,,
729860838.104432,-1.49935,2.244103,54.660301,-0.041031,-0.026611,1.001221,-0.018493,-0.004588,-0.022861,60.309799,19.648148,-146.144714,,,
729860838.107808,-1.503733,2.244103,54.660301,-0.041031,-0.026611,1.001221,-0.018493,-0.004588,-0.022861,60.309799,19.648148,-146.144714,,,
729860838.111105,-1.505518,2.244077,54.656981,-0.043274,-0.028305,1.010162,-0.002942,0.005185,-0.010358,60.309799,19.648148,-146.144714,,,
729860838.114453,-1.506377,2.246412,54.654587,-0.043274,-0.028305,1.010162,-0.002942,0.005185,-0.010358,60.309799,19.648148,-146.144714,,,
729860838.117861,-1.506377,2.246412,54.654587,-0.043274,-0.028305,1.010162,-0.002942,0.005185,-0.010358,60.309799,19.648148,-146.144714,,,
729860838.121095,-1.506093,2.25078,54.653154,-0.043823,-0.026382,1.013367,0.004831,0.025985,-0.003175,60.309799,19.648148,-146.144714,,,
729860838.124444,-1.503964,2.2587,54.653299,-0.043823,-0.026382,1.013367,0.004831,0.025985,-0.003175,60.309799,19.648148,-146.144714,,,
729860838.127782,-1.503964,2.2587,54.653299,-0.043823,-0.026382,1.013367,0.004831,0.025985,-0.003175,60.495239,19.452606,-145.961288,,,
729860838.131098,-1.500168,2.266438,54.653935,-0.040649,-0.028244,1.012329,0.013711,0.038396,0.000956,60.495239,19.452606,-145.961288,,,
729860838.134442,-1.49515,2.275462,54.6545,-0.040649,-0.028244,1.012329,0.013711,0.038396,0.000956,60.495239,19.452606,-145.961288,,,
729860838.137754,-1.49515,2.275462,54.6545,-0.040649,-0.028244,1.012329,0.013711,0.038396,0.000956,60.495239,19.452606,-145.961288,,,
729860838.141098,-1.487664,2.280186,54.6551,-0.045181,-0.027527,1.004669,0.029512,0.020836,0.002169,60.495239,19.452606,-145.961288,,,
729860838.144509,-1.478726,2.283766,54.656327,-0.045181,-0.027527,1.004669,0.029512,0.020836,0.002169,60.495239,19.452606,-145.961288,,,
729860838.147771,-1.478726,2.283766,54.656327,-0.045181,-0.027527,1.004669,0.029512,0.020836,0.002169,60.495239,19.452606,-145.961288,,,
729860838.151087,-1.469145,2.282096,54.658227,-0.048874,-0.024719,0.998993,0.03452,-0.001097,0.007369,60.495239,19.452606,-145.961288,,,
729860838.154426,-1.469145,2.282096,54.658227,-0.048874,-0.024719,0.998993,0.03452,-0.001097,0.007369,60.495239,19.452606,-145.961288,,,
729860838.157816,-1.459762,2.2797,54.660528,-0.048874,-0.024719,0.998993,0.03452,-0.001097,0.007369,60.495239,19.452606,-145.961288,,,
729860838.161077,-1.452436,2.273406,54.66328,-0.040833,-0.022598,0.987762,0.018454,-0.016761,0.01008,60.495239,19.452606,-145.961288,,,
729860838.164438,-1.452436,2.273406,54.66328,-0.040833,-0.022598,0.987762,0.018454,-0.016761,0.01008,60.495239,19.452606,-145.961288,,,
729860838.167809,-1.448706,2.267604,54.665979,-0.040833,-0.022598,0.987762,0.018454,-0.016761,0.01008,60.346451,19.592972,-145.908112,,,
729860838.171093,-1.447192,2.260418,54.667851,-0.033005,-0.018127,0.982346,-0.000263,-0.016867,0.003892,60.346451,19.592972,-145.908112,,,
729860838.17444,-1.447192,2.260418,54.667851,-0.033005,-0.018127,0.982346,-0.000263,-0.016867,0.003892,60.346451,19.592972,-145.908112,,,
729860838.177763,-1.448526,2.255607,54.668955,-0.033005,-0.018127,0.982346,-0.000263,-0.016867,0.003892,60.346451,19.592972,-145.908112,,,
729860838.181079,-1.451502,2.251921,54.66939,-0.028946,-0.018707,0.995041,-0.011029,-0.008527,-0.001198,60.346451,19.592972,-145.908112,,,
729860838.184412,-1.451502,2.251921,54.66939,-0.028946,-0.018707,0.995041,-0.011029,-0.008527,-0.001198,60.346451,19.592972,-145.908112,,,
729860838.187758,-1.454715,2.249739,54.668702,-0.028946,-0.018707,0.995041,-0.011029,-0.008527,-0.001198,60.346451,19.592972,-145.908112,,,
729860838.191099,-1.457073,2.250592,54.666794,-0.024353,-0.023605,1.006851,-0.002822,0.008119,-0.009548,60.346451,19.592972,-145.908112,,,
729860838.194407,-1.457073,2.250592,54.666794,-0.024353,-0.023605,1.006851,-0.002822,0.008119,-0.009548,60.346451,19.592972,-145.908112,,,
729860838.197759,-1.457099,2.253729,54.664125,-0.024353,-0.023605,1.006851,-0.002822,0.008119,-0.009548,60.346451,19.592972,-145.908112,,,
729860838.201077,-1.454571,2.260156,54.661126,-0.029587,-0.032623,1.019394,0.01663,0.025585,-0.011239,60.346451,19.592972,-145.908112,,,
729860838.204471,-1.454571,2.260156,54.661126,-0.029587,-0.032623,1.019394,0.01663,0.025585,-0.011239,60.346451,19.592972,-145.908112,,,
729860838.20768,-1.448485,2.265931,54.658182,-0.029587,-0.032623,1.019394,0.01663,0.025585,-0.011239,60.306793,19.466553,-146.013077,,,
729860838.211087,-1.440136,2.269465,54.655448,-0.039444,-0.03215,1.01123,0.034516,0.00829,-0.009117,60.306793,19.466553,-146.013077,,,
729860838.214425,-1.440136,2.269465,54.655448,-0.039444,-0.03215,1.01123,0.034516,0.00829,-0.009117,60.306793,19.466553,-146.013077,,,
729860838.217758,-1.430161,2.26925,54.653221,-0.039444,-0.03215,1.01123,0.034516,0.00829,-0.009117,60.306793,19.466553,-146.013077,,,
729860838.221076,-1.4203,2.267065,54.651479,-0.042114,-0.028198,0.990662,0.037379,-0.010239,-0.005749,60.306793,19.466553,-146.013077,,,
729860838.224429,-1.4203,2.267065,54.651479,-0.042114,-0.028198,0.990662,0.037379,-0.010239,-0.005749,60.306793,19.466553,-146.013077,,,
729860838.227764,-1.410185,2.262759,54.650173,-0.042114,-0.028198,0.990662,0.037379,-0.010239,-0.005749,60.306793,19.466553,-146.013077,,,
729860838.231119,-1.401259,2.25952,54.649611,-0.039963,-0.027954,0.98494,0.029099,-0.015194,-0.001119,60.306793,19.466553,-146.013077,,,
729860838.234404,-1.401259,2.25952,54.649611,-0.039963,-0.027954,0.98494,0.029099,-0.015194,-0.001119,60.306793,19.466553,-146.013077,,,
729860838.237754,-1.39379,2.253551,54.649514,-0.039963,-0.027954,0.98494,0.029099,-0.015194,-0.001119,60.306793,19.466553,-146.013077,,,
729860838.241067,-1.386644,2.246722,54.649819,-0.034302,-0.026001,0.980133,0.026182,-0.026901,0.001381,60.306793,19.466553,-146.013077,,,
729860838.244409,-1.386644,2.246722,54.649819,-0.034302,-0.026001,0.980133,0.026182,-0.026901,0.001381,60.306793,19.466553,-146.013077,,,
729860838.247728,-1.379028,2.238989,54.650081,-0.034302,-0.026001,0.980133,0.026182,-0.026901,0.001381,60.174164,19.196381,-145.916153,,,
729860838.251068,-1.370141,2.232195,54.649965,-0.03447,-0.029099,0.992844,0.030339,-0.01427,-0.000967,60.174164,19.196381,-145.916153,,,
729860838.254401,-1.370141,2.232195,54.649965,-0.03447,-0.029099,0.992844,0.030339,-0.01427,-0.000967,60.174164,19.196381,-145.916153,,,
729860838.257764,-1.360652,2.228542,54.649451,-0.03447,-0.029099,0.992844,0.030339,-0.01427,-0.000967,60.174164,19.196381,-145.916153,,,
729860838.261062,-1.349286,2.226166,54.648453,-0.031433,-0.03212,0.995743,0.037742,0.005911,-0.003799,60.174164,19.196381,-145.916153,,,
729860838.264418,-1.349286,2.226166,54.648453,-0.031433,-0.03212,0.995743,0.037742,0.005911,-0.003799,60.174164,19.196381,-145.916153,,,
729860838.267738,-1.33895,2.227727,54.64692,-0.031433,-0.03212,0.995743,0.037742,0.005911,-0.003799,60.174164,19.196381,-145.916153,,,
729860838.271098,-1.329371,2.228432,54.64513,-0.030548,-0.029709,0.985382,0.031544,0.017351,-0.005527,60.174164,19.196381,-145.916153,,,
729860838.274497,-1.329371,2.228432,54.64513,-0.030548,-0.029709,0.985382,0.031544,0.017351,-0.005527,60.174164,19.196381,-145.916153,,,
729860838.277744,-1.321084,2.232571,54.643325,-0.030548,-0.029709,0.985382,0.031544,0.017351,-0.005527,60.174164,19.196381,-145.916153,,,
729860838.281075,-1.315408,2.233797,54.641044,-0.034012,-0.021347,0.973038,0.020634,0.013673,-0.00893,60.174164,19.196381,-145.916153,,,
729860838.284395,-1.315408,2.233797,54.641044,-0.034012,-0.021347,0.973038,0.020634,0.013673,-0.00893,60.174164,19.196381,-145.916153,,,
729860838.28783,-1.31076,2.235235,54.638932,-0.034012,-0.021347,0.973038,0.020634,0.013673,-0.00893,60.174164,19.196381,-145.916153,,,
729860838.291049,-1.309915,2.232914,54.636965,-0.041611,-0.019989,0.960938,0.004873,-0.011364,-0.008464,60.431442,19.215424,-145.962402,,,
729860838.294423,-1.309915,2.232914,54.636965,-0.041611,-0.019989,0.960938,0.004873,-0.011364,-0.008464,60.431442,19.215424,-145.962402,,,
729860838.297731,-1.309778,2.22744,54.634578,-0.041611,-0.019989,0.960938,0.004873,-0.011364,-0.008464,60.431442,19.215424,-145.962402,,,
729860838.30107,-1.312643,2.219694,54.631927,-0.044113,-0.014496,0.95874,-0.009863,-0.031225,-0.010994,60.431442,19.215424,-145.962402,,,
729860838.304406,-1.312643,2.219694,54.631927,-0.044113,-0.014496,0.95874,-0.009863,-0.031225,-0.010994,60.431442,19.215424,-145.962402,,,
729860838.307759,-1.317,2.209502,54.628857,-0.044113,-0.014496,0.95874,-0.009863,-0.031225,-0.010994,60.431442,19.215424,-145.962402,,,
729860838.311091,-1.324535,2.19973,54.625473,-0.039185,-0.017868,0.962967,-0.026696,-0.031981,-0.013883,60.431442,19.215424,-145.962402,,,
729860838.314395,-1.324535,2.19973,54.625473,-0.039185,-0.017868,0.962967,-0.026696,-0.031981,-0.013883,60.431442,19.215424,-145.962402,,,
729860838.317743,-1.333598,2.190801,54.622255,-0.039185,-0.017868,0.962967,-0.026696,-0.031981,-0.013883,60.431442,19.215424,-145.962402,,,
729860838.32105,-1.344808,2.184905,54.618798,-0.03067,-0.01915,0.975998,-0.038731,-0.009241,-0.015994,60.431442,19.215424,-145.962402,,,
729860838.324474,-1.344808,2.184905,54.618798,-0.03067,-0.01915,0.975998,-0.038731,-0.009241,-0.015994,60.431442,19.215424,-145.962402,,,
729860838.327737,-1.356269,2.183491,54.614518,-0.03067,-0.01915,0.975998,-0.038731,-0.009241,-0.015994,60.431442,19.215424,-145.962402,,,
729860838.331063,-1.36786,2.184894,54.60992,-0.032822,-0.0215,0.993546,-0.035527,0.014277,-0.017971,60.329834,19.323868,-145.919113,,,
729860838.334401,-1.36786,2.184894,54.60992,-0.032822,-0.0215,0.993546,-0.035527,0.014277,-0.017971,60.329834,19.323868,-145.919113,,,
729860838.337753,-1.377727,2.189716,54.605833,-0.032822,-0.0215,0.993546,-0.035527,0.014277,-0.017971,60.329834,19.323868,-145.919113,,,
729860838.341049,-1.387235,2.195703,54.602049,-0.03862,-0.026993,1.004608,-0.025575,0.029127,-0.015323,60.329834,19.323868,-145.919113,,,
729860838.344394,-1.387235,2.195703,54.602049,-0.03862,-0.026993,1.004608,-0.025575,0.029127,-0.015323,60.329834,19.323868,-145.919113,,,
729860838.347787,-1.394525,2.203789,54.598438,-0.03862,-0.026993,1.004608,-0.025575,0.029127,-0.015323,60.329834,19.323868,-145.919113,,,
729860838.351033,-1.401568,2.210292,54.595407,-0.041306,-0.027298,1.002975,-0.017718,0.027045,-0.010781,60.329834,19.323868,-145.919113,,,
729860838.35439,-1.401568,2.210292,54.595407,-0.041306,-0.027298,1.002975,-0.017718,0.027045,-0.010781,60.329834,19.323868,-145.919113,,,
729860838.357724,-1.406958,2.215932,54.593309,-0.041306,-0.027298,1.002975,-0.017718,0.027045,-0.010781,60.329834,19.323868,-145.919113,,,
729860838.361046,-1.41212,2.218183,54.591731,-0.045349,-0.023621,0.995285,-0.0173,0.008289,-0.007062,60.329834,19.323868,-145.919113,,,
729860838.364394,-1.41212,2.218183,54.591731,-0.045349,-0.023621,0.995285,-0.0173,0.008289,-0.007062,60.329834,19.323868,-145.919113,,,
729860838.367725,-1.418696,2.218717,54.589895,-0.045349,-0.023621,0.995285,-0.0173,0.008289,-0.007062,60.329834,19.323868,-145.919113,,,
729860838.371039,-1.426964,2.218847,54.587613,-0.044861,-0.018982,0.987366,-0.032042,0.00412,-0.010774,60.479782,19.226318,-145.963089,,,
729860838.374453,-1.426964,2.218847,54.587613,-0.044861,-0.018982,0.987366,-0.032042,0.00412,-0.010774,60.479782,19.226318,-145.963089,,,
729860838.377705,-1.437121,2.219495,54.5853,-0.044861,-0.018982,0.987366,-0.032042,0.00412,-0.010774,60.479782,19.226318,-145.963089,,,
729860838.381046,-1.448014,2.223005,54.583151,-0.03833,-0.01915,0.994064,-0.04323,0.016948,-0.010247,60.479782,19.226318,-145.963089,,,
729860838.384375,-1.448014,2.223005,54.583151,-0.03833,-0.01915,0.994064,-0.04323,0.016948,-0.010247,60.479782,19.226318,-145.963089,,,
729860838.387746,-1.461581,2.228659,54.581178,-0.03833,-0.01915,0.994064,-0.04323,0.016948,-0.010247,60.479782,19.226318,-145.963089,,,
729860838.391037,-1.474845,2.237577,54.578977,-0.0401,-0.025162,1.007355,-0.047636,0.036478,-0.012124,60.479782,19.226318,-145.963089,,,
729860838.39437,-1.474845,2.237577,54.578977,-0.0401,-0.025162,1.007355,-0.047636,0.036478,-0.012124,60.479782,19.226318,-145.963089,,,
729860838.397705,-1.488336,2.246734,54.577053,-0.0401,-0.025162,1.007355,-0.047636,0.036478,-0.012124,60.479782,19.226318,-145.963089,,,
729860838.401042,-1.499406,2.253372,54.575591,-0.047287,-0.027634,1.009003,-0.036225,0.025079,-0.008348,60.479782,19.226318,-145.963089,,,
729860838.404365,-1.499406,2.253372,54.575591,-0.047287,-0.027634,1.009003,-0.036225,0.025079,-0.008348,60.479782,19.226318,-145.963089,,,
729860838.407713,-1.509193,2.258317,54.57337,-0.047287,-0.027634,1.009003,-0.036225,0.025079,-0.008348,60.479782,19.226318,-145.963089,,,
729860838.411049,-1.516389,2.259179,54.570213,-0.047363,-0.028702,1.010803,-0.024996,0.00571,-0.014146,60.479782,19.226318,-145.963089,,,
729860838.414442,-1.516389,2.259179,54.570213,-0.047363,-0.028702,1.010803,-0.024996,0.00571,-0.014146,60.381927,19.327698,-146.022461,,,
729860838.417727,-1.522624,2.258468,54.567143,-0.047363,-0.028702,1.010803,-0.024996,0.00571,-0.014146,60.381927,19.327698,-146.022461,,,
729860838.421057,-1.526897,2.254585,54.563806,-0.043854,-0.035004,1.012299,-0.01138,-0.012878,-0.015402,60.381927,19.327698,-146.022461,,,
729860838.424359,-1.526897,2.254585,54.563806,-0.043854,-0.035004,1.012299,-0.01138,-0.012878,-0.015402,60.381927,19.327698,-146.022461,,,
729860838.427792,-1.529784,2.249189,54.559497,-0.043854,-0.035004,1.012299,-0.01138,-0.012878,-0.015402,60.381927,19.327698,-146.022461,,,
729860838.431023,-1.531343,2.242548,54.555092,-0.042526,-0.03418,1.013641,-0.001123,-0.023257,-0.015624,60.381927,19.327698,-146.022461,,,
729860838.434382,-1.531343,2.242548,54.555092,-0.042526,-0.03418,1.013641,-0.001123,-0.023257,-0.015624,60.381927,19.327698,-146.022461,,,
729860838.437695,-1.531276,2.235097,54.550594,-0.042526,-0.03418,1.013641,-0.001123,-0.023257,-0.015624,60.381927,19.327698,-146.022461,,,
729860838.44104,-1.529357,2.229548,54.545984,-0.043671,-0.032166,1.016479,0.009996,-0.017514,-0.016193,60.381927,19.327698,-146.022461,,,
729860838.444372,-1.529357,2.229548,54.545984,-0.043671,-0.032166,1.016479,0.009996,-0.017514,-0.016193,60.381927,19.327698,-146.022461,,,
729860838.447691,-1.525846,2.225462,54.542241,-0.043671,-0.032166,1.016479,0.009996,-0.017514,-0.016193,60.381927,19.327698,-146.022461,,,
729860838.451029,-1.519534,2.226059,54.53975,-0.039688,-0.035187,1.019104,0.021538,0.005989,-0.007282,60.381927,19.327698,-146.022461,,,
729860838.454371,-1.519534,2.226059,54.53975,-0.039688,-0.035187,1.019104,0.021538,0.005989,-0.007282,60.493118,19.146545,-145.843262,,,
729860838.457727,-1.513663,2.229124,54.538415,-0.039688,-0.035187,1.019104,0.021538,0.005989,-0.007282,60.493118,19.146545,-145.843262,,,
729860838.461024,-1.505784,2.235283,54.538318,-0.036316,-0.03244,1.012955,0.027034,0.02648,0.001567,60.493118,19.146545,-145.843262,,,
729860838.464436,-1.505784,2.235283,54.538318,-0.036316,-0.03244,1.012955,0.027034,0.02648,0.001567,60.493118,19.146545,-145.843262,,,
729860838.46769,-1.499366,2.242562,54.539154,-0.036316,-0.03244,1.012955,0.027034,0.02648,0.001567,60.493118,19.146545,-145.843262,,,
729860838.471018,-1.49483,2.249311,54.540962,-0.036514,-0.027832,0.992935,0.010938,0.022399,0.007723,60.493118,19.146545,-145.843262,,,
729860838.474351,-1.49483,2.249311,54.540962,-0.036514,-0.027832,0.992935,0.010938,0.022399,0.007723,60.493118,19.146545,-145.843262,,,
729860838.477767,-1.49359,2.254026,54.542619,-0.036514,-0.027832,0.992935,0.010938,0.022399,0.007723,60.493118,19.146545,-145.843262,,,
729860838.481017,-1.496124,2.256953,54.54317,-0.035904,-0.023834,0.975998,-0.013683,0.002705,-0.001108,60.493118,19.146545,-145.843262,,,
729860838.484353,-1.496124,2.256953,54.54317,-0.035904,-0.023834,0.975998,-0.013683,0.002705,-0.001108,60.493118,19.146545,-145.843262,,,
729860838.487713,-1.501228,2.255158,54.542425,-0.035904,-0.023834,0.975998,-0.013683,0.002705,-0.001108,60.493118,19.146545,-145.843262,,,
729860838.491017,-1.509059,2.251101,54.540109,-0.03212,-0.024796,0.971878,-0.030247,-0.023337,-0.012997,60.493118,19.146545,-145.843262,,,
729860838.494366,-1.509059,2.251101,54.540109,-0.03212,-0.024796,0.971878,-0.030247,-0.023337,-0.012997,60.414856,19.151459,-145.986816,,,
729860838.497678,-1.518776,2.242167,54.536687,-0.03212,-0.024796,0.971878,-0.030247,-0.023337,-0.012997,60.414856,19.151459,-145.986816,,,
729860838.50102,-1.529871,2.232496,54.532202,-0.034103,-0.030945,0.987335,-0.032299,-0.034675,-0.020706,60.414856,19.151459,-145.986816,,,
729860838.504426,-1.529871,2.232496,54.532202,-0.034103,-0.030945,0.987335,-0.032299,-0.034675,-0.020706,60.414856,19.151459,-145.986816,,,
729860838.507684,-1.538857,2.221754,54.526695,-0.034103,-0.030945,0.987335,-0.032299,-0.034675,-0.020706,60.414856,19.151459,-145.986816,,,
729860838.511007,-1.546107,2.212311,54.521715,-0.041977,-0.035904,1.009949,-0.012281,-0.029551,-0.016326,60.414856,19.151459,-145.986816,,,
729860838.514407,-1.546107,2.212311,54.521715,-0.041977,-0.035904,1.009949,-0.012281,-0.029551,-0.016326,60.414856,19.151459,-145.986816,,,
729860838.517664,-1.548347,2.203888,54.517691,-0.041977,-0.035904,1.009949,-0.012281,-0.029551,-0.016326,60.414856,19.151459,-145.986816,,,
729860838.521006,-1.548053,2.198726,54.514471,-0.043442,-0.036804,1.020081,0.010763,-0.013153,-0.009912,60.414856,19.151459,-145.986816,,,
729860838.52435,-1.548053,2.198726,54.514471,-0.043442,-0.036804,1.020081,0.010763,-0.013153,-0.009912,60.414856,19.151459,-145.986816,,,
729860838.527721,-1.543817,2.195486,54.512315,-0.043442,-0.036804,1.020081,0.010763,-0.013153,-0.009912,60.414856,19.151459,-145.986816,,,
729860838.530997,-1.537738,2.195986,54.511008,-0.04158,-0.037811,1.017975,0.031568,0.010789,-0.003254,60.414856,19.151459,-145.986816,,,
729860838.534337,-1.537738,2.195986,54.511008,-0.04158,-0.037811,1.017975,0.031568,0.010789,-0.003254,60.338974,19.284393,-145.862701,,,
729860838.537686,-1.527808,2.199395,54.51032,-0.04158,-0.037811,1.017975,0.031568,0.010789,-0.003254,60.338974,19.284393,-145.862701,,,
729860838.541,-1.517459,2.204477,54.510232,-0.044449,-0.034088,1.009338,0.042476,0.024566,0.001412,60.338974,19.284393,-145.862701,,,
729860838.544352,-1.517459,2.204477,54.510232,-0.044449,-0.034088,1.009338,0.042476,0.024566,0.001412,60.338974,19.284393,-145.862701,,,
729860838.547663,-1.506035,2.211046,54.510665,-0.044449,-0.034088,1.009338,0.042476,0.024566,0.001412,60.338974,19.284393,-145.862701,,,
729860838.550996,-1.497065,2.217046,54.511605,-0.048035,-0.024109,0.992691,0.028218,0.022967,0.004514,60.338974,19.284393,-145.862701,,,
729860838.554391,-1.497065,2.217046,54.511605,-0.048035,-0.024109,0.992691,0.028218,0.022967,0.004514,60.338974,19.284393,-145.862701,,,
729860838.55767,-1.49046,2.222686,54.512973,-0.048035,-0.024109,0.992691,0.028218,0.022967,0.004514,60.338974,19.284393,-145.862701,,,
729860838.560997,-1.486628,2.226851,54.515318,-0.048767,-0.018814,0.979065,0.008547,0.014843,0.010553,60.338974,19.284393,-145.862701,,,
729860838.564342,-1.486628,2.226851,54.515318,-0.048767,-0.018814,0.979065,0.008547,0.014843,0.010553,60.338974,19.284393,-145.862701,,,
729860838.567731,-1.486318,2.230098,54.518506,-0.048767,-0.018814,0.979065,0.008547,0.014843,0.010553,60.338974,19.284393,-145.862701,,,
729860838.570984,-1.488879,2.230914,54.52142,-0.052673,-0.01889,0.978577,-0.013401,0.004753,0.007981,60.338974,19.284393,-145.862701,,,
729860838.574352,-1.488879,2.230914,54.52142,-0.052673,-0.01889,0.978577,-0.013401,0.004753,0.007981,60.338974,19.284393,-145.862701,,,
729860838.577665,-1.493246,2.230626,54.524712,-0.052673,-0.01889,0.978577,-0.013401,0.004753,0.007981,60.471298,19.265411,-146.238358,,,
729860838.580996,-1.49939,2.227317,54.528219,-0.052734,-0.019577,0.984085,-0.021564,-0.009803,0.009353,60.471298,19.265411,-146.238358,,,
729860838.584332,-1.49939,2.227317,54.528219,-0.052734,-0.019577,0.984085,-0.021564,-0.009803,0.009353,60.471298,19.265411,-146.238358,,,
729860838.587659,-1.505892,2.223037,54.532032,-0.052734,-0.019577,0.984085,-0.021564,-0.009803,0.009353,60.471298,19.265411,-146.238358,,,
729860838.59099,-1.514197,2.217097,54.536323,-0.048599,-0.021332,0.987564,-0.024646,-0.021593,0.012517,60.471298,19.265411,-146.238358,,,
729860838.594423,-1.514197,2.217097,54.536323,-0.048599,-0.021332,0.987564,-0.024646,-0.021593,0.012517,60.471298,19.265411,-146.238358,,,
729860838.59767,-1.520692,2.210316,54.540237,-0.048599,-0.021332,0.987564,-0.024646,-0.021593,0.012517,60.471298,19.265411,-146.238358,,,
729860838.601,-1.527425,2.204466,54.543855,-0.045944,-0.023621,0.997162,-0.014948,-0.020918,0.010662,60.471298,19.265411,-146.238358,,,
729860838.604343,-1.527425,2.204466,54.543855,-0.045944,-0.023621,0.997162,-0.014948,-0.020918,0.010662,60.471298,19.265411,-146.238358,,,
729860838.607725,-1.530149,2.198361,54.547306,-0.045944,-0.023621,0.997162,-0.014948,-0.020918,0.010662,60.471298,19.265411,-146.238358,,,
729860838.610988,-1.530093,2.193911,54.550989,-0.041641,-0.029312,1.014679,0.015185,-0.012442,0.013356,60.471298,19.265411,-146.238358,,,
729860838.614333,-1.530093,2.193911,54.550989,-0.041641,-0.029312,1.014679,0.015185,-0.012442,0.013356,60.471298,19.265411,-146.238358,,,
729860838.61769,-1.524103,2.190944,54.554873,-0.041641,-0.029312,1.014679,0.015185,-0.012442,0.013356,60.30423,19.505371,-145.800003,,,
729860838.62099,-1.51654,2.192116,54.558353,-0.036087,-0.031555,1.021255,0.035437,0.009745,0.011069,60.30423,19.505371,-145.800003,,,
729860838.624326,-1.51654,2.192116,54.558353,-0.036087,-0.031555,1.021255,0.035437,0.009745,0.011069,60.30423,19.505371,-145.800003,,,
729860838.627666,-1.505417,2.195296,54.561572,-0.036087,-0.031555,1.021255,0.035437,0.009745,0.011069,60.30423,19.505371,-145.800003,,,
729860838.630982,-1.492971,2.202432,54.564865,-0.035736,-0.030807,1.019516,0.044659,0.025762,0.011771,60.30423,19.505371,-145.800003,,,
729860838.634389,-1.492971,2.202432,54.564865,-0.035736,-0.030807,1.019516,0.044659,0.025762,0.011771,60.30423,19.505371,-145.800003,,,
729860838.637654,-1.479995,2.209359,54.56826,-0.035736,-0.030807,1.019516,0.044659,0.025762,0.011771,60.30423,19.505371,-145.800003,,,
729860838.64098,-1.466784,2.218139,54.571873,-0.037292,-0.025604,1.005798,0.039628,0.024008,0.012701,60.30423,19.505371,-145.800003,,,
729860838.64431,-1.466784,2.218139,54.571873,-0.037292,-0.025604,1.005798,0.039628,0.024008,0.012701,60.30423,19.505371,-145.800003,,,
729860838.647732,-1.456619,2.223416,54.575688,-0.037292,-0.025604,1.005798,0.039628,0.024008,0.012701,60.30423,19.505371,-145.800003,,,
729860838.650973,-1.44755,2.229126,54.57964,-0.039871,-0.02005,0.992218,0.02476,0.008757,0.012588,60.30423,19.505371,-145.800003,,,
729860838.654331,-1.44755,2.229126,54.57964,-0.039871,-0.02005,0.992218,0.02476,0.008757,0.012588,60.30423,19.505371,-145.800003,,,
729860838.657648,-1.441302,2.228964,54.58304,-0.039871,-0.02005,0.992218,0.02476,0.008757,0.012588,60.400009,19.160629,-145.670029,,,
729860838.661034,-1.435654,2.228505,54.585376,-0.039078,-0.017487,0.986664,0.014855,-0.012478,0.004269,60.400009,19.160629,-145.670029,,,
729860838.6643,-1.435654,2.228505,54.585376,-0.039078,-0.017487,0.986664,0.014855,-0.012478,0.004269,60.400009,19.160629,-145.670029,,,
729860838.66767,-1.431738,2.223399,54.586764,-0.039078,-0.017487,0.986664,0.014855,-0.012478,0.004269,60.400009,19.160629,-145.670029,,,
729860838.670999,-1.428406,2.219279,54.58799,-0.03595,-0.01976,0.992432,0.006795,-0.020707,0.002447,60.400009,19.160629,-145.670029,,,
729860838.674323,-1.428406,2.219279,54.58799,-0.03595,-0.01976,0.992432,0.006795,-0.020707,0.002447,60.400009,19.160629,-145.670029,,,
729860838.677662,-1.426986,2.212903,54.588838,-0.03595,-0.01976,0.992432,0.006795,-0.020707,0.002447,60.400009,19.160629,-145.670029,,,
729860838.680971,-1.425282,2.208939,54.590779,-0.037445,-0.024796,0.999146,0.005451,-0.01377,0.009806,60.400009,19.160629,-145.670029,,,
729860838.684327,-1.425282,2.208939,54.590779,-0.037445,-0.024796,0.999146,0.005451,-0.01377,0.009806,60.400009,19.160629,-145.670029,,,
729860838.687716,-1.423814,2.204671,54.594798,-0.037445,-0.024796,0.999146,0.005451,-0.01377,0.009806,60.400009,19.160629,-145.670029,,,
729860838.691028,-1.422956,2.201649,54.600577,-0.03653,-0.024841,0.998932,0.004569,-0.010737,0.021863,60.400009,19.160629,-145.670029,,,
729860838.69432,-1.422956,2.201649,54.600577,-0.03653,-0.024841,0.998932,0.004569,-0.010737,0.021863,60.400009,19.160629,-145.670029,,,
729860838.697706,-1.422089,2.198362,54.607079,-0.03653,-0.024841,0.998932,0.004569,-0.010737,0.021863,60.413605,19.13533,-145.848572,,,
729860838.701062,-1.422764,2.196468,54.612618,-0.031448,-0.024567,0.999405,0.001586,0.001294,0.015111,60.413605,19.13533,-145.848572,,,
729860838.7043,-1.422764,2.196468,54.612618,-0.031448,-0.024567,0.999405,0.001586,0.001294,0.015111,60.413605,19.13533,-145.848572,,,
729860838.707609,-1.422588,2.197623,54.61627,-0.031448,-0.024567,0.999405,0.001586,0.001294,0.015111,60.413605,19.13533,-145.848572,,,
729860838.710994,-1.42349,2.201086,54.617464,-0.018692,-0.02858,1.003357,0.001499,0.023396,-0.001907,60.413605,19.13533,-145.848572,,,
729860838.71438,-1.42349,2.201086,54.617464,-0.018692,-0.02858,1.003357,0.001499,0.023396,-0.001907,60.413605,19.13533,-145.848572,,,
729860838.717646,-1.423293,2.208016,54.615711,-0.018692,-0.02858,1.003357,0.001499,0.023396,-0.001907,60.413605,19.13533,-145.848572,,,
729860838.720979,-1.422501,2.21538,54.61161,-0.019257,-0.031891,1.010925,0.008258,0.029532,-0.017925,60.413605,19.13533,-145.848572,,,
729860838.724313,-1.422501,2.21538,54.61161,-0.019257,-0.031891,1.010925,0.008258,0.029532,-0.017925,60.413605,19.13533,-145.848572,,,
