Time (sec),Pitch (deg),Roll (deg),Yaw(deg),X-Acceleration (g),Y-Acceleration (g),Z-Acceleration (g),Pitch Rate (deg/sec),Roll Rate (deg/sec),Yaw Rate (deg/sec),Magnetic Field in X direction (uT),Magnetic Field in Y direction (uT),Magnetic Field in Z Direction (uT),Latitude (deg),Longitude (deg),Altitude (m)
729862145.672657,-0.404785,5.770516,48.821972,-0.100845,-0.019287,1.016861,0.045551,0.009812,-0.009501,60.43956,12.48703,-154.499359,,,
729862145.676019,-0.392011,5.772276,48.818076,-0.100845,-0.019287,1.016861,0.045551,0.009812,-0.009501,60.43956,12.48703,-154.499359,,,
729862145.679302,-0.379842,5.778044,48.813687,-0.097595,-0.012894,1.002075,0.034212,0.005948,-0.014386,60.43956,12.48703,-154.499359,,,
729862145.682662,-0.379842,5.778044,48.813687,-0.097595,-0.012894,1.002075,0.034212,0.005948,-0.014386,60.43956,12.48703,-154.499359,,,
729862145.685963,-0.371743,5.778865,48.808901,-0.097595,-0.012894,1.002075,0.034212,0.005948,-0.014386,60.43956,12.48703,-154.499359,,,
729862145.689301,-0.366118,5.780983,48.804265,-0.098206,-0.005676,0.98439,0.010147,0.004028,-0.015906,60.43956,12.48703,-154.499359,,,
729862145.69265,-0.366118,5.780983,48.804265,-0.098206,-0.005676,0.98439,0.010147,0.004028,-0.015906,60.43956,12.48703,-154.499359,,,
729862145.695973,-0.365934,5.780698,48.80045,-0.098206,-0.005676,0.98439,0.010147,0.004028,-0.015906,59.980957,12.597565,-154.777878,,,
729862145.699302,-0.36762,5.777695,48.797698,-0.103241,-0.003006,0.97554,-0.013811,-0.006137,-0.010837,59.980957,12.597565,-154.777878,,,
729862145.702631,-0.36762,5.777695,48.797698,-0.103241,-0.003006,0.97554,-0.013811,-0.006137,-0.010837,59.980957,12.597565,-154.777878,,,
729862145.705965,-0.372888,5.774304,48.796081,-0.103241,-0.003006,0.97554,-0.013811,-0.006137,-0.010837,59.980957,12.597565,-154.777878,,,
729862145.7093,-0.37771,5.764843,48.795539,-0.108749,-0.004944,0.984116,-0.024019,-0.01519,-0.004153,59.980957,12.597565,-154.777878,,,
729862145.712697,-0.37771,5.764843,48.795539,-0.108749,-0.004944,0.984116,-0.024019,-0.01519,-0.004153,59.980957,12.597565,-154.777878,,,
729862145.715972,-0.384172,5.759878,48.795932,-0.108749,-0.004944,0.984116,-0.024019,-0.01519,-0.004153,59.980957,12.597565,-154.777878,,,
729862145.719299,-0.384172,5.749744,48.797531,-0.109543,-0.007324,0.994354,-0.015328,-0.019505,0.005392,59.980957,12.597565,-154.777878,,,
729862145.72263,-0.388588,5.749744,48.797531,-0.109543,-0.007324,0.994354,-0.015328,-0.019505,0.005392,59.980957,12.597565,-154.777878,,,
729862145.726013,-0.392011,5.742156,48.799796,-0.109543,-0.007324,0.994354,-0.015328,-0.019505,0.005392,59.980957,12.597565,-154.777878,,,
729862145.729334,-0.392011,5.730296,48.802166,-0.107529,-0.008835,0.996445,0.000751,-0.03118,0.007865,59.980957,12.597565,-154.777878,,,
729862145.732639,-0.394186,5.730296,48.802166,-0.107529,-0.008835,0.996445,0.000751,-0.03118,0.007865,59.980957,12.597565,-154.777878,,,
729862145.735978,-0.392988,5.720198,48.80472,-0.107529,-0.008835,0.996445,0.000751,-0.03118,0.007865,60.280136,12.326614,-154.854004,,,
729862145.739306,-0.392988,5.720198,48.806891,-0.10231,-0.009781,0.997803,0.016206,-0.028422,0.006789,60.280136,12.326614,-154.854004,,,
729862145.742649,-0.391651,5.709447,48.806891,-0.10231,-0.009781,0.997803,0.016206,-0.028422,0.006789,60.280136,12.326614,-154.854004,,,
729862145.745983,-0.386565,5.70119,48.807759,-0.10231,-0.009781,0.997803,0.016206,-0.028422,0.006789,60.280136,12.326614,-154.854004,,,
729862145.749352,-0.386565,5.70119,48.807759,-0.093842,-0.008865,0.996475,0.016974,-0.015295,-0.003088,60.280136,12.326614,-154.854004,,,
729862145.752655,-0.384315,5.694968,48.807202,-0.093842,-0.008865,0.996475,0.016974,-0.015295,-0.003088,60.280136,12.326614,-154.854004,,,
729862145.755987,-0.38013,5.691051,48.805576,-0.093842,-0.008865,0.996475,0.016974,-0.015295,-0.003088,60.280136,12.326614,-154.854004,,,
729862145.759311,-0.38013,5.691051,48.805576,-0.089691,-0.00444,0.992828,0.00984,-0.000308,-0.011547,60.280136,12.326614,-154.854004,,,
729862145.762698,-0.378789,5.688564,48.802834,-0.089691,-0.00444,0.992828,0.00984,-0.000308,-0.011547,60.280136,12.326614,-154.854004,,,
729862145.766018,-0.377136,5.688869,48.798885,-0.089691,-0.00444,0.992828,0.00984,-0.000308,-0.011547,60.280136,12.326614,-154.854004,,,
729862145.769349,-0.377136,5.688869,48.798885,-0.091003,-0.002548,0.989563,-0.002408,0.015753,-0.022608,60.280136,12.326614,-154.854004,,,
729862145.772645,-0.377468,5.691203,48.793535,-0.091003,-0.002548,0.989563,-0.002408,0.015753,-0.022608,60.280136,12.326614,-154.854004,,,
729862145.77597,-0.379673,5.696072,48.78751,-0.091003,-0.002548,0.989563,-0.002408,0.015753,-0.022608,60.193436,12.442307,-154.845322,,,
729862145.779303,-0.379673,5.696072,48.78751,-0.102325,-0.003189,0.989288,-0.009754,0.025879,-0.020256,60.193436,12.442307,-154.845322,,,
729862145.782634,-0.382135,5.704226,48.78194,-0.102325,-0.003189,0.989288,-0.009754,0.025879,-0.020256,60.193436,12.442307,-154.845322,,,
729862145.785966,-0.385706,5.710818,48.777612,-0.102325,-0.003189,0.989288,-0.009754,0.025879,-0.020256,60.193436,12.442307,-154.845322,,,
729862145.789302,-0.385706,5.710818,48.777612,-0.102325,-0.003189,0.989288,-0.01108,0.018686,-0.005909,60.193436,12.442307,-154.845322,,,
729862145.792649,-0.388682,5.720319,48.775388,-0.114746,-0.007492,0.988892,-0.01108,0.018686,-0.005909,60.193436,12.442307,-154.845322,,,
729862145.795975,-0.392454,5.724015,48.775371,-0.114746,-0.007492,0.988892,-0.01108,0.018686,-0.005909,60.193436,12.442307,-154.845322,,,
729862145.799318,-0.392454,5.724015,48.775371,-0.114746,-0.007492,0.988892,-0.020464,0.009098,0.005595,60.193436,12.442307,-154.845322,,,
729862145.802699,-0.3974,5.730749,48.777167,-0.118866,-0.003403,0.983414,-0.020464,0.009098,0.005595,60.193436,12.442307,-154.845322,,,
729862145.805966,-0.403714,5.731612,48.780031,-0.118866,-0.003403,0.983414,-0.020464,0.009098,0.005595,60.193436,12.442307,-154.845322,,,
729862145.809334,-0.403714,5.731612,48.780031,-0.118866,-0.003403,0.983414,-0.027895,0.004497,0.012912,60.193436,12.442307,-154.845322,,,
729862145.812647,-0.411305,5.73514,48.784076,-0.115509,-0.001999,0.97876,-0.027895,0.004497,0.012912,60.193436,12.442307,-154.845322,,,
729862145.816038,-0.419679,5.734892,48.789068,-0.115509,-0.001999,0.97876,-0.027895,0.004497,0.012912,60.193436,12.442307,-154.845322,,,
729862145.819364,-0.419679,5.734892,48.789068,-0.115509,-0.001999,0.97876,-0.027895,0.004497,0.012912,60.164246,12.57402,-154.781113,,,
729862145.822642,-0.429033,5.734841,48.794672,-0.110245,-0.001205,0.975189,-0.031262,-0.006875,0.01678,60.164246,12.57402,-154.781113,,,
729862145.825969,-0.437987,5.731092,48.800716,-0.110245,-0.001205,0.975189,-0.031262,-0.006875,0.01678,60.164246,12.57402,-154.781113,,,
729862145.829372,-0.437987,5.731092,48.800716,-0.110245,-0.001205,0.975189,-0.024302,-0.018353,0.016304,60.164246,12.57402,-154.781113,,,
729862145.832718,-0.446507,5.72364,48.806575,-0.101654,-0.002777,0.982697,-0.024302,-0.018353,0.016304,60.164246,12.57402,-154.781113,,,
729862145.835975,-0.452011,5.717724,48.811422,-0.101654,-0.002777,0.982697,-0.024302,-0.018353,0.016304,60.164246,12.57402,-154.781113,,,
729862145.839416,-0.452011,5.717724,48.811422,-0.101654,-0.002777,0.982697,-0.008338,-0.012887,0.006084,60.164246,12.57402,-154.781113,,,
729862145.84273,-0.454799,5.708808,48.814548,-0.09201,-0.009445,0.998245,-0.008338,-0.012887,0.006084,60.164246,12.57402,-154.781113,,,
729862145.845972,-0.456029,5.705138,48.816585,-0.09201,-0.009445,0.998245,-0.008338,-0.012887,0.006084,60.164246,12.57402,-154.781113,,,
729862145.849308,-0.456029,5.705138,48.816585,-0.09201,-0.009445,0.998245,-0.008338,-0.012887,0.006084,60.164246,12.57402,-154.781113,,,
729862145.852639,-0.453878,5.699451,48.817858,-0.08345,-0.014923,1.008438,0.007701,-0.00045,0.002635,60.164246,12.57402,-154.781113,,,
729862145.855969,-0.450815,5.699428,48.817897,-0.08345,-0.014923,1.008438,0.007701,-0.00045,0.002635,60.164246,12.57402,-154.781113,,,
729862145.859335,-0.450815,5.699428,48.817897,-0.08345,-0.014923,1.008438,0.018761,0.012802,-0.005044,60.074646,12.559692,-154.718109,,,
729862145.86263,-0.445108,5.701787,48.816676,-0.080643,-0.016174,1.014404,0.018761,0.012802,-0.005044,60.074646,12.559692,-154.718109,,,
729862145.865833,-0.439237,5.705547,48.814789,-0.080643,-0.016174,1.014404,0.018761,0.012802,-0.005044,60.074646,12.559692,-154.718109,,,
729862145.869404,-0.439237,5.705547,48.814789,-0.080643,-0.016174,1.014404,0.026374,0.021471,-0.009147,60.074646,12.559692,-154.718109,,,
729862145.872642,-0.43228,5.71621,48.812257,-0.084396,-0.017609,1.015091,0.026374,0.021471,-0.009147,60.074646,12.559692,-154.718109,,,
729862145.875968,-0.424502,5.721477,48.809074,-0.084396,-0.017609,1.015091,0.026374,0.021471,-0.009147,60.074646,12.559692,-154.718109,,,
729862145.879404,-0.424502,5.721477,48.809074,-0.084396,-0.017609,1.015091,0.026374,0.021471,-0.009147,60.074646,12.559692,-154.718109,,,
729862145.882705,-0.415561,5.734116,48.805733,-0.089127,-0.015961,1.009781,0.030993,0.016361,-0.010207,60.074646,12.559692,-154.718109,,,
729862145.885976,-0.407519,5.737643,48.802465,-0.089127,-0.015961,1.009781,0.030993,0.016361,-0.010207,60.074646,12.559692,-154.718109,,,
729862145.889347,-0.407519,5.737643,48.802465,-0.089127,-0.015961,1.009781,0.030993,0.016361,-0.010207,60.074646,12.559692,-154.718109,,,
729862145.892639,-0.399065,5.747436,48.799702,-0.093414,-0.012482,1.001511,0.024865,0.006001,-0.007703,60.074646,12.559692,-154.718109,,,
729862145.896009,-0.393052,5.746679,48.79715,-0.093414,-0.012482,1.001511,0.024865,0.006001,-0.007703,60.074646,12.559692,-154.718109,,,
729862145.899338,-0.393052,5.746679,48.79715,-0.093414,-0.012482,1.001511,0.024865,0.006001,-0.007703,60.423523,12.276459,-154.898819,,,
729862145.90264,-0.387705,5.748926,48.794987,-0.096588,-0.008591,0.987503,0.011154,-0.015417,-0.006601,60.423523,12.276459,-154.898819,,,
729862145.905977,-0.386362,5.742468,48.792586,-0.096588,-0.008591,0.987503,0.011154,-0.015417,-0.006601,60.423523,12.276459,-154.898819,,,
729862145.909333,-0.386362,5.742468,48.792586,-0.096588,-0.008591,0.987503,0.011154,-0.015417,-0.006601,60.423523,12.276459,-154.898819,,,
729862145.91265,-0.386376,5.736778,48.789135,-0.093353,-0.004715,0.976364,-0.006109,-0.025295,-0.015785,60.423523,12.276459,-154.898819,,,
729862145.915975,-0.389832,5.729002,48.784547,-0.093353,-0.004715,0.976364,-0.006109,-0.025295,-0.015785,60.423523,12.276459,-154.898819,,,
729862145.919399,-0.389832,5.729002,48.784547,-0.093353,-0.004715,0.976364,-0.006109,-0.025295,-0.015785,60.423523,12.276459,-154.898819,,,
729862145.922647,-0.3954,5.719943,48.779033,-0.092194,-0.00647,0.980301,-0.018121,-0.019178,-0.023413,60.423523,12.276459,-154.898819,,,
729862145.925973,-0.402647,5.714819,48.773472,-0.092194,-0.00647,0.980301,-0.018121,-0.019178,-0.023413,60.423523,12.276459,-154.898819,,,
729862145.929327,-0.402647,5.714819,48.773472,-0.092194,-0.00647,0.980301,-0.018121,-0.019178,-0.023413,60.423523,12.276459,-154.898819,,,
729862145.932677,-0.412736,5.705535,48.768767,-0.098007,-0.00853,0.985138,-0.027297,-0.001776,-0.018025,60.423523,12.276459,-154.898819,,,
729862145.935967,-0.420987,5.705288,48.765454,-0.098007,-0.00853,0.985138,-0.027297,-0.001776,-0.018025,60.423523,12.276459,-154.898819,,,
729862145.939346,-0.420987,5.705288,48.765454,-0.098007,-0.00853,0.985138,-0.027297,-0.001776,-0.018025,60.423523,12.276459,-154.898819,,,
729862145.942637,-0.430353,5.699119,48.763766,-0.107834,-0.012466,0.990631,-0.024214,0.016436,-0.005836,60.157867,12.175034,-154.445602,,,
729862145.94597,-0.436974,5.703028,48.763855,-0.107834,-0.012466,0.990631,-0.024214,0.016436,-0.005836,60.157867,12.175034,-154.445602,,,
729862145.949312,-0.436974,5.703028,48.763855,-0.107834,-0.012466,0.990631,-0.024214,0.016436,-0.005836,60.157867,12.175034,-154.445602,,,
729862145.952637,-0.444549,5.698856,48.765078,-0.110825,-0.01181,0.990402,-0.017166,0.012077,0.003295,60.157867,12.175034,-154.445602,,,
729862145.955967,-0.448211,5.700004,48.766901,-0.110825,-0.01181,0.990402,-0.017166,0.012077,0.003295,60.157867,12.175034,-154.445602,,,
729862145.959383,-0.448211,5.700004,48.766901,-0.110825,-0.01181,0.990402,-0.017166,0.012077,0.003295,60.157867,12.175034,-154.445602,,,
729862145.962654,-0.451137,5.693672,48.768265,-0.107346,-0.010559,0.989822,0.002312,-0.004129,0.002337,60.157867,12.175034,-154.445602,,,
729862145.96597,-0.449246,5.691275,48.768734,-0.107346,-0.010559,0.989822,0.002312,-0.004129,0.002337,60.157867,12.175034,-154.445602,,,
729862145.969305,-0.449246,5.691275,48.768734,-0.107346,-0.010559,0.989822,0.002312,-0.004129,0.002337,60.157867,12.175034,-154.445602,,,
729862145.972697,-0.446108,5.685109,48.767332,-0.102921,-0.010635,1.000168,0.020198,-0.00821,-0.008805,60.157867,12.175034,-154.445602,,,
729862145.975972,-0.439876,5.682531,48.764722,-0.102921,-0.010635,1.000168,0.020198,-0.00821,-0.008805,60.157867,12.175034,-154.445602,,,
729862145.979301,-0.439876,5.682531,48.764722,-0.102921,-0.010635,1.000168,0.020198,-0.00821,-0.008805,60.157867,12.175034,-154.445602,,,
729862145.982653,-0.43309,5.680816,48.762504,-0.102264,-0.011032,1.005859,0.026388,0.00316,-0.005316,60.315567,12.288345,-154.711014,,,
729862145.985967,-0.426025,5.682134,48.761447,-0.102264,-0.011032,1.005859,0.026388,0.00316,-0.005316,60.315567,12.288345,-154.711014,,,
729862145.9893,-0.426025,5.682134,48.761447,-0.102264,-0.011032,1.005859,0.026388,0.00316,-0.005316,60.315567,12.288345,-154.711014,,,
729862145.992635,-0.418812,5.684478,48.761987,-0.106537,-0.009109,0.999268,0.022303,0.018683,0.005614,60.315567,12.288345,-154.711014,,,
729862145.995965,-0.413316,5.688767,48.764008,-0.106537,-0.009109,0.999268,0.022303,0.018683,0.005614,60.315567,12.288345,-154.711014,,,
729862145.999343,-0.413316,5.688767,48.764008,-0.106537,-0.009109,0.999268,0.022303,0.018683,0.005614,60.315567,12.288345,-154.711014,,,
729862146.002669,-0.409674,5.689481,48.7674,-0.108963,-0.006302,0.985947,0.006177,0.010061,0.013749,60.315567,12.288345,-154.711014,,,
729862146.005964,-0.408971,5.690228,48.771604,-0.108963,-0.006302,0.985947,0.006177,0.010061,0.013749,60.315567,12.288345,-154.711014,,,
729862146.009318,-0.408971,5.690228,48.771604,-0.108963,-0.006302,0.985947,0.006177,0.010061,0.013749,60.315567,12.288345,-154.711014,,,
729862146.012698,-0.410747,5.687132,48.776381,-0.105484,-0.00354,0.976166,-0.010428,-0.008148,0.016191,60.315567,12.288345,-154.711014,,,
729862146.01596,-0.414965,5.682866,48.781517,-0.105484,-0.00354,0.976166,-0.010428,-0.008148,0.016191,60.315567,12.288345,-154.711014,,,
729862146.019326,-0.414965,5.682866,48.781517,-0.105484,-0.00354,0.976166,-0.010428,-0.008148,0.016191,60.315567,12.288345,-154.711014,,,
729862146.022633,-0.422854,5.679623,48.786518,-0.098068,-0.002258,0.973343,-0.0295,-0.021876,0.013245,60.274246,12.310822,-155.044556,,,
729862146.025966,-0.432426,5.672345,48.790975,-0.098068,-0.002258,0.973343,-0.0295,-0.021876,0.013245,60.274246,12.310822,-155.044556,,,
729862146.029326,-0.432426,5.672345,48.790975,-0.098068,-0.002258,0.973343,-0.0295,-0.021876,0.013245,60.274246,12.310822,-155.044556,,,
729862146.032631,-0.444924,5.67034,48.794033,-0.091904,-0.001938,0.979065,-0.041724,-0.020818,0.001903,60.274246,12.310822,-155.044556,,,
729862146.035966,-0.456941,5.664094,48.79577,-0.091904,-0.001938,0.979065,-0.041724,-0.020818,0.001903,60.274246,12.310822,-155.044556,,,
729862146.039367,-0.456941,5.664094,48.79577,-0.091904,-0.001938,0.979065,-0.041724,-0.020818,0.001903,60.274246,12.310822,-155.044556,,,
729862146.042641,-0.468809,5.663786,48.796451,-0.086441,-0.007446,0.997925,-0.035626,-0.010518,-0.005077,60.274246,12.310822,-155.044556,,,
729862146.045964,-0.478222,5.661295,48.795559,-0.086441,-0.007446,0.997925,-0.035626,-0.010518,-0.005077,60.274246,12.310822,-155.044556,,,
729862146.049312,-0.478222,5.661295,48.795559,-0.086441,-0.007446,0.997925,-0.035626,-0.010518,-0.005077,60.274246,12.310822,-155.044556,,,
729862146.052705,-0.485852,5.664056,48.792809,-0.087479,-0.014435,1.017639,-0.018717,0.012273,-0.016484,60.274246,12.310822,-155.044556,,,
729862146.05596,-0.489468,5.668455,48.788984,-0.087479,-0.014435,1.017639,-0.018717,0.012273,-0.016484,60.274246,12.310822,-155.044556,,,
729862146.059309,-0.489468,5.668455,48.788984,-0.087479,-0.014435,1.017639,-0.018717,0.012273,-0.016484,60.274246,12.310822,-155.044556,,,
729862146.062631,-0.488971,5.676326,48.785184,-0.095459,-0.016983,1.034424,0.014172,0.03015,-0.01306,60.157913,12.468842,-154.831619,,,
729862146.065967,-0.483364,5.685202,48.781689,-0.095459,-0.016983,1.034424,0.014172,0.03015,-0.01306,60.157913,12.468842,-154.831619,,,
729862146.06931,-0.483364,5.685202,48.781689,-0.095459,-0.016983,1.034424,0.014172,0.03015,-0.01306,60.157913,12.468842,-154.831619,,,
729862146.072646,-0.473788,5.697674,48.779103,-0.10582,-0.020523,1.03685,0.042656,0.038528,-0.004015,60.157913,12.468842,-154.831619,,,
729862146.075966,-0.460441,5.707266,48.777491,-0.10582,-0.020523,1.03685,0.042656,0.038528,-0.004015,60.157913,12.468842,-154.831619,,,
729862146.079367,-0.460441,5.707266,48.777491,-0.10582,-0.020523,1.03685,0.042656,0.038528,-0.004015,60.157913,12.468842,-154.831619,,,
729862146.082641,-0.444822,5.719633,48.776933,-0.109619,-0.018433,1.022202,0.05634,0.030356,0.004528,60.157913,12.468842,-154.831619,,,
729862146.085967,-0.429467,5.726321,48.777287,-0.109619,-0.018433,1.022202,0.05634,0.030356,0.004528,60.157913,12.468842,-154.831619,,,
729862146.089312,-0.429467,5.726321,48.777287,-0.109619,-0.018433,1.022202,0.05634,0.030356,0.004528,60.157913,12.468842,-154.831619,,,
729862146.092681,-0.415389,5.733009,48.778624,-0.109604,-0.006866,0.995941,0.042765,0.005281,0.009857,60.157913,12.468842,-154.831619,,,
729862146.09604,-0.404998,5.731288,48.780746,-0.109604,-0.006866,0.995941,0.042765,0.005281,0.009857,60.157913,12.468842,-154.831619,,,
729862146.099301,-0.404998,5.731288,48.780746,-0.109604,-0.006866,0.995941,0.042765,0.005281,0.009857,60.157913,12.468842,-154.831619,,,
729862146.102639,-0.397759,5.725817,48.782989,-0.103729,0.001907,0.969299,0.013194,-0.027749,0.007696,60.157913,12.468842,-154.831619,,,
729862146.105967,-0.396426,5.716048,48.784971,-0.103729,0.001907,0.969299,0.013194,-0.027749,0.007696,60.234619,12.456741,-154.580841,,,
729862146.109312,-0.396426,5.716048,48.784971,-0.103729,0.001907,0.969299,0.013194,-0.027749,0.007696,60.234619,12.456741,-154.580841,,,
729862146.112654,-0.398163,5.702956,48.786227,-0.097076,0.003448,0.961411,-0.015161,-0.039721,-7.4e-05,60.234619,12.456741,-154.580841,,,
729862146.115966,-0.404717,5.691375,48.787436,-0.097076,0.003448,0.961411,-0.015161,-0.039721,-7.4e-05,60.234619,12.456741,-154.580841,,,
729862146.119374,-0.404717,5.691375,48.787436,-0.097076,0.003448,0.961411,-0.015161,-0.039721,-7.4e-05,60.234619,12.456741,-154.580841,,,
729862146.122631,-0.41389,5.67787,48.788832,-0.091934,0.001602,0.969894,-0.034505,-0.026305,-0.0005,60.234619,12.456741,-154.580841,,,
729862146.125968,-0.424103,5.670763,48.78984,-0.091934,0.001602,0.969894,-0.034505,-0.026305,-0.0005,60.234619,12.456741,-154.580841,,,
729862146.129311,-0.424103,5.670763,48.78984,-0.091934,0.001602,0.969894,-0.034505,-0.026305,-0.0005,60.234619,12.456741,-154.580841,,,
729862146.132722,-0.435219,5.661603,48.79063,-0.091049,-0.003571,0.985764,-0.033775,-0.007948,-0.00162,60.234619,12.456741,-154.580841,,,
729862146.135968,-0.444684,5.659634,48.790745,-0.091049,-0.003571,0.985764,-0.033775,-0.007948,-0.00162,60.234619,12.456741,-154.580841,,,
729862146.139321,-0.444684,5.659634,48.790745,-0.091049,-0.003571,0.985764,-0.033775,-0.007948,-0.00162,60.234619,12.456741,-154.580841,,,
729862146.142709,-0.453926,5.657793,48.789627,-0.089828,-0.008774,0.998993,-0.020871,0.01387,-0.00883,60.234619,12.456741,-154.580841,,,
729862146.145971,-0.45969,5.663081,48.787459,-0.089828,-0.008774,0.998993,-0.020871,0.01387,-0.00883,60.374496,12.323929,-154.580017,,,
729862146.149321,-0.45969,5.663081,48.787459,-0.089828,-0.008774,0.998993,-0.020871,0.01387,-0.00883,60.374496,12.323929,-154.580017,,,
729862146.152647,-0.465313,5.673103,48.784354,-0.091599,-0.011597,1.013092,-0.00552,0.046312,-0.013874,60.374496,12.323929,-154.580017,,,
729862146.15597,-0.464964,5.687964,48.780558,-0.091599,-0.011597,1.013092,-0.00552,0.046312,-0.013874,60.374496,12.323929,-154.580017,,,
729862146.159302,-0.464964,5.687964,48.780558,-0.091599,-0.011597,1.013092,-0.00552,0.046312,-0.013874,60.374496,12.323929,-154.580017,,,
729862146.162644,-0.462827,5.708556,48.776938,-0.103409,-0.015427,1.023788,0.019171,0.071809,-0.010272,60.374496,12.323929,-154.580017,,,
729862146.166019,-0.456177,5.727986,48.774084,-0.103409,-0.015427,1.023788,0.019171,0.071809,-0.010272,60.374496,12.323929,-154.580017,,,
729862146.169302,-0.456177,5.727986,48.774084,-0.103409,-0.015427,1.023788,0.019171,0.071809,-0.010272,60.374496,12.323929,-154.580017,,,
729862146.17265,-0.446576,5.748398,48.772118,-0.11557,-0.017075,1.013977,0.040411,0.059013,-0.002055,60.374496,12.323929,-154.580017,,,
729862146.175965,-0.434339,5.761801,48.772092,-0.11557,-0.017075,1.013977,0.040411,0.059013,-0.002055,60.374496,12.323929,-154.580017,,,
729862146.17932,-0.434339,5.761801,48.772092,-0.11557,-0.017075,1.013977,0.040411,0.059013,-0.002055,60.374496,12.323929,-154.580017,,,
729862146.182741,-0.419768,5.771652,48.774326,-0.124985,-0.014801,0.996979,0.045151,0.018731,0.014147,60.374496,12.323929,-154.580017,,,
729862146.185972,-0.406576,5.773096,48.77841,-0.124985,-0.014801,0.996979,0.045151,0.018731,0.014147,60.424774,12.493362,-154.509109,,,
729862146.189315,-0.406576,5.773096,48.77841,-0.124985,-0.014801,0.996979,0.045151,0.018731,0.014147,60.424774,12.493362,-154.509109,,,
729862146.192652,-0.392423,5.769164,48.784027,-0.12088,-0.005859,0.977448,0.036466,-0.023473,0.024008,60.424774,12.493362,-154.509109,,,
729862146.195977,-0.383321,5.759888,48.790346,-0.12088,-0.005859,0.977448,0.036466,-0.023473,0.024008,60.424774,12.493362,-154.509109,,,
729862146.199312,-0.383321,5.759888,48.790346,-0.12088,-0.005859,0.977448,0.036466,-0.023473,0.024008,60.424774,12.493362,-154.509109,,,
729862146.202644,-0.37636,5.746156,48.79715,-0.108932,-0.00145,0.964691,0.011772,-0.043762,0.024975,60.424774,12.493362,-154.509109,,,
729862146.205978,-0.374137,5.733219,48.804624,-0.108932,-0.00145,0.964691,0.011772,-0.043762,0.024975,60.424774,12.493362,-154.509109,,,
729862146.209361,-0.374137,5.733219,48.804624,-0.108932,-0.00145,0.964691,0.011772,-0.043762,0.024975,60.424774,12.493362,-154.509109,,,
729862146.212643,-0.37359,5.718569,48.81234,-0.093109,0.001373,0.970764,-0.00476,-0.041467,0.025107,60.424774,12.493362,-154.509109,,,
729862146.215973,-0.375149,5.707096,48.818999,-0.093109,0.001373,0.970764,-0.00476,-0.041467,0.025107,60.424774,12.493362,-154.509109,,,
729862146.219317,-0.375149,5.707096,48.818999,-0.093109,0.001373,0.970764,-0.00476,-0.041467,0.025107,60.424774,12.493362,-154.509109,,,
729862146.222709,-0.378562,5.695923,48.823827,-0.080338,0.000336,0.982864,-0.015329,-0.020254,0.011433,60.424774,12.493362,-154.509109,,,
729862146.225969,-0.382898,5.690954,48.827005,-0.080338,0.000336,0.982864,-0.015329,-0.020254,0.011433,60.231628,12.734863,-154.345261,,,
729862146.229341,-0.382898,5.690954,48.827005,-0.080338,0.000336,0.982864,-0.015329,-0.020254,0.011433,60.231628,12.734863,-154.345261,,,
729862146.232648,-0.387475,5.685467,48.827969,-0.073654,-0.003113,0.992462,-0.009978,0.003293,-0.003391,60.231628,12.734863,-154.345261,,,
729862146.235977,-0.389914,5.686782,48.826556,-0.073654,-0.003113,0.992462,-0.009978,0.003293,-0.003391,60.231628,12.734863,-154.345261,,,
729862146.239314,-0.389914,5.686782,48.826556,-0.073654,-0.003113,0.992462,-0.009978,0.003293,-0.003391,60.231628,12.734863,-154.345261,,,
729862146.242661,-0.392904,5.690419,48.823023,-0.072678,-0.009033,1.001312,-0.000711,0.026673,-0.017271,60.231628,12.734863,-154.345261,,,
729862146.245979,-0.393434,5.699344,48.817858,-0.072678,-0.009033,1.001312,-0.000711,0.026673,-0.017271,60.231628,12.734863,-154.345261,,,
729862146.24937,-0.393434,5.699344,48.817858,-0.072678,-0.009033,1.001312,-0.000711,0.026673,-0.017271,60.231628,12.734863,-154.345261,,,
729862146.252644,-0.394976,5.715693,48.811872,-0.081085,-0.009796,1.004807,0.007548,0.046808,-0.022467,60.231628,12.734863,-154.345261,,,
729862146.255971,-0.393827,5.728724,48.805968,-0.081085,-0.009796,1.004807,0.007548,0.046808,-0.022467,60.231628,12.734863,-154.345261,,,
729862146.259314,-0.393827,5.728724,48.805968,-0.081085,-0.009796,1.004807,0.007548,0.046808,-0.022467,60.231628,12.734863,-154.345261,,,
729862146.262715,-0.394834,5.751616,48.801049,-0.097397,-0.010147,0.998154,0.00585,0.048633,-0.016233,60.231628,12.734863,-154.345261,,,
729862146.265977,-0.393955,5.764878,48.797123,-0.097397,-0.010147,0.998154,0.00585,0.048633,-0.016233,60.231628,12.734863,-154.345261,,,
729862146.269319,-0.393955,5.764878,48.797123,-0.097397,-0.010147,0.998154,0.00585,0.048633,-0.016233,60.386292,12.4198,-154.578064,,,
729862146.272641,-0.39428,5.787227,48.794584,-0.10643,-0.007767,0.98761,-0.000755,0.042512,-0.007693,60.386292,12.4198,-154.578064,,,
729862146.275976,-0.395144,5.79693,48.793359,-0.10643,-0.007767,0.98761,-0.000755,0.042512,-0.007693,60.386292,12.4198,-154.578064,,,
729862146.279314,-0.395144,5.79693,48.793359,-0.10643,-0.007767,0.98761,-0.000755,0.042512,-0.007693,60.386292,12.4198,-154.578064,,,
729862146.282641,-0.395048,5.808835,48.793041,-0.110229,-0.005203,0.981049,-0.001014,0.01479,-0.001643,60.386292,12.4198,-154.578064,,,
729862146.285976,-0.39555,5.809918,48.793168,-0.110229,-0.005203,0.981049,-0.001014,0.01479,-0.001643,60.386292,12.4198,-154.578064,,,
729862146.289302,-0.39555,5.809918,48.793168,-0.110229,-0.005203,0.981049,-0.001014,0.01479,-0.001643,60.386292,12.4198,-154.578064,,,
729862146.292645,-0.394365,5.806508,48.793079,-0.106064,-0.005692,0.981216,-0.001834,-0.011718,-0.003236,60.386292,12.4198,-154.578064,,,
729862146.295978,-0.395232,5.800917,48.792619,-0.106064,-0.005692,0.981216,-0.001834,-0.011718,-0.003236,60.386292,12.4198,-154.578064,,,
729862146.2993,-0.395232,5.800917,48.792619,-0.106064,-0.005692,0.981216,-0.001834,-0.011718,-0.003236,60.386292,12.4198,-154.578064,,,
729862146.302696,-0.395313,5.786313,48.792034,-0.101624,-0.003967,0.979248,-0.009324,-0.025564,-0.004532,60.386292,12.4198,-154.578064,,,
729862146.305972,-0.399651,5.778556,48.791088,-0.101624,-0.003967,0.979248,-0.009324,-0.025564,-0.004532,60.386292,12.4198,-154.578064,,,
729862146.309308,-0.399651,5.778556,48.791088,-0.101624,-0.003967,0.979248,-0.009324,-0.025564,-0.004532,60.663483,12.26799,-154.329926,,,
729862146.31266,-0.405461,5.761812,48.789772,-0.091141,0.001404,0.97879,-0.026461,-0.015049,-0.008289,60.663483,12.26799,-154.329926,,,
729862146.315974,-0.414259,5.75854,48.787686,-0.091141,0.001404,0.97879,-0.026461,-0.015049,-0.008289,60.663483,12.26799,-154.329926,,,
729862146.319317,-0.414259,5.75854,48.787686,-0.091141,0.001404,0.97879,-0.026461,-0.015049,-0.008289,60.663483,12.26799,-154.329926,,,
729862146.322653,-0.425013,5.74742,48.784006,-0.084717,-0.001617,0.984833,-0.038001,0.01184,-0.019992,60.663483,12.26799,-154.329926,,,
729862146.32598,-0.436568,5.752156,48.779329,-0.084717,-0.001617,0.984833,-0.038001,0.01184,-0.019992,60.663483,12.26799,-154.329926,,,
729862146.329367,-0.436568,5.752156,48.779329,-0.084717,-0.001617,0.984833,-0.038001,0.01184,-0.019992,60.663483,12.26799,-154.329926,,,
729862146.332653,-0.448291,5.751624,48.774494,-0.092453,-0.006134,0.998627,-0.034911,0.040917,-0.020278,60.663483,12.26799,-154.329926,,,
729862146.335974,-0.458599,5.763959,48.770454,-0.092453,-0.006134,0.998627,-0.034911,0.040917,-0.020278,60.663483,12.26799,-154.329926,,,
729862146.33943,-0.458599,5.763959,48.770454,-0.092453,-0.006134,0.998627,-0.034911,0.040917,-0.020278,60.663483,12.26799,-154.329926,,,
729862146.342705,-0.467388,5.774467,48.767595,-0.103424,-0.011276,1.003372,-0.022351,0.051577,-0.010577,60.663483,12.26799,-154.329926,,,
729862146.345988,-0.473415,5.787823,48.766226,-0.103424,-0.011276,1.003372,-0.022351,0.051577,-0.010577,60.663483,12.26799,-154.329926,,,
729862146.349308,-0.473415,5.787823,48.766226,-0.103424,-0.011276,1.003372,-0.022351,0.051577,-0.010577,60.461685,12.504333,-154.518158,,,
729862146.352638,-0.477246,5.800475,48.765971,-0.111465,-0.013611,0.999054,-0.007441,0.034747,-0.001376,60.461685,12.504333,-154.518158,,,
729862146.355977,-0.478201,5.807589,48.76626,-0.111465,-0.013611,0.999054,-0.007441,0.034747,-0.001376,60.461685,12.504333,-154.518158,,,
729862146.359305,-0.478201,5.807589,48.76626,-0.111465,-0.013611,0.999054,-0.007441,0.034747,-0.001376,60.461685,12.504333,-154.518158,,,
729862146.362641,-0.476274,5.814817,48.765893,-0.113144,-0.013229,0.997589,0.009341,0.007771,-0.004409,60.461685,12.504333,-154.518158,,,
729862146.365975,-0.473301,5.813792,48.765238,-0.113144,-0.013229,0.997589,0.009341,0.007771,-0.004409,60.461685,12.504333,-154.518158,,,
729862146.36937,-0.473301,5.813792,48.765238,-0.113144,-0.013229,0.997589,0.009341,0.007771,-0.004409,60.461685,12.504333,-154.518158,,,
729862146.372642,-0.46923,5.812129,48.765184,-0.111511,-0.011765,0.990555,0.012544,-0.020952,-8.9e-05,60.461685,12.504333,-154.518158,,,
729862146.375977,-0.465634,5.804397,48.765834,-0.111511,-0.011765,0.990555,0.012544,-0.020952,-8.9e-05,60.461685,12.504333,-154.518158,,,
729862146.379315,-0.465634,5.804397,48.765834,-0.111511,-0.011765,0.990555,0.012544,-0.020952,-8.9e-05,60.461685,12.504333,-154.518158,,,
729862146.382735,-0.461959,5.796659,48.767532,-0.108917,-0.008255,0.985489,0.006126,-0.029945,0.006536,60.461685,12.504333,-154.518158,,,
729862146.385967,-0.460559,5.788379,48.769086,-0.108917,-0.008255,0.985489,0.006126,-0.029945,0.006536,60.461685,12.504333,-154.518158,,,
729862146.389315,-0.460559,5.788379,48.769086,-0.108917,-0.008255,0.985489,0.006126,-0.029945,0.006536,60.461685,12.504333,-154.518158,,,
729862146.392649,-0.45881,5.780565,48.769757,-0.100311,-0.003937,0.990768,-0.004339,-0.010286,-0.000517,60.428085,12.376907,-154.435867,,,
729862146.395978,-0.460343,5.778047,48.7695,-0.100311,-0.003937,0.990768,-0.004339,-0.010286,-0.000517,60.428085,12.376907,-154.435867,,,
729862146.399315,-0.460343,5.778047,48.7695,-0.100311,-0.003937,0.990768,-0.004339,-0.010286,-0.000517,60.428085,12.376907,-154.435867,,,
729862146.402664,-0.460354,5.771902,48.768198,-0.097031,-0.007309,0.998322,-0.005161,0.006201,-0.007597,60.428085,12.376907,-154.435867,,,
729862146.405981,-0.4618,5.774601,48.766524,-0.097031,-0.007309,0.998322,-0.005161,0.006201,-0.007597,60.428085,12.376907,-154.435867,,,
729862146.409304,-0.4618,5.774601,48.766524,-0.097031,-0.007309,0.998322,-0.005161,0.006201,-0.007597,60.428085,12.376907,-154.435867,,,
729862146.412639,-0.461441,5.775255,48.764856,-0.101608,-0.01268,1.006729,0.003478,0.023025,-0.006529,60.428085,12.376907,-154.435867,,,
729862146.415978,-0.459893,5.781484,48.763593,-0.101608,-0.01268,1.006729,0.003478,0.023025,-0.006529,60.428085,12.376907,-154.435867,,,
729862146.419397,-0.459893,5.781484,48.763593,-0.101608,-0.01268,1.006729,0.003478,0.023025,-0.006529,60.428085,12.376907,-154.435867,,,
729862146.422628,-0.456508,5.787405,48.762762,-0.108124,-0.013702,1.011307,0.018704,0.024677,-0.001886,60.428085,12.376907,-154.435867,,,
729862146.425974,-0.451431,5.792866,48.762446,-0.108124,-0.013702,1.011307,0.018704,0.024677,-0.001886,60.428085,12.376907,-154.435867,,,
729862146.429317,-0.451431,5.792866,48.762446,-0.108124,-0.013702,1.011307,0.018704,0.024677,-0.001886,60.428085,12.376907,-154.435867,,,
729862146.432683,-0.447371,5.800253,48.762557,-0.109924,-0.013397,1.007736,0.020127,0.014268,0.001052,60.33638,12.307709,-154.510895,,,
729862146.435965,-0.441802,5.802929,48.762989,-0.109924,-0.013397,1.007736,0.020127,0.014268,0.001052,60.33638,12.307709,-154.510895,,,
729862146.439314,-0.441802,5.802929,48.762989,-0.109924,-0.013397,1.007736,0.020127,0.014268,0.001052,60.33638,12.307709,-154.510895,,,
729862146.442652,-0.438761,5.80806,48.763814,-0.107819,-0.007462,0.991852,0.011501,-0.003381,0.002734,60.33638,12.307709,-154.510895,,,
729862146.445981,-0.436423,5.804025,48.76463,-0.107819,-0.007462,0.991852,0.011501,-0.003381,0.002734,60.33638,12.307709,-154.510895,,,
729862146.449303,-0.436423,5.804025,48.76463,-0.107819,-0.007462,0.991852,0.011501,-0.003381,0.002734,60.33638,12.307709,-154.510895,,,
729862146.452632,-0.435953,5.799341,48.765941,-0.107117,-0.005096,0.976181,0.004794,-0.039061,0.005267,60.33638,12.307709,-154.510895,,,
729862146.455973,-0.434586,5.785423,48.767409,-0.107117,-0.005096,0.976181,0.004794,-0.039061,0.005267,60.33638,12.307709,-154.510895,,,
729862146.459399,-0.434586,5.785423,48.767409,-0.107117,-0.005096,0.976181,0.004794,-0.039061,0.005267,60.33638,12.307709,-154.510895,,,
729862146.462675,-0.433198,5.772545,48.768225,-0.104065,-0.007721,0.985016,0.007504,-0.06192,0.000686,60.33638,12.307709,-154.510895,,,
729862146.465975,-0.43003,5.753591,48.768951,-0.104065,-0.007721,0.985016,0.007504,-0.06192,0.000686,60.33638,12.307709,-154.510895,,,
729862146.469322,-0.43003,5.753591,48.768951,-0.104065,-0.007721,0.985016,0.007504,-0.06192,0.000686,60.33638,12.307709,-154.510895,,,
729862146.472706,-0.424762,5.736582,48.77,-0.098495,-0.011307,1.000076,0.01779,-0.056851,0.003951,60.486664,12.17215,-154.607346,,,
729862146.475956,-0.419685,5.721744,48.771092,-0.098495,-0.011307,1.000076,0.01779,-0.056851,0.003951,60.486664,12.17215,-154.607346,,,
729862146.479312,-0.419685,5.721744,48.771092,-0.098495,-0.011307,1.000076,0.01779,-0.056851,0.003951,60.486664,12.17215,-154.607346,,,
729862146.482638,-0.414194,5.711342,48.771944,-0.089417,-0.009308,1.005096,0.018118,-0.017072,0.00236,60.486664,12.17215,-154.607346,,,
729862146.485967,-0.409769,5.709809,48.772395,-0.089417,-0.009308,1.005096,0.018118,-0.017072,0.00236,60.486664,12.17215,-154.607346,,,
729862146.489307,-0.409769,5.709809,48.772395,-0.089417,-0.009308,1.005096,0.018118,-0.017072,0.00236,60.486664,12.17215,-154.607346,,,
729862146.49265,-0.407484,5.715812,48.772084,-0.081528,-0.006561,1.006317,0.010284,0.035562,-0.003728,60.486664,12.17215,-154.607346,,,
729862146.495972,-0.406072,5.728278,48.769978,-0.081528,-0.006561,1.006317,0.010284,0.035562,-0.003728,60.486664,12.17215,-154.607346,,,
729862146.499366,-0.406072,5.728278,48.769978,-0.081528,-0.006561,1.006317,0.010284,0.035562,-0.003728,60.486664,12.17215,-154.607346,,,
729862146.502641,-0.407604,5.747527,48.766244,-0.085907,-0.005417,1.001495,0.000798,0.069035,-0.016174,60.486664,12.17215,-154.607346,,,
729862146.505971,-0.4088,5.767069,48.761794,-0.085907,-0.005417,1.001495,0.000798,0.069035,-0.016174,60.486664,12.17215,-154.607346,,,
729862146.509317,-0.4088,5.767069,48.761794,-0.085907,-0.005417,1.001495,0.000798,0.069035,-0.016174,60.486664,12.17215,-154.607346,,,
729862146.512735,-0.412914,5.789304,48.758084,-0.101471,-0.008057,0.98793,-0.009425,0.064716,-0.012166,60.473312,12.515793,-154.542816,,,
729862146.516029,-0.416339,5.805079,48.755591,-0.101471,-0.008057,0.98793,-0.009425,0.064716,-0.012166,60.473312,12.515793,-154.542816,,,
729862146.519298,-0.416339,5.805079,48.755591,-0.101471,-0.008057,0.98793,-0.009425,0.064716,-0.012166,60.473312,12.515793,-154.542816,,,
729862146.522662,-0.420087,5.818331,48.753955,-0.112,-0.007919,0.980545,-0.009315,0.027006,-0.006311,60.473312,12.515793,-154.542816,,,
729862146.526035,-0.42337,5.822805,48.753442,-0.112,-0.007919,0.980545,-0.009315,0.027006,-0.006311,60.473312,12.515793,-154.542816,,,
729862146.529316,-0.42337,5.822805,48.753442,-0.112,-0.007919,0.980545,-0.009315,0.027006,-0.006311,60.473312,12.515793,-154.542816,,,
729862146.532521,-0.425666,5.824315,48.753083,-0.117966,-0.006744,0.982849,-0.006913,-0.014568,-0.005173,60.473312,12.515793,-154.542816,,,
729862146.536005,-0.427696,5.817505,48.752286,-0.117966,-0.006744,0.982849,-0.006913,-0.014568,-0.005173,60.473312,12.515793,-154.542816,,,
729862146.539345,-0.427696,5.817505,48.752286,-0.117966,-0.006744,0.982849,-0.006913,-0.014568,-0.005173,60.473312,12.515793,-154.542816,,,
729862146.542641,-0.429127,5.80974,48.751754,-0.115372,-0.007706,0.988052,-0.002806,-0.036634,-0.003053,60.473312,12.515793,-154.542816,,,
729862146.545973,-0.430002,5.798444,48.751544,-0.115372,-0.007706,0.988052,-0.002806,-0.036634,-0.003053,60.473312,12.515793,-154.542816,,,
729862146.5493,-0.430002,5.798444,48.751544,-0.115372,-0.007706,0.988052,-0.002806,-0.036634,-0.003053,60.473312,12.515793,-154.542816,,,
729862146.552725,-0.430636,5.788281,48.751642,-0.107925,-0.006668,1.000443,0.004055,-0.028777,-0.000237,60.473312,12.515793,-154.542816,,,
729862146.555967,-0.42939,5.781627,48.752149,-0.107925,-0.006668,1.000443,0.004055,-0.028777,-0.000237,60.400894,12.369171,-154.424164,,,
729862146.559371,-0.42939,5.781627,48.752149,-0.107925,-0.006668,1.000443,0.004055,-0.028777,-0.000237,60.400894,12.369171,-154.424164,,,
729862146.562677,-0.426973,5.775927,48.752937,-0.103638,-0.009338,1.018768,0.016878,0.00692,0.003239,60.400894,12.369171,-154.424164,,,
729862146.565986,-0.42126,5.77977,48.753591,-0.103638,-0.009338,1.018768,0.016878,0.00692,0.003239,60.400894,12.369171,-154.424164,,,
729862146.56932,-0.42126,5.77977,48.753591,-0.103638,-0.009338,1.018768,0.016878,0.00692,0.003239,60.400894,12.369171,-154.424164,,,
729862146.572666,-0.413911,5.780578,48.754612,-0.105988,-0.015579,1.026321,0.027518,0.03918,0.007257,60.400894,12.369171,-154.424164,,,
729862146.57602,-0.405676,5.793074,48.756552,-0.105988,-0.015579,1.026321,0.027518,0.03918,0.007257,60.400894,12.369171,-154.424164,,,
729862146.579313,-0.405676,5.793074,48.756552,-0.105988,-0.015579,1.026321,0.027518,0.03918,0.007257,60.400894,12.369171,-154.424164,,,
729862146.582653,-0.396688,5.801018,48.758939,-0.109802,-0.010117,1.01915,0.030046,0.059587,0.011003,60.400894,12.369171,-154.424164,,,
729862146.586,-0.389263,5.817187,48.761938,-0.109802,-0.010117,1.01915,0.030046,0.059587,0.011003,60.400894,12.369171,-154.424164,,,
729862146.589408,-0.389263,5.817187,48.761938,-0.109802,-0.010117,1.01915,0.030046,0.059587,0.011003,60.400894,12.369171,-154.424164,,,
729862146.592649,-0.383547,5.831266,48.765711,-0.11554,-0.005768,1.001617,0.017287,0.054161,0.015261,60.400894,12.369171,-154.424164,,,
729862146.596002,-0.379091,5.844309,48.770531,-0.11554,-0.005768,1.001617,0.017287,0.054161,0.015261,60.451691,12.378204,-154.506073,,,
729862146.599322,-0.379091,5.844309,48.770531,-0.11554,-0.005768,1.001617,0.017287,0.054161,0.015261,60.451691,12.378204,-154.506073,,,
729862146.602788,-0.376355,5.857358,48.776921,-0.122314,-0.004913,0.991684,0.007468,0.023767,0.02515,60.451691,12.378204,-154.506073,,,
729862146.605999,-0.374498,5.860459,48.784642,-0.122314,-0.004913,0.991684,0.007468,0.023767,0.02515,60.451691,12.378204,-154.506073,,,
729862146.609307,-0.374498,5.860459,48.784642,-0.122314,-0.004913,0.991684,0.007468,0.023767,0.02515,60.451691,12.378204,-154.506073,,,
729862146.612657,-0.373343,5.863796,48.793651,-0.124664,-0.001556,0.980331,0.001958,-0.020603,0.033363,60.451691,12.378204,-154.506073,,,
729862146.616052,-0.372203,5.85437,48.803531,-0.124664,-0.001556,0.980331,0.001958,-0.020603,0.033363,60.451691,12.378204,-154.506073,,,
729862146.619304,-0.372203,5.85437,48.803531,-0.124664,-0.001556,0.980331,0.001958,-0.020603,0.033363,60.451691,12.378204,-154.506073,,,
729862146.622639,-0.371785,5.847159,48.813937,-0.116867,-0.001846,0.979797,-0.001962,-0.052314,0.036279,60.451691,12.378204,-154.506073,,,
729862146.625995,-0.371785,5.830266,48.824477,-0.116867,-0.001846,0.979797,-0.001962,-0.052314,0.036279,60.451691,12.378204,-154.506073,,,
729862146.629393,-0.37149,5.830266,48.824477,-0.116867,-0.001846,0.979797,-0.001962,-0.052314,0.036279,60.451691,12.378204,-154.506073,,,
729862146.632637,-0.371514,5.814736,48.834929,-0.104431,-0.002411,0.981369,-0.002806,-0.065394,0.035441,60.451691,12.378204,-154.506073,,,
729862146.63598,-0.371514,5.814736,48.834929,-0.104431,-0.002411,0.981369,-0.002806,-0.065394,0.035441,60.323593,12.309052,-154.415176,,,
729862146.639314,-0.370493,5.795586,48.84557,-0.104431,-0.002411,0.981369,-0.002806,-0.065394,0.035441,60.323593,12.309052,-154.415176,,,
729862146.642721,-0.367943,5.778713,48.855885,-0.088409,-0.005432,0.98909,0.010315,-0.053947,0.034431,60.323593,12.309052,-154.415176,,,
729862146.645973,-0.367943,5.778713,48.855885,-0.088409,-0.005432,0.98909,0.010315,-0.053947,0.034431,60.323593,12.309052,-154.415176,,,
729862146.649309,-0.362257,5.764993,48.864955,-0.088409,-0.005432,0.98909,0.010315,-0.053947,0.034431,60.323593,12.309052,-154.415176,,,
729862146.652641,-0.355328,5.757231,48.871933,-0.070404,-0.010468,1.002914,0.031449,-0.017157,0.021912,60.323593,12.309052,-154.415176,,,
729862146.656046,-0.355328,5.757231,48.876416,-0.070404,-0.010468,1.002914,0.031449,-0.017157,0.021912,60.323593,12.309052,-154.415176,,,
729862146.659318,-0.344859,5.754381,48.876416,-0.070404,-0.010468,1.002914,0.031449,-0.017157,0.021912,60.323593,12.309052,-154.415176,,,
729862146.662639,-0.33458,5.759063,48.878236,-0.063965,-0.012207,1.008575,0.04094,0.021819,0.004145,60.323593,12.309052,-154.415176,,,
729862146.665986,-0.33458,5.759063,48.878236,-0.063965,-0.012207,1.008575,0.04094,0.021819,0.004145,60.323593,12.309052,-154.415176,,,
729862146.669419,-0.323131,5.767553,48.877853,-0.063965,-0.012207,1.008575,0.04094,0.021819,0.004145,60.323593,12.309052,-154.415176,,,
729862146.672632,-0.31272,5.787037,48.876239,-0.067688,-0.010437,0.999268,0.034476,0.061983,-0.005235,60.323593,12.309052,-154.415176,,,
729862146.675979,-0.31272,5.787037,48.876239,-0.067688,-0.010437,0.999268,0.034476,0.061983,-0.005235,60.39505,12.32103,-154.37999,,,
729862146.679337,-0.304056,5.805597,48.873911,-0.067688,-0.010437,0.999268,0.034476,0.061983,-0.005235,60.39505,12.32103,-154.37999,,,
729862146.682644,-0.298113,5.834302,48.871254,-0.072311,-0.00589,0.983276,0.015734,0.076316,-0.00968,60.39505,12.32103,-154.37999,,,
729862146.685973,-0.298113,5.834302,48.871254,-0.072311,-0.00589,0.983276,0.015734,0.076316,-0.00968,60.39505,12.32103,-154.37999,,,
729862146.689312,-0.295532,5.854124,48.868231,-0.072311,-0.00589,0.983276,0.015734,0.076316,-0.00968,60.39505,12.32103,-154.37999,,,
729862146.692647,-0.295276,5.88173,48.864756,-0.087265,-0.003204,0.966675,-0.003931,0.058341,-0.015209,60.39505,12.32103,-154.37999,,,
729862146.696045,-0.295276,5.88173,48.864756,-0.087265,-0.003204,0.966675,-0.003931,0.058341,-0.015209,60.39505,12.32103,-154.37999,,,
729862146.699309,-0.29806,5.894772,48.861018,-0.087265,-0.003204,0.966675,-0.003931,0.058341,-0.015209,60.39505,12.32103,-154.37999,,,
729862146.702646,-0.301865,5.909369,48.857287,-0.100525,-0.00351,0.962296,-0.01647,0.015068,-0.016727,60.39505,12.32103,-154.37999,,,
729862146.705967,-0.301865,5.909369,48.857287,-0.100525,-0.00351,0.962296,-0.01647,0.015068,-0.016727,60.39505,12.32103,-154.37999,,,
729862146.709365,-0.307407,5.909328,48.853922,-0.100525,-0.00351,0.962296,-0.01647,0.015068,-0.016727,60.39505,12.32103,-154.37999,,,
729862146.71264,-0.312458,5.905361,48.851028,-0.106674,-0.004364,0.963608,-0.018447,-0.030795,-0.013742,60.39505,12.32103,-154.37999,,,
729862146.715986,-0.312458,5.905361,48.851028,-0.106674,-0.004364,0.963608,-0.018447,-0.030795,-0.013742,60.39505,12.32103,-154.37999,,,
729862146.719312,-0.318606,5.893965,48.848468,-0.106674,-0.004364,0.963608,-0.018447,-0.030795,-0.013742,60.517441,12.427597,-154.243607,,,
729862146.722643,-0.324776,5.876463,48.84692,-0.104431,-0.005188,0.971313,-0.020622,-0.047496,-0.006696,60.517441,12.427597,-154.243607,,,
729862146.725984,-0.324776,5.876463,48.84692,-0.104431,-0.005188,0.971313,-0.020622,-0.047496,-0.006696,60.517441,12.427597,-154.243607,,,
729862146.729323,-0.331181,5.861707,48.845912,-0.104431,-0.005188,0.971313,-0.020622,-0.047496,-0.006696,60.517441,12.427597,-154.243607,,,
729862146.732648,-0.338187,5.836144,48.844629,-0.100769,-0.004822,0.975204,-0.019624,-0.043035,-0.008036,60.517441,12.427597,-154.243607,,,
729862146.735984,-0.338187,5.836144,48.844629,-0.100769,-0.004822,0.975204,-0.019624,-0.043035,-0.008036,60.517441,12.427597,-154.243607,,,
729862146.739316,-0.344005,5.824829,48.842673,-0.100769,-0.004822,0.975204,-0.019624,-0.043035,-0.008036,60.517441,12.427597,-154.243607,,,
729862146.74265,-0.349574,5.802472,48.83939,-0.088379,-0.003189,0.989487,-0.008692,-0.017494,-0.015562,60.517441,12.427597,-154.243607,,,
729862146.745974,-0.349574,5.802472,48.83939,-0.088379,-0.003189,0.989487,-0.008692,-0.017494,-0.015562,60.517441,12.427597,-154.243607,,,
729862146.749333,-0.351011,5.798894,48.834238,-0.088379,-0.003189,0.989487,-0.008692,-0.017494,-0.015562,60.517441,12.427597,-154.243607,,,
729862146.752684,-0.350852,5.787109,48.82734,-0.086823,-0.009369,1.005905,0.010143,0.012529,-0.025372,60.517441,12.427597,-154.243607,,,
729862146.755989,-0.350852,5.787109,48.82734,-0.086823,-0.009369,1.005905,0.010143,0.012529,-0.025372,60.517441,12.427597,-154.243607,,,
729862146.759418,-0.347863,5.792621,48.819778,-0.086823,-0.009369,1.005905,0.010143,0.012529,-0.025372,60.419403,12.450394,-154.338684,,,
729862146.762641,-0.342756,5.790762,48.812288,-0.096512,-0.011139,1.011459,0.027035,0.045865,-0.022621,60.419403,12.450394,-154.338684,,,
729862146.765992,-0.342756,5.790762,48.812288,-0.096512,-0.011139,1.011459,0.027035,0.045865,-0.022621,60.419403,12.450394,-154.338684,,,
729862146.769319,-0.336088,5.80474,48.806182,-0.096512,-0.011139,1.011459,0.027035,0.045865,-0.022621,60.419403,12.450394,-154.338684,,,
729862146.77264,-0.329026,5.814402,48.801312,-0.105576,-0.007919,1.005249,0.025603,0.063039,-0.01381,60.419403,12.450394,-154.338684,,,
729862146.775974,-0.329026,5.814402,48.801312,-0.105576,-0.007919,1.005249,0.025603,0.063039,-0.01381,60.419403,12.450394,-154.338684,,,
729862146.779323,-0.323612,5.830134,48.798133,-0.105576,-0.007919,1.005249,0.025603,0.063039,-0.01381,60.419403,12.450394,-154.338684,,,
729862146.782552,-0.319791,5.8419,48.795912,-0.109833,-0.002548,0.981628,0.010312,0.034427,-0.008668,60.419403,12.450394,-154.338684,,,
729862146.785993,-0.319791,5.8419,48.795912,-0.109833,-0.002548,0.981628,0.010312,0.034427,-0.008668,60.419403,12.450394,-154.338684,,,
729862146.78932,-0.318888,5.847993,48.793572,-0.109833,-0.002548,0.981628,0.010312,0.034427,-0.008668,60.419403,12.450394,-154.338684,,,
729862146.792734,-0.320026,5.850588,48.79089,-0.111359,-0.001114,0.969391,-0.006413,-0.013402,-0.012877,60.419403,12.450394,-154.338684,,,
729862146.795972,-0.320026,5.850588,48.79089,-0.111359,-0.001114,0.969391,-0.006413,-0.013402,-0.012877,60.419403,12.450394,-154.338684,,,
729862146.799322,-0.323639,5.842772,48.787697,-0.111359,-0.001114,0.969391,-0.006413,-0.013402,-0.012877,60.528336,12.388138,-154.408524,,,
729862146.802648,-0.329271,5.831696,48.784371,-0.111557,0.00235,0.971268,-0.021322,-0.054877,-0.015446,60.528336,12.388138,-154.408524,,,
729862146.805983,-0.329271,5.831696,48.784371,-0.111557,0.00235,0.971268,-0.021322,-0.054877,-0.015446,60.528336,12.388138,-154.408524,,,
729862146.809366,-0.336874,5.814028,48.781379,-0.111557,0.00235,0.971268,-0.021322,-0.054877,-0.015446,60.528336,12.388138,-154.408524,,,
729862146.812638,-0.345728,5.796449,48.779602,-0.106018,-0.001053,0.982254,-0.030922,-0.063606,-0.007932,60.528336,12.388138,-154.408524,,,
729862146.815971,-0.345728,5.796449,48.779602,-0.106018,-0.001053,0.982254,-0.030922,-0.063606,-0.007932,60.528336,12.388138,-154.408524,,,
729862146.819318,-0.355637,5.778884,48.779042,-0.106018,-0.001053,0.982254,-0.030922,-0.063606,-0.007932,60.528336,12.388138,-154.408524,,,
729862146.822637,-0.36638,5.761742,48.779272,-0.099472,-0.00444,0.995316,-0.040335,-0.040361,-0.003081,60.528336,12.388138,-154.408524,,,
729862146.825999,-0.36638,5.761742,48.779272,-0.099472,-0.00444,0.995316,-0.040335,-0.040361,-0.003081,60.528336,12.388138,-154.408524,,,
729862146.829315,-0.378237,5.752027,48.779886,-0.099472,-0.00444,0.995316,-0.040335,-0.040361,-0.003081,60.528336,12.388138,-154.408524,,,
729862146.832642,-0.390024,5.74297,48.780334,-0.091782,-0.006653,1.005463,-0.03929,0.000959,-0.003884,60.528336,12.388138,-154.408524,,,
729862146.836043,-0.390024,5.74297,48.780334,-0.091782,-0.006653,1.005463,-0.03929,0.000959,-0.003884,60.528336,12.388138,-154.408524,,,
729862146.839355,-0.401257,5.74522,48.779563,-0.091782,-0.006653,1.005463,-0.03929,0.000959,-0.003884,60.455032,12.419891,-154.566544,,,
729862146.842636,-0.41282,5.748893,48.776846,-0.085953,-0.009399,1.008591,-0.033824,0.031911,-0.016814,60.455032,12.419891,-154.566544,,,
729862146.845975,-0.41282,5.748893,48.776846,-0.085953,-0.009399,1.008591,-0.033824,0.031911,-0.016814,60.455032,12.419891,-154.566544,,,
729862146.849378,-0.423006,5.757713,48.772584,-0.085953,-0.009399,1.008591,-0.033824,0.031911,-0.016814,60.455032,12.419891,-154.566544,,,
729862146.852632,-0.432404,5.767713,48.766817,-0.090698,-0.012054,1.003769,-0.023886,0.035097,-0.026367,60.455032,12.419891,-154.566544,,,
729862146.855976,-0.432404,5.767713,48.766817,-0.090698,-0.012054,1.003769,-0.023886,0.035097,-0.026367,60.455032,12.419891,-154.566544,,,
729862146.859314,-0.438781,5.776412,48.75999,-0.090698,-0.012054,1.003769,-0.023886,0.035097,-0.026367,60.455032,12.419891,-154.566544,,,
729862146.862637,-0.441645,5.787771,48.752317,-0.102707,-0.015839,1.004517,-0.004844,0.026839,-0.030561,60.455032,12.419891,-154.566544,,,
729862146.865982,-0.441645,5.787771,48.752317,-0.102707,-0.015839,1.004517,-0.004844,0.026839,-0.030561,60.455032,12.419891,-154.566544,,,
729862146.869322,-0.443791,5.793757,48.74461,-0.102707,-0.015839,1.004517,-0.004844,0.026839,-0.030561,60.455032,12.419891,-154.566544,,,
729862146.872636,-0.443993,5.803089,48.738269,-0.112488,-0.015671,1.002274,-0.002116,0.014149,-0.020952,60.455032,12.419891,-154.566544,,,
729862146.876021,-0.443993,5.803089,48.738269,-0.112488,-0.015671,1.002274,-0.002116,0.014149,-0.020952,60.455032,12.419891,-154.566544,,,
729862146.879301,-0.445313,5.804201,48.733479,-0.112488,-0.015671,1.002274,-0.002116,0.014149,-0.020952,60.455032,12.419891,-154.566544,,,
729862146.882641,-0.445019,5.80802,48.729962,-0.1203,-0.011688,0.991394,-0.006444,-0.006632,-0.012791,60.636627,12.252319,-154.304199,,,
729862146.885971,-0.445019,5.80802,48.729962,-0.1203,-0.011688,0.991394,-0.006444,-0.006632,-0.012791,60.636627,12.252319,-154.304199,,,
729862146.889371,-0.44812,5.804564,48.727489,-0.1203,-0.011688,0.991394,-0.006444,-0.006632,-0.012791,60.636627,12.252319,-154.304199,,,
729862146.892634,-0.450028,5.803407,48.725775,-0.11972,-0.006729,0.98996,-0.011471,-0.016178,-0.008276,60.636627,12.252319,-154.304199,,,
729862146.89597,-0.450028,5.803407,48.725775,-0.11972,-0.006729,0.98996,-0.011471,-0.016178,-0.008276,60.636627,12.252319,-154.304199,,,
729862146.899336,-0.454644,5.798036,48.724314,-0.11972,-0.006729,0.98996,-0.011471,-0.016178,-0.008276,60.636627,12.252319,-154.304199,,,
729862146.902636,-0.459342,5.793098,48.723818,-0.117981,-0.007431,0.992355,-0.019487,-0.014695,-0.002258,60.636627,12.252319,-154.304199,,,
729862146.905968,-0.459342,5.793098,48.723818,-0.117981,-0.007431,0.992355,-0.019487,-0.014695,-0.002258,60.636627,12.252319,-154.304199,,,
729862146.909314,-0.465383,5.787897,48.724402,-0.117981,-0.007431,0.992355,-0.019487,-0.014695,-0.002258,60.636627,12.252319,-154.304199,,,
729862146.912638,-0.470611,5.77896,48.725951,-0.117371,-0.008591,0.992523,-0.019276,-0.017231,0.00473,60.636627,12.252319,-154.304199,,,
729862146.915969,-0.470611,5.77896,48.725951,-0.117371,-0.008591,0.992523,-0.019276,-0.017231,0.00473,60.636627,12.252319,-154.304199,,,
729862146.919317,-0.475726,5.77381,48.728669,-0.117371,-0.008591,0.992523,-0.019276,-0.017231,0.00473,60.636627,12.252319,-154.304199,,,
729862146.922651,-0.48024,5.76386,48.731964,-0.112747,-0.008224,0.996124,-0.014827,-0.008176,0.009592,60.469955,12.333786,-154.245117,,,
729862146.926063,-0.48024,5.76386,48.731964,-0.112747,-0.008224,0.996124,-0.014827,-0.008176,0.009592,60.469955,12.333786,-154.245117,,,
729862146.929317,-0.484615,5.761687,48.735636,-0.112747,-0.008224,0.996124,-0.014827,-0.008176,0.009592,60.469955,12.333786,-154.245117,,,
729862146.93265,-0.490931,5.756236,48.738651,-0.101669,-0.006882,0.992889,-0.02427,0.004636,0.00437,60.469955,12.333786,-154.245117,,,
729862146.935977,-0.490931,5.756236,48.738651,-0.101669,-0.006882,0.992889,-0.02427,0.004636,0.00437,60.469955,12.333786,-154.245117,,,
729862146.939368,-0.497575,5.757179,48.740393,-0.101669,-0.006882,0.992889,-0.02427,0.004636,0.00437,60.469955,12.333786,-154.245117,,,
729862146.942638,-0.504559,5.758969,48.740956,-0.092529,-0.00795,0.995651,-0.015783,0.017437,-0.002949,60.469955,12.333786,-154.245117,,,
729862146.945975,-0.504559,5.758969,48.740956,-0.092529,-0.00795,0.995651,-0.015783,0.017437,-0.002949,60.469955,12.333786,-154.245117,,,
729862146.949331,-0.508073,5.763132,48.741088,-0.092529,-0.00795,0.995651,-0.015783,0.017437,-0.002949,60.469955,12.333786,-154.245117,,,
729862146.952646,-0.511068,5.770651,48.741466,-0.10054,-0.013565,1.006989,-0.001878,0.014928,-5.1e-05,60.469955,12.333786,-154.245117,,,
729862146.955973,-0.511068,5.770651,48.741466,-0.10054,-0.013565,1.006989,-0.001878,0.014928,-5.1e-05,60.469955,12.333786,-154.245117,,,
729862146.959326,-0.510317,5.773237,48.742465,-0.10054,-0.013565,1.006989,-0.001878,0.014928,-5.1e-05,60.469955,12.333786,-154.245117,,,
729862146.962644,-0.507668,5.782134,48.743548,-0.10289,-0.012726,1.010254,0.01823,0.004718,0.002042,60.52594,12.314362,-154.482559,,,
729862146.966015,-0.507668,5.782134,48.743548,-0.10289,-0.012726,1.010254,0.01823,0.004718,0.002042,60.52594,12.314362,-154.482559,,,
729862146.969316,-0.50164,5.78238,48.744113,-0.10289,-0.012726,1.010254,0.01823,0.004718,0.002042,60.52594,12.314362,-154.482559,,,
729862146.972648,-0.493699,5.790837,48.744962,-0.101196,-0.014008,1.00943,0.029673,0.00622,0.004669,60.52594,12.314362,-154.482559,,,
729862146.975974,-0.493699,5.790837,48.744962,-0.101196,-0.014008,1.00943,0.029673,0.00622,0.004669,60.52594,12.314362,-154.482559,,,
729862146.979314,-0.484837,5.791025,48.746055,-0.101196,-0.014008,1.00943,0.029673,0.00622,0.004669,60.52594,12.314362,-154.482559,,,
729862146.982646,-0.475594,5.796194,48.748167,-0.101501,-0.011627,1.002426,0.030309,-0.011139,0.011353,60.52594,12.314362,-154.482559,,,
729862146.985996,-0.475594,5.796194,48.748167,-0.101501,-0.011627,1.002426,0.030309,-0.011139,0.011353,60.52594,12.314362,-154.482559,,,
729862146.989319,-0.466699,5.790089,48.75162,-0.101501,-0.011627,1.002426,0.030309,-0.011139,0.011353,60.52594,12.314362,-154.482559,,,
729862146.992647,-0.458309,5.787479,48.755908,-0.097656,-0.006165,0.986923,0.02698,-0.034806,0.016528,60.52594,12.314362,-154.482559,,,
729862146.995993,-0.458309,5.787479,48.755908,-0.097656,-0.006165,0.986923,0.02698,-0.034806,0.016528,60.52594,12.314362,-154.482559,,,
729862146.999323,-0.451492,5.77652,48.75988,-0.097656,-0.006165,0.986923,0.02698,-0.034806,0.016528,60.52594,12.314362,-154.482559,,,
729862147.002674,-0.447868,5.771364,48.762537,-0.086624,-0.00386,0.980835,0.006542,-0.033066,0.004939,60.52594,12.314362,-154.482559,,,
729862147.006027,-0.447868,5.771364,48.762537,-0.086624,-0.00386,0.980835,0.006542,-0.033066,0.004939,60.570251,12.284561,-154.798157,,,
729862147.009326,-0.4478,5.761637,48.76318,-0.086624,-0.00386,0.980835,0.006542,-0.033066,0.004939,60.570251,12.284561,-154.798157,,,
729862147.012644,-0.451129,5.754354,48.762487,-0.079391,-0.002884,0.976379,-0.016744,-0.027276,-0.00687,60.570251,12.284561,-154.798157,,,
729862147.015995,-0.451129,5.754354,48.762487,-0.079391,-0.002884,0.976379,-0.016744,-0.027276,-0.00687,60.570251,12.284561,-154.798157,,,
729862147.019377,-0.457551,5.74632,48.760503,-0.079391,-0.002884,0.976379,-0.016744,-0.027276,-0.00687,60.570251,12.284561,-154.798157,,,
729862147.022638,-0.464699,5.737712,48.757571,-0.079224,-0.002121,0.980774,-0.023009,-0.013424,-0.013959,60.570251,12.284561,-154.798157,,,
729862147.026005,-0.464699,5.737712,48.757571,-0.079224,-0.002121,0.980774,-0.023009,-0.013424,-0.013959,60.570251,12.284561,-154.798157,,,
729862147.029319,-0.471396,5.734602,48.754457,-0.079224,-0.002121,0.980774,-0.023009,-0.013424,-0.013959,60.570251,12.284561,-154.798157,,,
729862147.032648,-0.477274,5.733584,48.750462,-0.08223,-0.007614,1.000885,-0.010564,0.009266,-0.018736,60.570251,12.284561,-154.798157,,,
729862147.035982,-0.477274,5.733584,48.750462,-0.08223,-0.007614,1.000885,-0.010564,0.009266,-0.018736,60.570251,12.284561,-154.798157,,,
729862147.039321,-0.479358,5.736706,48.745294,-0.08223,-0.007614,1.000885,-0.010564,0.009266,-0.018736,60.570251,12.284561,-154.798157,,,
729862147.042659,-0.479269,5.743335,48.739168,-0.087433,-0.011276,1.011795,0.01203,0.02907,-0.023241,60.570251,12.284561,-154.798157,,,
729862147.045977,-0.479269,5.743335,48.739168,-0.087433,-0.011276,1.011795,0.01203,0.02907,-0.023241,60.452408,12.37558,-154.425949,,,
729862147.04934,-0.474464,5.751466,48.732147,-0.087433,-0.011276,1.011795,0.01203,0.02907,-0.023241,60.452408,12.37558,-154.425949,,,
729862147.052702,-0.466732,5.76049,48.724338,-0.094833,-0.015228,1.016418,0.040818,0.035276,-0.025855,60.452408,12.37558,-154.425949,,,
729862147.056051,-0.466732,5.76049,48.724338,-0.094833,-0.015228,1.016418,0.040818,0.035276,-0.025855,60.452408,12.37558,-154.425949,,,
729862147.059308,-0.454232,5.769133,48.71649,-0.094833,-0.015228,1.016418,0.040818,0.035276,-0.025855,60.452408,12.37558,-154.425949,,,
729862147.06265,-0.440162,5.776632,48.709217,-0.106689,-0.018829,1.013672,0.059979,0.028464,-0.019828,60.452408,12.37558,-154.425949,,,
729862147.065982,-0.440162,5.776632,48.709217,-0.106689,-0.018829,1.013672,0.059979,0.028464,-0.019828,60.452408,12.37558,-154.425949,,,
729862147.069373,-0.423795,5.782127,48.703004,-0.106689,-0.018829,1.013672,0.059979,0.028464,-0.019828,60.452408,12.37558,-154.425949,,,
729862147.07264,-0.408298,5.784469,48.698099,-0.11261,-0.011322,0.998642,0.052731,0.007593,-0.011367,60.452408,12.37558,-154.425949,,,
729862147.07598,-0.408298,5.784469,48.698099,-0.11261,-0.011322,0.998642,0.052731,0.007593,-0.011367,60.452408,12.37558,-154.425949,,,
729862147.07932,-0.395527,5.784809,48.693985,-0.11261,-0.011322,0.998642,0.052731,0.007593,-0.011367,60.452408,12.37558,-154.425949,,,
729862147.082659,-0.385135,5.778739,48.6903,-0.109619,-0.003159,0.976181,0.031616,-0.007066,-0.01034,60.452408,12.37558,-154.425949,,,
729862147.085978,-0.385135,5.778739,48.6903,-0.109619,-0.003159,0.976181,0.031616,-0.007066,-0.01034,60.313431,12.098465,-154.43837,,,
729862147.089309,-0.378707,5.774809,48.686781,-0.109619,-0.003159,0.976181,0.031616,-0.007066,-0.01034,60.313431,12.098465,-154.43837,,,
729862147.092646,-0.375154,5.761307,48.683571,-0.108246,-0.003662,0.969635,0.007187,-0.020578,-0.01027,60.313431,12.098465,-154.43837,,,
729862147.096048,-0.375154,5.761307,48.683571,-0.108246,-0.003662,0.969635,0.007187,-0.020578,-0.01027,60.313431,12.098465,-154.43837,,,
729862147.099315,-0.374531,5.753608,48.680976,-0.108246,-0.003662,0.969635,0.007187,-0.020578,-0.01027,60.313431,12.098465,-154.43837,,,
729862147.102641,-0.374684,5.734762,48.679177,-0.10936,0.000381,0.968399,-0.005695,-0.038466,-0.005602,60.313431,12.098465,-154.43837,,,
729862147.105987,-0.374684,5.734762,48.679177,-0.10936,0.000381,0.968399,-0.005695,-0.038466,-0.005602,60.313431,12.098465,-154.43837,,,
729862147.109354,-0.377372,5.723134,48.678668,-0.10936,0.000381,0.968399,-0.005695,-0.038466,-0.005602,60.313431,12.098465,-154.43837,,,
729862147.112643,-0.382104,5.705245,48.678532,-0.10524,-0.000961,0.970963,-0.020826,-0.029567,-0.00419,60.313431,12.098465,-154.43837,,,
729862147.115983,-0.382104,5.705245,48.678532,-0.10524,-0.000961,0.970963,-0.020826,-0.029567,-0.00419,60.313431,12.098465,-154.43837,,,
729862147.119331,-0.388722,5.697551,48.678476,-0.10524,-0.000961,0.970963,-0.020826,-0.029567,-0.00419,60.313431,12.098465,-154.43837,,,
