Time (sec),Pitch (deg),Roll (deg),Yaw(deg),X-Acceleration (g),Y-Acceleration (g),Z-Acceleration (g),Pitch Rate (deg/sec),Roll Rate (deg/sec),Yaw Rate (deg/sec),Magnetic Field in X direction (uT),Magnetic Field in Y direction (uT),Magnetic Field in Z Direction (uT),Latitude (deg),Longitude (deg),Altitude (m)
729862804.428203,-1.235043,-2.904052,-162.205749,0.051071,-0.014847,0.988998,-0.014854,0.004256,0.001369,52.079834,33.364944,-142.993759,,,
729862804.431518,-1.241167,-2.906464,-162.205167,0.051071,-0.014847,0.988998,-0.030897,0.001993,0.005369,52.079834,33.364944,-142.993759,,,
729862804.434851,-1.250044,-2.905738,-162.204095,0.049927,-0.014786,0.983322,-0.030897,0.001993,0.005369,52.079834,33.364944,-142.993759,,,
729862804.438221,-1.250044,-2.905738,-162.204095,0.049927,-0.014786,0.983322,-0.030897,0.001993,0.005369,52.079834,33.364944,-142.993759,,,
729862804.44157,-1.259852,-2.90711,-162.202613,0.049927,-0.014786,0.983322,-0.029585,0.011146,0.00412,52.079834,33.364944,-142.993759,,,
729862804.444853,-1.269598,-2.904885,-162.200918,0.045731,-0.019669,0.993225,-0.029585,0.011146,0.00412,52.079834,33.364944,-142.993759,,,
729862804.448265,-1.269598,-2.904885,-162.200918,0.045731,-0.019669,0.993225,-0.029585,0.011146,0.00412,52.079834,33.364944,-142.993759,,,
729862804.451538,-1.280072,-2.901595,-162.199287,0.045731,-0.019669,0.993225,-0.025621,0.024002,0.008613,52.079834,33.364944,-142.993759,,,
729862804.454852,-1.288039,-2.896123,-162.197161,0.04776,-0.024033,1.008423,-0.025621,0.024002,0.008613,52.079834,33.364944,-142.993759,,,
729862804.458207,-1.288039,-2.896123,-162.197161,0.04776,-0.024033,1.008423,-0.025621,0.024002,0.008613,52.079834,33.364944,-142.993759,,,
729862804.461591,-1.29679,-2.890655,-162.194828,0.04776,-0.024033,1.008423,-0.017252,0.016023,0.004752,52.079834,33.364944,-142.993759,,,
729862804.464902,-1.301912,-2.886722,-162.193133,0.047607,-0.021988,1.001694,-0.017252,0.016023,0.004752,52.079834,33.364944,-142.993759,,,
729862804.468242,-1.301912,-2.886722,-162.193133,0.047607,-0.021988,1.001694,-0.017252,0.016023,0.004752,52.079834,33.364944,-142.993759,,,
729862804.471556,-1.304963,-2.887353,-162.192403,0.047607,-0.021988,1.001694,0.00791,-0.00936,-0.006543,51.931366,33.595367,-142.476776,,,
729862804.474859,-1.304164,-2.889921,-162.192761,0.047318,-0.024796,1.004608,0.00791,-0.00936,-0.006543,51.931366,33.595367,-142.476776,,,
729862804.478215,-1.304164,-2.889921,-162.192761,0.047318,-0.024796,1.004608,0.00791,-0.00936,-0.006543,51.931366,33.595367,-142.476776,,,
729862804.481535,-1.298547,-2.899208,-162.194449,0.047318,-0.024796,1.004608,0.02712,-0.03324,-0.006629,51.931366,33.595367,-142.476776,,,
729862804.484861,-1.2917,-2.908988,-162.196372,0.04628,-0.028152,1.006134,0.02712,-0.03324,-0.006629,51.931366,33.595367,-142.476776,,,
729862804.488273,-1.2917,-2.908988,-162.196372,0.04628,-0.028152,1.006134,0.02712,-0.03324,-0.006629,51.931366,33.595367,-142.476776,,,
729862804.49154,-1.283251,-2.921629,-162.198048,0.04628,-0.028152,1.006134,0.030537,-0.040132,-0.006709,51.931366,33.595367,-142.476776,,,
729862804.494857,-1.275443,-2.934021,-162.199368,0.042587,-0.026978,1.001373,0.030537,-0.040132,-0.006709,51.931366,33.595367,-142.476776,,,
729862804.498201,-1.275443,-2.934021,-162.199368,0.042587,-0.026978,1.001373,0.030537,-0.040132,-0.006709,51.931366,33.595367,-142.476776,,,
729862804.501591,-1.267458,-2.944244,-162.200034,0.042587,-0.026978,1.001373,0.015774,-0.025852,0.002071,51.931366,33.595367,-142.476776,,,
729862804.504849,-1.262134,-2.952706,-162.199484,0.043564,-0.023758,0.998489,0.015774,-0.025852,0.002071,51.931366,33.595367,-142.476776,,,
729862804.508201,-1.262134,-2.952706,-162.199484,0.043564,-0.023758,0.998489,0.015774,-0.025852,0.002071,51.931366,33.595367,-142.476776,,,
729862804.511538,-1.257443,-2.959018,-162.197546,0.043564,-0.023758,0.998489,0.008898,-0.007346,0.010146,52.02594,33.562271,-142.844177,,,
729862804.514851,-1.255441,-2.96268,-162.194584,0.044006,-0.023544,0.9944,0.008898,-0.007346,0.010146,52.02594,33.562271,-142.844177,,,
729862804.518197,-1.255441,-2.96268,-162.194584,0.044006,-0.023544,0.9944,0.008898,-0.007346,0.010146,52.02594,33.562271,-142.844177,,,
729862804.521625,-1.252891,-2.963143,-162.191472,0.044006,-0.023544,0.9944,-0.001217,0.007344,0.007264,52.02594,33.562271,-142.844177,,,
729862804.524849,-1.252744,-2.962069,-162.188553,0.048965,-0.021729,0.995148,-0.001217,0.007344,0.007264,52.02594,33.562271,-142.844177,,,
729862804.528187,-1.252744,-2.962069,-162.188553,0.048965,-0.021729,0.995148,-0.001217,0.007344,0.007264,52.02594,33.562271,-142.844177,,,
729862804.531537,-1.253996,-2.958104,-162.18575,0.048965,-0.021729,0.995148,-0.009469,0.015231,0.005794,52.02594,33.562271,-142.844177,,,
729862804.534859,-1.257119,-2.954753,-162.183549,0.054901,-0.01506,0.990448,-0.009469,0.015231,0.005794,52.02594,33.562271,-142.844177,,,
729862804.538201,-1.257119,-2.954753,-162.183549,0.054901,-0.01506,0.990448,-0.009469,0.015231,0.005794,52.02594,33.562271,-142.844177,,,
729862804.541598,-1.262106,-2.950021,-162.182036,0.054901,-0.01506,0.990448,-0.024105,0.009911,0.005794,52.02594,33.562271,-142.844177,,,
729862804.544856,-1.268656,-2.947711,-162.180894,0.052002,-0.01358,0.982819,-0.024105,0.009911,0.005794,52.02594,33.562271,-142.844177,,,
729862804.548205,-1.268656,-2.947711,-162.180894,0.052002,-0.01358,0.982819,-0.024105,0.009911,0.005794,52.02594,33.562271,-142.844177,,,
729862804.551527,-1.276952,-2.946103,-162.179727,0.052002,-0.01358,0.982819,-0.035783,0.001011,0.003355,52.054001,33.425095,-142.892288,,,
729862804.55486,-1.286731,-2.946353,-162.178415,0.050049,-0.01355,0.979218,-0.035783,0.001011,0.003355,52.054001,33.425095,-142.892288,,,
729862804.558213,-1.286731,-2.946353,-162.178415,0.050049,-0.01355,0.979218,-0.035783,0.001011,0.003355,52.054001,33.425095,-142.892288,,,
729862804.561536,-1.297703,-2.94653,-162.176895,0.050049,-0.01355,0.979218,-0.029269,-0.00495,0.007243,52.054001,33.425095,-142.892288,,,
729862804.56486,-1.307078,-2.948237,-162.174736,0.050079,-0.017731,0.992096,-0.029269,-0.00495,0.007243,52.054001,33.425095,-142.892288,,,
729862804.568266,-1.307078,-2.948237,-162.174736,0.050079,-0.017731,0.992096,-0.029269,-0.00495,0.007243,52.054001,33.425095,-142.892288,,,
729862804.571523,-1.314382,-2.948786,-162.171653,0.050079,-0.017731,0.992096,-0.001127,-0.010725,0.012304,52.054001,33.425095,-142.892288,,,
729862804.57486,-1.315959,-2.951777,-162.167872,0.049179,-0.029526,1.014465,-0.001127,-0.010725,0.012304,52.054001,33.425095,-142.892288,,,
729862804.578201,-1.315959,-2.951777,-162.167872,0.049179,-0.029526,1.014465,-0.001127,-0.010725,0.012304,52.054001,33.425095,-142.892288,,,
729862804.581598,-1.312795,-2.953839,-162.163978,0.049179,-0.029526,1.014465,0.035398,-0.014751,0.004254,52.054001,33.425095,-142.892288,,,
729862804.58485,-1.304035,-2.958868,-162.161242,0.05455,-0.02742,1.024353,0.035398,-0.014751,0.004254,52.054001,33.425095,-142.892288,,,
729862804.588207,-1.304035,-2.958868,-162.161242,0.05455,-0.02742,1.024353,0.035398,-0.014751,0.004254,52.054001,33.425095,-142.892288,,,
729862804.59154,-1.292325,-2.961845,-162.158992,0.05455,-0.02742,1.024353,0.051393,-0.017032,0.00203,52.054001,33.425095,-142.892288,,,
729862804.594857,-1.278746,-2.96679,-162.156987,0.056122,-0.023956,1.019821,0.051393,-0.017032,0.00203,52.300705,33.258377,-142.995148,,,
729862804.598196,-1.278746,-2.96679,-162.156987,0.056122,-0.023956,1.019821,0.051393,-0.017032,0.00203,52.300705,33.258377,-142.995148,,,
729862804.601526,-1.264642,-2.970428,-162.154238,0.056122,-0.023956,1.019821,0.048452,-0.015234,0.0104,52.300705,33.258377,-142.995148,,,
729862804.604858,-1.251325,-2.975224,-162.150429,0.04776,-0.025116,1.00473,0.048452,-0.015234,0.0104,52.300705,33.258377,-142.995148,,,
729862804.608266,-1.251325,-2.975224,-162.150429,0.04776,-0.025116,1.00473,0.048452,-0.015234,0.0104,52.300705,33.258377,-142.995148,,,
729862804.611524,-1.239953,-2.979061,-162.145955,0.04776,-0.025116,1.00473,0.022014,-0.008299,0.015828,52.300705,33.258377,-142.995148,,,
729862804.614854,-1.233025,-2.982499,-162.141167,0.047806,-0.018295,0.985962,0.022014,-0.008299,0.015828,52.300705,33.258377,-142.995148,,,
729862804.618198,-1.233025,-2.982499,-162.141167,0.047806,-0.018295,0.985962,0.022014,-0.008299,0.015828,52.300705,33.258377,-142.995148,,,
729862804.621557,-1.229924,-2.986288,-162.136642,0.047806,-0.018295,0.985962,-0.009964,-0.00607,0.012366,52.300705,33.258377,-142.995148,,,
729862804.624887,-1.232834,-2.988864,-162.132322,0.054321,-0.011749,0.975296,-0.009964,-0.00607,0.012366,52.300705,33.258377,-142.995148,,,
729862804.628199,-1.232834,-2.988864,-162.132322,0.054321,-0.011749,0.975296,-0.009964,-0.00607,0.012366,52.300705,33.258377,-142.995148,,,
729862804.631598,-1.237188,-2.99008,-162.128957,0.054321,-0.011749,0.975296,-0.029387,0.008702,0.009372,52.300705,33.258377,-142.995148,,,
729862804.634949,-1.245332,-2.989152,-162.12624,0.061066,-0.016373,0.981598,-0.029387,0.008702,0.009372,52.240921,33.285248,-143.308472,,,
729862804.638199,-1.245332,-2.989152,-162.12624,0.061066,-0.016373,0.981598,-0.029387,0.008702,0.009372,52.240921,33.285248,-143.308472,,,
729862804.641541,-1.253532,-2.985186,-162.123824,0.061066,-0.016373,0.981598,-0.035391,0.022618,0.007295,52.240921,33.285248,-143.308472,,,
729862804.644861,-1.263849,-2.979464,-162.122153,0.064514,-0.019241,0.994598,-0.035391,0.022618,0.007295,52.240921,33.285248,-143.308472,,,
729862804.648203,-1.263849,-2.979464,-162.122153,0.064514,-0.019241,0.994598,-0.035391,0.022618,0.007295,52.240921,33.285248,-143.308472,,,
729862804.651556,-1.273548,-2.97332,-162.121428,0.064514,-0.019241,0.994598,-0.026602,0.012305,-0.003059,52.240921,33.285248,-143.308472,,,
729862804.654858,-1.281702,-2.969451,-162.122006,0.064636,-0.019302,0.994431,-0.026602,0.012305,-0.003059,52.240921,33.285248,-143.308472,,,
729862804.658259,-1.281702,-2.969451,-162.122006,0.064636,-0.019302,0.994431,-0.026602,0.012305,-0.003059,52.240921,33.285248,-143.308472,,,
729862804.661537,-1.288764,-2.967222,-162.123753,0.064636,-0.019302,0.994431,0.001396,-0.003968,-0.00777,52.240921,33.285248,-143.308472,,,
729862804.664862,-1.29063,-2.968,-162.125774,0.061264,-0.022949,0.999619,0.001396,-0.003968,-0.00777,52.240921,33.285248,-143.308472,,,
729862804.668206,-1.29063,-2.968,-162.125774,0.061264,-0.022949,0.999619,0.001396,-0.003968,-0.00777,52.240921,33.285248,-143.308472,,,
729862804.671602,-1.288403,-2.971658,-162.12677,0.061264,-0.022949,0.999619,0.025965,-0.020095,-0.0003,52.240921,33.285248,-143.308472,,,
729862804.674843,-1.281823,-2.977333,-162.126365,0.054962,-0.030228,1.012177,0.025965,-0.020095,-0.0003,52.219025,33.3181,-142.823425,,,
729862804.678202,-1.281823,-2.977333,-162.126365,0.054962,-0.030228,1.012177,0.025965,-0.020095,-0.0003,52.219025,33.3181,-142.823425,,,
729862804.681529,-1.273362,-2.986861,-162.125579,0.054962,-0.030228,1.012177,0.035373,-0.04563,0.001729,52.219025,33.3181,-142.823425,,,
729862804.684852,-1.263679,-2.999207,-162.124669,0.052734,-0.025452,0.999405,0.035373,-0.04563,0.001729,52.219025,33.3181,-142.823425,,,
729862804.688193,-1.263679,-2.999207,-162.124669,0.052734,-0.025452,0.999405,0.035373,-0.04563,0.001729,52.219025,33.3181,-142.823425,,,
729862804.691527,-1.254268,-3.011799,-162.123452,0.052734,-0.025452,0.999405,0.030361,-0.041676,0.001733,52.219025,33.3181,-142.823425,,,
729862804.694854,-1.245517,-3.024787,-162.12232,0.054626,-0.018875,0.993118,0.030361,-0.041676,0.001733,52.219025,33.3181,-142.823425,,,
729862804.698253,-1.245517,-3.024787,-162.12232,0.054626,-0.018875,0.993118,0.030361,-0.041676,0.001733,52.219025,33.3181,-142.823425,,,
729862804.701523,-1.238001,-3.03427,-162.121232,0.054626,-0.018875,0.993118,0.014166,-0.025134,-0.001612,52.219025,33.3181,-142.823425,,,
729862804.704852,-1.233829,-3.041856,-162.120772,0.063705,-0.013184,0.992905,0.014166,-0.025134,-0.001612,52.219025,33.3181,-142.823425,,,
729862804.708207,-1.233829,-3.041856,-162.120772,0.063705,-0.013184,0.992905,0.014166,-0.025134,-0.001612,52.219025,33.3181,-142.823425,,,
729862804.711602,-1.230657,-3.04798,-162.12148,0.063705,-0.013184,0.992905,-0.004506,-0.002323,-0.006222,52.219025,33.3181,-142.823425,,,
729862804.714839,-1.231641,-3.050307,-162.123022,0.065353,-0.010269,0.989578,-0.004506,-0.002323,-0.006222,52.162216,33.450668,-143.545609,,,
729862804.718211,-1.231641,-3.050307,-162.123022,0.065353,-0.010269,0.989578,-0.004506,-0.002323,-0.006222,52.162216,33.450668,-143.545609,,,
729862804.721537,-1.232803,-3.051566,-162.124706,0.065353,-0.010269,0.989578,-0.012296,0.023631,-0.002984,52.162216,33.450668,-143.545609,,,
729862804.724859,-1.235632,-3.046063,-162.125529,0.060638,-0.017532,0.998749,-0.012296,0.023631,-0.002984,52.162216,33.450668,-143.545609,,,
729862804.728198,-1.235632,-3.046063,-162.125529,0.060638,-0.017532,0.998749,-0.012296,0.023631,-0.002984,52.162216,33.450668,-143.545609,,,
729862804.731548,-1.238844,-3.040182,-162.125745,0.060638,-0.017532,0.998749,-0.006559,0.037142,-0.001136,52.162216,33.450668,-143.545609,,,
729862804.73486,-1.242019,-3.030447,-162.126245,0.058212,-0.020767,1.002869,-0.006559,0.037142,-0.001136,52.162216,33.450668,-143.545609,,,
729862804.738256,-1.242019,-3.030447,-162.126245,0.058212,-0.020767,1.002869,-0.006559,0.037142,-0.001136,52.162216,33.450668,-143.545609,,,
729862804.741527,-1.244253,-3.024923,-162.127536,0.058212,-0.020767,1.002869,-0.006289,0.018559,-0.006403,52.162216,33.450668,-143.545609,,,
729862804.744864,-1.24607,-3.019575,-162.129521,0.055756,-0.017319,0.997162,-0.006289,0.018559,-0.006403,52.162216,33.450668,-143.545609,,,
729862804.748228,-1.24607,-3.019575,-162.129521,0.055756,-0.017319,0.997162,-0.006289,0.018559,-0.006403,52.162216,33.450668,-143.545609,,,
729862804.751627,-1.247139,-3.020052,-162.132523,0.055756,-0.017319,0.997162,0.010901,-0.008042,-0.014038,52.162216,33.450668,-143.545609,,,
729862804.754851,-1.244867,-3.022197,-162.135968,0.046783,-0.020325,0.998627,0.010901,-0.008042,-0.014038,52.162216,33.450668,-143.545609,,,
729862804.758216,-1.244867,-3.022197,-162.135968,0.046783,-0.020325,0.998627,0.010901,-0.008042,-0.014038,52.271896,33.389114,-142.831863,,,
729862804.761536,-1.241252,-3.0273,-162.138614,0.046783,-0.020325,0.998627,0.027427,-0.023049,-0.004536,52.271896,33.389114,-142.831863,,,
729862804.764855,-1.234096,-3.034272,-162.139748,0.038269,-0.027924,1.007385,0.027427,-0.023049,-0.004536,52.271896,33.389114,-142.831863,,,
729862804.768198,-1.234096,-3.034272,-162.139748,0.038269,-0.027924,1.007385,0.027427,-0.023049,-0.004536,52.271896,33.389114,-142.831863,,,
729862804.77154,-1.225895,-3.041429,-162.138674,0.038269,-0.027924,1.007385,0.033809,-0.016188,0.011349,52.271896,33.389114,-142.831863,,,
729862804.774918,-1.216742,-3.046557,-162.135259,0.035095,-0.028183,1.009521,0.033809,-0.016188,0.011349,52.271896,33.389114,-142.831863,,,
729862804.778027,-1.216742,-3.046557,-162.135259,0.035095,-0.028183,1.009521,0.033809,-0.016188,0.011349,52.271896,33.389114,-142.831863,,,
729862804.781584,-1.206651,-3.049895,-162.130434,0.035095,-0.028183,1.009521,0.044455,-0.001803,0.02248,52.271896,33.389114,-142.831863,,,
729862804.784856,-1.195509,-3.050701,-162.123882,0.037186,-0.030411,1.011749,0.044455,-0.001803,0.02248,52.271896,33.389114,-142.831863,,,
729862804.788211,-1.195509,-3.050701,-162.123882,0.037186,-0.030411,1.011749,0.044455,-0.001803,0.02248,52.271896,33.389114,-142.831863,,,
729862804.791603,-1.180675,-3.053234,-162.116332,0.037186,-0.030411,1.011749,0.052429,0.005092,0.021088,52.271896,33.389114,-142.831863,,,
729862804.794929,-1.166798,-3.052086,-162.10872,0.039642,-0.024185,1.009552,0.052429,0.005092,0.021088,52.271896,33.389114,-142.831863,,,
729862804.798203,-1.166798,-3.052086,-162.10872,0.039642,-0.024185,1.009552,0.052429,0.005092,0.021088,52.097565,33.301453,-143.201782,,,
729862804.801535,-1.150929,-3.05259,-162.101237,0.039642,-0.024185,1.009552,0.045342,0.016497,0.020907,52.097565,33.301453,-143.201782,,,
729862804.804856,-1.138174,-3.048894,-162.094355,0.045212,-0.018677,1.001617,0.045342,0.016497,0.020907,52.097565,33.301453,-143.201782,,,
729862804.808208,-1.138174,-3.048894,-162.094355,0.045212,-0.018677,1.001617,0.045342,0.016497,0.020907,52.097565,33.301453,-143.201782,,,
729862804.811541,-1.126665,-3.046913,-162.08794,0.045212,-0.018677,1.001617,0.036899,0.007552,0.020301,52.097565,33.301453,-143.201782,,,
729862804.814875,-1.117087,-3.044866,-162.081544,0.049332,-0.014191,0.987595,0.036899,0.007552,0.020301,52.097565,33.301453,-143.201782,,,
729862804.818261,-1.117087,-3.044866,-162.081544,0.049332,-0.014191,0.987595,0.036899,0.007552,0.020301,52.097565,33.301453,-143.201782,,,
729862804.821529,-1.110297,-3.046683,-162.076146,0.049332,-0.014191,0.987595,0.016635,-0.012038,0.016869,52.097565,33.301453,-143.201782,,,
729862804.824948,-1.10605,-3.049807,-162.071726,0.047897,-0.011429,0.974274,0.016635,-0.012038,0.016869,52.097565,33.301453,-143.201782,,,
729862804.828191,-1.10605,-3.049807,-162.071726,0.047897,-0.011429,0.974274,0.016635,-0.012038,0.016869,52.097565,33.301453,-143.201782,,,
729862804.831585,-1.104167,-3.053923,-162.067316,0.047897,-0.011429,0.974274,-0.00726,-0.00627,0.014489,52.097565,33.301453,-143.201782,,,
729862804.834863,-1.105668,-3.057234,-162.062713,0.045349,-0.008514,0.974396,-0.00726,-0.00627,0.014489,52.097565,33.301453,-143.201782,,,
729862804.838193,-1.105668,-3.057234,-162.062713,0.045349,-0.008514,0.974396,-0.00726,-0.00627,0.014489,52.174271,33.23703,-143.249481,,,
729862804.841528,-1.109348,-3.057914,-162.057569,0.045349,-0.008514,0.974396,-0.006269,-0.014797,0.019422,52.174271,33.23703,-143.249481,,,
729862804.844901,-1.112169,-3.062044,-162.05186,0.046967,-0.014572,0.984009,-0.006269,-0.014797,0.019422,52.174271,33.23703,-143.249481,,,
729862804.84819,-1.112169,-3.062044,-162.05186,0.046967,-0.014572,0.984009,-0.006269,-0.014797,0.019422,52.174271,33.23703,-143.249481,,,
729862804.851529,-1.115197,-3.064155,-162.045602,0.046967,-0.014572,0.984009,0.007029,-0.026419,0.018242,52.174271,33.23703,-143.249481,,,
729862804.854879,-1.114262,-3.071522,-162.039731,0.05217,-0.018784,0.996048,0.007029,-0.026419,0.018242,52.174271,33.23703,-143.249481,,,
729862804.858255,-1.114262,-3.071522,-162.039731,0.05217,-0.018784,0.996048,0.007029,-0.026419,0.018242,52.174271,33.23703,-143.249481,,,
729862804.861529,-1.113665,-3.07324,-162.034308,0.05217,-0.018784,0.996048,0.016012,-0.013558,0.020191,52.174271,33.23703,-143.249481,,,
729862804.864856,-1.11011,-3.078167,-162.028158,0.056427,-0.019821,1.002594,0.016012,-0.013558,0.020191,52.174271,33.23703,-143.249481,,,
729862804.868309,-1.11011,-3.078167,-162.028158,0.056427,-0.019821,1.002594,0.016012,-0.013558,0.020191,52.174271,33.23703,-143.249481,,,
729862804.871543,-1.108227,-3.07685,-162.019862,0.056427,-0.019821,1.002594,0.017597,-0.002202,0.034936,52.174271,33.23703,-143.249481,,,
729862804.874887,-1.103328,-3.077872,-162.009407,0.050217,-0.025131,1.003372,0.017597,-0.002202,0.034936,52.174271,33.23703,-143.249481,,,
729862804.878203,-1.103328,-3.077872,-162.009407,0.050217,-0.025131,1.003372,0.017597,-0.002202,0.034936,52.296173,33.120651,-143.064728,,,
729862804.881625,-1.097026,-3.075702,-161.997261,0.050217,-0.025131,1.003372,0.036657,-0.004339,0.038477,52.296173,33.120651,-143.064728,,,
729862804.884881,-1.088231,-3.077295,-161.98506,0.05072,-0.026382,1.006149,0.036657,-0.004339,0.038477,52.296173,33.120651,-143.064728,,,
729862804.888211,-1.088231,-3.077295,-161.98506,0.05072,-0.026382,1.006149,0.036657,-0.004339,0.038477,52.296173,33.120651,-143.064728,,,
729862804.891522,-1.078112,-3.077434,-161.974378,0.05072,-0.026382,1.006149,0.037828,-0.002641,0.027983,52.296173,33.120651,-143.064728,,,
729862804.894845,-1.078112,-3.079166,-161.965577,0.05072,-0.026382,1.006149,0.037828,-0.002641,0.027983,52.296173,33.120651,-143.064728,,,
729862804.898226,-1.068152,-3.079166,-161.965577,0.068604,-0.014236,1.000763,0.037828,-0.002641,0.027983,52.296173,33.120651,-143.064728,,,
729862804.901542,-1.057391,-3.078766,-161.957533,0.068604,-0.014236,1.000763,0.035865,0.008714,0.020774,52.296173,33.120651,-143.064728,,,
729862804.904891,-1.047394,-3.077598,-161.950097,0.070145,-0.017258,1.006546,0.035865,0.008714,0.020774,52.296173,33.120651,-143.064728,,,
729862804.908258,-1.047394,-3.077598,-161.950097,0.070145,-0.017258,1.006546,0.035865,0.008714,0.020774,52.296173,33.120651,-143.064728,,,
729862804.911528,-1.034379,-3.074746,-161.943195,0.070145,-0.017258,1.006546,0.050084,0.000697,0.016864,52.296173,33.120651,-143.064728,,,
729862804.914886,-1.034379,-3.074602,-161.936625,0.070145,-0.017258,1.013306,0.050084,0.000697,0.016864,52.296173,33.120651,-143.064728,,,
729862804.918199,-1.021178,-3.074602,-161.936625,0.06308,-0.024948,1.013306,0.050084,0.000697,0.016864,52.296173,33.120651,-143.064728,,,
729862804.921599,-1.005663,-3.074299,-161.931066,0.06308,-0.024948,1.013306,0.049352,-0.004748,0.008769,52.123383,33.099182,-143.327179,,,
729862804.924919,-0.991804,-3.075756,-161.926879,0.067947,-0.021545,1.010803,0.049352,-0.004748,0.008769,52.123383,33.099182,-143.327179,,,
729862804.928202,-0.991804,-3.075756,-161.926879,0.067947,-0.021545,1.010803,0.049352,-0.004748,0.008769,52.123383,33.099182,-143.327179,,,
729862804.931533,-0.977131,-3.075187,-161.923599,0.067947,-0.021545,1.010803,0.059532,0.005277,0.003642,52.123383,33.099182,-143.327179,,,
729862804.934944,-0.961015,-3.074758,-161.921036,0.074585,-0.020004,1.018326,0.059532,0.005277,0.003642,52.123383,33.099182,-143.327179,,,
729862804.938194,-0.961015,-3.074758,-161.921036,0.074585,-0.020004,1.018326,0.059532,0.005277,0.003642,52.123383,33.099182,-143.327179,,,
729862804.941542,-0.942857,-3.074728,-161.920158,0.074585,-0.020004,1.018326,0.081226,-0.004546,-0.011302,52.123383,33.099182,-143.327179,,,
729862804.94492,-0.942857,-3.074728,-161.920158,0.074585,-0.020004,1.018326,0.081226,-0.004546,-0.011302,52.123383,33.099182,-143.327179,,,
729862804.948299,-0.920628,-3.076355,-161.921301,0.079926,-0.022064,1.028839,0.081226,-0.004546,-0.011302,52.123383,33.099182,-143.327179,,,
729862804.951536,-0.894586,-3.078763,-161.923707,0.079926,-0.022064,1.028839,0.114717,0.003502,-0.017515,52.123383,33.099182,-143.327179,,,
729862804.954897,-0.894586,-3.078763,-161.923707,0.079926,-0.022064,1.028839,0.114717,0.003502,-0.017515,52.123383,33.099182,-143.327179,,,
729862804.958205,-0.862368,-3.078866,-161.927076,0.077667,-0.025711,1.042206,0.114717,0.003502,-0.017515,52.123383,33.099182,-143.327179,,,
729862804.961531,-0.825399,-3.075229,-161.930497,0.077667,-0.025711,1.042206,0.170977,0.016778,-0.021009,52.336014,32.996552,-143.187729,,,
729862804.965029,-0.7779,-3.071315,-161.933288,0.077667,-0.025711,1.042206,0.170977,0.016778,-0.021009,52.336014,32.996552,-143.187729,,,
729862804.968227,-0.7779,-3.071315,-161.933288,0.073929,-0.034119,1.07486,0.170977,0.016778,-0.021009,52.336014,32.996552,-143.187729,,,
729862804.971602,-0.722379,-3.065547,-161.935531,0.073929,-0.034119,1.07486,0.241816,0.038723,-0.022152,52.336014,32.996552,-143.187729,,,
729862804.974859,-0.722379,-3.065547,-161.935531,0.073929,-0.034119,1.07486,0.241816,0.038723,-0.022152,52.336014,32.996552,-143.187729,,,
729862804.978204,-0.654761,-3.055812,-161.937117,0.073685,-0.037537,1.095886,0.241816,0.038723,-0.022152,52.336014,32.996552,-143.187729,,,
729862804.981523,-0.574078,-3.040723,-161.936595,0.073685,-0.037537,1.095886,0.358084,0.088331,0.00315,52.336014,32.996552,-143.187729,,,
729862804.984937,-0.574078,-3.040723,-161.936595,0.073685,-0.037537,1.095886,0.358084,0.088331,0.00315,52.336014,32.996552,-143.187729,,,
729862804.988186,-0.4765,-3.017095,-161.931696,0.05542,-0.046509,1.139969,0.358084,0.088331,0.00315,52.336014,32.996552,-143.187729,,,
729862804.991541,-0.36118,-2.989737,-161.921459,0.05542,-0.046509,1.139969,0.4729,0.108773,0.029313,52.336014,32.996552,-143.187729,,,
729862804.994901,-0.36118,-2.989737,-161.921459,0.05542,-0.046509,1.139969,0.4729,0.108773,0.029313,52.336014,32.996552,-143.187729,,,
729862804.998275,-0.22998,-2.959406,-161.906708,0.042831,-0.060883,1.152283,0.4729,0.108773,0.029313,52.336014,32.996552,-143.187729,,,
729862805.001545,-0.087695,-2.928445,-161.891096,0.042831,-0.060883,1.152283,0.549379,0.115315,0.01299,52.607086,32.164139,-143.024185,,,
729862805.004885,-0.087695,-2.928445,-161.891096,0.042831,-0.060883,1.152283,0.549379,0.115315,0.01299,52.607086,32.164139,-143.024185,,,
729862805.008216,0.066763,-2.896025,-161.877912,0.058182,-0.024536,1.122345,0.549379,0.115315,0.01299,52.607086,32.164139,-143.024185,,,
729862805.011551,0.23465,-2.86316,-161.86682,0.058182,-0.024536,1.122345,0.650231,0.116739,0.010205,52.607086,32.164139,-143.024185,,,
729862805.014976,0.23465,-2.86316,-161.86682,0.058182,-0.024536,1.122345,0.650231,0.116739,0.010205,52.607086,32.164139,-143.024185,,,
729862805.018228,0.417289,-2.830658,-161.854969,0.050507,-0.018494,1.12561,0.650231,0.116739,0.010205,52.607086,32.164139,-143.024185,,,
729862805.021592,0.612597,-2.801267,-161.839423,0.050507,-0.018494,1.12561,0.740994,0.100346,0.035865,52.607086,32.164139,-143.024185,,,
729862805.024894,0.612597,-2.801267,-161.839423,0.050507,-0.018494,1.12561,0.740994,0.100346,0.035865,52.607086,32.164139,-143.024185,,,
729862805.027993,0.820782,-2.773203,-161.81958,0.021545,-0.027954,1.115173,0.740994,0.100346,0.035865,52.607086,32.164139,-143.024185,,,
729862805.031623,1.039158,-2.745607,-161.796094,0.021545,-0.027954,1.115173,0.802168,0.10792,0.06004,52.607086,32.164139,-143.024185,,,
729862805.034922,1.039158,-2.745607,-161.796094,0.021545,-0.027954,1.115173,0.802168,0.10792,0.06004,52.607086,32.164139,-143.024185,,,
729862805.038229,1.266393,-2.716497,-161.768417,0.009689,-0.008301,1.109756,0.802168,0.10792,0.06004,52.607086,32.164139,-143.024185,,,
729862805.04166,1.499283,-2.687185,-161.736741,0.009689,-0.008301,1.109756,0.833702,0.098842,0.084395,52.607086,32.164139,-143.024185,,,
729862805.044878,1.499283,-2.687185,-161.736741,0.009689,-0.008301,1.109756,0.833702,0.098842,0.084395,53.531204,30.265152,-143.063141,,,
729862805.04821,1.735849,-2.66002,-161.702053,0.009888,0.002197,1.078583,0.833702,0.098842,0.084395,53.531204,30.265152,-143.063141,,,
729862805.051548,1.973858,-2.636843,-161.665707,0.009888,0.002197,1.078583,0.831505,0.066347,0.083785,53.531204,30.265152,-143.063141,,,
729862805.054863,1.973858,-2.636843,-161.665707,0.009888,0.002197,1.078583,0.831505,0.066347,0.083785,53.531204,30.265152,-143.063141,,,
729862805.058239,2.211068,-2.618677,-161.629912,0.019943,0.026703,1.03331,0.831505,0.066347,0.083785,53.531204,30.265152,-143.063141,,,
729862805.061536,2.446153,-2.604831,-161.596264,0.019943,0.026703,1.03331,0.814365,0.056042,0.066091,53.531204,30.265152,-143.063141,,,
729862805.064896,2.446153,-2.604831,-161.596264,0.019943,0.026703,1.03331,0.814365,0.056042,0.066091,53.531204,30.265152,-143.063141,,,
729862805.068198,2.678919,-2.591221,-161.565885,0.030762,0.051193,1.014481,0.814365,0.056042,0.066091,53.531204,30.265152,-143.063141,,,
729862805.071523,2.910256,-2.572966,-161.537793,0.030762,0.051193,1.014481,0.805441,0.079468,0.056661,53.531204,30.265152,-143.063141,,,
729862805.074865,2.910256,-2.572966,-161.537793,0.030762,0.051193,1.014481,0.805441,0.079468,0.056661,53.531204,30.265152,-143.063141,,,
729862805.078199,3.140371,-2.552136,-161.510826,0.042419,0.055832,1.024109,0.805441,0.079468,0.056661,53.531204,30.265152,-143.063141,,,
729862805.081527,3.369164,-2.531623,-161.485068,0.042419,0.055832,1.024109,0.795491,0.079954,0.054324,53.531204,30.265152,-143.063141,,,
729862805.084877,3.369164,-2.531623,-161.485068,0.042419,0.055832,1.024109,0.795491,0.079954,0.054324,54.313309,28.250931,-142.609406,,,
729862805.088192,3.597274,-2.51112,-161.459586,0.039825,0.059738,1.002335,0.795491,0.079954,0.054324,54.313309,28.250931,-142.609406,,,
729862805.091525,3.825486,-2.486412,-161.434225,0.039825,0.059738,1.002335,0.809468,0.118625,0.051169,54.313309,28.250931,-142.609406,,,
729862805.094856,3.825486,-2.486412,-161.434225,0.039825,0.059738,1.002335,0.809468,0.118625,0.051169,54.313309,28.250931,-142.609406,,,
729862805.098235,4.05572,-2.455964,-161.409424,0.038422,0.059586,1.026489,0.809468,0.118625,0.051169,54.313309,28.250931,-142.609406,,,
729862805.101518,4.290447,-2.42151,-161.384951,0.038422,0.059586,1.026489,0.847461,0.134129,0.05304,54.313309,28.250931,-142.609406,,,
729862805.104875,4.290447,-2.42151,-161.384951,0.038422,0.059586,1.026489,0.847461,0.134129,0.05304,54.313309,28.250931,-142.609406,,,
729862805.108206,4.531368,-2.386017,-161.359921,0.044449,0.057358,1.043365,0.847461,0.134129,0.05304,54.313309,28.250931,-142.609406,,,
729862805.111523,4.777903,-2.351038,-161.334118,0.044449,0.057358,1.043365,0.888108,0.113462,0.05641,54.313309,28.250931,-142.609406,,,
729862805.114879,4.777903,-2.351038,-161.334118,0.044449,0.057358,1.043365,0.888108,0.113462,0.05641,54.313309,28.250931,-142.609406,,,
729862805.118239,5.029885,-2.320131,-161.307537,0.041382,0.058762,1.031006,0.888108,0.113462,0.05641,54.313309,28.250931,-142.609406,,,
729862805.121539,5.287595,-2.296533,-161.279424,0.041382,0.058762,1.031006,0.921666,0.060053,0.069431,54.313309,28.250931,-142.609406,,,
729862805.124851,5.287595,-2.296533,-161.279424,0.041382,0.058762,1.031006,0.921666,0.060053,0.069431,55.123444,26.125031,-142.622192,,,
729862805.128202,5.549871,-2.281347,-161.24888,0.029999,0.066086,1.00914,0.921666,0.060053,0.069431,55.123444,26.125031,-142.622192,,,
729862805.131522,5.813633,-2.27239,-161.216222,0.029999,0.066086,1.00914,0.923223,0.027028,0.077249,55.123444,26.125031,-142.622192,,,
729862805.134965,5.813633,-2.27239,-161.216222,0.029999,0.066086,1.00914,0.923223,0.027028,0.077249,55.123444,26.125031,-142.622192,,,
729862805.138207,6.077101,-2.268189,-161.182997,0.031769,0.077667,0.991608,0.923223,0.027028,0.077249,55.123444,26.125031,-142.622192,,,
729862805.141531,6.339036,-2.268508,-161.148815,0.031769,0.077667,0.991608,0.904308,-0.007211,0.087767,55.123444,26.125031,-142.622192,,,
729862805.144874,6.339036,-2.268508,-161.148815,0.031769,0.077667,0.991608,0.904308,-0.007211,0.087767,55.123444,26.125031,-142.622192,,,
729862805.148264,6.598019,-2.273963,-161.11275,0.046844,0.099228,0.972748,0.904308,-0.007211,0.087767,55.123444,26.125031,-142.622192,,,
729862805.151526,6.853311,-2.283232,-161.075463,0.046844,0.099228,0.972748,0.885405,-0.03465,0.094444,55.123444,26.125031,-142.622192,,,
729862805.154856,6.853311,-2.283232,-161.075463,0.046844,0.099228,0.972748,0.885405,-0.03465,0.094444,55.123444,26.125031,-142.622192,,,
729862805.15821,7.106541,-2.29736,-161.037658,0.04805,0.104141,0.964798,0.885405,-0.03465,0.094444,55.123444,26.125031,-142.622192,,,
729862805.161527,7.360531,-2.317288,-161.001394,0.04805,0.104141,0.964798,0.909952,-0.06984,0.075546,55.123444,26.125031,-142.622192,,,
729862805.164858,7.360531,-2.317288,-161.001394,0.04805,0.104141,0.964798,0.909952,-0.06984,0.075546,55.667328,24.287506,-142.218994,,,
729862805.168218,7.618794,-2.341251,-160.96822,0.061386,0.11264,0.986816,0.909952,-0.06984,0.075546,55.667328,24.287506,-142.218994,,,
729862805.171526,7.884698,-2.36467,-160.93856,0.061386,0.11264,0.986816,0.980243,-0.049364,0.048712,55.667328,24.287506,-142.218994,,,
729862805.17497,7.884698,-2.36467,-160.93856,0.061386,0.11264,0.986816,0.980243,-0.049364,0.048712,55.667328,24.287506,-142.218994,,,
729862805.178222,8.161841,-2.384586,-160.91172,0.077682,0.108902,1.047745,0.980243,-0.049364,0.048712,55.667328,24.287506,-142.218994,,,
729862805.18153,8.453445,-2.398795,-160.886125,0.077682,0.108902,1.047745,1.085799,-0.008618,0.038878,55.667328,24.287506,-142.218994,,,
729862805.184869,8.453445,-2.398795,-160.886125,0.077682,0.108902,1.047745,1.085799,-0.008618,0.038878,55.667328,24.287506,-142.218994,,,
729862805.18825,8.760372,-2.407771,-160.860645,0.082489,0.100159,1.093201,1.085799,-0.008618,0.038878,55.667328,24.287506,-142.218994,,,
729862805.191522,9.08223,-2.411813,-160.836454,0.082489,0.100159,1.093201,1.190149,0.022824,0.014666,55.667328,24.287506,-142.218994,,,
729862805.194866,9.08223,-2.411813,-160.836454,0.082489,0.100159,1.093201,1.190149,0.022824,0.014666,55.667328,24.287506,-142.218994,,,
729862805.198198,9.419747,-2.411064,-160.815545,0.084412,0.107376,1.104187,1.190149,0.022824,0.014666,55.667328,24.287506,-142.218994,,,
729862805.201522,9.774096,-2.404655,-160.798408,0.084412,0.107376,1.104187,1.318647,0.05652,-0.003686,55.667328,24.287506,-142.218994,,,
729862805.204882,9.774096,-2.404655,-160.798408,0.084412,0.107376,1.104187,1.318647,0.05652,-0.003686,55.667328,24.287506,-142.218994,,,
729862805.208213,10.147517,-2.393444,-160.782898,0.077667,0.117676,1.116623,1.318647,0.05652,-0.003686,56.776093,21.413284,-142.015778,,,
729862805.211519,10.537019,-2.378232,-160.768741,0.077667,0.117676,1.116623,1.401027,0.07874,-0.021137,56.776093,21.413284,-142.015778,,,
729862805.214858,10.537019,-2.378232,-160.768741,0.077667,0.117676,1.116623,1.401027,0.07874,-0.021137,56.776093,21.413284,-142.015778,,,
729862805.218213,10.937296,-2.359404,-160.756659,0.061752,0.115433,1.114365,1.401027,0.07874,-0.021137,56.776093,21.413284,-142.015778,,,
729862805.221526,11.348564,-2.335775,-160.746133,0.061752,0.115433,1.114365,1.500636,0.111062,-0.027697,56.776093,21.413284,-142.015778,,,
729862805.224866,11.348564,-2.335775,-160.746133,0.061752,0.115433,1.114365,1.500636,0.111062,-0.027697,56.776093,21.413284,-142.015778,,,
729862805.228271,11.774824,-2.307756,-160.736086,0.056595,0.147003,1.105347,1.500636,0.111062,-0.027697,56.776093,21.413284,-142.015778,,,
729862805.231522,12.212662,-2.274194,-160.72548,0.056595,0.147003,1.105347,1.540555,0.157201,-0.014462,56.776093,21.413284,-142.015778,,,
729862805.234877,12.212662,-2.274194,-160.72548,0.056595,0.147003,1.105347,1.540555,0.157201,-0.014462,56.776093,21.413284,-142.015778,,,
729862805.238207,12.6539,-2.234192,-160.712775,0.042191,0.146942,1.089462,1.540555,0.157201,-0.014462,56.776093,21.413284,-142.015778,,,
729862805.241528,13.093809,-2.180966,-160.698342,0.042191,0.146942,1.089462,1.521554,0.257418,-0.00765,56.776093,21.413284,-142.015778,,,
729862805.244892,13.093809,-2.180966,-160.698342,0.042191,0.146942,1.089462,1.521554,0.257418,-0.00765,56.776093,21.413284,-142.015778,,,
729862805.248195,13.53068,-2.11438,-160.683339,0.039215,0.193466,1.042252,1.521554,0.257418,-0.00765,58.047455,17.951355,-141.774307,,,
729862805.251529,13.962008,-2.037746,-160.667364,0.039215,0.193466,1.042252,1.478949,0.287744,0.008176,58.047455,17.951355,-141.774307,,,
729862805.254859,13.962008,-2.037746,-160.667364,0.039215,0.193466,1.042252,1.478949,0.287744,0.008176,58.047455,17.951355,-141.774307,,,
729862805.258214,14.38846,-1.959698,-160.649768,0.024292,0.216446,1.006073,1.478949,0.287744,0.008176,58.047455,17.951355,-141.774307,,,
729862805.261526,14.81136,-1.883752,-160.632514,0.024292,0.216446,1.006073,1.460553,0.252593,0.002127,58.047455,17.951355,-141.774307,,,
729862805.264871,14.81136,-1.883752,-160.632514,0.024292,0.216446,1.006073,1.460553,0.252593,0.002127,58.047455,17.951355,-141.774307,,,
729862805.268266,15.230887,-1.813976,-160.61711,0.031616,0.242477,0.967743,1.460553,0.252593,0.002127,58.047455,17.951355,-141.774307,,,
729862805.271513,15.644585,-1.748385,-160.60574,0.031616,0.242477,0.967743,1.426963,0.225477,-0.020129,58.047455,17.951355,-141.774307,,,
729862805.274874,15.644585,-1.748385,-160.60574,0.031616,0.242477,0.967743,1.426963,0.225477,-0.020129,58.047455,17.951355,-141.774307,,,
729862805.277957,16.054962,-1.686353,-160.597638,0.034149,0.26355,0.953079,1.426963,0.225477,-0.020129,58.047455,17.951355,-141.774307,,,
729862805.281554,16.465067,-1.624027,-160.591548,0.034149,0.26355,0.953079,1.451465,0.224783,-0.022507,58.047455,17.951355,-141.774307,,,
729862805.284857,16.465067,-1.624027,-160.591548,0.034149,0.26355,0.953079,1.451465,0.224783,-0.022507,58.047455,17.951355,-141.774307,,,
729862805.288192,16.880222,-1.562612,-160.586352,0.026947,0.265228,0.991562,1.451465,0.224783,-0.022507,59.672455,14.632843,-141.595322,,,
729862805.29152,17.298887,-1.50021,-160.583417,0.026947,0.265228,0.991562,1.456964,0.228725,-0.03782,59.672455,14.632843,-141.595322,,,
729862805.29494,17.298887,-1.50021,-160.583417,0.026947,0.265228,0.991562,1.456964,0.228725,-0.03782,59.672455,14.632843,-141.595322,,,
729862805.298202,17.717977,-1.437309,-160.582711,0.037048,0.25177,0.990448,1.456964,0.228725,-0.03782,59.672455,14.632843,-141.595322,,,
729862805.301537,18.135943,-1.378326,-160.585771,0.037048,0.25177,0.990448,1.453956,0.129219,-0.056297,59.672455,14.632843,-141.595322,,,
729862805.304874,18.135943,-1.378326,-160.585771,0.037048,0.25177,0.990448,1.453956,0.129219,-0.056297,59.672455,14.632843,-141.595322,,,
729862805.30826,18.553421,-1.3359,-160.591296,0.029114,0.278366,0.937729,1.453956,0.129219,-0.056297,59.672455,14.632843,-141.595322,,,
729862805.31152,18.96577,-1.308289,-160.597925,0.029114,0.278366,0.937729,1.411212,0.04885,-0.048459,59.672455,14.632843,-141.595322,,,
729862805.314851,18.96577,-1.308289,-160.597925,0.029114,0.278366,0.937729,1.411212,0.04885,-0.048459,59.672455,14.632843,-141.595322,,,
729862805.318201,19.37194,-1.29147,-160.603373,0.028412,0.322189,0.883255,1.411212,0.04885,-0.048459,59.672455,14.632843,-141.595322,,,
729862805.321521,19.770211,-1.273467,-160.608385,0.028412,0.322189,0.883255,1.345257,0.08633,-0.046558,59.672455,14.632843,-141.595322,,,
729862805.324867,19.770211,-1.273467,-160.608385,0.028412,0.322189,0.883255,1.345257,0.08633,-0.046558,59.672455,14.632843,-141.595322,,,
729862805.328187,20.158774,-1.249682,-160.613417,0.042435,0.345078,0.889618,1.345257,0.08633,-0.046558,60.607605,11.781357,-141.466782,,,
729862805.331573,20.535959,-1.218949,-160.619204,0.042435,0.345078,0.889618,1.270868,0.108958,-0.047499,60.607605,11.781357,-141.466782,,,
729862805.334962,20.535959,-1.218949,-160.619204,0.042435,0.345078,0.889618,1.270868,0.108958,-0.047499,60.607605,11.781357,-141.466782,,,
729862805.338369,20.903527,-1.186735,-160.625501,0.046906,0.364441,0.865891,1.270868,0.108958,-0.047499,60.607605,11.781357,-141.466782,,,
729862805.341518,21.260481,-1.153267,-160.632679,0.046906,0.364441,0.865891,1.202067,0.10945,-0.050607,60.607605,11.781357,-141.466782,,,
729862805.344972,21.260481,-1.153267,-160.632679,0.046906,0.364441,0.865891,1.202067,0.10945,-0.050607,60.607605,11.781357,-141.466782,,,
729862805.348219,21.608211,-1.120057,-160.640057,0.051453,0.374512,0.847351,1.202067,0.10945,-0.050607,60.607605,11.781357,-141.466782,,,
729862805.351533,21.946826,-1.085158,-160.64968,0.051453,0.374512,0.847351,1.140315,0.121159,-0.063127,60.607605,11.781357,-141.466782,,,
729862805.354866,21.946826,-1.085158,-160.64968,0.051453,0.374512,0.847351,1.140315,0.121159,-0.063127,60.607605,11.781357,-141.466782,,,
729862805.358258,22.276737,-1.047203,-160.662214,0.054504,0.379547,0.852219,1.140315,0.121159,-0.063127,60.607605,11.781357,-141.466782,,,
729862805.361523,22.599023,-1.004959,-160.677724,0.054504,0.379547,0.852219,1.096232,0.12354,-0.07889,60.607605,11.781357,-141.466782,,,
729862805.364859,22.599023,-1.004959,-160.677724,0.054504,0.379547,0.852219,1.096232,0.12354,-0.07889,60.607605,11.781357,-141.466782,,,
729862805.368229,22.915353,-0.962032,-160.696056,0.053802,0.382935,0.857437,1.096232,0.12354,-0.07889,60.607605,11.781357,-141.466782,,,
729862805.371548,23.227532,-0.920131,-160.71692,0.053802,0.382935,0.857437,1.087953,0.112631,-0.092516,61.614883,9.103516,-141.064972,,,
729862805.374872,23.227532,-0.920131,-160.71692,0.053802,0.382935,0.857437,1.087953,0.112631,-0.092516,61.614883,9.103516,-141.064972,,,
729862805.378201,23.539876,-0.87919,-160.739758,0.037933,0.37645,0.866928,1.087953,0.112631,-0.092516,61.614883,9.103516,-141.064972,,,
729862805.381529,23.854262,-0.837572,-160.765251,0.037933,0.37645,0.866928,1.108545,0.100331,-0.102161,61.614883,9.103516,-141.064972,,,
729862805.384955,23.854262,-0.837572,-160.765251,0.037933,0.37645,0.866928,1.108545,0.100331,-0.102161,61.614883,9.103516,-141.064972,,,
729862805.388189,24.1718,-0.798429,-160.791408,0.032257,0.36795,0.902405,1.108545,0.100331,-0.102161,61.614883,9.103516,-141.064972,,,
729862805.391531,24.49323,-0.761264,-160.817552,0.032257,0.36795,0.902405,1.140015,0.091985,-0.093075,61.614883,9.103516,-141.064972,,,
729862805.394883,24.49323,-0.761264,-160.817552,0.032257,0.36795,0.902405,1.140015,0.091985,-0.093075,61.614883,9.103516,-141.064972,,,
729862805.398261,24.819198,-0.724906,-160.842691,0.015793,0.358627,0.907852,1.140015,0.091985,-0.093075,61.614883,9.103516,-141.064972,,,
729862805.401522,25.148519,-0.688112,-160.865392,0.015793,0.358627,0.907852,1.155804,0.099185,-0.075273,61.614883,9.103516,-141.064972,,,
729862805.404824,25.148519,-0.688112,-160.865392,0.015793,0.358627,0.907852,1.155804,0.099185,-0.075273,61.614883,9.103516,-141.064972,,,
729862805.408218,25.48001,-0.651832,-160.885245,0.006073,0.368149,0.906769,1.155804,0.099185,-0.075273,61.614883,9.103516,-141.064972,,,
729862805.411528,25.812092,-0.617884,-160.902239,0.006073,0.368149,0.906769,1.157234,0.077945,-0.053332,62.437454,6.773743,-140.703049,,,
729862805.414873,25.812092,-0.617884,-160.902239,0.006073,0.368149,0.906769,1.157234,0.077945,-0.053332,62.437454,6.773743,-140.703049,,,
729862805.418206,26.144832,-0.589036,-160.915668,-0.011993,0.38179,0.883484,1.157234,0.077945,-0.053332,62.437454,6.773743,-140.703049,,,
729862805.421494,26.478073,-0.565698,-160.925724,-0.011993,0.38179,0.883484,1.168773,0.063909,-0.031556,62.437454,6.773743,-140.703049,,,
729862805.424924,26.478073,-0.565698,-160.925724,-0.011993,0.38179,0.883484,1.168773,0.063909,-0.031556,62.437454,6.773743,-140.703049,,,
729862805.428214,26.813321,-0.546339,-160.932141,-0.021454,0.393478,0.87764,1.168773,0.063909,-0.031556,62.437454,6.773743,-140.703049,,,
729862805.431527,27.152042,-0.528334,-160.9347,-0.021454,0.393478,0.87764,1.203228,0.063385,-0.004622,62.437454,6.773743,-140.703049,,,
729862805.434871,27.152042,-0.528334,-160.9347,-0.021454,0.393478,0.87764,1.203228,0.063385,-0.004622,62.437454,6.773743,-140.703049,,,
729862805.438179,27.495859,-0.51171,-160.933256,-0.014679,0.395264,0.908569,1.203228,0.063385,-0.004622,62.437454,6.773743,-140.703049,,,
729862805.441533,27.846021,-0.495346,-160.928299,-0.014679,0.395264,0.908569,1.253146,0.074616,0.012411,62.437454,6.773743,-140.703049,,,
729862805.444855,27.846021,-0.495346,-160.928299,-0.014679,0.395264,0.908569,1.253146,0.074616,0.012411,62.437454,6.773743,-140.703049,,,
729862805.448267,28.203234,-0.478455,-160.920693,-0.014664,0.401077,0.926086,1.253146,0.074616,0.012411,62.437454,6.773743,-140.703049,,,
729862805.451522,28.565609,-0.459812,-160.912143,-0.014664,0.401077,0.926086,1.281444,0.081633,0.016823,63.204071,4.346024,-139.915924,,,
729862805.454826,28.565609,-0.459812,-160.912143,-0.014664,0.401077,0.926086,1.281444,0.081633,0.016823,63.204071,4.346024,-139.915924,,,
729862805.458219,28.931984,-0.441713,-160.903101,-0.020523,0.415894,0.912201,1.281444,0.081633,0.016823,63.204071,4.346024,-139.915924,,,
729862805.461526,29.302134,-0.427148,-160.893354,-0.020523,0.415894,0.912201,1.302163,0.047955,0.027449,63.204071,4.346024,-139.915924,,,
729862805.464877,29.302134,-0.427148,-160.893354,-0.020523,0.415894,0.912201,1.302163,0.047955,0.027449,63.204071,4.346024,-139.915924,,,
729862805.468199,29.675192,-0.418787,-160.881765,-0.02832,0.431625,0.889679,1.302163,0.047955,0.027449,63.204071,4.346024,-139.915924,,,
729862805.471499,30.049076,-0.418502,-160.86874,-0.02832,0.431625,0.889679,1.300244,-0.01313,0.025017,63.204071,4.346024,-139.915924,,,
729862805.474953,30.049076,-0.418502,-160.86874,-0.02832,0.431625,0.889679,1.300244,-0.01313,0.025017,63.204071,4.346024,-139.915924,,,
729862805.478206,30.422395,-0.427719,-160.856019,-0.03096,0.456955,0.857056,1.300244,-0.01313,0.025017,63.204071,4.346024,-139.915924,,,
729862805.481522,30.792181,-0.443768,-160.844988,-0.03096,0.456955,0.857056,1.262865,-0.048672,0.013407,63.204071,4.346024,-139.915924,,,
729862805.484885,30.792181,-0.443768,-160.844988,-0.03096,0.456955,0.857056,1.262865,-0.048672,0.013407,63.204071,4.346024,-139.915924,,,
729862805.488221,31.156173,-0.462816,-160.835424,-0.013763,0.489456,0.823975,1.262865,-0.048672,0.013407,63.204071,4.346024,-139.915924,,,
729862805.491526,31.513301,-0.479849,-160.826533,-0.013763,0.489456,0.823975,1.219589,-0.016905,0.030404,63.204071,4.346024,-139.915924,,,
729862805.494883,31.513301,-0.479849,-160.826533,-0.013763,0.489456,0.823975,1.219589,-0.016905,0.030404,63.793076,1.499634,-139.437103,,,
729862805.498186,31.864741,-0.494167,-160.81408,-0.014404,0.512787,0.825882,1.219589,-0.016905,0.030404,63.793076,1.499634,-139.437103,,,
729862805.501525,32.211063,-0.505566,-160.794332,-0.014404,0.512787,0.825882,1.198038,0.031946,0.076575,63.793076,1.499634,-139.437103,,,
729862805.504831,32.211063,-0.505566,-160.794332,-0.014404,0.512787,0.825882,1.198038,0.031946,0.076575,63.793076,1.499634,-139.437103,,,
729862805.508214,32.554478,-0.514384,-160.765862,-0.022537,0.520187,0.847107,1.198038,0.031946,0.076575,63.793076,1.499634,-139.437103,,,
729862805.511524,32.897371,-0.520852,-160.72997,-0.022537,0.520187,0.847107,1.205973,0.062696,0.113974,63.793076,1.499634,-139.437103,,,
729862805.514939,32.897371,-0.520852,-160.72997,-0.022537,0.520187,0.847107,1.205973,0.062696,0.113974,63.793076,1.499634,-139.437103,,,
729862805.518199,33.242208,-0.526817,-160.688758,-0.019974,0.512817,0.871262,1.205973,0.062696,0.113974,63.793076,1.499634,-139.437103,,,
729862805.521493,33.592253,-0.535786,-160.644125,-0.019974,0.512817,0.871262,1.265651,0.036376,0.117714,63.793076,1.499634,-139.437103,,,
729862805.524884,33.592253,-0.535786,-160.644125,-0.019974,0.512817,0.871262,1.265651,0.036376,0.117714,63.793076,1.499634,-139.437103,,,
729862805.528188,33.952459,-0.550553,-160.598648,-0.016602,0.502365,0.895874,1.265651,0.036376,0.117714,63.793076,1.499634,-139.437103,,,
729862805.531539,34.328226,-0.57192,-160.555258,-0.016602,0.502365,0.895874,1.392872,-0.041515,0.105731,63.793076,1.499634,-139.437103,,,
729862805.53488,34.328226,-0.57192,-160.555258,-0.016602,0.502365,0.895874,1.392872,-0.041515,0.105731,64.357132,-1.15657,-139.001404,,,
729862805.538211,34.723305,-0.60514,-160.513062,-0.010345,0.492996,0.940552,1.392872,-0.041515,0.105731,64.357132,-1.15657,-139.001404,,,
729862805.54153,35.13788,-0.652967,-160.472201,-0.010345,0.492996,0.940552,1.532158,-0.144257,0.094442,64.357132,-1.15657,-139.001404,,,
729862805.544855,35.13788,-0.652967,-160.472201,-0.010345,0.492996,0.940552,1.532158,-0.144257,0.094442,64.357132,-1.15657,-139.001404,,,
729862805.548199,35.57197,-0.714566,-160.431743,-0.020523,0.492569,0.939606,1.532158,-0.144257,0.094442,64.357132,-1.15657,-139.001404,,,
729862805.55153,36.024111,-0.786055,-160.391098,-0.020523,0.492569,0.939606,1.636986,-0.190285,0.091001,64.357132,-1.15657,-139.001404,,,
729862805.554886,36.024111,-0.786055,-160.391098,-0.020523,0.492569,0.939606,1.636986,-0.190285,0.091001,64.357132,-1.15657,-139.001404,,,
729862805.558201,36.490537,-0.864572,-160.349414,-0.013474,0.507599,0.923401,1.636986,-0.190285,0.091001,64.357132,-1.15657,-139.001404,,,
729862805.561529,36.966039,-0.946628,-160.306348,-0.013474,0.507599,0.923401,1.685753,-0.202945,0.094342,64.357132,-1.15657,-139.001404,,,
729862805.564873,36.966039,-0.946628,-160.306348,-0.013474,0.507599,0.923401,1.685753,-0.202945,0.094342,64.357132,-1.15657,-139.001404,,,
729862805.568258,37.447627,-1.031967,-160.26153,-0.006424,0.533142,0.878998,1.685753,-0.202945,0.094342,64.357132,-1.15657,-139.001404,,,
729862805.571495,37.930872,-1.121422,-160.214403,-0.006424,0.533142,0.878998,1.679075,-0.224478,0.108414,64.357132,-1.15657,-139.001404,,,
729862805.574866,37.930872,-1.121422,-160.214403,-0.006424,0.533142,0.878998,1.679075,-0.224478,0.108414,64.595993,-4.445328,-138.31601,,,
729862805.578205,38.412885,-1.217401,-160.162805,-0.009003,0.564758,0.816284,1.679075,-0.224478,0.108414,64.595993,-4.445328,-138.31601,,,
729862805.581531,38.890692,-1.31907,-160.106748,-0.009003,0.564758,0.816284,1.647801,-0.232139,0.126384,64.595993,-4.445328,-138.31601,,,
729862805.584885,38.890692,-1.31907,-160.106748,-0.009003,0.564758,0.816284,1.647801,-0.232139,0.126384,64.595993,-4.445328,-138.31601,,,
729862805.588179,39.364157,-1.424743,-160.04601,0.000778,0.609131,0.772888,1.647801,-0.232139,0.126384,64.595993,-4.445328,-138.31601,,,
729862805.591543,39.831884,-1.53046,-159.980849,0.000778,0.609131,0.772888,1.607015,-0.199779,0.146516,64.595993,-4.445328,-138.31601,,,
729862805.594969,39.831884,-1.53046,-159.980849,0.000778,0.609131,0.772888,1.607015,-0.199779,0.146516,64.595993,-4.445328,-138.31601,,,
729862805.598211,40.292681,-1.635297,-159.910072,0.012222,0.648087,0.764954,1.607015,-0.199779,0.146516,64.595993,-4.445328,-138.31601,,,
729862805.60153,40.746701,-1.7364,-159.833836,0.012222,0.648087,0.764954,1.564389,-0.137123,0.171086,64.595993,-4.445328,-138.31601,,,
729862805.604853,40.746701,-1.7364,-159.833836,0.012222,0.648087,0.764954,1.564389,-0.137123,0.171086,64.595993,-4.445328,-138.31601,,,
729862805.608279,41.195091,-1.832709,-159.751235,0.019852,0.661301,0.760651,1.564389,-0.137123,0.171086,64.595993,-4.445328,-138.31601,,,
729862805.611517,41.637806,-1.926003,-159.660653,0.019852,0.661301,0.760651,1.533998,-0.105843,0.200777,64.595993,-4.445328,-138.31601,,,
729862805.614869,41.637806,-1.926003,-159.660653,0.019852,0.661301,0.760651,1.533998,-0.105843,0.200777,64.570251,-7.584137,-136.978989,,,
729862805.6182,42.076466,-2.022593,-159.562739,0.027985,0.662079,0.759888,1.533998,-0.105843,0.200777,64.570251,-7.584137,-136.978989,,,
729862805.621521,42.513979,-2.126035,-159.461769,0.027985,0.662079,0.759888,1.557457,-0.151079,0.196226,64.570251,-7.584137,-136.978989,,,
729862805.624907,42.513979,-2.126035,-159.461769,0.027985,0.662079,0.759888,1.557457,-0.151079,0.196226,64.570251,-7.584137,-136.978989,,,
729862805.628229,42.956864,-2.236903,-159.360596,0.027206,0.660278,0.76767,1.557457,-0.151079,0.196226,64.570251,-7.584137,-136.978989,,,
729862805.631524,43.409041,-2.353549,-159.262209,0.027206,0.660278,0.76767,1.635565,-0.206403,0.168736,64.570251,-7.584137,-136.978989,,,
729862805.634957,43.409041,-2.353549,-159.262209,0.027206,0.660278,0.76767,1.635565,-0.206403,0.168736,64.570251,-7.584137,-136.978989,,,
729862805.638177,43.873221,-2.47766,-159.166355,0.028961,0.644424,0.814819,1.635565,-0.206403,0.168736,64.570251,-7.584137,-136.978989,,,
729862805.641601,44.353853,-2.609593,-159.070887,0.028961,0.644424,0.814819,1.782191,-0.249679,0.159594,64.570251,-7.584137,-136.978989,,,
729862805.644877,44.353853,-2.609593,-159.070887,0.028961,0.644424,0.814819,1.782191,-0.249679,0.159594,64.570251,-7.584137,-136.978989,,,
729862805.648272,44.856531,-2.749488,-158.973599,0.028549,0.623306,0.862579,1.782191,-0.249679,0.159594,64.570251,-7.584137,-136.978989,,,
729862805.651388,44.856531,-2.749488,-158.973599,0.028549,0.623306,0.862579,1.782191,-0.249679,0.159594,64.570251,-7.584137,-136.978989,,,
729862805.654842,45.3821,-2.899047,-158.873381,0.028549,0.623306,0.862579,1.935035,-0.318287,0.153735,64.570251,-7.584137,-136.978989,,,
729862805.658219,45.929064,-3.062462,-158.769218,0.031647,0.608658,0.872482,1.935035,-0.318287,0.153735,64.591293,-11.035339,-135.400238,,,
729862805.661537,45.929064,-3.062462,-158.769218,0.031647,0.608658,0.872482,1.935035,-0.318287,0.153735,64.591293,-11.035339,-135.400238,,,
729862805.664884,46.492019,-3.237734,-158.664365,0.031647,0.608658,0.872482,2.023835,-0.378585,0.124431,64.591293,-11.035339,-135.400238,,,
729862805.668214,47.067189,-3.420788,-158.560988,0.038071,0.645721,0.804352,2.023835,-0.378585,0.124431,64.591293,-11.035339,-135.400238,,,
729862805.67159,47.067189,-3.605914,-158.460871,0.038071,0.645721,0.804352,2.06495,-0.400415,0.093332,64.591293,-11.035339,-135.400238,,,
729862805.674928,47.650078,-3.605914,-158.460871,0.038071,0.645721,0.804352,2.06495,-0.400415,0.093332,64.591293,-11.035339,-135.400238,,,
729862805.678195,48.238634,-3.794194,-158.36135,0.043839,0.66925,0.753281,2.06495,-0.400415,0.093332,64.591293,-11.035339,-135.400238,,,
729862805.681522,48.238634,-3.794194,-158.36135,0.043839,0.66925,0.753281,2.106865,-0.336002,0.113704,64.591293,-11.035339,-135.400238,,,
729862805.684868,48.833751,-3.983576,-158.258216,0.043839,0.66925,0.753281,2.106865,-0.336002,0.113704,64.591293,-11.035339,-135.400238,,,
729862805.688214,49.433914,-4.17057,-158.1444,0.041718,0.687271,0.735535,2.106865,-0.336002,0.113704,64.591293,-11.035339,-135.400238,,,
729862805.691533,49.433914,-4.17057,-158.1444,0.041718,0.687271,0.735535,2.049743,-0.247938,0.154189,64.591293,-11.035339,-135.400238,,,
729862805.694869,50.028767,-4.35241,-158.018483,0.041718,0.687271,0.735535,2.049743,-0.247938,0.154189,64.591293,-11.035339,-135.400238,,,
729862805.698201,50.614767,-4.533857,-157.879057,0.054199,0.737839,0.672256,2.049743,-0.247938,0.154189,64.187454,-14.926666,-133.442261,,,
729862805.701567,50.614767,-4.533857,-157.879057,0.054199,0.737839,0.672256,2.007956,-0.212762,0.186951,64.187454,-14.926666,-133.442261,,,
729862805.704823,51.192815,-4.717148,-157.728028,0.054199,0.737839,0.672256,2.007956,-0.212762,0.186951,64.187454,-14.926666,-133.442261,,,
729862805.7082,51.764181,-4.907163,-157.56584,0.056,0.789505,0.610977,2.007956,-0.212762,0.186951,64.187454,-14.926666,-133.442261,,,
729862805.711527,51.764181,-4.907163,-157.56584,0.056,0.789505,0.610977,2.007956,-0.212762,0.186951,64.187454,-14.926666,-133.442261,,,
729862805.714941,52.324352,-5.104078,-157.395866,0.056,0.789505,0.610977,1.906378,-0.234959,0.195169,64.187454,-14.926666,-133.442261,,,
729862805.71819,52.868878,-5.309802,-157.221709,0.043869,0.818695,0.546097,1.906378,-0.234959,0.195169,64.187454,-14.926666,-133.442261,,,
729862805.721513,52.868878,-5.309802,-157.221709,0.043869,0.818695,0.546097,1.906378,-0.234959,0.195169,64.187454,-14.926666,-133.442261,,,
729862805.724878,53.395892,-5.526594,-157.046385,0.043869,0.818695,0.546097,1.816496,-0.329906,0.186329,64.187454,-14.926666,-133.442261,,,
729862805.728191,53.911876,-5.761109,-156.868505,0.052872,0.820038,0.492386,1.816496,-0.329906,0.186329,64.187454,-14.926666,-133.442261,,,
729862805.731545,53.911876,-5.761109,-156.868505,0.052872,0.820038,0.492386,1.816496,-0.329906,0.186329,64.187454,-14.926666,-133.442261,,,
729862805.734866,54.421681,-6.014794,-156.690237,0.052872,0.820038,0.492386,1.784968,-0.447148,0.164686,64.187454,-14.926666,-133.442261,,,
729862805.738149,54.927525,-6.285156,-156.511896,0.055969,0.827271,0.513794,1.784968,-0.447148,0.164686,63.976257,-18.289856,-131.664505,,,
729862805.741587,54.927525,-6.285156,-156.511896,0.055969,0.827271,0.513794,1.784968,-0.447148,0.164686,63.976257,-18.289856,-131.664505,,,
729862805.744897,55.427799,-6.565739,-156.333699,0.055969,0.827271,0.513794,1.752657,-0.482557,0.147202,63.976257,-18.289856,-131.664505,,,
729862805.74818,55.92354,-6.853755,-156.152896,0.072067,0.830643,0.527817,1.752657,-0.482557,0.147202,63.976257,-18.289856,-131.664505,,,
729862805.75156,55.92354,-6.853755,-156.152896,0.072067,0.830643,0.527817,1.752657,-0.482557,0.147202,63.976257,-18.289856,-131.664505,,,
729862805.754813,56.41784,-7.148608,-155.967193,0.072067,0.830643,0.527817,1.774215,-0.513261,0.146027,63.976257,-18.289856,-131.664505,,,
729862805.758197,56.915934,-7.456999,-155.77326,0.073273,0.809372,0.559158,1.774215,-0.513261,0.146027,63.976257,-18.289856,-131.664505,,,
729862805.761571,56.915934,-7.456999,-155.77326,0.073273,0.809372,0.559158,1.774215,-0.513261,0.146027,63.976257,-18.289856,-131.664505,,,
729862805.764949,57.417879,-7.781377,-155.574345,0.073273,0.809372,0.559158,1.80073,-0.618081,0.121335,63.976257,-18.289856,-131.664505,,,
729862805.768188,57.924543,-8.125624,-155.372249,0.081863,0.795334,0.543839,1.80073,-0.618081,0.121335,63.976257,-18.289856,-131.664505,,,
729862805.771532,57.924543,-8.125624,-155.372249,0.081863,0.795334,0.543839,1.80073,-0.618081,0.121335,63.976257,-18.289856,-131.664505,,,
729862805.774883,58.438192,-8.485906,-155.172232,0.081863,0.795334,0.543839,1.851487,-0.723601,0.067199,63.976257,-18.289856,-131.664505,,,
729862805.777987,58.958783,-8.857758,-154.976879,0.09343,0.811783,0.529892,1.851487,-0.723601,0.067199,63.188141,-21.353424,-129.474228,,,
729862805.781611,58.958783,-8.857758,-154.976879,0.09343,0.811783,0.529892,1.851487,-0.723601,0.067199,63.188141,-21.353424,-129.474228,,,
729862805.784855,59.481134,-9.238436,-154.786891,0.09343,0.811783,0.529892,1.838739,-0.789771,0.02001,63.188141,-21.353424,-129.474228,,,
729862805.788146,60.001363,-9.625779,-154.599969,0.106857,0.835785,0.484467,1.838739,-0.789771,0.02001,63.188141,-21.353424,-129.474228,,,
729862805.791646,60.001363,-9.625779,-154.599969,0.106857,0.835785,0.484467,1.838739,-0.789771,0.02001,63.188141,-21.353424,-129.474228,,,
729862805.794873,60.515992,-10.013553,-154.414491,0.106857,0.835785,0.484467,1.769847,-0.754256,-0.005492,63.188141,-21.353424,-129.474228,,,
729862805.798194,61.019851,-10.39536,-154.228488,0.125107,0.862762,0.43515,1.769847,-0.754256,-0.005492,63.188141,-21.353424,-129.474228,,,
729862805.801559,61.019851,-10.39536,-154.228488,0.125107,0.862762,0.43515,1.769847,-0.754256,-0.005492,63.188141,-21.353424,-129.474228,,,
729862805.804861,61.505893,-10.761335,-154.043054,0.125107,0.862762,0.43515,1.649564,-0.61694,0.003897,63.188141,-21.353424,-129.474228,,,
729862805.808199,61.973947,-11.11356,-153.851058,0.133209,0.887421,0.390717,1.649564,-0.61694,0.003897,63.188141,-21.353424,-129.474228,,,
729862805.811536,61.973947,-11.11356,-153.851058,0.133209,0.887421,0.390717,1.649564,-0.61694,0.003897,63.188141,-21.353424,-129.474228,,,
729862805.814881,62.427039,-11.45758,-153.647562,0.133209,0.887421,0.390717,1.555985,-0.503098,0.036536,63.188141,-21.353424,-129.474228,,,
729862805.818191,62.865904,-11.799488,-153.429951,0.132156,0.91423,0.383606,1.555985,-0.503098,0.036536,63.188141,-21.353424,-129.474228,,,
729862805.821492,62.865904,-11.799488,-153.429951,0.132156,0.91423,0.383606,1.555985,-0.503098,0.036536,62.626541,-24.047318,-127.522552,,,
729862805.824877,63.287504,-12.139072,-153.201286,0.132156,0.91423,0.383606,1.442671,-0.42219,0.049304,62.626541,-24.047318,-127.522552,,,
729862805.82819,63.693044,-12.473059,-152.967908,0.136017,0.929047,0.349701,1.442671,-0.42219,0.049304,62.626541,-24.047318,-127.522552,,,
729862805.831593,63.693044,-12.473059,-152.967908,0.136017,0.929047,0.349701,1.442671,-0.42219,0.049304,62.626541,-24.047318,-127.522552,,,
729862805.834875,64.084968,-12.798191,-152.738443,0.136017,0.929047,0.349701,1.362008,-0.42446,0.021882,62.626541,-24.047318,-127.522552,,,
729862805.838146,64.466243,-13.118839,-152.517279,0.143799,0.919922,0.339325,1.362008,-0.42446,0.021882,62.626541,-24.047318,-127.522552,,,
729862805.841547,64.466243,-13.118839,-152.517279,0.143799,0.919922,0.339325,1.362008,-0.42446,0.021882,62.626541,-24.047318,-127.522552,,,
729862805.844929,64.839515,-13.438172,-152.308822,0.143799,0.919922,0.339325,1.317709,-0.516048,-0.029561,62.626541,-24.047318,-127.522552,,,
729862805.848204,65.209616,-13.762218,-152.111522,0.151016,0.917786,0.333527,1.317709,-0.516048,-0.029561,62.626541,-24.047318,-127.522552,,,
729862805.851554,65.209616,-13.762218,-152.111522,0.151016,0.917786,0.333527,1.317709,-0.516048,-0.029561,62.626541,-24.047318,-127.522552,,,
729862805.85482,65.57786,-14.091917,-151.923147,0.151016,0.917786,0.333527,1.293939,-0.580049,-0.063749,62.626541,-24.047318,-127.522552,,,
729862805.858198,65.943028,-14.424892,-151.739821,0.151489,0.901596,0.345093,1.293939,-0.580049,-0.063749,62.626541,-24.047318,-127.522552,,,
729862805.861525,65.943028,-14.424892,-151.739821,0.151489,0.901596,0.345093,1.293939,-0.580049,-0.063749,62.252716,-26.053543,-125.666595,,,
