Time (sec),Pitch (deg),Roll (deg),Yaw(deg),X-Acceleration (g),Y-Acceleration (g),Z-Acceleration (g),Pitch Rate (deg/sec),Roll Rate (deg/sec),Yaw Rate (deg/sec),Magnetic Field in X direction (uT),Magnetic Field in Y direction (uT),Magnetic Field in Z Direction (uT),Latitude (deg),Longitude (deg),Altitude (m)
729860559.358615,-0.087564,-6.270195,-25.95272,0.111786,0.004166,0.965424,-0.042039,0.073032,0.029525,74.724472,3.979675,-148.099289,,,
729860559.361923,-0.103095,-6.256368,-25.945479,0.115555,0.005417,0.960815,-0.049752,0.048295,0.028667,74.768097,4.071167,-148.052155,,,
729860559.365252,-0.103095,-6.256368,-25.945479,0.115555,0.005417,0.960815,-0.049752,0.048295,0.028667,74.768097,4.071167,-148.052155,,,
729860559.368665,-0.120668,-6.243073,-25.940195,0.115555,0.005417,0.960815,-0.049752,0.048295,0.028667,74.768097,4.071167,-148.052155,,,
729860559.371907,-0.135146,-6.239108,-25.937763,0.12236,0.006378,0.961136,-0.046216,0.0146,0.009575,74.768097,4.071167,-148.052155,,,
729860559.375308,-0.135146,-6.239108,-25.937763,0.12236,0.006378,0.961136,-0.046216,0.0146,0.009575,74.768097,4.071167,-148.052155,,,
729860559.378587,-0.147902,-6.237175,-25.938687,0.12236,0.006378,0.961136,-0.046216,0.0146,0.009575,74.768097,4.071167,-148.052155,,,
729860559.38192,-0.155145,-6.238846,-25.942996,0.129639,0.00473,0.973969,-0.021135,-0.00403,-0.01679,74.768097,4.071167,-148.052155,,,
729860559.385248,-0.155145,-6.238846,-25.942996,0.129639,0.00473,0.973969,-0.021135,-0.00403,-0.01679,74.768097,4.071167,-148.052155,,,
729860559.388584,-0.158146,-6.23982,-25.950026,0.129639,0.00473,0.973969,-0.021135,-0.00403,-0.01679,74.768097,4.071167,-148.052155,,,
729860559.391916,-0.155999,-6.238352,-25.958882,0.129868,0.000229,0.999496,0.0103,0.009529,-0.033627,74.768097,4.071167,-148.052155,,,
729860559.395261,-0.155999,-6.238352,-25.958882,0.129868,0.000229,0.999496,0.0103,0.009529,-0.033627,74.768097,4.071167,-148.052155,,,
729860559.398585,-0.149171,-6.234501,-25.967535,0.129868,0.000229,0.999496,0.0103,0.009529,-0.033627,74.768097,4.071167,-148.052155,,,
729860559.401921,-0.139522,-6.224315,-25.974405,0.126205,-0.003723,1.012115,0.03174,0.044018,-0.028792,74.891953,3.972565,-147.955597,,,
729860559.405324,-0.139522,-6.224315,-25.974405,0.126205,-0.003723,1.012115,0.03174,0.044018,-0.028792,74.891953,3.972565,-147.955597,,,
729860559.408599,-0.128763,-6.209761,-25.979327,0.126205,-0.003723,1.012115,0.03174,0.044018,-0.028792,74.891953,3.972565,-147.955597,,,
729860559.411918,-0.117474,-6.187595,-25.982561,0.117767,-0.005081,1.006714,0.035461,0.085316,-0.014009,74.891953,3.972565,-147.955597,,,
729860559.415264,-0.117474,-6.187595,-25.982561,0.117767,-0.005081,1.006714,0.035461,0.085316,-0.014009,74.891953,3.972565,-147.955597,,,
729860559.41865,-0.107779,-6.161444,-25.984905,0.117767,-0.005081,1.006714,0.035461,0.085316,-0.014009,74.891953,3.972565,-147.955597,,,
729860559.421913,-0.101994,-6.130089,-25.986561,0.114182,0.000702,0.992233,0.016968,0.117152,-0.007187,74.891953,3.972565,-147.955597,,,
729860559.425267,-0.101994,-6.130089,-25.986561,0.114182,0.000702,0.992233,0.016968,0.117152,-0.007187,74.891953,3.972565,-147.955597,,,
729860559.428605,-0.100079,-6.100027,-25.987575,0.114182,0.000702,0.992233,0.016968,0.117152,-0.007187,74.891953,3.972565,-147.955597,,,
729860559.431919,-0.104276,-6.069746,-25.989472,0.111267,0.007416,0.968307,-0.01778,0.107418,-0.00784,74.891953,3.972565,-147.955597,,,
729860559.435274,-0.104276,-6.069746,-25.989472,0.111267,0.007416,0.968307,-0.01778,0.107418,-0.00784,74.891953,3.972565,-147.955597,,,
729860559.4386,-0.112606,-6.045712,-25.993182,0.111267,0.007416,0.968307,-0.01778,0.107418,-0.00784,74.891953,3.972565,-147.955597,,,
729860559.441926,-0.126797,-6.024339,-25.998998,0.111191,0.013519,0.951096,-0.054067,0.071702,-0.018646,75.331619,4.021378,-147.778564,,,
729860559.445332,-0.126797,-6.024339,-25.998998,0.111191,0.013519,0.951096,-0.054067,0.071702,-0.018646,75.331619,4.021378,-147.778564,,,
729860559.4486,-0.143553,-6.013423,-26.007718,0.111191,0.013519,0.951096,-0.054067,0.071702,-0.018646,75.331619,4.021378,-147.778564,,,
729860559.451938,-0.163766,-6.006769,-26.01907,0.108398,0.01326,0.950455,-0.075615,0.017815,-0.034234,75.331619,4.021378,-147.778564,,,
729860559.455271,-0.163766,-6.006769,-26.01907,0.108398,0.01326,0.950455,-0.075615,0.017815,-0.034234,75.331619,4.021378,-147.778564,,,
729860559.458657,-0.183498,-6.012004,-26.032091,0.108398,0.01326,0.950455,-0.075615,0.017815,-0.034234,75.331619,4.021378,-147.778564,,,
729860559.461916,-0.183498,-6.012004,-26.032091,0.101791,0.005096,0.966675,-0.068885,-0.036534,-0.043663,75.331619,4.021378,-147.778564,,,
729860559.465286,-0.202603,-6.021112,-26.046034,0.101791,0.005096,0.966675,-0.068885,-0.036534,-0.043663,75.331619,4.021378,-147.778564,,,
729860559.468605,-0.218162,-6.040364,-26.059534,0.101791,0.005096,0.966675,-0.068885,-0.036534,-0.043663,75.331619,4.021378,-147.778564,,,
729860559.471931,-0.218162,-6.040364,-26.059534,0.095535,-0.005554,0.992157,-0.039968,-0.067424,-0.035956,75.331619,4.021378,-147.778564,,,
729860559.475274,-0.230235,-6.059676,-26.070999,0.095535,-0.005554,0.992157,-0.039968,-0.067424,-0.035956,75.331619,4.021378,-147.778564,,,
729860559.478593,-0.236735,-6.083368,-26.079725,0.095535,-0.005554,0.992157,-0.039968,-0.067424,-0.035956,75.331619,4.021378,-147.778564,,,
729860559.48195,-0.237301,-6.103337,-26.085729,0.092651,-0.013107,1.015503,0.006281,-0.065262,-0.017578,75.331619,4.021378,-147.778564,,,
729860559.485314,-0.237301,-6.103337,-26.085729,0.092651,-0.013107,1.015503,0.006281,-0.065262,-0.017578,75.208389,4.12674,-147.66684,,,
729860559.48859,-0.23112,-6.122237,-26.088952,0.092651,-0.013107,1.015503,0.006281,-0.065262,-0.017578,75.208389,4.12674,-147.66684,,,
729860559.491949,-0.218413,-6.133912,-26.08965,0.094223,-0.016235,1.032196,0.049179,-0.035274,-0.006872,75.208389,4.12674,-147.66684,,,
729860559.49527,-0.218413,-6.133912,-26.08965,0.094223,-0.016235,1.032196,0.049179,-0.035274,-0.006872,75.208389,4.12674,-147.66684,,,
729860559.498596,-0.201242,-6.140737,-26.088798,0.094223,-0.016235,1.032196,0.049179,-0.035274,-0.006872,75.208389,4.12674,-147.66684,,,
729860559.501947,-0.181553,-6.140163,-26.086949,0.099625,-0.010651,1.032944,0.072984,0.010767,-0.000328,75.208389,4.12674,-147.66684,,,
729860559.505282,-0.181553,-6.140163,-26.086949,0.099625,-0.010651,1.032944,0.072984,0.010767,-0.000328,75.208389,4.12674,-147.66684,,,
729860559.508594,-0.16098,-6.134355,-26.085509,0.099625,-0.010651,1.032944,0.072984,0.010767,-0.000328,75.208389,4.12674,-147.66684,,,
729860559.511961,-0.16098,-6.134355,-26.085509,0.107269,-0.000183,1.014206,0.058851,0.051,-0.009925,75.208389,4.12674,-147.66684,,,
729860559.515275,-0.143135,-6.122317,-26.08565,0.107269,-0.000183,1.014206,0.058851,0.051,-0.009925,75.208389,4.12674,-147.66684,,,
729860559.51859,-0.12687,-6.107659,-26.087621,0.107269,-0.000183,1.014206,0.058851,0.051,-0.009925,75.208389,4.12674,-147.66684,,,
729860559.521932,-0.12687,-6.107659,-26.087621,0.107269,-0.000183,1.014206,0.058851,0.064916,-0.019597,75.208389,4.12674,-147.66684,,,
729860559.525326,-0.116046,-6.090594,-26.091281,0.105499,0.006561,0.99205,0.035669,0.064916,-0.019597,75.409164,4.037521,-147.690247,,,
729860559.528582,-0.108037,-6.076362,-26.096074,0.105499,0.006561,0.99205,0.035669,0.064916,-0.019597,75.409164,4.037521,-147.690247,,,
729860559.531946,-0.108037,-6.076362,-26.096074,0.096375,0.006912,0.971283,0.003518,0.038726,-0.022069,75.409164,4.037521,-147.690247,,,
729860559.535254,-0.105731,-6.064977,-26.101234,0.096375,0.006912,0.971283,0.003518,0.038726,-0.022069,75.409164,4.037521,-147.690247,,,
729860559.5386,-0.104948,-6.060389,-26.105798,0.096375,0.006912,0.971283,0.003518,0.038726,-0.022069,75.409164,4.037521,-147.690247,,,
729860559.541943,-0.104948,-6.060389,-26.105798,0.096375,0.006912,0.971283,-0.01455,-0.013701,-0.012162,75.409164,4.037521,-147.690247,,,
729860559.545254,-0.107477,-6.063125,-26.109371,0.08551,0.000183,0.95993,-0.01455,-0.013701,-0.012162,75.409164,4.037521,-147.690247,,,
729860559.548602,-0.111463,-6.072833,-26.111647,0.08551,0.000183,0.95993,-0.01455,-0.013701,-0.012162,75.409164,4.037521,-147.690247,,,
729860559.552036,-0.111463,-6.072833,-26.111647,0.08551,0.000183,0.95993,-0.01455,-0.013701,-0.012162,75.409164,4.037521,-147.690247,,,
729860559.555272,-0.115867,-6.091524,-26.112014,0.076904,-0.005997,0.964294,-0.01505,-0.067753,0.00149,75.409164,4.037521,-147.690247,,,
729860559.558595,-0.120335,-6.11603,-26.110405,0.076904,-0.005997,0.964294,-0.01505,-0.067753,0.00149,75.409164,4.037521,-147.690247,,,
729860559.561927,-0.120335,-6.11603,-26.110405,0.076904,-0.005997,0.964294,-0.01505,-0.067753,0.00149,75.409164,4.037521,-147.690247,,,
729860559.565259,-0.122654,-6.148214,-26.107878,0.079773,-0.011978,0.973969,-0.007397,-0.111693,0.008952,75.26268,4.239487,-148.203598,,,
729860559.568313,-0.123947,-6.181163,-26.104486,0.079773,-0.011978,0.973969,-0.007397,-0.111693,0.008952,75.26268,4.239487,-148.203598,,,
729860559.571993,-0.123947,-6.181163,-26.104486,0.079773,-0.011978,0.973969,-0.007397,-0.111693,0.008952,75.26268,4.239487,-148.203598,,,
729860559.575316,-0.120898,-6.217654,-26.099977,0.096207,-0.014282,0.990555,0.016187,-0.126023,0.014076,75.26268,4.239487,-148.203598,,,
729860559.578582,-0.116282,-6.250015,-26.096441,0.096207,-0.014282,0.990555,0.016187,-0.126023,0.014076,75.26268,4.239487,-148.203598,,,
729860559.581992,-0.116282,-6.250015,-26.096441,0.096207,-0.014282,0.990555,0.016187,-0.126023,0.014076,75.26268,4.239487,-148.203598,,,
729860559.585255,-0.107769,-6.280107,-26.094989,0.11467,-0.01149,1.009201,0.033152,-0.09648,-0.001294,75.26268,4.239487,-148.203598,,,
729860559.58859,-0.096471,-6.303136,-26.095205,0.11467,-0.01149,1.009201,0.033152,-0.09648,-0.001294,75.26268,4.239487,-148.203598,,,
729860559.592001,-0.096471,-6.303136,-26.095205,0.11467,-0.01149,1.009201,0.033152,-0.09648,-0.001294,75.26268,4.239487,-148.203598,,,
729860559.595272,-0.082844,-6.319093,-26.097352,0.128174,-0.008286,1.020844,0.050238,-0.045789,-0.016289,75.26268,4.239487,-148.203598,,,
729860559.598601,-0.067688,-6.325846,-26.101188,0.128174,-0.008286,1.020844,0.050238,-0.045789,-0.016289,75.26268,4.239487,-148.203598,,,
729860559.602021,-0.067688,-6.325846,-26.101188,0.128174,-0.008286,1.020844,0.050238,-0.045789,-0.016289,75.26268,4.239487,-148.203598,,,
729860559.605247,-0.052608,-6.323582,-26.106141,0.133682,-0.006851,1.022995,0.051584,0.018299,-0.022001,75.300156,3.837631,-147.824493,,,
729860559.60859,-0.037597,-6.310833,-26.111532,0.133682,-0.006851,1.022995,0.051584,0.018299,-0.022001,75.300156,3.837631,-147.824493,,,
729860559.611964,-0.037597,-6.310833,-26.111532,0.133682,-0.006851,1.022995,0.051584,0.018299,-0.022001,75.300156,3.837631,-147.824493,,,
729860559.615336,-0.025442,-6.291809,-26.116218,0.12709,-0.006195,1.017487,0.042773,0.075926,-0.022449,75.300156,3.837631,-147.824493,,,
729860559.618589,-0.014505,-6.264478,-26.119623,0.12709,-0.006195,1.017487,0.042773,0.075926,-0.022449,75.300156,3.837631,-147.824493,,,
729860559.622007,-0.014505,-6.264478,-26.119623,0.12709,-0.006195,1.017487,0.042773,0.075926,-0.022449,75.300156,3.837631,-147.824493,,,
729860559.625256,-0.006719,-6.237387,-26.12201,0.118362,-0.007568,1.003769,0.025433,0.098173,-0.010859,75.300156,3.837631,-147.824493,,,
729860559.6286,-0.003042,-6.205283,-26.123131,0.118362,-0.007568,1.003769,0.025433,0.098173,-0.010859,75.300156,3.837631,-147.824493,,,
729860559.631997,-0.003042,-6.205283,-26.123131,0.118362,-0.007568,1.003769,0.025433,0.098173,-0.010859,75.300156,3.837631,-147.824493,,,
729860559.635251,-0.001884,-6.180911,-26.123258,0.108261,-0.00502,0.985016,0.001696,0.085121,-0.002267,75.300156,3.837631,-147.824493,,,
729860559.638599,-0.004822,-6.156215,-26.123558,0.108261,-0.00502,0.985016,0.001696,0.085121,-0.002267,75.300156,3.837631,-147.824493,,,
729860559.642095,-0.004822,-6.156215,-26.123558,0.108261,-0.00502,0.985016,0.001696,0.085121,-0.002267,75.300156,3.837631,-147.824493,,,
729860559.645256,-0.008573,-6.141272,-26.124727,0.102844,-0.003159,0.97139,-0.015444,0.0511,-0.004217,75.300156,3.837631,-147.824493,,,
729860559.648597,-0.014446,-6.129639,-26.126547,0.102844,-0.003159,0.97139,-0.015444,0.0511,-0.004217,75.401733,3.850922,-147.615463,,,
729860559.651977,-0.014446,-6.129639,-26.126547,0.102844,-0.003159,0.97139,-0.015444,0.0511,-0.004217,75.401733,3.850922,-147.615463,,,
729860559.655313,-0.018552,-6.128437,-26.12909,0.104004,-0.001801,0.975113,-0.011891,0.0025,-0.010857,75.401733,3.850922,-147.615463,,,
729860559.658591,-0.02371,-6.134566,-26.133373,0.104004,-0.001801,0.975113,-0.011891,0.0025,-0.010857,75.401733,3.850922,-147.615463,,,
729860559.661923,-0.02371,-6.134566,-26.133373,0.104004,-0.001801,0.975113,-0.011891,0.0025,-0.010857,75.401733,3.850922,-147.615463,,,
729860559.665282,-0.02472,-6.146095,-26.139574,0.109573,-0.000351,0.982315,-0.002145,-0.042492,-0.024735,75.401733,3.850922,-147.615463,,,
729860559.668702,-0.024463,-6.162904,-26.147488,0.109573,-0.000351,0.982315,-0.002145,-0.042492,-0.024735,75.401733,3.850922,-147.615463,,,
729860559.671922,-0.024463,-6.162904,-26.147488,0.109573,-0.000351,0.982315,-0.002145,-0.042492,-0.024735,75.401733,3.850922,-147.615463,,,
729860559.675263,-0.019935,-6.175656,-26.157104,0.11705,0.000671,0.997543,0.013679,-0.041846,-0.035931,75.401733,3.850922,-147.615463,,,
729860559.678628,-0.014525,-6.190981,-26.167656,0.11705,0.000671,0.997543,0.013679,-0.041846,-0.035931,75.401733,3.850922,-147.615463,,,
729860559.681932,-0.014525,-6.190981,-26.167656,0.11705,0.000671,0.997543,0.013679,-0.041846,-0.035931,75.401733,3.850922,-147.615463,,,
729860559.685297,-0.006828,-6.196211,-26.17792,0.116669,-0.000565,1.0121,0.025435,-0.010494,-0.040773,75.401733,3.850922,-147.615463,,,
729860559.688606,-0.000549,-6.199874,-26.187151,0.116669,-0.000565,1.0121,0.025435,-0.010494,-0.040773,75.254593,3.783997,-147.738205,,,
729860559.691999,-0.000549,-6.199874,-26.187151,0.116669,-0.000565,1.0121,0.025435,-0.010494,-0.040773,75.254593,3.783997,-147.738205,,,
729860559.695256,0.004773,-6.192285,-26.194818,0.110489,-0.001892,1.009155,0.013745,0.03514,-0.028362,75.254593,3.783997,-147.738205,,,
729860559.698604,0.006089,-6.180658,-26.200346,0.110489,-0.001892,1.009155,0.013745,0.03514,-0.028362,75.254593,3.783997,-147.738205,,,
729860559.701926,0.006089,-6.180658,-26.200346,0.110489,-0.001892,1.009155,0.013745,0.03514,-0.028362,75.254593,3.783997,-147.738205,,,
729860559.705317,0.005613,-6.159786,-26.204269,0.105194,0.000748,0.997025,-0.006942,0.078818,-0.01198,75.254593,3.783997,-147.738205,,,
729860559.708596,0.000584,-6.135864,-26.207284,0.105194,0.000748,0.997025,-0.006942,0.078818,-0.01198,75.254593,3.783997,-147.738205,,,
729860559.71193,0.000584,-6.135864,-26.207284,0.105194,0.000748,0.997025,-0.006942,0.078818,-0.01198,75.254593,3.783997,-147.738205,,,
729860559.715263,-0.007317,-6.109584,-26.209178,0.098145,0.002777,0.982834,-0.030864,0.097117,-0.000837,75.254593,3.783997,-147.738205,,,
729860559.718602,-0.019745,-6.084406,-26.209888,0.098145,0.002777,0.982834,-0.030864,0.097117,-0.000837,75.254593,3.783997,-147.738205,,,
729860559.72193,-0.019745,-6.084406,-26.209888,0.098145,0.002777,0.982834,-0.030864,0.097117,-0.000837,75.254593,3.783997,-147.738205,,,
729860559.725263,-0.035048,-6.06347,-26.209704,0.091797,0.006027,0.962738,-0.055794,0.068535,0.00738,75.254593,3.783997,-147.738205,,,
729860559.728595,-0.054049,-6.049128,-26.209572,0.091797,0.006027,0.962738,-0.055794,0.068535,0.00738,75.468521,3.859161,-147.615433,,,
729860559.731973,-0.054049,-6.049128,-26.209572,0.091797,0.006027,0.962738,-0.055794,0.068535,0.00738,75.468521,3.859161,-147.615433,,,
729860559.735259,-0.074863,-6.042411,-26.209713,0.088211,0.00885,0.946304,-0.071677,0.01967,0.006371,75.468521,3.859161,-147.615433,,,
729860559.7386,-0.095912,-6.044623,-26.210504,0.088211,0.00885,0.946304,-0.071677,0.01967,0.006371,75.468521,3.859161,-147.615433,,,
729860559.741927,-0.095912,-6.044623,-26.210504,0.088211,0.00885,0.946304,-0.071677,0.01967,0.006371,75.468521,3.859161,-147.615433,,,
729860559.745307,-0.116296,-6.054222,-26.212702,0.091339,0.007767,0.948502,-0.071667,-0.036641,-0.003908,75.468521,3.859161,-147.615433,,,
729860559.748598,-0.134526,-6.071789,-26.215817,0.091339,0.007767,0.948502,-0.071667,-0.036641,-0.003908,75.468521,3.859161,-147.615433,,,
729860559.751942,-0.134526,-6.071789,-26.215817,0.091339,0.007767,0.948502,-0.071667,-0.036641,-0.003908,75.468521,3.859161,-147.615433,,,
729860559.755276,-0.149629,-6.091365,-26.219506,0.097382,-0.000122,0.967163,-0.050403,-0.066466,-0.008768,75.468521,3.859161,-147.615433,,,
729860559.758688,-0.160905,-6.114164,-26.223173,0.097382,-0.000122,0.967163,-0.050403,-0.066466,-0.008768,75.468521,3.859161,-147.615433,,,
729860559.761955,-0.160905,-6.114164,-26.223173,0.097382,-0.000122,0.967163,-0.050403,-0.066466,-0.008768,75.468521,3.859161,-147.615433,,,
729860559.765364,-0.169841,-6.134285,-26.226303,0.103485,-0.00737,0.989548,-0.030056,-0.066243,-0.007533,75.468521,3.859161,-147.615433,,,
729860559.768669,-0.175876,-6.152383,-26.229147,0.103485,-0.00737,0.989548,-0.030056,-0.066243,-0.007533,75.269501,4.098434,-147.622513,,,
729860559.771896,-0.175876,-6.152383,-26.229147,0.103485,-0.00737,0.989548,-0.030056,-0.066243,-0.007533,75.269501,4.098434,-147.622513,,,
729860559.775295,-0.179817,-6.164084,-26.231128,0.109619,-0.009323,1.004196,-0.011306,-0.034203,-0.003518,75.269501,4.098434,-147.622513,,,
729860559.778609,-0.182622,-6.168527,-26.231596,0.109619,-0.009323,1.004196,-0.011306,-0.034203,-0.003518,75.269501,4.098434,-147.622513,,,
729860559.781974,-0.182622,-6.168527,-26.231596,0.109619,-0.009323,1.004196,-0.011306,-0.034203,-0.003518,75.269501,4.098434,-147.622513,,,
729860559.785264,-0.186908,-6.165668,-26.231078,0.116714,-0.007172,1.008011,-0.015153,0.020774,0.000618,75.269501,4.098434,-147.622513,,,
729860559.788607,-0.191731,-6.153849,-26.230126,0.116714,-0.007172,1.008011,-0.015153,0.020774,0.000618,75.269501,4.098434,-147.622513,,,
729860559.791927,-0.191731,-6.153849,-26.230126,0.116714,-0.007172,1.008011,-0.015153,0.020774,0.000618,75.269501,4.098434,-147.622513,,,
729860559.795372,-0.198942,-6.137664,-26.229285,0.118515,-0.002075,1.000458,-0.026433,0.063225,0.003818,75.269501,4.098434,-147.622513,,,
729860559.798621,-0.207466,-6.115988,-26.229125,0.118515,-0.002075,1.000458,-0.026433,0.063225,0.003818,75.269501,4.098434,-147.622513,,,
729860559.801957,-0.207466,-6.115988,-26.229125,0.118515,-0.002075,1.000458,-0.026433,0.063225,0.003818,75.269501,4.098434,-147.622513,,,
729860559.805281,-0.219184,-6.095934,-26.229815,0.116257,0.000305,0.990204,-0.04208,0.0754,0.001413,75.269501,4.098434,-147.622513,,,
729860559.808592,-0.229031,-6.074073,-26.231537,0.116257,0.000305,0.990204,-0.04208,0.0754,0.001413,75.269501,4.098434,-147.622513,,,
729860559.811935,-0.229031,-6.074073,-26.231537,0.116257,0.000305,0.990204,-0.04208,0.0754,0.001413,75.558289,3.98941,-148.106018,,,
729860559.815258,-0.240186,-6.059462,-26.233959,0.110687,-0.001999,0.986755,-0.038874,0.047171,-0.007368,75.558289,3.98941,-148.106018,,,
729860559.818605,-0.247,-6.047754,-26.236477,0.110687,-0.001999,0.986755,-0.038874,0.047171,-0.007368,75.558289,3.98941,-148.106018,,,
729860559.821967,-0.247,-6.047754,-26.236477,0.110687,-0.001999,0.986755,-0.038874,0.047171,-0.007368,75.558289,3.98941,-148.106018,,,
729860559.825255,-0.253425,-6.044697,-26.23967,0.106049,-0.006653,0.986725,-0.023135,0.007103,-0.011999,75.558289,3.98941,-148.106018,,,
729860559.828599,-0.256041,-6.045655,-26.243605,0.106049,-0.006653,0.986725,-0.023135,0.007103,-0.011999,75.558289,3.98941,-148.106018,,,
729860559.831928,-0.256041,-6.045655,-26.243605,0.106049,-0.006653,0.986725,-0.023135,0.007103,-0.011999,75.558289,3.98941,-148.106018,,,
729860559.83533,-0.257558,-6.052824,-26.247217,0.100998,-0.010727,0.990479,-0.003678,-0.026536,-0.014559,75.558289,3.98941,-148.106018,,,
729860559.838593,-0.256497,-6.062158,-26.251006,0.100998,-0.010727,0.990479,-0.003678,-0.026536,-0.014559,75.558289,3.98941,-148.106018,,,
729860559.841951,-0.256497,-6.062158,-26.251006,0.100998,-0.010727,0.990479,-0.003678,-0.026536,-0.014559,75.558289,3.98941,-148.106018,,,
729860559.845273,-0.252943,-6.07374,-26.25478,0.102432,-0.010315,0.998001,0.014138,-0.039,-0.015647,75.558289,3.98941,-148.106018,,,
729860559.848593,-0.247882,-6.086285,-26.258024,0.102432,-0.010315,0.998001,0.014138,-0.039,-0.015647,75.558289,3.98941,-148.106018,,,
729860559.851925,-0.247882,-6.086285,-26.258024,0.102432,-0.010315,0.998001,0.014138,-0.039,-0.015647,75.44368,3.952225,-147.744568,,,
729860559.855284,-0.239723,-6.09835,-26.261584,0.104034,-0.011917,1.004517,0.024536,-0.037776,-0.018142,75.44368,3.952225,-147.744568,,,
729860559.858616,-0.230865,-6.110646,-26.264977,0.104034,-0.011917,1.004517,0.024536,-0.037776,-0.018142,75.44368,3.952225,-147.744568,,,
729860559.86198,-0.230865,-6.110646,-26.264977,0.104034,-0.011917,1.004517,0.024536,-0.037776,-0.018142,75.44368,3.952225,-147.744568,,,
729860559.865311,-0.219832,-6.119966,-26.268424,0.106689,-0.008224,1.00354,0.036673,-0.028153,-0.018995,75.44368,3.952225,-147.744568,,,
729860559.868639,-0.207891,-6.129466,-26.27286,0.106689,-0.008224,1.00354,0.036673,-0.028153,-0.018995,75.44368,3.952225,-147.744568,,,
729860559.871934,-0.207891,-6.129466,-26.27286,0.106689,-0.008224,1.00354,0.036673,-0.028153,-0.018995,75.44368,3.952225,-147.744568,,,
729860559.875366,-0.195077,-6.13386,-26.27796,0.111069,-0.005112,1.000732,0.044719,-0.009931,-0.022422,75.44368,3.952225,-147.744568,,,
729860559.878601,-0.180965,-6.139049,-26.283391,0.111069,-0.005112,1.000732,0.044719,-0.009931,-0.022422,75.44368,3.952225,-147.744568,,,
729860559.881985,-0.180965,-6.139049,-26.283391,0.111069,-0.005112,1.000732,0.044719,-0.009931,-0.022422,75.44368,3.952225,-147.744568,,,
729860559.885291,-0.167799,-6.14074,-26.289316,0.10881,-0.002304,0.999634,0.043233,-0.003547,-0.026557,75.44368,3.952225,-147.744568,,,
729860559.88861,-0.155563,-6.143937,-26.295782,0.10881,-0.002304,0.999634,0.043233,-0.003547,-0.026557,75.44368,3.952225,-147.744568,,,
729860559.891945,-0.155563,-6.143937,-26.295782,0.10881,-0.002304,0.999634,0.043233,-0.003547,-0.026557,75.424255,3.999161,-148.093765,,,
729860559.895283,-0.145973,-6.145326,-26.30268,0.109253,-0.003876,0.99054,0.027945,-0.001139,-0.029627,75.424255,3.999161,-148.093765,,,
729860559.898596,-0.1396,-6.14674,-26.310216,0.109253,-0.003876,0.99054,0.027945,-0.001139,-0.029627,75.424255,3.999161,-148.093765,,,
729860559.901999,-0.1396,-6.14674,-26.310216,0.109253,-0.003876,0.99054,0.027945,-0.001139,-0.029627,75.424255,3.999161,-148.093765,,,
729860559.90527,-0.134882,-6.148821,-26.317907,0.106003,-0.003372,0.986465,0.009528,-0.005268,-0.02739,75.424255,3.999161,-148.093765,,,
729860559.908604,-0.133133,-6.151796,-26.324804,0.106003,-0.003372,0.986465,0.009528,-0.005268,-0.02739,75.424255,3.999161,-148.093765,,,
729860559.911948,-0.133133,-6.151796,-26.324804,0.106003,-0.003372,0.986465,0.009528,-0.005268,-0.02739,75.424255,3.999161,-148.093765,,,
729860559.915275,-0.131843,-6.15796,-26.331237,0.101654,-0.00528,0.985748,0.001133,-0.020396,-0.024753,75.424255,3.999161,-148.093765,,,
729860559.918605,-0.133412,-6.165163,-26.337511,0.101654,-0.00528,0.985748,0.001133,-0.020396,-0.024753,75.424255,3.999161,-148.093765,,,
729860559.92194,-0.133412,-6.165163,-26.337511,0.101654,-0.00528,0.985748,0.001133,-0.020396,-0.024753,75.424255,3.999161,-148.093765,,,
729860559.925298,-0.133778,-6.176493,-26.343015,0.097809,-0.005646,0.983429,-0.004603,-0.037286,-0.020101,75.424255,3.999161,-148.093765,,,
729860559.928601,-0.135166,-6.188641,-26.348047,0.097809,-0.005646,0.983429,-0.004603,-0.037286,-0.020101,75.424255,3.999161,-148.093765,,,
729860559.93193,-0.135166,-6.188641,-26.348047,0.097809,-0.005646,0.983429,-0.004603,-0.037286,-0.020101,75.424255,3.999161,-148.093765,,,
729860559.935277,-0.133522,-6.203134,-26.352937,0.096771,-0.007629,0.990662,0.006081,-0.04947,-0.017764,75.292831,3.994507,-147.572937,,,
729860559.938691,-0.131084,-6.217353,-26.357372,0.096771,-0.007629,0.990662,0.006081,-0.04947,-0.017764,75.292831,3.994507,-147.572937,,,
729860559.941916,-0.131084,-6.217353,-26.357372,0.096771,-0.007629,0.990662,0.006081,-0.04947,-0.017764,75.292831,3.994507,-147.572937,,,
729860559.945281,-0.124782,-6.232094,-26.361635,0.098831,-0.010422,1.003494,0.023787,-0.046219,-0.018244,75.292831,3.994507,-147.572937,,,
729860559.948603,-0.116173,-6.244661,-26.366293,0.098831,-0.010422,1.003494,0.023787,-0.046219,-0.018244,75.292831,3.994507,-147.572937,,,
729860559.951955,-0.116173,-6.244661,-26.366293,0.098831,-0.010422,1.003494,0.023787,-0.046219,-0.018244,75.292831,3.994507,-147.572937,,,
729860559.955372,-0.103847,-6.252923,-26.370644,0.10347,-0.009918,1.013214,0.043954,-0.02106,-0.019498,75.292831,3.994507,-147.572937,,,
729860559.958602,-0.088164,-6.256854,-26.374166,0.10347,-0.009918,1.013214,0.043954,-0.02106,-0.019498,75.292831,3.994507,-147.572937,,,
729860559.961959,-0.088164,-6.256854,-26.374166,0.10347,-0.009918,1.013214,0.043954,-0.02106,-0.019498,75.292831,3.994507,-147.572937,,,
729860559.9653,-0.069715,-6.255693,-26.377067,0.103821,-0.008316,1.018753,0.061111,0.012399,-0.020507,75.292831,3.994507,-147.572937,,,
729860559.968606,-0.051229,-6.248847,-26.379137,0.103821,-0.008316,1.018753,0.061111,0.012399,-0.020507,75.292831,3.994507,-147.572937,,,
729860559.971714,-0.051229,-6.248847,-26.379137,0.103821,-0.008316,1.018753,0.061111,0.012399,-0.020507,75.292831,3.994507,-147.572937,,,
729860559.975323,-0.033242,-6.237642,-26.380393,0.101639,-0.004135,1.009293,0.063107,0.043536,-0.010867,75.244873,3.884445,-147.651413,,,
729860559.978602,-0.018468,-6.223019,-26.381287,0.101639,-0.004135,1.009293,0.063107,0.043536,-0.010867,75.244873,3.884445,-147.651413,,,
729860559.981937,-0.018468,-6.223019,-26.381287,0.101639,-0.004135,1.009293,0.063107,0.043536,-0.010867,75.244873,3.884445,-147.651413,,,
729860559.985294,-0.007419,-6.204877,-26.381541,0.096649,-0.0009,0.990906,0.036723,0.070406,-0.004232,75.244873,3.884445,-147.651413,,,
729860559.988607,-0.001947,-6.18347,-26.380791,0.096649,-0.0009,0.990906,0.036723,0.070406,-0.004232,75.244873,3.884445,-147.651413,,,
729860559.991953,-0.001947,-6.18347,-26.380791,0.096649,-0.0009,0.990906,0.036723,0.070406,-0.004232,75.244873,3.884445,-147.651413,,,
729860559.995338,-0.000791,-6.161744,-26.379672,0.092865,0.003738,0.976517,0.001067,0.079622,0.002036,75.244873,3.884445,-147.651413,,,
729860559.9986,-0.005393,-6.140119,-26.378313,0.092865,0.003738,0.976517,0.001067,0.079622,0.002036,75.244873,3.884445,-147.651413,,,
729860560.001947,-0.005393,-6.140119,-26.378313,0.092865,0.003738,0.976517,0.001067,0.079622,0.002036,75.244873,3.884445,-147.651413,,,
729860560.005289,-0.013546,-6.124531,-26.376831,0.088913,0.002533,0.961319,-0.02965,0.056452,0.007303,75.244873,3.884445,-147.651413,,,
729860560.008604,-0.02563,-6.112253,-26.375198,0.088913,0.002533,0.961319,-0.02965,0.056452,0.007303,75.244873,3.884445,-147.651413,,,
729860560.011942,-0.02563,-6.112253,-26.375198,0.088913,0.002533,0.961319,-0.02965,0.056452,0.007303,75.244873,3.884445,-147.651413,,,
729860560.015271,-0.039108,-6.108499,-26.37365,0.08609,0.001755,0.959869,-0.04619,0.012073,0.011734,75.42598,3.743439,-147.630051,,,
729860560.018603,-0.055549,-6.10893,-26.372294,0.08609,0.001755,0.959869,-0.04619,0.012073,0.011734,75.42598,3.743439,-147.630051,,,
729860560.022019,-0.055549,-6.10893,-26.372294,0.08609,0.001755,0.959869,-0.04619,0.012073,0.011734,75.42598,3.743439,-147.630051,,,
729860560.025267,-0.069953,-6.117057,-26.370498,0.088318,-0.000626,0.970093,-0.04746,-0.030154,0.010749,75.42598,3.743439,-147.630051,,,
729860560.0286,-0.084572,-6.12873,-26.368003,0.088318,-0.000626,0.970093,-0.04746,-0.030154,0.010749,75.42598,3.743439,-147.630051,,,
729860560.03194,-0.084572,-6.12873,-26.368003,0.088318,-0.000626,0.970093,-0.04746,-0.030154,0.010749,75.42598,3.743439,-147.630051,,,
729860560.035343,-0.095545,-6.146214,-26.364491,0.087631,-0.005997,0.988068,-0.033612,-0.060781,0.015046,75.42598,3.743439,-147.630051,,,
729860560.038591,-0.104497,-6.165429,-26.359975,0.087631,-0.005997,0.988068,-0.033612,-0.060781,0.015046,75.42598,3.743439,-147.630051,,,
729860560.041945,-0.104497,-6.165429,-26.359975,0.087631,-0.005997,0.988068,-0.033612,-0.060781,0.015046,75.42598,3.743439,-147.630051,,,
729860560.045311,-0.108607,-6.187071,-26.354093,0.093491,-0.010986,1.005676,-0.011334,-0.072008,0.022052,75.42598,3.743439,-147.630051,,,
729860560.048622,-0.109792,-6.205056,-26.347175,0.093491,-0.010986,1.005676,-0.011334,-0.072008,0.022052,75.42598,3.743439,-147.630051,,,
729860560.05197,-0.109792,-6.205056,-26.347175,0.093491,-0.010986,1.005676,-0.011334,-0.072008,0.022052,75.42598,3.743439,-147.630051,,,
729860560.055267,-0.106192,-6.221086,-26.340306,0.104019,-0.01236,1.018356,0.021939,-0.049794,0.020127,75.135803,3.818069,-147.569153,,,
729860560.058598,-0.098934,-6.229835,-26.333466,0.104019,-0.01236,1.018356,0.021939,-0.049794,0.020127,75.135803,3.818069,-147.569153,,,
729860560.061945,-0.098934,-6.229835,-26.333466,0.104019,-0.01236,1.018356,0.021939,-0.049794,0.020127,75.135803,3.818069,-147.569153,,,
729860560.065264,-0.088698,-6.235228,-26.326953,0.114594,-0.012314,1.027817,0.042201,-0.011513,0.017185,75.135803,3.818069,-147.569153,,,
729860560.068596,-0.075024,-6.231807,-26.321142,0.114594,-0.012314,1.027817,0.042201,-0.011513,0.017185,75.135803,3.818069,-147.569153,,,
729860560.072002,-0.075024,-6.231807,-26.321142,0.114594,-0.012314,1.027817,0.042201,-0.011513,0.017185,75.135803,3.818069,-147.569153,,,
729860560.075269,-0.060121,-6.226419,-26.315888,0.120987,-0.00885,1.019119,0.054557,0.024459,0.010068,75.135803,3.818069,-147.569153,,,
729860560.0786,-0.043834,-6.213694,-26.311176,0.120987,-0.00885,1.019119,0.054557,0.024459,0.010068,75.135803,3.818069,-147.569153,,,
729860560.081951,-0.043834,-6.213694,-26.311176,0.120987,-0.00885,1.019119,0.054557,0.024459,0.010068,75.135803,3.818069,-147.569153,,,
729860560.085325,-0.028913,-6.200291,-26.306866,0.120987,-0.004837,1.007385,0.052291,0.051386,0.010794,75.135803,3.818069,-147.569153,,,
729860560.088591,-0.015083,-6.180211,-26.302516,0.120987,-0.004837,1.007385,0.052291,0.051386,0.010794,75.135803,3.818069,-147.569153,,,
729860560.091947,-0.015083,-6.180211,-26.302516,0.120987,-0.004837,1.007385,0.052291,0.051386,0.010794,75.135803,3.818069,-147.569153,,,
729860560.095273,-0.003638,-6.164222,-26.297813,0.114441,-0.003601,0.991669,0.041503,0.058207,0.010094,75.135803,3.818069,-147.569153,,,
729860560.098601,0.005854,-6.146532,-26.292396,0.114441,-0.003601,0.991669,0.041503,0.058207,0.010094,75.491653,3.702774,-147.53833,,,
729860560.101958,0.005854,-6.146532,-26.292396,0.114441,-0.003601,0.991669,0.041503,0.058207,0.010094,75.491653,3.702774,-147.53833,,,
729860560.105278,0.013144,-6.136881,-26.285894,0.105225,-0.003525,0.972977,0.026706,0.031353,0.020997,75.491653,3.702774,-147.53833,,,
729860560.108601,0.017446,-6.129096,-26.278448,0.105225,-0.003525,0.972977,0.026706,0.031353,0.020997,75.491653,3.702774,-147.53833,,,
729860560.111983,0.017446,-6.129096,-26.278448,0.105225,-0.003525,0.972977,0.026706,0.031353,0.020997,75.491653,3.702774,-147.53833,,,
729860560.115265,0.020767,-6.130529,-26.27054,0.101974,-0.001465,0.962418,0.014209,-0.008553,0.026114,75.491653,3.702774,-147.53833,,,
729860560.118598,0.021527,-6.13509,-26.263289,0.101974,-0.001465,0.962418,0.014209,-0.008553,0.026114,75.491653,3.702774,-147.53833,,,
729860560.121942,0.021527,-6.13509,-26.263289,0.101974,-0.001465,0.962418,0.014209,-0.008553,0.026114,75.491653,3.702774,-147.53833,,,
729860560.125337,0.022151,-6.148138,-26.257123,0.102707,-0.000336,0.956909,0.002588,-0.04821,0.018614,75.491653,3.702774,-147.53833,,,
729860560.128667,0.020967,-6.164148,-26.252462,0.102707,-0.000336,0.956909,0.002588,-0.04821,0.018614,75.491653,3.702774,-147.53833,,,
729860560.13195,0.020967,-6.164148,-26.252462,0.102707,-0.000336,0.956909,0.002588,-0.04821,0.018614,75.491653,3.702774,-147.53833,,,
729860560.135274,0.021691,-6.186031,-26.249477,0.109421,0.002472,0.962997,0.002709,-0.077031,0.009911,75.491653,3.702774,-147.53833,,,
729860560.138692,0.021677,-6.210675,-26.247478,0.109421,0.002472,0.962997,0.002709,-0.077031,0.009911,75.323669,3.772079,-147.378174,,,
729860560.141973,0.021677,-6.210675,-26.247478,0.109421,0.002472,0.962997,0.002709,-0.077031,0.009911,75.323669,3.772079,-147.378174,,,
729860560.145306,0.024882,-6.236294,-26.246699,0.114487,0.0009,0.973572,0.013636,-0.087917,-0.002219,75.323669,3.772079,-147.378174,,,
729860560.14862,0.029662,-6.2615,-26.246242,0.114487,0.0009,0.973572,0.013636,-0.087917,-0.002219,75.323669,3.772079,-147.378174,,,
729860560.151954,0.029662,-6.2615,-26.246242,0.114487,0.0009,0.973572,0.013636,-0.087917,-0.002219,75.323669,3.772079,-147.378174,,,
729860560.155287,0.0388,-6.281667,-26.244724,0.11554,-0.00145,0.990128,0.035462,-0.066064,7e-05,75.323669,3.772079,-147.378174,,,
729860560.158656,0.048667,-6.298649,-26.242221,0.11554,-0.00145,0.990128,0.035462,-0.066064,7e-05,75.323669,3.772079,-147.378174,,,
729860560.162007,0.048667,-6.298649,-26.242221,0.11554,-0.00145,0.990128,0.035462,-0.066064,7e-05,75.323669,3.772079,-147.378174,,,
729860560.165269,0.059366,-6.307172,-26.238707,0.113022,-0.004318,0.994705,0.038285,-0.020078,0.009317,75.323669,3.772079,-147.378174,,,
729860560.168604,0.067267,-6.309318,-26.234258,0.113022,-0.004318,0.994705,0.038285,-0.020078,0.009317,75.323669,3.772079,-147.378174,,,
729860560.171932,0.067267,-6.309318,-26.234258,0.113022,-0.004318,0.994705,0.038285,-0.020078,0.009317,75.323669,3.772079,-147.378174,,,
729860560.175321,0.07248,-6.301865,-26.229006,0.117126,-0.001221,0.990814,0.018892,0.03731,0.016103,75.323669,3.772079,-147.378174,,,
729860560.178668,0.07266,-6.287906,-26.223393,0.117126,-0.001221,0.990814,0.018892,0.03731,0.016103,75.170685,3.834213,-147.56572,,,
729860560.181927,0.07266,-6.287906,-26.223393,0.117126,-0.001221,0.990814,0.018892,0.03731,0.016103,75.170685,3.834213,-147.56572,,,
729860560.185274,0.069083,-6.269641,-26.218749,0.120071,0.002899,0.98143,-0.01297,0.070123,0.014883,75.170685,3.834213,-147.56572,,,
729860560.188644,0.060724,-6.248146,-26.21527,0.120071,0.002899,0.98143,-0.01297,0.070123,0.014883,75.170685,3.834213,-147.56572,,,
729860560.192025,0.060724,-6.248146,-26.21527,0.120071,0.002899,0.98143,-0.01297,0.070123,0.014883,75.170685,3.834213,-147.56572,,,
729860560.195265,0.050174,-6.227847,-26.212378,0.115311,0.002487,0.97142,-0.037434,0.07175,0.011738,75.170685,3.834213,-147.56572,,,
729860560.198603,0.037717,-6.210312,-26.210222,0.115311,0.002487,0.97142,-0.037434,0.07175,0.011738,75.170685,3.834213,-147.56572,,,
729860560.201998,0.037717,-6.210312,-26.210222,0.115311,0.002487,0.97142,-0.037434,0.07175,0.011738,75.170685,3.834213,-147.56572,,,
729860560.205278,0.024153,-6.198977,-26.208469,0.106171,0.00177,0.968063,-0.046245,0.037069,0.009196,75.170685,3.834213,-147.56572,,,
729860560.208625,0.010696,-6.195525,-26.206903,0.106171,0.00177,0.968063,-0.046245,0.037069,0.009196,75.170685,3.834213,-147.56572,,,
729860560.211941,0.010696,-6.195525,-26.206903,0.106171,0.00177,0.968063,-0.046245,0.037069,0.009196,75.170685,3.834213,-147.56572,,,
729860560.215335,-0.001577,-6.199667,-26.205694,0.100296,-0.001709,0.970047,-0.03987,-0.017397,0.009766,75.170685,3.834213,-147.56572,,,
729860560.218729,-0.011551,-6.212929,-26.204271,0.100296,-0.001709,0.970047,-0.03987,-0.017397,0.009766,75.170685,3.834213,-147.56572,,,
729860560.221993,-0.011551,-6.212929,-26.204271,0.100296,-0.001709,0.970047,-0.03987,-0.017397,0.009766,75.138275,3.829971,-147.502274,,,
729860560.225284,-0.019303,-6.230414,-26.202403,0.099899,-0.003052,0.978577,-0.023273,-0.06252,0.004053,75.138275,3.829971,-147.502274,,,
729860560.228694,-0.02466,-6.252201,-26.200439,0.099899,-0.003052,0.978577,-0.023273,-0.06252,0.004053,75.138275,3.829971,-147.502274,,,
729860560.231922,-0.02466,-6.252201,-26.200439,0.099899,-0.003052,0.978577,-0.023273,-0.06252,0.004053,75.138275,3.829971,-147.502274,,,
729860560.235299,-0.028052,-6.273381,-26.198001,0.101105,-0.005005,0.993973,-0.008912,-0.070546,0.008901,75.138275,3.829971,-147.502274,,,
729860560.238641,-0.031086,-6.294273,-26.194978,0.101105,-0.005005,0.993973,-0.008912,-0.070546,0.008901,75.138275,3.829971,-147.502274,,,
729860560.241994,-0.031086,-6.294273,-26.194978,0.101105,-0.005005,0.993973,-0.008912,-0.070546,0.008901,75.138275,3.829971,-147.502274,,,
729860560.245278,-0.034236,-6.311472,-26.191367,0.105789,-0.003159,1.00029,-0.008808,-0.054923,0.014711,75.138275,3.829971,-147.502274,,,
729860560.248654,-0.034236,-6.324698,-26.186515,0.105789,-0.003159,1.00029,-0.008808,-0.054923,0.014711,75.138275,3.829971,-147.502274,,,
729860560.251941,-0.038275,-6.324698,-26.186515,0.105789,-0.003159,1.00029,-0.008808,-0.054923,0.014711,75.138275,3.829971,-147.502274,,,
729860560.255337,-0.042395,-6.33208,-26.180835,0.112198,-0.002975,0.998352,-0.010523,-0.015885,0.020758,75.138275,3.829971,-147.502274,,,
729860560.258641,-0.04695,-6.335672,-26.175185,0.112198,-0.002975,0.998352,-0.010523,-0.015885,0.020758,75.138275,3.829971,-147.502274,,,
729860560.261952,-0.04695,-6.335672,-26.175185,0.112198,-0.002975,0.998352,-0.010523,-0.015885,0.020758,74.987961,3.949509,-147.471664,,,
729860560.265275,-0.052636,-6.3328,-26.169546,0.116318,-0.000885,0.998199,-0.016875,0.017397,0.022008,74.987961,3.949509,-147.471664,,,
729860560.26871,-0.058479,-6.32972,-26.16419,0.116318,-0.000885,0.998199,-0.016875,0.017397,0.022008,74.987961,3.949509,-147.471664,,,
729860560.271926,-0.058479,-6.32972,-26.16419,0.116318,-0.000885,0.998199,-0.016875,0.017397,0.022008,74.987961,3.949509,-147.471664,,,
729860560.275271,-0.065467,-6.323918,-26.159195,0.116714,-0.000381,0.991272,-0.022366,0.023719,0.019368,74.987961,3.949509,-147.471664,,,
729860560.278623,-0.065467,-6.323918,-26.154889,0.116714,-0.000381,0.991272,-0.022366,0.023719,0.019368,74.987961,3.949509,-147.471664,,,
729860560.281993,-0.072147,-6.318993,-26.154889,0.116714,-0.000381,0.991272,-0.022366,0.023719,0.019368,74.987961,3.949509,-147.471664,,,
729860560.28526,-0.079365,-6.316253,-26.151921,0.115845,-0.001312,0.983582,-0.022389,0.009288,0.010501,74.987961,3.949509,-147.471664,,,
729860560.288696,-0.079365,-6.316253,-26.150123,0.115845,-0.001312,0.983582,-0.022389,0.009288,0.010501,74.987961,3.949509,-147.471664,,,
729860560.292026,-0.085161,-6.316997,-26.150123,0.115845,-0.001312,0.983582,-0.022389,0.009288,0.010501,74.987961,3.949509,-147.471664,,,
729860560.295331,-0.089574,-6.32379,-26.149296,0.112717,0.000397,0.98085,-0.013185,-0.023616,0.002757,74.987961,3.949509,-147.471664,,,
729860560.298614,-0.089574,-6.32379,-26.149296,0.112717,0.000397,0.98085,-0.013185,-0.023616,0.002757,74.987961,3.949509,-147.471664,,,
729860560.301935,-0.092332,-6.332717,-26.14962,0.112717,0.000397,0.98085,-0.013185,-0.023616,0.002757,75.337509,4.026352,-147.441391,,,
729860560.305269,-0.093181,-6.347391,-26.150923,0.11319,-0.00238,0.980103,-0.003099,-0.051463,-0.004979,75.337509,4.026352,-147.441391,,,
729860560.3087,-0.093181,-6.347391,-26.150923,0.11319,-0.00238,0.980103,-0.003099,-0.051463,-0.004979,75.337509,4.026352,-147.441391,,,
729860560.311943,-0.094395,-6.362632,-26.152411,0.11319,-0.00238,0.980103,-0.003099,-0.051463,-0.004979,75.337509,4.026352,-147.441391,,,
729860560.315299,-0.096234,-6.381735,-26.153411,0.111725,-0.004242,0.980377,-0.005927,-0.065214,-0.001443,75.337509,4.026352,-147.441391,,,
729860560.318616,-0.096234,-6.381735,-26.153411,0.111725,-0.004242,0.980377,-0.005927,-0.065214,-0.001443,75.337509,4.026352,-147.441391,,,
729860560.322016,-0.099844,-6.39859,-26.153889,0.111725,-0.004242,0.980377,-0.005927,-0.065214,-0.001443,75.337509,4.026352,-147.441391,,,
729860560.325271,-0.103573,-6.414904,-26.153901,0.113586,-0.004623,0.98082,-0.011312,-0.05145,0.00184,75.337509,4.026352,-147.441391,,,
729860560.328599,-0.103573,-6.414904,-26.153901,0.113586,-0.004623,0.98082,-0.011312,-0.05145,0.00184,75.337509,4.026352,-147.441391,,,
729860560.331954,-0.107892,-6.427566,-26.153272,0.113586,-0.004623,0.98082,-0.011312,-0.05145,0.00184,75.337509,4.026352,-147.441391,,,
729860560.335354,-0.112265,-6.437121,-26.152284,0.115311,-0.002914,0.993546,-0.011066,-0.027702,0.005628,75.337509,4.026352,-147.441391,,,
729860560.338607,-0.112265,-6.437121,-26.152284,0.115311,-0.002914,0.993546,-0.011066,-0.027702,0.005628,75.337509,4.026352,-147.441391,,,
729860560.341979,-0.116564,-6.442615,-26.151421,0.115311,-0.002914,0.993546,-0.011066,-0.027702,0.005628,74.798462,4.053864,-147.179245,,,
729860560.345264,-0.120404,-6.443509,-26.150784,0.119308,-0.003372,1.00206,-0.010721,0.003185,0.000827,74.798462,4.053864,-147.179245,,,
729860560.348687,-0.120404,-6.443509,-26.150784,0.119308,-0.003372,1.00206,-0.010721,0.003185,0.000827,74.798462,4.053864,-147.179245,,,
729860560.351952,-0.122614,-6.442022,-26.150347,0.119308,-0.003372,1.00206,-0.010721,0.003185,0.000827,74.798462,4.053864,-147.179245,,,
729860560.355277,-0.122926,-6.437375,-26.150338,0.119247,-0.003891,1.009598,0.00237,0.019914,-0.000329,74.798462,4.053864,-147.179245,,,
729860560.358621,-0.122926,-6.437375,-26.150338,0.119247,-0.003891,1.009598,0.00237,0.019914,-0.000329,74.798462,4.053864,-147.179245,,,
729860560.362008,-0.120761,-6.432799,-26.150676,0.119247,-0.003891,1.009598,0.00237,0.019914,-0.000329,74.798462,4.053864,-147.179245,,,
729860560.365288,-0.116811,-6.42688,-26.151425,0.117523,-0.006546,1.009247,0.016364,0.024573,-0.00691,74.798462,4.053864,-147.179245,,,
729860560.368617,-0.116811,-6.42688,-26.151425,0.117523,-0.006546,1.009247,0.016364,0.024573,-0.00691,74.798462,4.053864,-147.179245,,,
729860560.371945,-0.111529,-6.422309,-26.152389,0.117523,-0.006546,1.009247,0.016364,0.024573,-0.00691,74.798462,4.053864,-147.179245,,,
729860560.375281,-0.106996,-6.417573,-26.153671,0.109406,-0.005066,1.001465,0.015806,0.020579,-0.008666,74.798462,4.053864,-147.179245,,,
729860560.378626,-0.106996,-6.417573,-26.153671,0.109406,-0.005066,1.001465,0.015806,0.020579,-0.008666,74.798462,4.053864,-147.179245,,,
729860560.38196,-0.103777,-6.413735,-26.155439,0.109406,-0.005066,1.001465,0.015806,0.020579,-0.008666,74.798462,4.053864,-147.179245,,,
729860560.385277,-0.103028,-6.410213,-26.156976,0.104736,-0.002136,0.989838,0.003167,0.012673,-0.007803,75.128006,3.977768,-147.217072,,,
729860560.388678,-0.103028,-6.410213,-26.156976,0.104736,-0.002136,0.989838,0.003167,0.012673,-0.007803,75.128006,3.977768,-147.217072,,,
729860560.391944,-0.105206,-6.408667,-26.158158,0.104736,-0.002136,0.989838,0.003167,0.012673,-0.007803,75.128006,3.977768,-147.217072,,,
729860560.395278,-0.109314,-6.408096,-26.158837,0.101746,0.001465,0.985458,-0.015356,0.004611,-0.00219,75.128006,3.977768,-147.217072,,,
729860560.398614,-0.109314,-6.408096,-26.158837,0.101746,0.001465,0.985458,-0.015356,0.004611,-0.00219,75.128006,3.977768,-147.217072,,,
729860560.401947,-0.115524,-6.410117,-26.158932,0.101746,0.001465,0.985458,-0.015356,0.004611,-0.00219,75.128006,3.977768,-147.217072,,,
729860560.405276,-0.123113,-6.41433,-26.158561,0.099258,0.001816,0.985916,-0.028497,-0.014292,0.002234,75.128006,3.977768,-147.217072,,,
729860560.40862,-0.123113,-6.41433,-26.158561,0.099258,0.001816,0.985916,-0.028497,-0.014292,0.002234,75.128006,3.977768,-147.217072,,,
729860560.412006,-0.132652,-6.421856,-26.157752,0.099258,0.001816,0.985916,-0.028497,-0.014292,0.002234,75.128006,3.977768,-147.217072,,,
729860560.415269,-0.142861,-6.430671,-26.157105,0.100311,0.003311,0.989014,-0.034382,-0.028561,0.002702,75.128006,3.977768,-147.217072,,,
729860560.418614,-0.142861,-6.430671,-26.157105,0.100311,0.003311,0.989014,-0.034382,-0.028561,0.002702,75.128006,3.977768,-147.217072,,,
729860560.421959,-0.153355,-6.442156,-26.156627,0.100311,0.003311,0.989014,-0.034382,-0.028561,0.002702,75.128006,3.977768,-147.217072,,,
729860560.425277,-0.162937,-6.45245,-26.156253,0.103363,0.000992,1.001007,-0.031408,-0.031217,0.003695,75.183609,3.88797,-147.560638,,,
729860560.428619,-0.162937,-6.45245,-26.156253,0.103363,0.000992,1.001007,-0.031408,-0.031217,0.003695,75.183609,3.88797,-147.560638,,,
729860560.43196,-0.171334,-6.464346,-26.155755,0.103363,0.000992,1.001007,-0.031408,-0.031217,0.003695,75.183609,3.88797,-147.560638,,,
729860560.435276,-0.177693,-6.475011,-26.15433,0.105301,-0.00383,1.013519,-0.0195,-0.030434,0.00699,75.183609,3.88797,-147.560638,,,
729860560.438679,-0.177693,-6.475011,-26.15433,0.105301,-0.00383,1.013519,-0.0195,-0.030434,0.00699,75.183609,3.88797,-147.560638,,,
729860560.441951,-0.181775,-6.486074,-26.151609,0.105301,-0.00383,1.013519,-0.0195,-0.030434,0.00699,75.183609,3.88797,-147.560638,,,
729860560.445269,-0.181997,-6.494238,-26.147905,0.109451,-0.007095,1.02623,0.005022,-0.024758,0.010474,75.183609,3.88797,-147.560638,,,
729860560.448617,-0.181997,-6.494238,-26.147905,0.109451,-0.007095,1.02623,0.005022,-0.024758,0.010474,75.183609,3.88797,-147.560638,,,
729860560.452018,-0.178135,-6.499347,-26.143592,0.109451,-0.007095,1.02623,0.005022,-0.024758,0.010474,75.183609,3.88797,-147.560638,,,
729860560.455269,-0.170432,-6.501777,-26.13897,0.112534,-0.008362,1.038895,0.02892,-0.002157,0.010794,75.183609,3.88797,-147.560638,,,
729860560.458635,-0.170432,-6.501777,-26.13897,0.112534,-0.008362,1.038895,0.02892,-0.002157,0.010794,75.183609,3.88797,-147.560638,,,
729860560.461985,-0.160294,-6.499782,-26.133778,0.112534,-0.008362,1.038895,0.02892,-0.002157,0.010794,75.183609,3.88797,-147.560638,,,
729860560.465352,-0.147112,-6.498176,-26.127981,0.111877,-0.009155,1.039093,0.05212,0.010017,0.012143,75.147278,3.954544,-147.584259,,,
729860560.46862,-0.147112,-6.498176,-26.127981,0.111877,-0.009155,1.039093,0.05212,0.010017,0.012143,75.147278,3.954544,-147.584259,,,
729860560.471984,-0.131148,-6.494465,-26.122514,0.111877,-0.009155,1.039093,0.05212,0.010017,0.012143,75.147278,3.954544,-147.584259,,,
729860560.475281,-0.114409,-6.493125,-26.11758,0.116669,-0.007324,1.023315,0.059757,0.005902,0.008774,75.147278,3.954544,-147.584259,,,
729860560.478708,-0.114409,-6.493125,-26.11758,0.116669,-0.007324,1.023315,0.059757,0.005902,0.008774,75.147278,3.954544,-147.584259,,,
729860560.481966,-0.096749,-6.490264,-26.11385,0.116669,-0.007324,1.023315,0.059757,0.005902,0.008774,75.147278,3.954544,-147.584259,,,
729860560.485284,-0.079999,-6.490976,-26.111477,0.122452,-0.000809,1.01152,0.057721,0.001158,0.000198,75.147278,3.954544,-147.584259,,,
729860560.488625,-0.079999,-6.490976,-26.111477,0.122452,-0.000809,1.01152,0.057721,0.001158,0.000198,75.147278,3.954544,-147.584259,,,
729860560.49201,-0.063249,-6.489991,-26.110026,0.122452,-0.000809,1.01152,0.057721,0.001158,0.000198,75.147278,3.954544,-147.584259,,,
729860560.495272,-0.047283,-6.491323,-26.10906,0.120743,-0.001755,1.002716,0.055803,-0.002061,-0.005234,75.147278,3.954544,-147.584259,,,
729860560.498619,-0.047283,-6.491323,-26.10906,0.120743,-0.001755,1.002716,0.055803,-0.002061,-0.005234,75.147278,3.954544,-147.584259,,,
729860560.50195,-0.031584,-6.492031,-26.107853,0.120743,-0.001755,1.002716,0.055803,-0.002061,-0.005234,75.147278,3.954544,-147.584259,,,
729860560.505276,-0.017143,-6.495601,-26.106201,0.118576,-0.000992,0.9953,0.050249,-0.011619,0.001368,75.19104,3.819839,-147.249283,,,
729860560.508686,-0.017143,-6.495601,-26.106201,0.118576,-0.000992,0.9953,0.050249,-0.011619,0.001368,75.19104,3.819839,-147.249283,,,
729860560.511959,-0.003739,-6.497682,-26.104463,0.118576,-0.000992,0.9953,0.050249,-0.011619,0.001368,75.19104,3.819839,-147.249283,,,
729860560.515279,0.009012,-6.501156,-26.10245,0.117401,0.000687,0.989899,0.044022,-0.009709,0.000147,75.19104,3.819839,-147.249283,,,
729860560.518671,0.009012,-6.501156,-26.10245,0.117401,0.000687,0.989899,0.044022,-0.009709,0.000147,75.19104,3.819839,-147.249283,,,
729860560.521962,0.020009,-6.501683,-26.099648,0.117401,0.000687,0.989899,0.044022,-0.009709,0.000147,75.19104,3.819839,-147.249283,,,
729860560.52528,0.03035,-6.502577,-26.097128,0.115768,0.001251,0.986496,0.037935,-0.0003,0.002544,75.19104,3.819839,-147.249283,,,
729860560.528621,0.03035,-6.502577,-26.097128,0.115768,0.001251,0.986496,0.037935,-0.0003,0.002544,75.19104,3.819839,-147.249283,,,
729860560.53202,0.037544,-6.500853,-26.094844,0.115768,0.001251,0.986496,0.037935,-0.0003,0.002544,75.19104,3.819839,-147.249283,,,
729860560.535265,0.043678,-6.499484,-26.092689,0.117279,0.003403,0.980591,0.020583,0.009719,0.002856,75.19104,3.819839,-147.249283,,,
729860560.53862,0.043678,-6.499484,-26.092689,0.117279,0.003403,0.980591,0.020583,0.009719,0.002856,75.19104,3.819839,-147.249283,,,
729860560.541958,0.046003,-6.49641,-26.091208,0.117279,0.003403,0.980591,0.020583,0.009719,0.002856,75.19104,3.819839,-147.249283,,,
729860560.545276,0.047671,-6.495309,-26.090618,0.116272,0.006546,0.970627,0.004419,0.005149,0.000126,75.19104,3.819839,-147.249283,,,
729860560.54861,0.047671,-6.495309,-26.090618,0.116272,0.006546,0.970627,0.004419,0.005149,0.000126,75.159058,3.674011,-147.306808,,,
729860560.551959,0.046668,-6.493505,-26.091167,0.116272,0.006546,0.970627,0.004419,0.005149,0.000126,75.159058,3.674011,-147.306808,,,
729860560.555276,0.047229,-6.492407,-26.093005,0.116928,0.006683,0.972626,0.001799,0.007261,-0.009197,75.159058,3.674011,-147.306808,,,
729860560.558706,0.047229,-6.492407,-26.093005,0.116928,0.006683,0.972626,0.001799,0.007261,-0.009197,75.159058,3.674011,-147.306808,,,
729860560.56196,0.048509,-6.493484,-26.095907,0.116928,0.006683,0.972626,0.001799,0.007261,-0.009197,75.159058,3.674011,-147.306808,,,
729860560.565282,0.052702,-6.495314,-26.099117,0.115997,0.004562,0.981613,0.014491,-0.005828,-0.012401,75.159058,3.674011,-147.306808,,,
729860560.568622,0.052702,-6.495314,-26.099117,0.115997,0.004562,0.981613,0.014491,-0.005828,-0.012401,75.159058,3.674011,-147.306808,,,
729860560.572015,0.059646,-6.500617,-26.102307,0.115997,0.004562,0.981613,0.014491,-0.005828,-0.012401,75.159058,3.674011,-147.306808,,,
729860560.575265,0.07044,-6.505531,-26.105363,0.11525,-0.001083,0.989853,0.039402,-0.014688,-0.014511,75.159058,3.674011,-147.306808,,,
729860560.578624,0.07044,-6.505531,-26.105363,0.11525,-0.001083,0.989853,0.039402,-0.014688,-0.014511,75.159058,3.674011,-147.306808,,,
729860560.581951,0.084219,-6.512512,-26.108714,0.11525,-0.001083,0.989853,0.039402,-0.014688,-0.014511,75.159058,3.674011,-147.306808,,,
729860560.585281,0.101872,-6.518016,-26.112333,0.113251,-0.001724,0.994904,0.065283,-0.016778,-0.020494,75.159058,3.674011,-147.306808,,,
729860560.588607,0.101872,-6.518016,-26.112333,0.113251,-0.001724,0.994904,0.065283,-0.016778,-0.020494,75.156448,3.474716,-147.371262,,,
729860560.591963,0.121628,-6.523434,-26.11598,0.113251,-0.001724,0.994904,0.065283,-0.016778,-0.020494,75.156448,3.474716,-147.371262,,,
729860560.59528,0.14255,-6.526877,-26.119708,0.111816,0.000198,0.99324,0.07306,-0.009204,-0.024512,75.156448,3.474716,-147.371262,,,
729860560.598689,0.14255,-6.526877,-26.119708,0.111816,0.000198,0.99324,0.07306,-0.009204,-0.024512,75.156448,3.474716,-147.371262,,,
729860560.601956,0.163208,-6.529871,-26.123687,0.111816,0.000198,0.99324,0.07306,-0.009204,-0.024512,75.156448,3.474716,-147.371262,,,
729860560.605283,0.183526,-6.531025,-26.128602,0.112717,0.005646,0.986206,0.069266,0.001667,-0.028993,75.156448,3.474716,-147.371262,,,
729860560.608623,0.183526,-6.531025,-26.128602,0.112717,0.005646,0.986206,0.069266,0.001667,-0.028993,75.156448,3.474716,-147.371262,,,
729860560.61201,0.20209,-6.531362,-26.134105,0.112717,0.005646,0.986206,0.069266,0.001667,-0.028993,75.156448,3.474716,-147.371262,,,
729860560.615274,0.218287,-6.528758,-26.139529,0.112717,0.005188,0.978302,0.054552,0.01328,-0.026927,75.156448,3.474716,-147.371262,,,
729860560.61863,0.218287,-6.528758,-26.139529,0.112717,0.005188,0.978302,0.054552,0.01328,-0.026927,75.156448,3.474716,-147.371262,,,
729860560.621959,0.231683,-6.525855,-26.144531,0.112717,0.005188,0.978302,0.054552,0.01328,-0.026927,75.156448,3.474716,-147.371262,,,
729860560.625282,0.241275,-6.520925,-26.148578,0.103561,0.006699,0.969254,0.027097,0.020027,-0.018186,75.156448,3.474716,-147.371262,,,
729860560.628611,0.241275,-6.520925,-26.148578,0.103561,0.006699,0.969254,0.027097,0.020027,-0.018186,75.188309,3.667114,-147.081406,,,
729860560.631967,0.247592,-6.517032,-26.151457,0.103561,0.006699,0.969254,0.027097,0.020027,-0.018186,75.188309,3.667114,-147.081406,,,
729860560.635282,0.24974,-6.511971,-26.152765,0.095337,0.006073,0.961456,0.004773,0.021998,-0.003365,75.188309,3.667114,-147.081406,,,
729860560.638683,0.24974,-6.511971,-26.152765,0.095337,0.006073,0.961456,0.004773,0.021998,-0.003365,75.188309,3.667114,-147.081406,,,
729860560.642035,0.24841,-6.508441,-26.152136,0.095337,0.006073,0.961456,0.004773,0.021998,-0.003365,75.188309,3.667114,-147.081406,,,
729860560.645275,0.243779,-6.505907,-26.149742,0.09169,0.004074,0.958176,-0.017972,0.008456,0.010218,75.188309,3.667114,-147.081406,,,
729860560.648632,0.243779,-6.505907,-26.149742,0.09169,0.004074,0.958176,-0.017972,0.008456,0.010218,75.188309,3.667114,-147.081406,,,
729860560.652019,0.236389,-6.507281,-26.146399,0.09169,0.004074,0.958176,-0.017972,0.008456,0.010218,75.188309,3.667114,-147.081406,,,
729860560.655268,0.228763,-6.512091,-26.142753,0.094788,0.0047,0.962448,-0.0246,-0.018846,0.014328,75.188309,3.667114,-147.081406,,,
729860560.658623,0.228763,-6.512091,-26.142753,0.094788,0.0047,0.962448,-0.0246,-0.018846,0.014328,75.188309,3.667114,-147.081406,,,
729860560.66196,0.221463,-6.520963,-26.138827,0.094788,0.0047,0.962448,-0.0246,-0.018846,0.014328,75.188309,3.667114,-147.081406,,,
729860560.665279,0.216693,-6.53234,-26.135606,0.099472,0.005844,0.973602,-0.013456,-0.036511,0.011011,75.188309,3.667114,-147.081406,,,
729860560.668611,0.216693,-6.53234,-26.135606,0.099472,0.005844,0.973602,-0.013456,-0.036511,0.011011,75.188309,3.667114,-147.081406,,,
729860560.671967,0.2134,-6.54512,-26.133198,0.099472,0.005844,0.973602,-0.013456,-0.036511,0.011011,75.037186,3.490372,-147.349152,,,
729860560.675273,0.212788,-6.559158,-26.131035,0.106125,0.005951,0.987869,0.001418,-0.045851,0.004863,75.037186,3.490372,-147.349152,,,
729860560.678687,0.212788,-6.559158,-26.131035,0.106125,0.005951,0.987869,0.001418,-0.045851,0.004863,75.037186,3.490372,-147.349152,,,
729860560.681955,0.214349,-6.573276,-26.129665,0.106125,0.005951,0.987869,0.001418,-0.045851,0.004863,75.037186,3.490372,-147.349152,,,
729860560.685281,0.217929,-6.587108,-26.129023,0.114883,0.006638,0.998154,0.012155,-0.04088,-0.001202,75.037186,3.490372,-147.349152,,,
729860560.688624,0.217929,-6.587108,-26.129023,0.114883,0.006638,0.998154,0.012155,-0.04088,-0.001202,75.037186,3.490372,-147.349152,,,
729860560.692024,0.22362,-6.599089,-26.129323,0.114883,0.006638,0.998154,0.012155,-0.04088,-0.001202,75.037186,3.490372,-147.349152,,,
729860560.695276,0.230776,-6.608364,-26.130382,0.120453,0.003601,1.002701,0.024701,-0.027546,-0.008156,75.037186,3.490372,-147.349152,,,
729860560.698625,0.230776,-6.608364,-26.130382,0.120453,0.003601,1.002701,0.024701,-0.027546,-0.008156,75.037186,3.490372,-147.349152,,,
729860560.701972,0.239464,-6.614711,-26.131873,0.120453,0.003601,1.002701,0.024701,-0.027546,-0.008156,75.037186,3.490372,-147.349152,,,
729860560.705282,0.247476,-6.621504,-26.133778,0.119553,0.002792,0.99881,0.026995,-0.01814,-0.009733,75.037186,3.490372,-147.349152,,,
729860560.708658,0.247476,-6.621504,-26.133778,0.119553,0.002792,0.99881,0.026995,-0.01814,-0.009733,75.037186,3.490372,-147.349152,,,
729860560.711965,0.254268,-6.623924,-26.135697,0.119553,0.002792,0.99881,0.026995,-0.01814,-0.009733,74.958008,3.708893,-147.22142,,,
729860560.715281,0.258348,-6.627332,-26.136804,0.11557,0.004211,0.987427,0.013997,-0.011625,-0.004433,74.958008,3.708893,-147.22142,,,
729860560.718686,0.258348,-6.627332,-26.136804,0.11557,0.004211,0.987427,0.013997,-0.011625,-0.004433,74.958008,3.708893,-147.22142,,,
729860560.721948,0.25911,-6.625088,-26.136149,0.11557,0.004211,0.987427,0.013997,-0.011625,-0.004433,74.958008,3.708893,-147.22142,,,
729860560.725283,0.25591,-6.625429,-26.133825,0.110489,0.002167,0.977142,-0.014896,0.002953,0.010293,74.958008,3.708893,-147.22142,,,
729860560.728621,0.25591,-6.625429,-26.133825,0.110489,0.002167,0.977142,-0.014896,0.002953,0.010293,74.958008,3.708893,-147.22142,,,
729860560.732025,0.248565,-6.621,-26.129292,0.110489,0.002167,0.977142,-0.014896,0.002953,0.010293,74.958008,3.708893,-147.22142,,,
729860560.735273,0.237832,-6.620022,-26.122206,0.108902,0.000275,0.976746,-0.033541,0.006756,0.030565,74.958008,3.708893,-147.22142,,,
729860560.738611,0.237832,-6.620022,-26.122206,0.108902,0.000275,0.976746,-0.033541,0.006756,0.030565,74.958008,3.708893,-147.22142,,,
729860560.741959,0.225464,-6.616692,-26.11306,0.108902,0.000275,0.976746,-0.033541,0.006756,0.030565,74.958008,3.708893,-147.22142,,,
729860560.745278,0.211378,-6.617193,-26.102749,0.109344,0.00087,0.978363,-0.045384,0.000616,0.040512,74.958008,3.708893,-147.22142,,,
729860560.748626,0.211378,-6.617193,-26.102749,0.109344,0.00087,0.978363,-0.045384,0.000616,0.040512,74.958008,3.708893,-147.22142,,,
729860560.751971,0.196456,-6.617988,-26.09265,0.109344,0.00087,0.978363,-0.045384,0.000616,0.040512,74.921005,3.643402,-147.504196,,,
729860560.75528,0.182467,-6.623703,-26.083603,0.116394,0.001877,0.983566,-0.040383,-0.020475,0.035528,74.921005,3.643402,-147.504196,,,
729860560.758688,0.182467,-6.623703,-26.083603,0.116394,0.001877,0.983566,-0.040383,-0.020475,0.035528,74.921005,3.643402,-147.504196,,,
729860560.761958,0.171351,-6.63225,-26.07663,0.116394,0.001877,0.983566,-0.040383,-0.020475,0.035528,74.921005,3.643402,-147.504196,,,
729860560.765286,0.16304,-6.645325,-26.072187,0.125641,0.002609,0.991806,-0.022462,-0.045116,0.016182,74.921005,3.643402,-147.504196,,,
729860560.768637,0.16304,-6.645325,-26.072187,0.125641,0.002609,0.991806,-0.022462,-0.045116,0.016182,74.921005,3.643402,-147.504196,,,
729860560.772002,0.159928,-6.662499,-26.070559,0.125641,0.002609,0.991806,-0.022462,-0.045116,0.016182,74.921005,3.643402,-147.504196,,,
729860560.77527,0.161875,-6.682961,-26.071895,0.131363,-0.000153,1.005051,0.010725,-0.069827,-0.008912,74.921005,3.643402,-147.504196,,,
729860560.778613,0.161875,-6.682961,-26.071895,0.131363,-0.000153,1.005051,0.010725,-0.069827,-0.008912,74.921005,3.643402,-147.504196,,,
729860560.78196,0.169481,-6.706655,-26.075377,0.131363,-0.000153,1.005051,0.010725,-0.069827,-0.008912,74.921005,3.643402,-147.504196,,,
729860560.785276,0.182087,-6.729953,-26.080767,0.135315,-0.003494,1.013626,0.046334,-0.080007,-0.025711,74.921005,3.643402,-147.504196,,,
729860560.788608,0.182087,-6.729953,-26.080767,0.135315,-0.003494,1.013626,0.046334,-0.080007,-0.025711,74.921005,3.643402,-147.504196,,,
729860560.79195,0.198411,-6.751633,-26.087282,0.135315,-0.003494,1.013626,0.046334,-0.080007,-0.025711,74.836975,3.493057,-147.361984,,,
729860560.795279,0.215606,-6.768951,-26.093879,0.132996,-0.002884,1.012909,0.05787,-0.052356,-0.032676,74.836975,3.493057,-147.361984,,,
729860560.79862,0.215606,-6.768951,-26.093879,0.132996,-0.002884,1.012909,0.05787,-0.052356,-0.032676,74.836975,3.493057,-147.361984,,,
729860560.801961,0.231731,-6.779114,-26.099654,0.132996,-0.002884,1.012909,0.05787,-0.052356,-0.032676,74.836975,3.493057,-147.361984,,,
729860560.805277,0.244468,-6.783071,-26.103651,0.12677,-0.000259,1.003799,0.036539,-0.004597,-0.019438,74.836975,3.493057,-147.361984,,,
729860560.808704,0.244468,-6.783071,-26.103651,0.12677,-0.000259,1.003799,0.036539,-0.004597,-0.019438,74.836975,3.493057,-147.361984,,,
729860560.811963,0.250385,-6.77752,-26.106088,0.12677,-0.000259,1.003799,0.036539,-0.004597,-0.019438,74.836975,3.493057,-147.361984,,,
