Time (sec),Pitch (deg),Roll (deg),Yaw(deg),X-Acceleration (g),Y-Acceleration (g),Z-Acceleration (g),Pitch Rate (deg/sec),Roll Rate (deg/sec),Yaw Rate (deg/sec),Magnetic Field in X direction (uT),Magnetic Field in Y direction (uT),Magnetic Field in Z Direction (uT),Latitude (deg),Longitude (deg),Altitude (m)
729862627.341041,2.163677,3.558353,35.774598,-0.076111,0.031799,1.017624,-0.048076,-0.008031,0.000365,61.329727,-9.563019,-145.87558,,,
729862627.344379,2.165325,3.554639,35.771765,-0.065704,0.017517,1.048065,0.021825,-0.007095,-0.014338,61.329727,-9.563019,-145.87558,,,
729862627.347715,2.175136,3.552209,35.767465,-0.065704,0.017517,1.048065,0.021825,-0.007095,-0.014338,61.329727,-9.563019,-145.87558,,,
729862627.35104,2.175136,3.552209,35.767465,-0.065704,0.017517,1.048065,0.021825,-0.007095,-0.014338,61.329727,-9.563019,-145.87558,,,
729862627.354374,2.192132,3.551083,35.763693,-0.067001,0.015442,1.045639,0.066752,0.000138,-0.007739,61.329727,-9.563019,-145.87558,,,
729862627.357713,2.211633,3.551892,35.76203,-0.067001,0.015442,1.045639,0.066752,0.000138,-0.007739,61.329727,-9.563019,-145.87558,,,
729862627.361062,2.211633,3.551892,35.76203,-0.067001,0.015442,1.045639,0.066752,0.000138,-0.007739,61.329727,-9.563019,-145.87558,,,
729862627.364393,2.231591,3.556114,35.762259,-0.065689,0.024918,1.022675,0.065475,0.027534,0.005299,61.329727,-9.563019,-145.87558,,,
729862627.367719,2.249384,3.565263,35.763756,-0.065689,0.024918,1.022675,0.065475,0.027534,0.005299,61.329727,-9.563019,-145.87558,,,
729862627.371132,2.249384,3.565263,35.763756,-0.065689,0.024918,1.022675,0.065475,0.027534,0.005299,61.329727,-9.563019,-145.87558,,,
729862627.374381,2.266185,3.575761,35.765751,-0.061142,0.034683,1.004684,0.047847,0.047783,0.007358,61.329727,-9.563019,-145.87558,,,
729862627.377721,2.278102,3.588276,35.767197,-0.061142,0.034683,1.004684,0.047847,0.047783,0.007358,61.089249,-9.695877,-145.597046,,,
729862627.381047,2.278102,3.588276,35.767197,-0.061142,0.034683,1.004684,0.047847,0.047783,0.007358,61.089249,-9.695877,-145.597046,,,
729862627.384456,2.288701,3.598323,35.768473,-0.068741,0.040192,0.987793,0.024027,0.032981,0.004598,61.089249,-9.695877,-145.597046,,,
729862627.387699,2.293538,3.605111,35.77003,-0.068741,0.040192,0.987793,0.024027,0.032981,0.004598,61.089249,-9.695877,-145.597046,,,
729862627.391122,2.293538,3.605111,35.77003,-0.068741,0.040192,0.987793,0.024027,0.032981,0.004598,61.089249,-9.695877,-145.597046,,,
729862627.394414,2.297247,3.608926,35.772398,-0.074554,0.040985,0.974884,-0.003502,-0.000757,0.009114,61.089249,-9.695877,-145.597046,,,
729862627.397718,2.294442,3.60447,35.776481,-0.074554,0.040985,0.974884,-0.003502,-0.000757,0.009114,61.089249,-9.695877,-145.597046,,,
729862627.401058,2.294442,3.60447,35.776481,-0.074554,0.040985,0.974884,-0.003502,-0.000757,0.009114,61.089249,-9.695877,-145.597046,,,
729862627.404404,2.289579,3.597144,35.781606,-0.074799,0.043121,0.964172,-0.029158,-0.042919,0.015689,61.089249,-9.695877,-145.597046,,,
729862627.407713,2.278458,3.581453,35.786958,-0.074799,0.043121,0.964172,-0.029158,-0.042919,0.015689,61.089249,-9.695877,-145.597046,,,
729862627.411038,2.278458,3.581453,35.786958,-0.074799,0.043121,0.964172,-0.029158,-0.042919,0.015689,61.089249,-9.695877,-145.597046,,,
729862627.414454,2.261756,3.563803,35.791913,-0.062698,0.044998,0.952621,-0.0646,-0.072248,0.011389,61.089249,-9.695877,-145.597046,,,
729862627.417737,2.241629,3.541738,35.796528,-0.062698,0.044998,0.952621,-0.0646,-0.072248,0.011389,61.007538,-9.687576,-145.36441,,,
729862627.421096,2.241629,3.541738,35.796528,-0.062698,0.044998,0.952621,-0.0646,-0.072248,0.011389,61.007538,-9.687576,-145.36441,,,
729862627.424377,2.216368,3.521269,35.800314,-0.054321,0.042175,0.962112,-0.086793,-0.063311,0.004349,61.007538,-9.687576,-145.36441,,,
729862627.427722,2.190911,3.504792,35.803103,-0.054321,0.042175,0.962112,-0.086793,-0.063311,0.004349,61.007538,-9.687576,-145.36441,,,
729862627.431059,2.190911,3.504792,35.803103,-0.054321,0.042175,0.962112,-0.086793,-0.063311,0.004349,61.007538,-9.687576,-145.36441,,,
729862627.434477,2.164399,3.493616,35.804681,-0.046936,0.034912,0.992172,-0.077457,-0.028569,-0.003492,61.007538,-9.687576,-145.36441,,,
729862627.437712,2.14581,3.488444,35.804079,-0.046936,0.034912,0.992172,-0.077457,-0.028569,-0.003492,61.007538,-9.687576,-145.36441,,,
729862627.441043,2.14581,3.488444,35.804079,-0.046936,0.034912,0.992172,-0.077457,-0.028569,-0.003492,61.007538,-9.687576,-145.36441,,,
729862627.444416,2.134457,3.491855,35.800871,-0.039322,0.018555,1.041901,-0.015761,0.026299,-0.017772,61.007538,-9.687576,-145.36441,,,
729862627.447712,2.133473,3.502392,35.795925,-0.039322,0.018555,1.041901,-0.015761,0.026299,-0.017772,61.007538,-9.687576,-145.36441,,,
729862627.451051,2.133473,3.502392,35.795925,-0.039322,0.018555,1.041901,-0.015761,0.026299,-0.017772,61.007538,-9.687576,-145.36441,,,
729862627.454394,2.14015,3.518899,35.789668,-0.048492,0.006775,1.067398,0.04002,0.068093,-0.023422,61.007538,-9.687576,-145.36441,,,
729862627.457711,2.154429,3.538642,35.782786,-0.048492,0.006775,1.067398,0.04002,0.068093,-0.023422,61.288757,-9.571899,-145.681717,,,
729862627.461037,2.154429,3.538642,35.782786,-0.048492,0.006775,1.067398,0.04002,0.068093,-0.023422,61.288757,-9.571899,-145.681717,,,
729862627.464396,2.1737,3.560221,35.776823,-0.062241,0.010925,1.048798,0.073654,0.078115,-0.014781,61.288757,-9.571899,-145.681717,,,
729862627.467705,2.193588,3.581794,35.77256,-0.062241,0.010925,1.048798,0.073654,0.078115,-0.014781,61.288757,-9.571899,-145.681717,,,
729862627.471146,2.193588,3.581794,35.77256,-0.062241,0.010925,1.048798,0.073654,0.078115,-0.014781,61.288757,-9.571899,-145.681717,,,
729862627.47439,2.211216,3.603013,35.770352,-0.075439,0.026062,1.013992,0.055494,0.069817,-0.001297,61.288757,-9.571899,-145.681717,,,
729862627.477716,2.224224,3.619535,35.770555,-0.075439,0.026062,1.013992,0.055494,0.069817,-0.001297,61.288757,-9.571899,-145.681717,,,
729862627.481053,2.224224,3.619535,35.770555,-0.075439,0.026062,1.013992,0.055494,0.069817,-0.001297,61.288757,-9.571899,-145.681717,,,
729862627.484438,2.231592,3.631149,35.773253,-0.083023,0.037811,0.975723,0.013224,0.026946,0.01386,61.288757,-9.571899,-145.681717,,,
729862627.4877,2.231032,3.633861,35.777746,-0.083023,0.037811,0.975723,0.013224,0.026946,0.01386,61.288757,-9.571899,-145.681717,,,
729862627.491055,2.231032,3.633861,35.777746,-0.083023,0.037811,0.975723,0.013224,0.026946,0.01386,61.288757,-9.571899,-145.681717,,,
729862627.494384,2.223712,3.62915,35.783612,-0.090012,0.046143,0.947983,-0.037524,-0.027464,0.020267,61.288757,-9.571899,-145.681717,,,
729862627.497714,2.210754,3.616978,35.791185,-0.090012,0.046143,0.947983,-0.037524,-0.027464,0.020267,61.178238,-9.580551,-145.427826,,,
729862627.501052,2.210754,3.616978,35.791185,-0.090012,0.046143,0.947983,-0.037524,-0.027464,0.020267,61.178238,-9.580551,-145.427826,,,
729862627.504398,2.194599,3.597912,35.799656,-0.087769,0.048569,0.953018,-0.06288,-0.072881,0.024813,61.178238,-9.580551,-145.427826,,,
729862627.507706,2.177044,3.574731,35.808806,-0.087769,0.048569,0.953018,-0.06288,-0.072881,0.024813,61.178238,-9.580551,-145.427826,,,
729862627.511044,2.177044,3.574731,35.808806,-0.087769,0.048569,0.953018,-0.06288,-0.072881,0.024813,61.178238,-9.580551,-145.427826,,,
729862627.514383,2.16054,3.548682,35.818466,-0.080582,0.040634,0.978485,-0.05599,-0.085639,0.02862,61.178238,-9.580551,-145.427826,,,
729862627.517711,2.145531,3.524365,35.827558,-0.080582,0.040634,0.978485,-0.05599,-0.085639,0.02862,61.178238,-9.580551,-145.427826,,,
729862627.521106,2.145531,3.524365,35.827558,-0.080582,0.040634,0.978485,-0.05599,-0.085639,0.02862,61.178238,-9.580551,-145.427826,,,
729862627.524364,2.130959,3.502288,35.835034,-0.062286,0.035828,0.998779,-0.045579,-0.057527,0.01748,61.178238,-9.580551,-145.427826,,,
729862627.527719,2.120318,3.48795,35.840896,-0.062286,0.035828,0.998779,-0.045579,-0.057527,0.01748,61.178238,-9.580551,-145.427826,,,
729862627.531049,2.120318,3.48795,35.840896,-0.062286,0.035828,0.998779,-0.045579,-0.057527,0.01748,61.178238,-9.580551,-145.427826,,,
729862627.534381,2.112601,3.478872,35.845626,-0.051178,0.03479,1.017822,-0.011914,-0.010419,0.011199,61.178238,-9.580551,-145.427826,,,
729862627.537706,2.11213,3.478804,35.84876,-0.051178,0.03479,1.017822,-0.011914,-0.010419,0.011199,61.178238,-9.580551,-145.427826,,,
729862627.541049,2.11213,3.478804,35.84876,-0.051178,0.03479,1.017822,-0.011914,-0.010419,0.011199,61.018906,-9.258392,-145.420197,,,
729862627.544408,2.115904,3.48594,35.850197,-0.048172,0.027695,1.034729,0.029955,0.042204,0.00179,61.018906,-9.258392,-145.420197,,,
729862627.547706,2.1271,3.501389,35.849833,-0.048172,0.027695,1.034729,0.029955,0.042204,0.00179,61.018906,-9.258392,-145.420197,,,
729862627.551053,2.1271,3.501389,35.849833,-0.048172,0.027695,1.034729,0.029955,0.042204,0.00179,61.018906,-9.258392,-145.420197,,,
729862627.554384,2.142604,3.523421,35.848218,-0.050446,0.023819,1.03624,0.066287,0.082574,-0.004385,61.018906,-9.258392,-145.420197,,,
729862627.557714,2.162213,3.547163,35.846063,-0.050446,0.023819,1.03624,0.066287,0.082574,-0.004385,61.018906,-9.258392,-145.420197,,,
729862627.561125,2.162213,3.547163,35.846063,-0.050446,0.023819,1.03624,0.066287,0.082574,-0.004385,61.018906,-9.258392,-145.420197,,,
729862627.564398,2.181657,3.573144,35.843579,-0.060318,0.032516,1.012375,0.066171,0.08738,-0.006148,61.018906,-9.258392,-145.420197,,,
729862627.567707,2.199154,3.596816,35.841213,-0.060318,0.032516,1.012375,0.066171,0.08738,-0.006148,61.018906,-9.258392,-145.420197,,,
729862627.571036,2.199154,3.596816,35.841213,-0.060318,0.032516,1.012375,0.066171,0.08738,-0.006148,61.018906,-9.258392,-145.420197,,,
729862627.574442,2.213743,3.619307,35.839176,-0.06517,0.041977,0.983093,0.042359,0.061752,-0.004651,61.018906,-9.258392,-145.420197,,,
729862627.577729,2.223521,3.633564,35.838085,-0.06517,0.041977,0.983093,0.042359,0.061752,-0.004651,61.018906,-9.258392,-145.420197,,,
729862627.581063,2.223521,3.633564,35.838085,-0.06517,0.041977,0.983093,0.042359,0.061752,-0.004651,61.130966,-9.370331,-145.379227,,,
729862627.584132,2.22877,3.643577,35.837991,-0.073334,0.051224,0.960938,0.004236,0.01452,0.000631,61.130966,-9.370331,-145.379227,,,
729862627.587745,2.227196,3.64211,35.839386,-0.073334,0.051224,0.960938,0.004236,0.01452,0.000631,61.130966,-9.370331,-145.379227,,,
729862627.591036,2.227196,3.64211,35.839386,-0.073334,0.051224,0.960938,0.004236,0.01452,0.000631,61.130966,-9.370331,-145.379227,,,
729862627.59438,2.221291,3.634358,35.842543,-0.077148,0.053619,0.951385,-0.028516,-0.040978,0.011288,61.130966,-9.370331,-145.379227,,,
729862627.597708,2.211011,3.619609,35.847075,-0.077148,0.053619,0.951385,-0.028516,-0.040978,0.011288,61.130966,-9.370331,-145.379227,,,
729862627.601109,2.211011,3.619609,35.847075,-0.077148,0.053619,0.951385,-0.028516,-0.040978,0.011288,61.130966,-9.370331,-145.379227,,,
729862627.604377,2.197006,3.602554,35.852708,-0.071045,0.053238,0.961136,-0.05391,-0.059396,0.017425,61.130966,-9.370331,-145.379227,,,
729862627.607707,2.181067,3.585292,35.859667,-0.071045,0.053238,0.961136,-0.05391,-0.059396,0.017425,61.130966,-9.370331,-145.379227,,,
729862627.611067,2.181067,3.585292,35.859667,-0.071045,0.053238,0.961136,-0.05391,-0.059396,0.017425,61.130966,-9.370331,-145.379227,,,
729862627.614453,2.165041,3.568856,35.866898,-0.062241,0.050766,0.984344,-0.052866,-0.046438,0.019123,61.130966,-9.370331,-145.379227,,,
729862627.617708,2.152667,3.555857,35.873779,-0.062241,0.050766,0.984344,-0.052866,-0.046438,0.019123,61.130966,-9.370331,-145.379227,,,
729862627.621049,2.152667,3.555857,35.873779,-0.062241,0.050766,0.984344,-0.052866,-0.046438,0.019123,60.697083,-9.209396,-145.125946,,,
729862627.624401,2.143422,3.544385,35.88,-0.053848,0.040817,1.009644,-0.025411,-0.022998,0.015795,60.697083,-9.209396,-145.125946,,,
729862627.627713,2.138435,3.539527,35.884352,-0.053848,0.040817,1.009644,-0.025411,-0.022998,0.015795,60.697083,-9.209396,-145.125946,,,
729862627.631057,2.138435,3.539527,35.884352,-0.053848,0.040817,1.009644,-0.025411,-0.022998,0.015795,60.697083,-9.209396,-145.125946,,,
729862627.634395,2.135033,3.536912,35.886763,-0.04068,0.039795,1.012848,-0.002895,0.005524,0.003132,60.697083,-9.209396,-145.125946,,,
729862627.637708,2.134411,3.539561,35.886493,-0.04068,0.039795,1.012848,-0.002895,0.005524,0.003132,60.697083,-9.209396,-145.125946,,,
729862627.641058,2.134411,3.539561,35.886493,-0.04068,0.039795,1.012848,-0.002895,0.005524,0.003132,60.697083,-9.209396,-145.125946,,,
729862627.644408,2.134343,3.544284,35.882858,-0.030563,0.042816,0.998795,0.007318,0.023351,-0.019882,60.697083,-9.209396,-145.125946,,,
729862627.647711,2.136216,3.550598,35.87566,-0.030563,0.042816,0.998795,0.007318,0.023351,-0.019882,60.697083,-9.209396,-145.125946,,,
729862627.651055,2.136216,3.550598,35.87566,-0.030563,0.042816,0.998795,0.007318,0.023351,-0.019882,60.697083,-9.209396,-145.125946,,,
729862627.654471,2.138842,3.556494,35.86591,-0.035324,0.04306,0.991852,0.01184,0.017272,-0.037291,60.697083,-9.209396,-145.125946,,,
729862627.657704,2.140946,3.559095,35.854915,-0.035324,0.04306,0.991852,0.01184,0.017272,-0.037291,60.697083,-9.209396,-145.125946,,,
729862627.661064,2.140946,3.559095,35.854915,-0.035324,0.04306,0.991852,0.01184,0.017272,-0.037291,60.721176,-9.275894,-145.260117,,,
729862627.664393,2.144901,3.559417,35.843777,-0.049484,0.041092,0.984238,0.011911,-0.012211,-0.037802,60.721176,-9.275894,-145.260117,,,
729862627.667706,2.146983,3.553675,35.834089,-0.049484,0.041092,0.984238,0.011911,-0.012211,-0.037802,60.721176,-9.275894,-145.260117,,,
729862627.671055,2.146983,3.553675,35.834089,-0.049484,0.041092,0.984238,0.011911,-0.012211,-0.037802,60.721176,-9.275894,-145.260117,,,
729862627.674394,2.150508,3.547742,35.826395,-0.061569,0.04007,0.984619,0.003837,-0.03755,-0.0235,60.721176,-9.275894,-145.260117,,,
729862627.677707,2.1514,3.535391,35.821523,-0.061569,0.04007,0.984619,0.003837,-0.03755,-0.0235,60.721176,-9.275894,-145.260117,,,
729862627.681109,2.1514,3.535391,35.821523,-0.061569,0.04007,0.984619,0.003837,-0.03755,-0.0235,60.721176,-9.275894,-145.260117,,,
729862627.684386,2.154642,3.524669,35.818963,-0.06279,0.040344,0.987076,0.001972,-0.044282,-0.006744,60.721176,-9.275894,-145.260117,,,
729862627.687712,2.153922,3.511991,35.818457,-0.06279,0.040344,0.987076,0.001972,-0.044282,-0.006744,60.721176,-9.275894,-145.260117,,,
729862627.691055,2.153922,3.511991,35.818457,-0.06279,0.040344,0.987076,0.001972,-0.044282,-0.006744,60.721176,-9.275894,-145.260117,,,
729862627.694449,2.153334,3.502465,35.819211,-0.058487,0.044098,0.989944,-0.013594,-0.027839,0.001282,60.721176,-9.275894,-145.260117,,,
729862627.697701,2.147346,3.495469,35.82091,-0.058487,0.044098,0.989944,-0.013594,-0.027839,0.001282,60.721176,-9.275894,-145.260117,,,
729862627.701066,2.147346,3.495469,35.82091,-0.058487,0.044098,0.989944,-0.013594,-0.027839,0.001282,60.721176,-9.275894,-145.260117,,,
729862627.704379,2.138932,3.489947,35.823299,-0.047592,0.047379,0.978165,-0.03701,-0.00851,0.004349,60.690475,-9.279556,-145.517563,,,
729862627.707708,2.126337,3.487643,35.825187,-0.047592,0.047379,0.978165,-0.03701,-0.00851,0.004349,60.690475,-9.279556,-145.517563,,,
729862627.711043,2.126337,3.487643,35.825187,-0.047592,0.047379,0.978165,-0.03701,-0.00851,0.004349,60.690475,-9.279556,-145.517563,,,
729862627.71438,2.111265,3.483901,35.825801,-0.0383,0.049301,0.970245,-0.055097,0.008539,-0.006687,60.690475,-9.279556,-145.517563,,,
729862627.717707,2.095304,3.486269,35.824583,-0.0383,0.049301,0.970245,-0.055097,0.008539,-0.006687,60.690475,-9.279556,-145.517563,,,
729862627.721123,2.095304,3.486269,35.824583,-0.0383,0.049301,0.970245,-0.055097,0.008539,-0.006687,60.690475,-9.279556,-145.517563,,,
729862627.724387,2.081246,3.483134,35.823121,-0.042191,0.043671,0.977631,-0.047181,0.006297,-0.009241,60.690475,-9.279556,-145.517563,,,
729862627.727716,2.068645,3.483532,35.821092,-0.042191,0.043671,0.977631,-0.047181,0.006297,-0.009241,60.690475,-9.279556,-145.517563,,,
729862627.731061,2.068645,3.483532,35.821092,-0.042191,0.043671,0.977631,-0.047181,0.006297,-0.009241,60.690475,-9.279556,-145.517563,,,
729862627.734447,2.061064,3.476088,35.818221,-0.047729,0.036011,0.984802,-0.019212,-0.015281,-0.014579,60.690475,-9.279556,-145.517563,,,
729862627.737697,2.057928,3.47073,35.813413,-0.047729,0.036011,0.984802,-0.019212,-0.015281,-0.014579,60.690475,-9.279556,-145.517563,,,
729862627.741059,2.057928,3.47073,35.813413,-0.047729,0.036011,0.984802,-0.019212,-0.015281,-0.014579,60.690475,-9.279556,-145.517563,,,
729862627.744384,2.061518,3.463881,35.805748,-0.041199,0.029404,1.010208,0.022471,-0.006217,-0.032699,60.997025,-9.715302,-145.517288,,,
729862627.747705,2.068917,3.463723,35.794408,-0.041199,0.029404,1.010208,0.022471,-0.006217,-0.032699,60.997025,-9.715302,-145.517288,,,
729862627.751053,2.068917,3.463723,35.794408,-0.041199,0.029404,1.010208,0.022471,-0.006217,-0.032699,60.997025,-9.715302,-145.517288,,,
729862627.754379,2.079564,3.467613,35.779122,-0.038727,0.024536,1.027054,0.040342,0.020904,-0.059123,60.997025,-9.715302,-145.517288,,,
729862627.757707,2.089017,3.475196,35.761522,-0.038727,0.024536,1.027054,0.040342,0.020904,-0.059123,60.997025,-9.715302,-145.517288,,,
729862627.761124,2.089017,3.475196,35.761522,-0.038727,0.024536,1.027054,0.040342,0.020904,-0.059123,60.997025,-9.715302,-145.517288,,,
729862627.764383,2.097134,3.486674,35.744166,-0.05426,0.030655,1.008392,0.026187,0.041072,-0.058056,60.997025,-9.715302,-145.517288,,,
729862627.767759,2.10238,3.497543,35.728352,-0.05426,0.030655,1.008392,0.026187,0.041072,-0.058056,60.997025,-9.715302,-145.517288,,,
729862627.771047,2.10238,3.497543,35.728352,-0.05426,0.030655,1.008392,0.026187,0.041072,-0.058056,60.997025,-9.715302,-145.517288,,,
729862627.774457,2.107365,3.50631,35.714997,-0.0793,0.03389,0.998444,0.01367,0.029249,-0.041689,60.997025,-9.715302,-145.517288,,,
729862627.777712,2.109827,3.512102,35.704968,-0.0793,0.03389,0.998444,0.01367,0.029249,-0.041689,60.997025,-9.715302,-145.517288,,,
729862627.781076,2.109827,3.512102,35.704968,-0.0793,0.03389,0.998444,0.01367,0.029249,-0.041689,60.997025,-9.715302,-145.517288,,,
729862627.784379,2.112405,3.510658,35.697932,-0.091812,0.03334,0.99205,-0.000216,-0.003043,-0.02233,60.914963,-9.485733,-145.485733,,,
729862627.787711,2.110717,3.506469,35.692964,-0.091812,0.03334,0.99205,-0.000216,-0.003043,-0.02233,60.914963,-9.485733,-145.485733,,,
729862627.791053,2.110717,3.506469,35.692964,-0.091812,0.03334,0.99205,-0.000216,-0.003043,-0.02233,60.914963,-9.485733,-145.485733,,,
729862627.794392,2.110083,3.490948,35.690711,-0.099609,0.038101,0.981537,-0.013085,-0.045381,-0.005577,60.914963,-9.485733,-145.485733,,,
729862627.797753,2.105418,3.474164,35.691423,-0.099609,0.038101,0.981537,-0.013085,-0.045381,-0.005577,60.914963,-9.485733,-145.485733,,,
729862627.801057,2.105418,3.474164,35.691423,-0.099609,0.038101,0.981537,-0.013085,-0.045381,-0.005577,60.914963,-9.485733,-145.485733,,,
729862627.804384,2.100486,3.446126,35.69564,-0.101242,0.041885,0.970215,-0.029323,-0.089055,0.016664,60.914963,-9.485733,-145.485733,,,
729862627.807716,2.09148,3.419021,35.70238,-0.101242,0.041885,0.970215,-0.029323,-0.089055,0.016664,60.914963,-9.485733,-145.485733,,,
729862627.811087,2.09148,3.419021,35.70238,-0.101242,0.041885,0.970215,-0.029323,-0.089055,0.016664,60.914963,-9.485733,-145.485733,,,
729862627.814386,2.080995,3.388699,35.711418,-0.089264,0.043793,0.969467,-0.04262,-0.09356,0.031274,60.914963,-9.485733,-145.485733,,,
729862627.817707,2.069308,3.362406,35.721823,-0.089264,0.043793,0.969467,-0.04262,-0.09356,0.031274,60.914963,-9.485733,-145.485733,,,
729862627.821046,2.069308,3.362406,35.721823,-0.089264,0.043793,0.969467,-0.04262,-0.09356,0.031274,60.914963,-9.485733,-145.485733,,,
729862627.824378,2.057419,3.33614,35.732648,-0.065796,0.039047,0.984955,-0.03753,-0.067078,0.033543,60.830505,-9.666702,-145.611679,,,
729862627.827717,2.047836,3.317742,35.742271,-0.065796,0.039047,0.984955,-0.03753,-0.067078,0.033543,60.830505,-9.666702,-145.611679,,,
729862627.831038,2.047836,3.317742,35.742271,-0.065796,0.039047,0.984955,-0.03753,-0.067078,0.033543,60.830505,-9.666702,-145.611679,,,
729862627.834392,2.038507,3.299374,35.748692,-0.041199,0.034348,1.0047,-0.020367,-0.034409,0.011078,60.830505,-9.666702,-145.611679,,,
729862627.837818,2.03462,3.293248,35.750215,-0.041199,0.034348,1.0047,-0.020367,-0.034409,0.011078,60.830505,-9.666702,-145.611679,,,
729862627.841051,2.03462,3.293248,35.750215,-0.041199,0.034348,1.0047,-0.020367,-0.034409,0.011078,60.830505,-9.666702,-145.611679,,,
729862627.844462,2.032969,3.293629,35.747429,-0.029724,0.030441,1.031998,0.00428,0.02327,-0.018025,60.830505,-9.666702,-145.611679,,,
729862627.847706,2.035081,3.302675,35.741561,-0.029724,0.030441,1.031998,0.00428,0.02327,-0.018025,60.830505,-9.666702,-145.611679,,,
729862627.851128,2.035081,3.302675,35.741561,-0.029724,0.030441,1.031998,0.00428,0.02327,-0.018025,60.830505,-9.666702,-145.611679,,,
729862627.854388,2.038431,3.31902,35.734493,-0.037384,0.023636,1.02652,0.014792,0.052475,-0.024978,60.830505,-9.666702,-145.611679,,,
729862627.857747,2.042594,3.334102,35.727261,-0.037384,0.023636,1.02652,0.014792,0.052475,-0.024978,60.830505,-9.666702,-145.611679,,,
729862627.861056,2.042594,3.334102,35.727261,-0.037384,0.023636,1.02652,0.014792,0.052475,-0.024978,60.830505,-9.666702,-145.611679,,,
729862627.864439,2.047298,3.354139,35.71993,-0.049026,0.027161,1.011642,0.021071,0.047079,-0.023849,60.830505,-9.666702,-145.611679,,,
729862627.867718,2.052906,3.365468,35.713643,-0.049026,0.027161,1.011642,0.021071,0.047079,-0.023849,60.966431,-9.835999,-145.557968,,,
729862627.871055,2.052906,3.365468,35.713643,-0.049026,0.027161,1.011642,0.021071,0.047079,-0.023849,60.966431,-9.835999,-145.557968,,,
729862627.874379,2.059702,3.378865,35.707753,-0.061356,0.024017,1.004089,0.027488,0.008011,-0.018816,60.966431,-9.835999,-145.557968,,,
729862627.877773,2.067636,3.376526,35.702726,-0.061356,0.024017,1.004089,0.027488,0.008011,-0.018816,60.966431,-9.835999,-145.557968,,,
729862627.881058,2.067636,3.376526,35.702726,-0.061356,0.024017,1.004089,0.027488,0.008011,-0.018816,60.966431,-9.835999,-145.557968,,,
729862627.884377,2.076933,3.375676,35.698086,-0.066956,0.025696,0.995071,0.031627,-0.045886,-0.01354,60.966431,-9.835999,-145.557968,,,
729862627.887781,2.085672,3.359108,35.69417,-0.066956,0.025696,0.995071,0.031627,-0.045886,-0.01354,60.966431,-9.835999,-145.557968,,,
729862627.891045,2.085672,3.359108,35.69417,-0.066956,0.025696,0.995071,0.031627,-0.045886,-0.01354,60.966431,-9.835999,-145.557968,,,
729862627.894427,2.095828,3.345527,35.690014,-0.06395,0.03038,0.994095,0.031737,-0.07909,-0.013188,60.966431,-9.835999,-145.557968,,,
729862627.897725,2.104439,3.320761,35.687168,-0.06395,0.03038,0.994095,0.031737,-0.07909,-0.013188,60.966431,-9.835999,-145.557968,,,
729862627.901134,2.104439,3.320761,35.687168,-0.06395,0.03038,0.994095,0.031737,-0.07909,-0.013188,60.966431,-9.835999,-145.557968,,,
729862627.904402,2.113223,3.297577,35.686279,-0.056442,0.02829,0.995209,0.02819,-0.090629,0.001056,60.966431,-9.835999,-145.557968,,,
729862627.907719,2.12069,3.271662,35.686722,-0.056442,0.02829,0.995209,0.02819,-0.090629,0.001056,60.74913,-9.899979,-145.505753,,,
729862627.911044,2.12069,3.271662,35.686722,-0.056442,0.02829,0.995209,0.02819,-0.090629,0.001056,60.74913,-9.899979,-145.505753,,,
729862627.914424,2.126217,3.246747,35.687105,-0.044464,0.031143,0.999939,0.017048,-0.066826,-0.000625,60.74913,-9.899979,-145.505753,,,
729862627.917791,2.126217,3.246747,35.687105,-0.044464,0.031143,0.999939,0.017048,-0.066826,-0.000625,60.74913,-9.899979,-145.505753,,,
729862627.921083,2.129746,3.230671,35.686459,-0.044464,0.031143,0.999939,0.017048,-0.066826,-0.000625,60.74913,-9.899979,-145.505753,,,
729862627.924388,2.130275,3.216152,35.68504,-0.03595,0.036545,1.004776,0.003165,-0.016558,-0.008312,60.74913,-9.899979,-145.505753,,,
729862627.927819,2.130249,3.214435,35.682964,-0.03595,0.036545,1.004776,0.003165,-0.016558,-0.008312,60.74913,-9.899979,-145.505753,,,
729862627.931057,2.130249,3.214435,35.682964,-0.03595,0.036545,1.004776,0.003165,-0.016558,-0.008312,60.74913,-9.899979,-145.505753,,,
729862627.9344,2.125902,3.214998,35.680712,-0.038635,0.037857,1.001389,-0.013329,0.031093,-0.011659,60.74913,-9.899979,-145.505753,,,
729862627.937746,2.120177,3.22472,35.678083,-0.038635,0.037857,1.001389,-0.013329,0.031093,-0.011659,60.74913,-9.899979,-145.505753,,,
729862627.941105,2.120177,3.22472,35.678083,-0.038635,0.037857,1.001389,-0.013329,0.031093,-0.011659,60.74913,-9.899979,-145.505753,,,
729862627.944393,2.110463,3.234557,35.67478,-0.043152,0.03981,0.993027,-0.028002,0.047334,-0.017703,60.74913,-9.899979,-145.505753,,,
729862627.947756,2.102692,3.247467,35.66971,-0.043152,0.03981,0.993027,-0.028002,0.047334,-0.017703,60.858932,-9.900452,-145.489014,,,
729862627.951077,2.102692,3.247467,35.66971,-0.043152,0.03981,0.993027,-0.028002,0.047334,-0.017703,60.858932,-9.900452,-145.489014,,,
729862627.954484,2.093759,3.259695,35.66334,-0.051559,0.034653,0.99614,-0.020039,0.03971,-0.026277,60.858932,-9.900452,-145.489014,,,
729862627.957747,2.093759,3.268732,35.655599,-0.051559,0.034653,0.99614,-0.020039,0.03971,-0.026277,60.858932,-9.900452,-145.489014,,,
729862627.961049,2.087807,3.268732,35.655599,-0.051559,0.034653,0.99614,-0.020039,0.03971,-0.026277,60.858932,-9.900452,-145.489014,,,
729862627.964379,2.080915,3.275778,35.646549,-0.061981,0.030533,0.999847,-0.010172,0.008104,-0.034242,60.858932,-9.900452,-145.489014,,,
729862627.967804,2.079022,3.275411,35.638009,-0.061981,0.030533,0.999847,-0.010172,0.008104,-0.034242,60.858932,-9.900452,-145.489014,,,
729862627.971049,2.079022,3.275411,35.638009,-0.061981,0.030533,0.999847,-0.010172,0.008104,-0.034242,60.858932,-9.900452,-145.489014,,,
729862627.974382,2.079724,3.273229,35.630652,-0.071381,0.028625,1.007507,0.016299,-0.019949,-0.023906,60.858932,-9.900452,-145.489014,,,
729862627.977727,2.079724,3.273229,35.630652,-0.071381,0.028625,1.007507,0.016299,-0.019949,-0.023906,60.858932,-9.900452,-145.489014,,,
729862627.981114,2.086175,3.265131,35.624847,-0.071381,0.028625,1.007507,0.016299,-0.019949,-0.023906,60.858932,-9.900452,-145.489014,,,
729862627.984382,2.095702,3.254957,35.621015,-0.077698,0.022903,1.019485,0.047111,-0.038409,-0.008291,60.858932,-9.900452,-145.489014,,,
729862627.987752,2.095702,3.254957,35.621015,-0.077698,0.022903,1.019485,0.047111,-0.038409,-0.008291,60.858932,-9.900452,-145.489014,,,
729862627.991056,2.110689,3.243409,35.618547,-0.077698,0.022903,1.019485,0.047111,-0.038409,-0.008291,60.767609,-9.82225,-145.823853,,,
729862627.994382,2.128096,3.230134,35.616898,-0.071701,0.025513,1.024979,0.072576,-0.034386,-0.001801,60.767609,-9.82225,-145.823853,,,
729862627.997705,2.128096,3.230134,35.616898,-0.071701,0.025513,1.024979,0.072576,-0.034386,-0.001801,60.767609,-9.82225,-145.823853,,,
729862628.00108,2.150148,3.220662,35.615693,-0.071701,0.025513,1.024979,0.072576,-0.034386,-0.001801,60.767609,-9.82225,-145.823853,,,
729862628.004378,2.173184,3.208244,35.614754,-0.060013,0.0327,1.024841,0.082323,-0.021332,-0.000606,60.767609,-9.82225,-145.823853,,,
729862628.007777,2.173184,3.208244,35.614754,-0.060013,0.0327,1.024841,0.082323,-0.021332,-0.000606,60.767609,-9.82225,-145.823853,,,
729862628.011039,2.195443,3.202318,35.613784,-0.060013,0.0327,1.024841,0.082323,-0.021332,-0.000606,60.767609,-9.82225,-145.823853,,,
729862628.014382,2.214657,3.193851,35.613345,-0.060028,0.039398,1.006592,0.062973,-0.006318,0.000705,60.767609,-9.82225,-145.823853,,,
729862628.017733,2.214657,3.193851,35.613345,-0.060028,0.039398,1.006592,0.062973,-0.006318,0.000705,60.767609,-9.82225,-145.823853,,,
729862628.021113,2.229952,3.192473,35.613671,-0.060028,0.039398,1.006592,0.062973,-0.006318,0.000705,60.767609,-9.82225,-145.823853,,,
729862628.024373,2.240074,3.190167,35.615607,-0.06221,0.045654,0.982697,0.024685,0.010554,0.008852,60.767609,-9.82225,-145.823853,,,
729862628.027726,2.240074,3.190167,35.615607,-0.06221,0.045654,0.982697,0.024685,0.010554,0.008852,60.767609,-9.82225,-145.823853,,,
729862628.031074,2.24377,3.192554,35.619801,-0.06221,0.045654,0.982697,0.024685,0.010554,0.008852,60.553696,-9.842484,-145.48674,,,
729862628.034378,2.239349,3.194012,35.626914,-0.064575,0.053482,0.966293,-0.029023,0.015632,0.025861,60.553696,-9.842484,-145.48674,,,
729862628.037723,2.239349,3.194012,35.626914,-0.064575,0.053482,0.966293,-0.029023,0.015632,0.025861,60.553696,-9.842484,-145.48674,,,
729862628.04106,2.22782,3.198171,35.635634,-0.064575,0.053482,0.966293,-0.029023,0.015632,0.025861,60.553696,-9.842484,-145.48674,,,
729862628.044382,2.208068,3.203949,35.64493,-0.065506,0.057816,0.956696,-0.075453,0.020564,0.027534,60.553696,-9.842484,-145.48674,,,
729862628.047785,2.208068,3.203949,35.64493,-0.065506,0.057816,0.956696,-0.075453,0.020564,0.027534,60.553696,-9.842484,-145.48674,,,
729862628.051056,2.185087,3.208431,35.654124,-0.065506,0.057816,0.956696,-0.075453,0.020564,0.027534,60.553696,-9.842484,-145.48674,,,
729862628.05438,2.158742,3.215274,35.663017,-0.065247,0.052963,0.97023,-0.087285,0.014428,0.025668,60.553696,-9.842484,-145.48674,,,
729862628.057732,2.158742,3.215274,35.663017,-0.065247,0.052963,0.97023,-0.087285,0.014428,0.025668,60.553696,-9.842484,-145.48674,,,
729862628.061121,2.134751,3.217713,35.671806,-0.065247,0.052963,0.97023,-0.087285,0.014428,0.025668,60.553696,-9.842484,-145.48674,,,
729862628.064372,2.111408,3.224106,35.680305,-0.063934,0.039413,0.996811,-0.06248,0.00774,0.026374,60.553696,-9.842484,-145.48674,,,
729862628.067734,2.111408,3.224106,35.680305,-0.063934,0.039413,0.996811,-0.06248,0.00774,0.026374,60.553696,-9.842484,-145.48674,,,
729862628.071046,2.097544,3.225225,35.689387,-0.063934,0.039413,0.996811,-0.06248,0.00774,0.026374,60.455475,-9.720016,-145.740738,,,
729862628.074394,2.089777,3.229177,35.698359,-0.060959,0.024765,1.027267,-0.002876,-0.000721,0.029945,60.455475,-9.720016,-145.740738,,,
729862628.077738,2.089777,3.229177,35.698359,-0.060959,0.024765,1.027267,-0.002876,-0.000721,0.029945,60.455475,-9.720016,-145.740738,,,
729862628.081064,2.093978,3.22625,35.707862,-0.060959,0.024765,1.027267,-0.002876,-0.000721,0.029945,60.455475,-9.720016,-145.740738,,,
729862628.08438,2.105703,3.22285,35.716858,-0.053818,0.020798,1.039108,0.057302,-0.012269,0.03004,60.455475,-9.720016,-145.740738,,,
729862628.087748,2.105703,3.22285,35.716858,-0.053818,0.020798,1.039108,0.057302,-0.012269,0.03004,60.455475,-9.720016,-145.740738,,,
729862628.091055,2.125108,3.219378,35.724054,-0.053818,0.020798,1.039108,0.057302,-0.012269,0.03004,60.455475,-9.720016,-145.740738,,,
729862628.094382,2.149288,3.219507,35.72948,-0.041382,0.024384,1.041275,0.090228,0.00967,0.019635,60.455475,-9.720016,-145.740738,,,
729862628.097724,2.149288,3.219507,35.72948,-0.041382,0.024384,1.041275,0.090228,0.00967,0.019635,60.455475,-9.720016,-145.740738,,,
729862628.10113,2.175844,3.223686,35.733175,-0.041382,0.024384,1.041275,0.090228,0.00967,0.019635,60.455475,-9.720016,-145.740738,,,
729862628.104368,2.202305,3.232998,35.735397,-0.034378,0.031479,1.027496,0.084603,0.038476,0.009336,60.455475,-9.720016,-145.740738,,,
729862628.107729,2.202305,3.232998,35.735397,-0.034378,0.031479,1.027496,0.084603,0.038476,0.009336,60.455475,-9.720016,-145.740738,,,
729862628.111042,2.22436,3.244427,35.736677,-0.034378,0.031479,1.027496,0.084603,0.038476,0.009336,60.444061,-9.576645,-145.477783,,,
729862628.114374,2.243978,3.25913,35.73745,-0.040787,0.043945,1.004013,0.055476,0.050515,0.004614,60.444061,-9.576645,-145.477783,,,
729862628.11772,2.243978,3.25913,35.73745,-0.040787,0.043945,1.004013,0.055476,0.050515,0.004614,60.444061,-9.576645,-145.477783,,,
729862628.121066,2.258194,3.272936,35.738918,-0.040787,0.043945,1.004013,0.055476,0.050515,0.004614,60.444061,-9.576645,-145.477783,,,
729862628.124397,2.271157,3.287288,35.741645,-0.057205,0.045807,0.993393,0.030018,0.041994,0.012425,60.444061,-9.576645,-145.477783,,,
729862628.127791,2.271157,3.287288,35.741645,-0.057205,0.045807,0.993393,0.030018,0.041994,0.012425,60.444061,-9.576645,-145.477783,,,
729862628.131188,2.277095,3.297504,35.746534,-0.057205,0.045807,0.993393,0.030018,0.041994,0.012425,60.444061,-9.576645,-145.477783,,,
729862628.134367,2.27977,3.305786,35.754465,-0.070786,0.043106,0.974915,-0.007751,0.01966,0.031822,60.444061,-9.576645,-145.477783,,,
729862628.137747,2.27977,3.305786,35.754465,-0.070786,0.043106,0.974915,-0.007751,0.01966,0.031822,60.444061,-9.576645,-145.477783,,,
729862628.141045,2.275686,3.308156,35.765724,-0.070786,0.043106,0.974915,-0.007751,0.01966,0.031822,60.444061,-9.576645,-145.477783,,,
729862628.14439,2.267872,3.307234,35.779786,-0.075775,0.05162,0.959473,-0.037467,-0.009283,0.04993,60.444061,-9.576645,-145.477783,,,
729862628.147726,2.267872,3.307234,35.779786,-0.075775,0.05162,0.959473,-0.037467,-0.009283,0.04993,60.444061,-9.576645,-145.477783,,,
729862628.151043,2.25704,3.300831,35.796035,-0.075775,0.05162,0.959473,-0.037467,-0.009283,0.04993,60.444061,-9.576645,-145.477783,,,
729862628.154376,2.244439,3.290555,35.813196,-0.061829,0.049728,0.961517,-0.042309,-0.038711,0.056193,60.406769,-9.652466,-145.459351,,,
729862628.157718,2.244439,3.290555,35.813196,-0.061829,0.049728,0.961517,-0.042309,-0.038711,0.056193,60.406769,-9.652466,-145.459351,,,
729862628.161052,2.233904,3.276675,35.828897,-0.061829,0.049728,0.961517,-0.042309,-0.038711,0.056193,60.406769,-9.652466,-145.459351,,,
729862628.164382,2.224397,3.260599,35.841809,-0.037552,0.042358,0.983047,-0.021185,-0.051709,0.037819,60.406769,-9.652466,-145.459351,,,
729862628.167802,2.224397,3.260599,35.841809,-0.037552,0.042358,0.983047,-0.021185,-0.051709,0.037819,60.406769,-9.652466,-145.459351,,,
729862628.17106,2.221134,3.24538,35.851375,-0.037552,0.042358,0.983047,-0.021185,-0.051709,0.037819,60.406769,-9.652466,-145.459351,,,
729862628.174386,2.22172,3.231854,35.857002,-0.017624,0.032455,1.006073,0.018165,-0.028567,0.012112,60.406769,-9.652466,-145.459351,,,
729862628.177719,2.22172,3.231854,35.857002,-0.017624,0.032455,1.006073,0.018165,-0.028567,0.012112,60.406769,-9.652466,-145.459351,,,
729862628.18113,2.229467,3.226547,35.858818,-0.017624,0.032455,1.006073,0.018165,-0.028567,0.012112,60.406769,-9.652466,-145.459351,,,
729862628.184374,2.24121,3.226255,35.857639,-0.011063,0.031128,1.023163,0.054415,0.024817,-0.007456,60.406769,-9.652466,-145.459351,,,
729862628.187731,2.24121,3.226255,35.857639,-0.011063,0.031128,1.023163,0.054415,0.024817,-0.007456,60.406769,-9.652466,-145.459351,,,
729862628.191056,2.257691,3.235813,35.85396,-0.011063,0.031128,1.023163,0.054415,0.024817,-0.007456,60.406769,-9.652466,-145.459351,,,
729862628.194374,2.2746,3.248478,35.849062,-0.013535,0.031052,1.011246,0.057178,0.063731,-0.01648,60.258881,-9.708755,-144.871399,,,
729862628.197718,2.2746,3.248478,35.849062,-0.013535,0.031052,1.011246,0.057178,0.063731,-0.01648,60.258881,-9.708755,-144.871399,,,
729862628.201044,2.289226,3.268477,35.8432,-0.013535,0.031052,1.011246,0.057178,0.063731,-0.01648,60.258881,-9.708755,-144.871399,,,
729862628.204377,2.302342,3.291683,35.836776,-0.027527,0.040405,0.989899,0.041402,0.090132,-0.021398,60.258881,-9.708755,-144.871399,,,
729862628.207768,2.302342,3.291683,35.836776,-0.027527,0.040405,0.989899,0.041402,0.090132,-0.021398,60.258881,-9.708755,-144.871399,,,
729862628.211043,2.311174,3.316829,35.831043,-0.027527,0.040405,0.989899,0.041402,0.090132,-0.021398,60.258881,-9.708755,-144.871399,,,
729862628.214385,2.316125,3.341196,35.826624,-0.045197,0.04361,0.970581,0.011236,0.072859,-0.013495,60.258881,-9.708755,-144.871399,,,
729862628.217749,2.316125,3.341196,35.826624,-0.045197,0.04361,0.970581,0.011236,0.072859,-0.013495,60.258881,-9.708755,-144.871399,,,
729862628.221086,2.316636,3.358776,35.823549,-0.045197,0.04361,0.970581,0.011236,0.072859,-0.013495,60.258881,-9.708755,-144.871399,,,
729862628.224378,2.312928,3.372648,35.820958,-0.057709,0.047897,0.947906,-0.025649,0.028384,-0.011537,60.258881,-9.708755,-144.871399,,,
729862628.22773,2.312928,3.372648,35.820958,-0.057709,0.047897,0.947906,-0.025649,0.028384,-0.011537,60.258881,-9.708755,-144.871399,,,
729862628.231084,2.302863,3.376443,35.818918,-0.057709,0.047897,0.947906,-0.025649,0.028384,-0.011537,60.258881,-9.708755,-144.871399,,,
729862628.234379,2.289822,3.374605,35.817027,-0.057892,0.051971,0.936905,-0.053712,-0.018488,-0.011817,60.36908,-9.657135,-145.247437,,,
729862628.237731,2.289822,3.374605,35.817027,-0.057892,0.051971,0.936905,-0.053712,-0.018488,-0.011817,60.36908,-9.657135,-145.247437,,,
729862628.24113,2.272587,3.366245,35.814865,-0.057892,0.051971,0.936905,-0.053712,-0.018488,-0.011817,60.36908,-9.657135,-145.247437,,,
729862628.244374,2.25397,3.352006,35.812443,-0.054871,0.049316,0.948654,-0.066817,-0.049587,-0.014766,60.36908,-9.657135,-145.247437,,,
729862628.247786,2.25397,3.352006,35.812443,-0.054871,0.049316,0.948654,-0.066817,-0.049587,-0.014766,60.36908,-9.657135,-145.247437,,,
729862628.251048,2.235736,3.336786,35.809068,-0.054871,0.049316,0.948654,-0.066817,-0.049587,-0.014766,60.36908,-9.657135,-145.247437,,,
729862628.254383,2.220849,3.317393,35.805205,-0.053131,0.040543,0.989166,-0.040142,-0.044866,-0.017912,60.36908,-9.657135,-145.247437,,,
729862628.257707,2.220849,3.317393,35.805205,-0.053131,0.040543,0.989166,-0.040142,-0.044866,-0.017912,60.36908,-9.657135,-145.247437,,,
729862628.261123,2.213183,3.30646,35.801526,-0.053131,0.040543,0.989166,-0.040142,-0.044866,-0.017912,60.36908,-9.657135,-145.247437,,,
729862628.26437,2.214949,3.293069,35.799154,-0.051987,0.023575,1.036804,0.031279,-0.015777,-0.006446,60.36908,-9.657135,-145.247437,,,
729862628.26782,2.214949,3.293069,35.799154,-0.051987,0.023575,1.036804,0.031279,-0.015777,-0.006446,60.36908,-9.657135,-145.247437,,,
729862628.271058,2.22869,3.290453,35.797019,-0.051987,0.023575,1.036804,0.031279,-0.015777,-0.006446,60.36908,-9.657135,-145.247437,,,
729862628.274386,2.250137,3.288615,35.794633,-0.051376,0.01857,1.059464,0.089914,0.020827,-0.006046,60.466309,-9.571228,-145.530472,,,
729862628.277723,2.250137,3.288615,35.794633,-0.051376,0.01857,1.059464,0.089914,0.020827,-0.006046,60.466309,-9.571228,-145.530472,,,
729862628.281061,2.277194,3.296526,35.790583,-0.051376,0.01857,1.059464,0.089914,0.020827,-0.006046,60.466309,-9.571228,-145.530472,,,
729862628.284386,2.30531,3.30501,35.785153,-0.042816,0.033051,1.028458,0.098492,0.044512,-0.015941,60.466309,-9.571228,-145.530472,,,
729862628.287786,2.30531,3.30501,35.785153,-0.042816,0.033051,1.028458,0.098492,0.044512,-0.015941,60.466309,-9.571228,-145.530472,,,
729862628.291056,2.329339,3.317461,35.778471,-0.042816,0.033051,1.028458,0.098492,0.044512,-0.015941,60.466309,-9.571228,-145.530472,,,
729862628.29438,2.3453,3.327985,35.770422,-0.042068,0.051025,0.973419,0.041555,0.040216,-0.029119,60.466309,-9.571228,-145.530472,,,
729862628.297724,2.3453,3.327985,35.770422,-0.042068,0.051025,0.973419,0.041555,0.040216,-0.029119,60.466309,-9.571228,-145.530472,,,
729862628.301108,2.351087,3.337522,35.761569,-0.042068,0.051025,0.973419,0.041555,0.040216,-0.029119,60.466309,-9.571228,-145.530472,,,
729862628.30437,2.346315,3.34295,35.753373,-0.050949,0.061951,0.934128,-0.035004,0.012194,-0.029074,60.466309,-9.571228,-145.530472,,,
729862628.307722,2.346315,3.34295,35.753373,-0.050949,0.061951,0.934128,-0.035004,0.012194,-0.029074,60.466309,-9.571228,-145.530472,,,
729862628.311042,2.3308,3.343785,35.746717,-0.050949,0.061951,0.934128,-0.035004,0.012194,-0.029074,60.466309,-9.571228,-145.530472,,,
729862628.314374,2.306374,3.340635,35.741476,-0.064072,0.060562,0.92778,-0.102739,-0.017059,-0.023105,60.466309,-9.571228,-145.530472,,,
729862628.317718,2.306374,3.340635,35.741476,-0.064072,0.060562,0.92778,-0.102739,-0.017059,-0.023105,60.488708,-9.56958,-145.571564,,,
729862628.32105,2.272585,3.334874,35.73768,-0.064072,0.060562,0.92778,-0.102739,-0.017059,-0.023105,60.488708,-9.56958,-145.571564,,,
729862628.324382,2.232177,3.32956,35.735533,-0.065384,0.0569,0.938522,-0.15397,-0.013516,-0.014542,60.488708,-9.56958,-145.571564,,,
729862628.32779,2.232177,3.32956,35.735533,-0.065384,0.0569,0.938522,-0.15397,-0.013516,-0.014542,60.488708,-9.56958,-145.571564,,,
729862628.331055,2.185231,3.326048,35.73477,-0.065384,0.0569,0.938522,-0.15397,-0.013516,-0.014542,60.488708,-9.56958,-145.571564,,,
729862628.334382,2.135544,3.324354,35.734674,-0.062088,0.054031,0.959091,-0.175233,0.000747,-0.011069,60.488708,-9.56958,-145.571564,,,
729862628.337722,2.135544,3.324354,35.734674,-0.062088,0.054031,0.959091,-0.175233,0.000747,-0.011069,60.488708,-9.56958,-145.571564,,,
729862628.341051,2.086618,3.324626,35.734447,-0.062088,0.054031,0.959091,-0.175233,0.000747,-0.011069,60.488708,-9.56958,-145.571564,,,
729862628.344423,2.042432,3.326447,35.732984,-0.060593,0.039276,0.999649,-0.138597,0.0143,-0.017666,60.488708,-9.56958,-145.571564,,,
729862628.347735,2.042432,3.326447,35.732984,-0.060593,0.039276,0.999649,-0.138597,0.0143,-0.017666,60.488708,-9.56958,-145.571564,,,
729862628.351063,2.006808,3.332324,35.729633,-0.060593,0.039276,0.999649,-0.138597,0.0143,-0.017666,60.488708,-9.56958,-145.571564,,,
729862628.354383,1.980658,3.342257,35.725312,-0.06636,0.017776,1.048676,-0.066475,0.04627,-0.020429,60.488708,-9.56958,-145.571564,,,
729862628.357708,1.980658,3.342257,35.725312,-0.06636,0.017776,1.048676,-0.066475,0.04627,-0.020429,60.753662,-9.326706,-145.678375,,,
729862628.361045,1.96619,3.356209,35.721211,-0.06636,0.017776,1.048676,-0.066475,0.04627,-0.020429,60.753662,-9.326706,-145.678375,,,
729862628.364379,1.961892,3.371195,35.718517,-0.074341,0.009537,1.064072,0.005337,0.058753,-0.00655,60.753662,-9.326706,-145.678375,,,
729862628.367706,1.961892,3.371195,35.718517,-0.074341,0.009537,1.064072,0.005337,0.058753,-0.00655,60.753662,-9.326706,-145.678375,,,
729862628.371059,1.967221,3.387853,35.718303,-0.074341,0.009537,1.064072,0.005337,0.058753,-0.00655,60.753662,-9.326706,-145.678375,,,
729862628.374375,1.980609,3.404541,35.720625,-0.082047,0.010727,1.060989,0.057726,0.064532,0.014089,60.753662,-9.326706,-145.678375,,,
729862628.377785,1.980609,3.404541,35.720625,-0.082047,0.010727,1.060989,0.057726,0.064532,0.014089,60.753662,-9.326706,-145.678375,,,
729862628.38104,1.998498,3.421008,35.724101,-0.082047,0.010727,1.060989,0.057726,0.064532,0.014089,60.753662,-9.326706,-145.678375,,,
729862628.384378,2.018702,3.433748,35.727708,-0.080002,0.020355,1.028809,0.067619,0.041107,0.01553,60.753662,-9.326706,-145.678375,,,
729862628.387716,2.018702,3.433748,35.727708,-0.080002,0.020355,1.028809,0.067619,0.041107,0.01553,60.753662,-9.326706,-145.678375,,,
729862628.391051,2.036002,3.441841,35.730742,-0.080002,0.020355,1.028809,0.067619,0.041107,0.01553,60.753662,-9.326706,-145.678375,,,
729862628.39438,2.049333,3.443236,35.732722,-0.076721,0.037827,0.98259,0.033691,-0.00754,0.006209,60.753662,-9.326706,-145.678375,,,
729862628.397708,2.049333,3.443236,35.732722,-0.076721,0.037827,0.98259,0.033691,-0.00754,0.006209,60.770081,-9.616333,-145.790649,,,
729862628.401056,2.055215,3.435632,35.73422,-0.076721,0.037827,0.98259,0.033691,-0.00754,0.006209,60.770081,-9.616333,-145.790649,,,
729862628.404377,2.054764,3.420217,35.735119,-0.069946,0.052887,0.952347,-0.016482,-0.065401,-0.000882,60.770081,-9.616333,-145.790649,,,
729862628.407725,2.054764,3.420217,35.735119,-0.069946,0.052887,0.952347,-0.016482,-0.065401,-0.000882,60.770081,-9.616333,-145.790649,,,
729862628.411062,2.04553,3.398326,35.735421,-0.069946,0.052887,0.952347,-0.016482,-0.065401,-0.000882,60.770081,-9.616333,-145.790649,,,
729862628.414376,2.029458,3.373411,35.735956,-0.058319,0.052399,0.94783,-0.069034,-0.088655,-0.002312,60.770081,-9.616333,-145.790649,,,
729862628.417803,2.029458,3.373411,35.735956,-0.058319,0.052399,0.94783,-0.069034,-0.088655,-0.002312,60.770081,-9.616333,-145.790649,,,
729862628.421058,2.00737,3.347078,35.73704,-0.058319,0.052399,0.94783,-0.069034,-0.088655,-0.002312,60.770081,-9.616333,-145.790649,,,
729862628.424387,1.982846,3.321285,35.739332,-0.053513,0.045441,0.96936,-0.088715,-0.085182,0.005011,60.770081,-9.616333,-145.790649,,,
729862628.427713,1.982846,3.321285,35.739332,-0.053513,0.045441,0.96936,-0.088715,-0.085182,0.005011,60.770081,-9.616333,-145.790649,,,
729862628.431113,1.958142,3.297089,35.743377,-0.053513,0.045441,0.96936,-0.088715,-0.085182,0.005011,60.770081,-9.616333,-145.790649,,,
729862628.43439,1.935592,3.27628,35.74852,-0.047302,0.037338,0.997345,-0.071131,-0.062868,0.013741,60.770081,-9.616333,-145.790649,,,
729862628.437712,1.935592,3.27628,35.74852,-0.047302,0.037338,0.997345,-0.071131,-0.062868,0.013741,60.770081,-9.616333,-145.790649,,,
729862628.441066,1.918084,3.260141,35.753761,-0.047302,0.037338,0.997345,-0.071131,-0.062868,0.013741,60.706772,-9.442749,-145.913345,,,
729862628.444381,1.905511,3.250685,35.757606,-0.031082,0.027771,1.022568,-0.029462,-0.020781,0.006552,60.706772,-9.442749,-145.913345,,,
729862628.447722,1.905511,3.250685,35.757606,-0.031082,0.027771,1.022568,-0.029462,-0.020781,0.006552,60.706772,-9.442749,-145.913345,,,
729862628.451072,1.899727,3.247048,35.758841,-0.031082,0.027771,1.022568,-0.029462,-0.020781,0.006552,60.706772,-9.442749,-145.913345,,,
729862628.454381,1.897782,3.251393,35.756248,-0.016571,0.026596,1.03186,0.004884,0.027457,-0.017986,60.706772,-9.442749,-145.913345,,,
729862628.457775,1.897782,3.251393,35.756248,-0.016571,0.026596,1.03186,0.004884,0.027457,-0.017986,60.706772,-9.442749,-145.913345,,,
729862628.461064,1.900244,3.260954,35.749985,-0.016571,0.026596,1.03186,0.004884,0.027457,-0.017986,60.706772,-9.442749,-145.913345,,,
729862628.464383,1.904865,3.276212,35.741131,-0.0186,0.026962,1.02449,0.025559,0.058863,-0.034695,60.706772,-9.442749,-145.913345,,,
729862628.467731,1.904865,3.276212,35.741131,-0.0186,0.026962,1.02449,0.025559,0.058863,-0.034695,60.706772,-9.442749,-145.913345,,,
729862628.471124,1.912043,3.294686,35.730741,-0.0186,0.026962,1.02449,0.025559,0.058863,-0.034695,60.706772,-9.442749,-145.913345,,,
729862628.47437,1.919295,3.317342,35.719914,-0.032288,0.029449,1.011383,0.02645,0.079084,-0.037396,60.706772,-9.442749,-145.913345,,,
729862628.477721,1.919295,3.317342,35.719914,-0.032288,0.029449,1.011383,0.02645,0.079084,-0.037396,60.706772,-9.442749,-145.913345,,,
729862628.481061,1.924809,3.338906,35.709911,-0.032288,0.029449,1.011383,0.02645,0.079084,-0.037396,60.715057,-9.194016,-146.145432,,,
729862628.484376,1.92826,3.358673,35.701293,-0.047195,0.035629,0.984711,0.004179,0.058065,-0.028836,60.715057,-9.194016,-146.145432,,,
729862628.487723,1.92826,3.358673,35.701293,-0.047195,0.035629,0.984711,0.004179,0.058065,-0.028836,60.715057,-9.194016,-146.145432,,,
729862628.491057,1.927547,3.371484,35.692948,-0.047195,0.035629,0.984711,0.004179,0.058065,-0.028836,60.715057,-9.194016,-146.145432,,,
729862628.494379,1.925288,3.377296,35.683035,-0.052414,0.041763,0.966629,-0.015756,0.005654,-0.040795,60.715057,-9.194016,-146.145432,,,
729862628.497799,1.925288,3.377296,35.683035,-0.052414,0.041763,0.966629,-0.015756,0.005654,-0.040795,60.715057,-9.194016,-146.145432,,,
729862628.50106,1.918004,3.374606,35.670491,-0.052414,0.041763,0.966629,-0.015756,0.005654,-0.040795,60.715057,-9.194016,-146.145432,,,
729862628.50438,1.90773,3.364359,35.654774,-0.053482,0.042038,0.963989,-0.041353,-0.045859,-0.064511,60.715057,-9.194016,-146.145432,,,
729862628.507723,1.90773,3.364359,35.654774,-0.053482,0.042038,0.963989,-0.041353,-0.045859,-0.064511,60.715057,-9.194016,-146.145432,,,
729862628.511117,1.892605,3.349946,35.63677,-0.053482,0.042038,0.963989,-0.041353,-0.045859,-0.064511,60.715057,-9.194016,-146.145432,,,
729862628.514376,1.874251,3.333281,35.619782,-0.059647,0.037445,0.968658,-0.067332,-0.056802,-0.058993,60.715057,-9.194016,-146.145432,,,
729862628.517721,1.874251,3.333281,35.619782,-0.059647,0.037445,0.968658,-0.067332,-0.056802,-0.058993,60.715057,-9.194016,-146.145432,,,
729862628.52105,1.85233,3.317634,35.606034,-0.059647,0.037445,0.968658,-0.067332,-0.056802,-0.058993,60.834259,-9.160263,-146.23262,,,
729862628.524382,1.828936,3.302068,35.595971,-0.071869,0.032608,0.984802,-0.077823,-0.040328,-0.0343,60.834259,-9.160263,-146.23262,,,
729862628.527721,1.828936,3.302068,35.595971,-0.071869,0.032608,0.984802,-0.077823,-0.040328,-0.0343,60.834259,-9.160263,-146.23262,,,
729862628.531061,1.805746,3.291972,35.589782,-0.071869,0.032608,0.984802,-0.077823,-0.040328,-0.0343,60.834259,-9.160263,-146.23262,,,
729862628.534379,1.782578,3.280426,35.58676,-0.079681,0.028564,1.004105,-0.074874,-0.012344,-0.013108,60.834259,-9.160263,-146.23262,,,
729862628.537782,1.782578,3.280426,35.58676,-0.079681,0.028564,1.004105,-0.074874,-0.012344,-0.013108,60.834259,-9.160263,-146.23262,,,
729862628.541054,1.762517,3.278816,35.585694,-0.079681,0.028564,1.004105,-0.074874,-0.012344,-0.013108,60.834259,-9.160263,-146.23262,,,
729862628.544384,1.745771,3.274651,35.586488,-0.077011,0.027908,1.018219,-0.049169,0.015626,-6.6e-05,60.834259,-9.160263,-146.23262,,,
729862628.547743,1.745771,3.274651,35.586488,-0.077011,0.027908,1.018219,-0.049169,0.015626,-6.6e-05,60.834259,-9.160263,-146.23262,,,
729862628.551119,1.733574,3.279944,35.586683,-0.077011,0.027908,1.018219,-0.049169,0.015626,-6.6e-05,60.834259,-9.160263,-146.23262,,,
729862628.554397,1.725374,3.283034,35.585388,-0.066147,0.029785,1.022202,-0.018834,0.029768,-0.009634,60.834259,-9.160263,-146.23262,,,
729862628.557722,1.725374,3.283034,35.585388,-0.066147,0.029785,1.022202,-0.018834,0.029768,-0.009634,60.834259,-9.160263,-146.23262,,,
729862628.561045,1.72077,3.291934,35.582213,-0.066147,0.029785,1.022202,-0.018834,0.029768,-0.009634,60.825241,-9.117538,-146.374466,,,
729862628.564374,1.718767,3.300564,35.577739,-0.069565,0.02742,1.018173,-0.003415,0.04202,-0.018252,60.825241,-9.117538,-146.374466,,,
729862628.567743,1.718767,3.300564,35.577739,-0.069565,0.02742,1.018173,-0.003415,0.04202,-0.018252,60.825241,-9.117538,-146.374466,,,
729862628.571039,1.718065,3.312382,35.573299,-0.069565,0.02742,1.018173,-0.003415,0.04202,-0.018252,60.825241,-9.117538,-146.374466,,,
729862628.574396,1.718065,3.322735,35.570931,-0.083206,0.02626,1.018738,0.011749,0.039196,-0.003173,60.825241,-9.117538,-146.374466,,,
729862628.577778,1.721349,3.322735,35.570931,-0.083206,0.02626,1.018738,0.011749,0.039196,-0.003173,60.825241,-9.117538,-146.374466,,,
729862628.581066,1.726253,3.332255,35.571996,-0.083206,0.02626,1.018738,0.011749,0.039196,-0.003173,60.825241,-9.117538,-146.374466,,,
729862628.584384,1.736415,3.338724,35.576374,-0.094299,0.02504,1.022049,0.030157,0.023278,0.020903,60.825241,-9.117538,-146.374466,,,
729862628.587723,1.736415,3.338724,35.576374,-0.094299,0.02504,1.022049,0.030157,0.023278,0.020903,60.825241,-9.117538,-146.374466,,,
729862628.591104,1.745701,3.342781,35.583361,-0.094299,0.02504,1.022049,0.030157,0.023278,0.020903,60.825241,-9.117538,-146.374466,,,
729862628.594377,1.745701,3.342781,35.583361,-0.087601,0.028244,1.006805,0.02809,-0.000974,0.026883,60.825241,-9.117538,-146.374466,,,
729862628.597725,1.756164,3.34347,35.59122,-0.087601,0.028244,1.006805,0.02809,-0.000974,0.026883,60.825241,-9.117538,-146.374466,,,
729862628.601052,1.762679,3.339787,35.598299,-0.087601,0.028244,1.006805,0.02809,-0.000974,0.026883,60.825241,-9.117538,-146.374466,,,
729862628.604379,1.765658,3.333541,35.604214,-0.068558,0.03981,0.978409,0.000476,-0.037176,0.017761,60.926697,-9.133377,-146.227936,,,
729862628.607707,1.765658,3.333541,35.604214,-0.068558,0.03981,0.978409,0.000476,-0.037176,0.017761,60.926697,-9.133377,-146.227936,,,
729862628.611071,1.763257,3.320002,35.608735,-0.068558,0.03981,0.978409,0.000476,-0.037176,0.017761,60.926697,-9.133377,-146.227936,,,
729862628.614386,1.763257,3.320002,35.608735,-0.068558,0.03981,0.978409,-0.036775,-0.060014,0.00231,60.926697,-9.133377,-146.227936,,,
729862628.617724,1.755233,3.307725,35.611213,-0.054703,0.045349,0.967712,-0.036775,-0.060014,0.00231,60.926697,-9.133377,-146.227936,,,
729862628.621043,1.74246,3.289163,35.612836,-0.054703,0.045349,0.967712,-0.036775,-0.060014,0.00231,60.926697,-9.133377,-146.227936,,,
729862628.624406,1.74246,3.289163,35.612836,-0.046173,0.036606,0.974609,-0.062354,-0.060417,0.003159,60.926697,-9.133377,-146.227936,,,
729862628.627775,1.725435,3.275202,35.614647,-0.046173,0.036606,0.974609,-0.062354,-0.060417,0.003159,60.926697,-9.133377,-146.227936,,,
729862628.631045,1.706806,3.258438,35.616947,-0.046173,0.036606,0.974609,-0.062354,-0.060417,0.003159,60.926697,-9.133377,-146.227936,,,
729862628.634406,1.706806,3.258438,35.616947,-0.044022,0.031189,0.993774,-0.06073,-0.041456,0.004533,60.926697,-9.133377,-146.227936,,,
729862628.637721,1.688209,3.246649,35.619364,-0.044022,0.031189,0.993774,-0.06073,-0.041456,0.004533,60.926697,-9.133377,-146.227936,,,
729862628.641082,1.672627,3.235606,35.6223,-0.044022,0.031189,0.993774,-0.06073,-0.041456,0.004533,60.926697,-9.133377,-146.227936,,,
729862628.644528,1.661358,3.230665,35.62519,-0.039413,0.023773,1.018478,-0.028529,-0.013185,0.006425,60.823059,-9.076996,-146.474777,,,
729862628.647714,1.661358,3.230665,35.62519,-0.039413,0.023773,1.018478,-0.028529,-0.013185,0.006425,60.823059,-9.076996,-146.474777,,,
729862628.651054,1.656509,3.228896,35.627494,-0.039413,0.023773,1.018478,-0.028529,-0.013185,0.006425,60.823059,-9.076996,-146.474777,,,
729862628.654391,1.656509,3.228896,35.627494,-0.039413,0.023773,1.018478,0.019643,0.028358,-0.005259,60.823059,-9.076996,-146.474777,,,
729862628.657738,1.658043,3.237462,35.627605,-0.033035,0.012741,1.044479,0.019643,0.028358,-0.005259,60.823059,-9.076996,-146.474777,,,
729862628.661051,1.666903,3.247595,35.624618,-0.033035,0.012741,1.044479,0.019643,0.028358,-0.005259,60.823059,-9.076996,-146.474777,,,
729862628.664416,1.666903,3.247595,35.624618,-0.029373,0.013336,1.052643,0.066319,0.059316,-0.022176,60.823059,-9.076996,-146.474777,,,
729862628.667739,1.68165,3.267964,35.618656,-0.029373,0.013336,1.052643,0.066319,0.059316,-0.022176,60.823059,-9.076996,-146.474777,,,
729862628.67105,1.702466,3.285602,35.610653,-0.029373,0.013336,1.052643,0.066319,0.059316,-0.022176,60.823059,-9.076996,-146.474777,,,
729862628.674396,1.702466,3.285602,35.610653,-0.029373,0.013336,1.052643,0.085556,0.069287,-0.032829,60.823059,-9.076996,-146.474777,,,
729862628.677819,1.725452,3.310478,35.60078,-0.038452,0.015518,1.039108,0.085556,0.069287,-0.032829,60.823059,-9.076996,-146.474777,,,
729862628.681066,1.747613,3.328575,35.590117,-0.038452,0.015518,1.039108,0.085556,0.069287,-0.032829,60.823059,-9.076996,-146.474777,,,
729862628.684444,1.747613,3.328575,35.590117,-0.038452,0.015518,1.039108,0.062361,0.042518,-0.031725,60.81218,-9.112991,-145.811508,,,
729862628.687735,1.767437,3.345705,35.579694,-0.059708,0.024994,0.996857,0.062361,0.042518,-0.031725,60.81218,-9.112991,-145.811508,,,
729862628.691061,1.781984,3.35481,35.570867,-0.059708,0.024994,0.996857,0.062361,0.042518,-0.031725,60.81218,-9.112991,-145.811508,,,
729862628.694442,1.781984,3.35481,35.570867,-0.059708,0.024994,0.996857,0.01585,0.002991,-0.02603,60.81218,-9.112991,-145.811508,,,
729862628.697723,1.791896,3.358401,35.563243,-0.07135,0.041534,0.967911,0.01585,0.002991,-0.02603,60.81218,-9.112991,-145.811508,,,
729862628.701048,1.792539,3.355893,35.556857,-0.07135,0.041534,0.967911,0.01585,0.002991,-0.02603,60.81218,-9.112991,-145.811508,,,
729862628.704214,1.792539,3.355893,35.556857,-0.07135,0.041534,0.967911,0.01585,0.002991,-0.02603,60.81218,-9.112991,-145.811508,,,
729862628.707754,1.788232,3.347344,35.552949,-0.076904,0.046707,0.958557,-0.026633,-0.029376,-0.011549,60.81218,-9.112991,-145.811508,,,
729862628.711044,1.777886,3.33659,35.551824,-0.076904,0.046707,0.958557,-0.026633,-0.029376,-0.011549,60.81218,-9.112991,-145.811508,,,
729862628.714414,1.777886,3.33659,35.551824,-0.076904,0.046707,0.958557,-0.048591,-0.045477,0.00775,60.81218,-9.112991,-145.811508,,,
729862628.71772,1.764619,3.321869,35.553688,-0.07634,0.040344,0.965103,-0.048591,-0.045477,0.00775,60.81218,-9.112991,-145.811508,,,
729862628.721046,1.750423,3.308398,35.558092,-0.07634,0.040344,0.965103,-0.048591,-0.045477,0.00775,60.81218,-9.112991,-145.811508,,,
729862628.724418,1.750423,3.308398,35.558092,-0.07634,0.040344,0.965103,-0.043024,-0.033042,0.017335,61.033051,-9.025299,-146.050232,,,
729862628.727778,1.736776,3.294583,35.563885,-0.068314,0.036713,0.993408,-0.043024,-0.033042,0.017335,61.033051,-9.025299,-146.050232,,,
729862628.731047,1.727309,3.285834,35.56912,-0.068314,0.036713,0.993408,-0.043024,-0.033042,0.017335,61.033051,-9.025299,-146.050232,,,
729862628.734403,1.727309,3.285834,35.56912,-0.068314,0.036713,0.993408,-0.043024,-0.033042,0.017335,61.033051,-9.025299,-146.050232,,,
729862628.737736,1.722185,3.276594,35.572764,-0.054276,0.029999,1.017532,-0.002052,-0.016267,0.008,61.033051,-9.025299,-146.050232,,,
729862628.741137,1.724923,3.273368,35.574606,-0.054276,0.029999,1.017532,-0.002052,-0.016267,0.008,61.033051,-9.025299,-146.050232,,,
729862628.744393,1.724923,3.273368,35.574606,-0.054276,0.029999,1.017532,-0.002052,-0.016267,0.008,61.033051,-9.025299,-146.050232,,,
729862628.747736,1.732273,3.27077,35.574865,-0.041245,0.020767,1.028793,0.04145,0.011199,-0.00127,61.033051,-9.025299,-146.050232,,,
729862628.751148,1.747447,3.275034,35.573948,-0.041245,0.020767,1.028793,0.04145,0.011199,-0.00127,61.033051,-9.025299,-146.050232,,,
729862628.754401,1.747447,3.275034,35.573948,-0.041245,0.020767,1.028793,0.04145,0.011199,-0.00127,61.033051,-9.025299,-146.050232,,,
729862628.757736,1.766077,3.279257,35.572304,-0.04332,0.02269,1.026688,0.075843,0.029901,-0.004946,61.033051,-9.025299,-146.050232,,,
729862628.761129,1.787354,3.288557,35.569125,-0.04332,0.02269,1.026688,0.075843,0.029901,-0.004946,61.033051,-9.025299,-146.050232,,,
729862628.764458,1.787354,3.288557,35.569125,-0.04332,0.02269,1.026688,0.075843,0.029901,-0.004946,61.033051,-9.025299,-146.050232,,,
729862628.767728,1.805318,3.299458,35.564574,-0.049332,0.029541,0.998398,0.059041,0.043016,-0.015505,61.165833,-9.33606,-145.90036,,,
729862628.771055,1.819427,3.31226,35.55978,-0.049332,0.029541,0.998398,0.059041,0.043016,-0.015505,61.165833,-9.33606,-145.90036,,,
729862628.774437,1.819427,3.31226,35.55978,-0.049332,0.029541,0.998398,0.059041,0.043016,-0.015505,61.165833,-9.33606,-145.90036,,,
729862628.777781,1.829016,3.328141,35.556211,-0.062271,0.038452,0.969727,0.022745,0.05412,-0.008718,61.165833,-9.33606,-145.90036,,,
729862628.781049,1.833044,3.341957,35.555036,-0.062271,0.038452,0.969727,0.022745,0.05412,-0.008718,61.165833,-9.33606,-145.90036,,,
729862628.784401,1.833044,3.341957,35.555036,-0.062271,0.038452,0.969727,0.022745,0.05412,-0.008718,61.165833,-9.33606,-145.90036,,,
729862628.787725,1.833415,3.354336,35.555908,-0.070953,0.042343,0.953888,-0.013441,0.028467,0.003966,61.165833,-9.33606,-145.90036,,,
729862628.791053,1.827559,3.358535,35.558616,-0.070953,0.042343,0.953888,-0.013441,0.028467,0.003966,61.165833,-9.33606,-145.90036,,,
729862628.794424,1.827559,3.358535,35.558616,-0.070953,0.042343,0.953888,-0.013441,0.028467,0.003966,61.165833,-9.33606,-145.90036,,,
729862628.797716,1.819529,3.357849,35.562246,-0.077026,0.041687,0.944901,-0.034623,-0.019086,0.009543,61.165833,-9.33606,-145.90036,,,
729862628.801049,1.808094,3.348932,35.566371,-0.077026,0.041687,0.944901,-0.034623,-0.019086,0.009543,61.165833,-9.33606,-145.90036,,,
729862628.804449,1.808094,3.348932,35.566371,-0.077026,0.041687,0.944901,-0.034623,-0.019086,0.009543,61.165833,-9.33606,-145.90036,,,
729862628.80771,1.794546,3.336504,35.571051,-0.07338,0.040741,0.948853,-0.052435,-0.050905,0.01259,60.959274,-9.141541,-145.834167,,,
