Time (sec),Pitch (deg),Roll (deg),Yaw(deg),X-Acceleration (g),Y-Acceleration (g),Z-Acceleration (g),Pitch Rate (deg/sec),Roll Rate (deg/sec),Yaw Rate (deg/sec),Magnetic Field in X direction (uT),Magnetic Field in Y direction (uT),Magnetic Field in Z Direction (uT),Latitude (deg),Longitude (deg),Altitude (m)
729863064.642748,1.375133,5.208913,54.91089,-0.086868,0.021973,1.010712,0.031325,0.02959,0.009591,58.861801,6.395355,-148.37796,,,
729863064.646,1.384596,5.214678,54.913501,-0.079788,0.024323,1.003555,0.031325,0.02959,0.009591,58.861801,6.395355,-148.37796,,,
729863064.649356,1.384596,5.214678,54.913501,-0.079788,0.024323,1.003555,0.031325,0.02959,0.009591,58.861801,6.395355,-148.37796,,,
729863064.652675,1.39094,5.230391,54.914728,-0.079788,0.024323,1.003555,0.02103,0.073413,0.003955,58.861801,6.395355,-148.37796,,,
729863064.656128,1.397652,5.248469,54.915279,-0.081818,0.025391,1.003326,0.02103,0.073413,0.003955,58.861801,6.395355,-148.37796,,,
729863064.659353,1.397652,5.248469,54.915279,-0.081818,0.025391,1.003326,0.02103,0.073413,0.003955,58.861801,6.395355,-148.37796,,,
729863064.664778,1.40075,5.274492,54.915364,-0.081818,0.025391,1.003326,0.008687,0.086331,0.002842,58.973969,6.355072,-148.741608,,,
729863064.665766,1.403892,5.29869,54.915696,-0.093201,0.023926,0.995651,0.008687,0.086331,0.002842,58.973969,6.355072,-148.741608,,,
729863064.669411,1.403892,5.29869,54.915696,-0.093201,0.023926,0.995651,0.008687,0.086331,0.002842,58.973969,6.355072,-148.741608,,,
729863064.672708,1.404837,5.324309,54.916646,-0.093201,0.023926,0.995651,0.003762,0.06471,0.00949,58.973969,6.355072,-148.741608,,,
729863064.676007,1.40632,5.342912,54.918977,-0.106705,0.024948,0.986115,0.003762,0.06471,0.00949,58.973969,6.355072,-148.741608,,,
729863064.679346,1.40632,5.342912,54.918977,-0.106705,0.024948,0.986115,0.003762,0.06471,0.00949,58.973969,6.355072,-148.741608,,,
729863064.682673,1.407195,5.359141,54.922631,-0.106705,0.024948,0.986115,0.004506,0.029694,0.014818,58.973969,6.355072,-148.741608,,,
729863064.686013,1.409264,5.367652,54.926944,-0.112381,0.023117,0.984283,0.004506,0.029694,0.014818,58.973969,6.355072,-148.741608,,,
729863064.689409,1.409264,5.367652,54.926944,-0.112381,0.023117,0.984283,0.004506,0.029694,0.014818,58.973969,6.355072,-148.741608,,,
729863064.692717,1.409735,5.376106,54.93176,-0.112381,0.023117,0.984283,0.00769,0.00901,0.016895,58.973969,6.355072,-148.741608,,,
729863064.696017,1.411768,5.378366,54.937061,-0.107712,0.019852,0.98967,0.00769,0.00901,0.016895,58.973969,6.355072,-148.741608,,,
729863064.699348,1.411768,5.378366,54.937061,-0.107712,0.019852,0.98967,0.00769,0.00901,0.016895,58.973969,6.355072,-148.741608,,,
729863064.702673,1.414125,5.38028,54.943041,-0.107712,0.019852,0.98967,0.024073,0.00337,0.027734,59.086563,6.364761,-148.700241,,,
729863064.706013,1.420486,5.380524,54.950468,-0.107162,0.014999,1.001434,0.024073,0.00337,0.027734,59.086563,6.364761,-148.700241,,,
729863064.709335,1.420486,5.380524,54.950468,-0.107162,0.014999,1.001434,0.024073,0.00337,0.027734,59.086563,6.364761,-148.700241,,,
729863064.712343,1.428403,5.382584,54.959755,-0.107162,0.014999,1.001434,0.039934,0.020148,0.043496,59.086563,6.364761,-148.700241,,,
729863064.716052,1.440604,5.387074,54.971335,-0.105988,0.010803,1.013565,0.039934,0.020148,0.043496,59.086563,6.364761,-148.700241,,,
729863064.719395,1.440604,5.387074,54.971335,-0.105988,0.010803,1.013565,0.039934,0.020148,0.043496,59.086563,6.364761,-148.700241,,,
729863064.722712,1.455584,5.391488,54.984753,-0.105988,0.010803,1.013565,0.05679,0.039836,0.052536,59.086563,6.364761,-148.700241,,,
729863064.726012,1.472784,5.401217,54.998403,-0.095245,0.01207,1.014526,0.05679,0.039836,0.052536,59.086563,6.364761,-148.700241,,,
729863064.729116,1.472784,5.401217,54.998403,-0.095245,0.01207,1.014526,0.05679,0.039836,0.052536,59.086563,6.364761,-148.700241,,,
729863064.732722,1.490312,5.407412,55.011362,-0.095245,0.01207,1.014526,0.055045,0.040446,0.048529,59.086563,6.364761,-148.700241,,,
729863064.736027,1.507769,5.418001,55.023635,-0.089874,0.016495,0.998016,0.055045,0.040446,0.048529,59.086563,6.364761,-148.700241,,,
729863064.739339,1.507769,5.418001,55.023635,-0.089874,0.016495,0.998016,0.055045,0.040446,0.048529,59.086563,6.364761,-148.700241,,,
729863064.742678,1.523791,5.423344,55.035709,-0.089874,0.016495,0.998016,0.051786,0.021157,0.0418,59.132385,6.333679,-147.824493,,,
729863064.746009,1.539459,5.429545,55.046824,-0.086624,0.020935,0.979675,0.051786,0.021157,0.0418,59.132385,6.333679,-147.824493,,,
729863064.74936,1.539459,5.429545,55.046824,-0.086624,0.020935,0.979675,0.051786,0.021157,0.0418,59.132385,6.333679,-147.824493,,,
729863064.752695,1.553669,5.432775,55.057141,-0.086624,0.020935,0.979675,0.04166,-0.003531,0.033901,59.132385,6.333679,-147.824493,,,
729863064.756005,1.566808,5.431999,55.066704,-0.08284,0.025726,0.97345,0.04166,-0.003531,0.033901,59.132385,6.333679,-147.824493,,,
729863064.75935,1.566808,5.431999,55.066704,-0.08284,0.025726,0.97345,0.04166,-0.003531,0.033901,59.132385,6.333679,-147.824493,,,
729863064.762698,1.57705,5.433559,55.075547,-0.08284,0.025726,0.97345,0.025116,-0.010608,0.031734,59.132385,6.333679,-147.824493,,,
729863064.766007,1.585228,5.429273,55.084371,-0.084427,0.026947,0.968063,0.025116,-0.010608,0.031734,59.132385,6.333679,-147.824493,,,
729863064.769399,1.585228,5.429273,55.084371,-0.084427,0.026947,0.968063,0.025116,-0.010608,0.031734,59.132385,6.333679,-147.824493,,,
729863064.772691,1.589513,5.431141,55.093663,-0.084427,0.026947,0.968063,0.005818,-0.005924,0.033724,59.132385,6.333679,-147.824493,,,
729863064.776003,1.59241,5.428305,55.103849,-0.081375,0.031754,0.96759,0.005818,-0.005924,0.033724,59.132385,6.333679,-147.824493,,,
729863064.779345,1.59241,5.428305,55.103849,-0.081375,0.031754,0.96759,0.005818,-0.005924,0.033724,59.132385,6.333679,-147.824493,,,
729863064.782678,1.591592,5.430725,55.113952,-0.081375,0.031754,0.96759,-0.004879,0.005294,0.037102,59.132385,6.333679,-147.824493,,,
729863064.786003,1.59198,5.430685,55.124571,-0.077454,0.031494,0.972351,-0.004879,0.005294,0.037102,59.151886,6.517426,-148.081146,,,
729863064.789411,1.59198,5.430685,55.124571,-0.077454,0.031494,0.972351,-0.004879,0.005294,0.037102,59.151886,6.517426,-148.081146,,,
729863064.792727,1.589304,5.435701,55.135179,-0.077454,0.031494,0.972351,0.004845,0.012334,0.02898,59.151886,6.517426,-148.081146,,,
729863064.796018,1.591073,5.437969,55.144286,-0.073334,0.030106,0.982437,0.004845,0.012334,0.02898,59.151886,6.517426,-148.081146,,,
729863064.79936,1.591073,5.437969,55.144286,-0.073334,0.030106,0.982437,0.004845,0.012334,0.02898,59.151886,6.517426,-148.081146,,,
729863064.802686,1.590834,5.442454,55.151439,-0.073334,0.030106,0.982437,0.022329,0.008451,0.020082,59.151886,6.517426,-148.081146,,,
729863064.806005,1.596799,5.443748,55.157409,-0.072281,0.029663,0.989777,0.022329,0.008451,0.020082,59.151886,6.517426,-148.081146,,,
729863064.809453,1.596799,5.443748,55.157409,-0.072281,0.029663,0.989777,0.022329,0.008451,0.020082,59.151886,6.517426,-148.081146,,,
729863064.812699,1.602004,5.442944,55.162232,-0.072281,0.029663,0.989777,0.035711,-1.8e-05,0.018164,59.151886,6.517426,-148.081146,,,
729863064.816016,1.612752,5.441997,55.166737,-0.075897,0.026688,0.98761,0.035711,-1.8e-05,0.018164,59.151886,6.517426,-148.081146,,,
729863064.819358,1.612752,5.441997,55.166737,-0.075897,0.026688,0.98761,0.035711,-1.8e-05,0.018164,59.151886,6.517426,-148.081146,,,
729863064.822753,1.621934,5.439645,55.171468,-0.075897,0.026688,0.98761,0.034059,0.007994,0.016022,59.151886,6.517426,-148.081146,,,
729863064.826,1.632078,5.441043,55.175876,-0.070206,0.029922,0.9814,0.034059,0.007994,0.016022,58.890198,6.617416,-148.159714,,,
729863064.829351,1.632078,5.441043,55.175876,-0.070206,0.029922,0.9814,0.034059,0.007994,0.016022,58.890198,6.617416,-148.159714,,,
729863064.832681,1.638491,5.442385,55.179615,-0.070206,0.029922,0.9814,0.019765,0.018873,0.005788,58.890198,6.617416,-148.159714,,,
729863064.836005,1.644751,5.446871,55.181889,-0.061646,0.035049,0.972214,0.019765,0.018873,0.005788,58.890198,6.617416,-148.159714,,,
729863064.839349,1.644751,5.446871,55.181889,-0.061646,0.035049,0.972214,0.019765,0.018873,0.005788,58.890198,6.617416,-148.159714,,,
729863064.842685,1.648505,5.447544,55.182781,-0.061646,0.035049,0.972214,0.006714,0.009755,-0.008465,58.890198,6.617416,-148.159714,,,
729863064.846009,1.650039,5.44985,55.181736,-0.062225,0.034973,0.965042,0.006714,0.009755,-0.008465,58.890198,6.617416,-148.159714,,,
729863064.849402,1.650039,5.44985,55.181736,-0.062225,0.034973,0.965042,0.006714,0.009755,-0.008465,58.890198,6.617416,-148.159714,,,
729863064.85267,1.650172,5.447059,55.178887,-0.062225,0.034973,0.965042,-0.004599,-0.013487,-0.020998,58.890198,6.617416,-148.159714,,,
729863064.856011,1.648621,5.443206,55.174017,-0.062729,0.037292,0.958603,-0.004599,-0.013487,-0.020998,58.890198,6.617416,-148.159714,,,
729863064.85935,1.648621,5.443206,55.174017,-0.062729,0.037292,0.958603,-0.004599,-0.013487,-0.020998,58.890198,6.617416,-148.159714,,,
729863064.862731,1.646076,5.435112,55.167339,-0.062729,0.037292,0.958603,-0.010624,-0.018239,-0.029069,58.890198,6.617416,-148.159714,,,
729863064.866004,1.641672,5.429525,55.160092,-0.0634,0.032516,0.966675,-0.010624,-0.018239,-0.029069,59.055618,6.359818,-147.920959,,,
729863064.869355,1.641672,5.429525,55.160092,-0.0634,0.032516,0.966675,-0.010624,-0.018239,-0.029069,59.055618,6.359818,-147.920959,,,
729863064.87269,1.635783,5.421962,55.152933,-0.0634,0.032516,0.966675,-0.026379,-0.003376,-0.033846,59.055618,6.359818,-147.920959,,,
729863064.875998,1.627542,5.419261,55.145137,-0.063004,0.032181,0.969833,-0.026379,-0.003376,-0.033846,59.055618,6.359818,-147.920959,,,
729863064.879355,1.627542,5.419261,55.145137,-0.063004,0.032181,0.969833,-0.026379,-0.003376,-0.033846,59.055618,6.359818,-147.920959,,,
729863064.882688,1.616711,5.417239,55.136179,-0.063004,0.032181,0.969833,-0.04568,0.023404,-0.0415,59.055618,6.359818,-147.920959,,,
729863064.885997,1.602664,5.422327,55.125856,-0.060654,0.037933,0.971451,-0.04568,0.023404,-0.0415,59.055618,6.359818,-147.920959,,,
729863064.889432,1.602664,5.422327,55.125856,-0.060654,0.037933,0.971451,-0.04568,0.023404,-0.0415,59.055618,6.359818,-147.920959,,,
729863064.892659,1.586426,5.428772,55.114333,-0.060654,0.037933,0.971451,-0.059761,0.045826,-0.056694,59.055618,6.359818,-147.920959,,,
729863064.896011,1.568043,5.440666,55.101148,-0.063873,0.033813,0.975662,-0.059761,0.045826,-0.056694,59.055618,6.359818,-147.920959,,,
729863064.899352,1.568043,5.440666,55.101148,-0.063873,0.033813,0.975662,-0.059761,0.045826,-0.056694,59.055618,6.359818,-147.920959,,,
729863064.902729,1.54841,5.451979,55.086042,-0.063873,0.033813,0.975662,-0.058069,0.043595,-0.066679,59.055618,6.359818,-147.920959,,,
729863064.905993,1.529392,5.464664,55.069404,-0.078659,0.031509,0.982925,-0.058069,0.043595,-0.066679,59.113098,6.409683,-147.777817,,,
729863064.909349,1.529392,5.464664,55.069404,-0.078659,0.031509,0.982925,-0.058069,0.043595,-0.066679,59.113098,6.409683,-147.777817,,,
729863064.912686,1.512352,5.471859,55.052254,-0.078659,0.031509,0.982925,-0.042817,0.020598,-0.066333,59.113098,6.409683,-147.777817,,,
729863064.916005,1.497267,5.478818,55.034812,-0.097061,0.026505,0.995529,-0.042817,0.020598,-0.066333,59.113098,6.409683,-147.777817,,,
729863064.919339,1.497267,5.478818,55.034812,-0.097061,0.026505,0.995529,-0.042817,0.020598,-0.066333,59.113098,6.409683,-147.777817,,,
729863064.92267,1.486418,5.477766,55.017903,-0.097061,0.026505,0.995529,-0.020634,-0.002869,-0.057786,59.113098,6.409683,-147.777817,,,
729863064.926028,1.478037,5.477266,55.002253,-0.113892,0.021057,1.002731,-0.020634,-0.002869,-0.057786,59.113098,6.409683,-147.777817,,,
729863064.929415,1.478037,5.477266,55.002253,-0.113892,0.021057,1.002731,-0.020634,-0.002869,-0.057786,59.113098,6.409683,-147.777817,,,
729863064.932679,1.473735,5.468341,54.988493,-0.113892,0.021057,1.002731,-0.0101,-0.027418,-0.046689,59.113098,6.409683,-147.777817,,,
729863064.936008,1.469982,5.46099,54.976041,-0.115906,0.023941,0.999313,-0.0101,-0.027418,-0.046689,59.113098,6.409683,-147.777817,,,
729863064.939349,1.469982,5.46099,54.976041,-0.115906,0.023941,0.999313,-0.0101,-0.027418,-0.046689,59.113098,6.409683,-147.777817,,,
729863064.942713,1.468175,5.446052,54.964097,-0.115906,0.023941,0.999313,-0.00823,-0.034443,-0.04321,59.113098,6.409683,-147.777817,,,
729863064.946004,1.464117,5.435811,54.952213,-0.112869,0.027115,0.998047,-0.00823,-0.034443,-0.04321,59.113098,6.409683,-147.777817,,,
729863064.94935,1.464117,5.435811,54.952213,-0.112869,0.027115,0.998047,-0.00823,-0.034443,-0.04321,59.024017,6.363022,-148.265671,,,
729863064.952677,1.459862,5.420676,54.940848,-0.112869,0.027115,0.998047,-0.015289,-0.019502,-0.042293,59.024017,6.363022,-148.265671,,,
729863064.956005,1.453903,5.413651,54.929269,-0.111877,0.028503,0.994598,-0.015289,-0.019502,-0.042293,59.024017,6.363022,-148.265671,,,
729863064.959338,1.453903,5.413651,54.929269,-0.111877,0.028503,0.994598,-0.015289,-0.019502,-0.042293,59.024017,6.363022,-148.265671,,,
729863064.962689,1.448183,5.402426,54.91808,-0.111877,0.028503,0.994598,-0.028873,0.001644,-0.043259,59.024017,6.363022,-148.265671,,,
729863064.966118,1.43921,5.401303,54.907142,-0.108459,0.029251,1.003189,-0.028873,0.001644,-0.043259,59.024017,6.363022,-148.265671,,,
729863064.969404,1.43921,5.401303,54.907142,-0.108459,0.029251,1.003189,-0.028873,0.001644,-0.043259,59.024017,6.363022,-148.265671,,,
729863064.972687,1.431392,5.396054,54.896286,-0.108459,0.029251,1.003189,-0.032971,0.017664,-0.043213,59.024017,6.363022,-148.265671,,,
729863064.976057,1.421294,5.400719,54.885359,-0.10936,0.031769,1.008209,-0.032971,0.017664,-0.043213,59.024017,6.363022,-148.265671,,,
729863064.979333,1.421294,5.400719,54.885359,-0.10936,0.031769,1.008209,-0.032971,0.017664,-0.043213,59.024017,6.363022,-148.265671,,,
729863064.982727,1.413989,5.399895,54.875249,-0.10936,0.031769,1.008209,-0.020787,0.018515,-0.037531,59.024017,6.363022,-148.265671,,,
729863064.986014,1.413989,5.405447,54.865307,-0.118958,0.025833,1.013382,-0.020787,0.018515,-0.037531,59.024017,6.363022,-148.265671,,,
729863064.989366,1.407112,5.405447,54.865307,-0.118958,0.025833,1.013382,-0.020787,0.018515,-0.037531,59.001495,6.592545,-148.486099,,,
729863064.9927,1.405154,5.407826,54.856028,-0.118958,0.025833,1.013382,0.011847,0.007408,-0.027753,59.001495,6.592545,-148.486099,,,
729863064.995836,1.405154,5.407826,54.856028,-0.118958,0.025833,1.013382,0.011847,0.007408,-0.027753,59.001495,6.592545,-148.486099,,,
729863064.999395,1.406677,5.410337,54.847651,-0.11908,0.02449,1.02681,0.011847,0.007408,-0.027753,59.001495,6.592545,-148.486099,,,
729863065.002702,1.410749,5.412129,54.839972,-0.11908,0.02449,1.02681,0.02198,-0.004844,-0.019892,59.001495,6.592545,-148.486099,,,
729863065.006023,1.410749,5.412129,54.839972,-0.11908,0.02449,1.02681,0.02198,-0.004844,-0.019892,59.001495,6.592545,-148.486099,,,
729863065.009437,1.415877,5.410852,54.833562,-0.114975,0.020721,1.010803,0.02198,-0.004844,-0.019892,59.001495,6.592545,-148.486099,,,
729863065.012731,1.419896,5.413288,54.828369,-0.114975,0.020721,1.010803,0.016018,-0.01526,-0.012262,59.001495,6.592545,-148.486099,,,
729863065.01609,1.419896,5.40921,54.824411,-0.114975,0.020721,1.010803,0.016018,-0.01526,-0.012262,59.001495,6.592545,-148.486099,,,
729863065.01937,1.423813,5.40921,54.824411,-0.114731,0.023468,0.99704,0.016018,-0.01526,-0.012262,59.001495,6.592545,-148.486099,,,
729863065.022713,1.427316,5.408555,54.821638,-0.114731,0.023468,0.99704,0.005554,-0.02964,-0.002501,59.001495,6.592545,-148.486099,,,
729863065.026093,1.429344,5.399956,54.820287,-0.115402,0.027985,0.990402,0.005554,-0.02964,-0.002501,59.001495,6.592545,-148.486099,,,
729863065.029341,1.429344,5.399956,54.820287,-0.115402,0.027985,0.990402,0.005554,-0.02964,-0.002501,59.023819,6.523026,-148.25322,,,
729863065.032739,1.430279,5.396276,54.819982,-0.115402,0.027985,0.990402,-0.003586,-0.023253,0.001636,59.023819,6.523026,-148.25322,,,
729863065.036078,1.430279,5.396276,54.819982,-0.115402,0.027985,0.990402,-0.003586,-0.023253,0.001636,59.023819,6.523026,-148.25322,,,
729863065.039399,1.429389,5.38772,54.820846,-0.111343,0.027481,0.995407,-0.003586,-0.023253,0.001636,59.023819,6.523026,-148.25322,,,
729863065.042711,1.428837,5.386805,54.821902,-0.111343,0.027481,0.995407,-0.005594,-0.006293,0.002753,59.023819,6.523026,-148.25322,,,
729863065.046193,1.427664,5.383694,54.822919,-0.111343,0.027481,0.995407,-0.005594,-0.006293,0.002753,59.023819,6.523026,-148.25322,,,
729863065.049343,1.427664,5.383694,54.822919,-0.101776,0.025482,1.008163,-0.005594,-0.006293,0.002753,59.023819,6.523026,-148.25322,,,
729863065.052687,1.428234,5.387175,54.823612,-0.101776,0.025482,1.008163,0.005772,0.009563,0.000108,59.023819,6.523026,-148.25322,,,
729863065.056137,1.428234,5.388694,54.824068,-0.101776,0.025482,1.008163,0.005772,0.009563,0.000108,59.023819,6.523026,-148.25322,,,
729863065.059364,1.429199,5.388694,54.824068,-0.099274,0.023895,1.020615,0.005772,0.009563,0.000108,59.023819,6.523026,-148.25322,,,
729863065.062682,1.432882,5.396404,54.82433,-0.099274,0.023895,1.020615,0.014196,0.01571,0.001166,59.023819,6.523026,-148.25322,,,
729863065.066052,1.432882,5.396404,54.82433,-0.099274,0.023895,1.020615,0.014196,0.01571,0.001166,59.023819,6.523026,-148.25322,,,
729863065.069347,1.436924,5.399682,54.824854,-0.104721,0.021545,1.01796,0.014196,0.01571,0.001166,59.050217,6.464325,-148.283936,,,
729863065.072683,1.442545,5.409282,54.82578,-0.104721,0.021545,1.01796,0.026857,0.007403,0.008249,59.050217,6.464325,-148.283936,,,
729863065.076085,1.442545,5.409282,54.82578,-0.104721,0.021545,1.01796,0.026857,0.007403,0.008249,59.050217,6.464325,-148.283936,,,
729863065.07936,1.449783,5.411295,54.827826,-0.106018,0.022797,1.005875,0.026857,0.007403,0.008249,59.050217,6.464325,-148.283936,,,
729863065.08268,1.456724,5.415723,54.830474,-0.106018,0.022797,1.005875,0.021594,-0.007484,0.013238,59.050217,6.464325,-148.283936,,,
729863065.086026,1.456724,5.415723,54.830474,-0.106018,0.022797,1.005875,0.021594,-0.007484,0.013238,59.050217,6.464325,-148.283936,,,
729863065.089365,1.463479,5.413159,54.833618,-0.102631,0.026093,0.992371,0.021594,-0.007484,0.013238,59.050217,6.464325,-148.283936,,,
729863065.092751,1.467964,5.41412,54.83667,-0.102631,0.026093,0.992371,0.013124,-0.018222,0.010767,59.050217,6.464325,-148.283936,,,
729863065.096046,1.467964,5.41412,54.83667,-0.102631,0.026093,0.992371,0.013124,-0.018222,0.010767,59.050217,6.464325,-148.283936,,,
729863065.099363,1.471751,5.408515,54.839774,-0.095779,0.029221,0.981155,0.013124,-0.018222,0.010767,59.050217,6.464325,-148.283936,,,
729863065.10268,1.472691,5.409229,54.842055,-0.095779,0.029221,0.981155,-0.009132,-0.014577,0.004362,59.050217,6.464325,-148.283936,,,
729863065.106126,1.472691,5.409229,54.842055,-0.095779,0.029221,0.981155,-0.009132,-0.014577,0.004362,59.050217,6.464325,-148.283936,,,
729863065.109339,1.471252,5.404235,54.8439,-0.087433,0.030243,0.976868,-0.009132,-0.014577,0.004362,59.050217,6.464325,-148.283936,,,
729863065.112683,1.468729,5.406585,54.845869,-0.087433,0.030243,0.976868,-0.010389,-0.008405,0.005704,58.899658,6.331512,-148.149109,,,
729863065.11604,1.468729,5.406585,54.845869,-0.087433,0.030243,0.976868,-0.010389,-0.008405,0.005704,58.899658,6.331512,-148.149109,,,
729863065.119394,1.465242,5.403142,54.847972,-0.082489,0.027725,0.985275,-0.010389,-0.008405,0.005704,58.899658,6.331512,-148.149109,,,
729863065.122776,1.463807,5.405674,54.849597,-0.082489,0.027725,0.985275,0.005602,-0.000149,0.004593,58.899658,6.331512,-148.149109,,,
729863065.126008,1.463807,5.405674,54.849597,-0.082489,0.027725,0.985275,0.005602,-0.000149,0.004593,58.899658,6.331512,-148.149109,,,
729863065.129366,1.464113,5.404984,54.850992,-0.080383,0.020187,1.004288,0.005602,-0.000149,0.004593,58.899658,6.331512,-148.149109,,,
729863065.132677,1.467058,5.40682,54.851678,-0.080383,0.020187,1.004288,0.023766,0.003622,-3.2e-05,58.899658,6.331512,-148.149109,,,
729863065.136052,1.467058,5.40682,54.851678,-0.080383,0.020187,1.004288,0.023766,0.003622,-3.2e-05,58.899658,6.331512,-148.149109,,,
729863065.139359,1.473133,5.407736,54.851395,-0.080338,0.01709,1.008713,0.023766,0.003622,-3.2e-05,58.899658,6.331512,-148.149109,,,
729863065.142522,1.48046,5.410335,54.85063,-0.080338,0.01709,1.008713,0.032516,0.006311,-0.003467,58.899658,6.331512,-148.149109,,,
729863065.14614,1.48046,5.410335,54.85063,-0.080338,0.01709,1.008713,0.032516,0.006311,-0.003467,58.899658,6.331512,-148.149109,,,
729863065.149341,1.489494,5.412299,54.849572,-0.078247,0.020355,1.001678,0.032516,0.006311,-0.003467,58.899658,6.331512,-148.149109,,,
729863065.15271,1.497971,5.416802,54.847314,-0.078247,0.020355,1.001678,0.037202,0.007939,-0.010657,58.77832,6.35968,-148.312378,,,
729863065.156019,1.497971,5.416802,54.847314,-0.078247,0.020355,1.001678,0.037202,0.007939,-0.010657,58.77832,6.35968,-148.312378,,,
729863065.159396,1.50825,5.418344,54.843679,-0.071869,0.022705,0.992447,0.037202,0.007939,-0.010657,58.77832,6.35968,-148.312378,,,
729863065.162677,1.517173,5.423352,54.838235,-0.071869,0.022705,0.992447,0.030834,0.007732,-0.025951,58.77832,6.35968,-148.312378,,,
729863065.16613,1.517173,5.423352,54.838235,-0.071869,0.022705,0.992447,0.030834,0.007732,-0.025951,58.77832,6.35968,-148.312378,,,
729863065.169388,1.525441,5.425657,54.831323,-0.071625,0.022568,0.987595,0.030834,0.007732,-0.025951,58.77832,6.35968,-148.312378,,,
729863065.172687,1.531896,5.430467,54.823376,-0.071625,0.022568,0.987595,0.022873,0.00978,-0.026498,58.77832,6.35968,-148.312378,,,
729863065.176033,1.531896,5.430467,54.823376,-0.071625,0.022568,0.987595,0.022873,0.00978,-0.026498,58.77832,6.35968,-148.312378,,,
729863065.179371,1.536846,5.43266,54.815373,-0.078568,0.024429,0.979752,0.022873,0.00978,-0.026498,58.77832,6.35968,-148.312378,,,
729863065.182679,1.542336,5.43474,54.807316,-0.078568,0.024429,0.979752,0.013268,0.005496,-0.025254,58.77832,6.35968,-148.312378,,,
729863065.186067,1.542336,5.43474,54.807316,-0.078568,0.024429,0.979752,0.013268,0.005496,-0.025254,58.77832,6.35968,-148.312378,,,
729863065.189334,1.545992,5.435598,54.799525,-0.083832,0.024979,0.981262,0.013268,0.005496,-0.025254,58.77832,6.35968,-148.312378,,,
729863065.192751,1.54854,5.432094,54.792576,-0.083832,0.024979,0.981262,-0.001892,-0.009502,-0.022867,58.679718,6.302841,-148.4077,,,
729863065.196006,1.54854,5.432094,54.792576,-0.083832,0.024979,0.981262,-0.001892,-0.009502,-0.022867,58.679718,6.302841,-148.4077,,,
729863065.199411,1.547345,5.428926,54.785867,-0.088791,0.028214,0.969055,-0.001892,-0.009502,-0.022867,58.679718,6.302841,-148.4077,,,
729863065.202675,1.542583,5.421062,54.779545,-0.088791,0.028214,0.969055,-0.024151,-0.007969,-0.025329,58.679718,6.302841,-148.4077,,,
729863065.206023,1.542583,5.421062,54.779545,-0.088791,0.028214,0.969055,-0.024151,-0.007969,-0.025329,58.679718,6.302841,-148.4077,,,
729863065.209365,1.535253,5.418072,54.773315,-0.085266,0.029907,0.965332,-0.024151,-0.007969,-0.025329,58.679718,6.302841,-148.4077,,,
729863065.212677,1.524451,5.412088,54.767414,-0.085266,0.029907,0.965332,-0.033943,0.007533,-0.024957,58.679718,6.302841,-148.4077,,,
729863065.216115,1.524451,5.412088,54.767414,-0.085266,0.029907,0.965332,-0.033943,0.007533,-0.024957,58.679718,6.302841,-148.4077,,,
729863065.219361,1.514552,5.413475,54.761652,-0.089447,0.027008,0.979355,-0.033943,0.007533,-0.024957,58.679718,6.302841,-148.4077,,,
729863065.222679,1.502357,5.41171,54.756908,-0.089447,0.027008,0.979355,-0.034853,0.014542,-0.016583,58.679718,6.302841,-148.4077,,,
729863065.226048,1.502357,5.41171,54.756908,-0.089447,0.027008,0.979355,-0.034853,0.014542,-0.016583,58.679718,6.302841,-148.4077,,,
729863065.229347,1.492253,5.415051,54.753744,-0.100571,0.023193,0.986786,-0.034853,0.014542,-0.016583,58.679718,6.302841,-148.4077,,,
729863065.232737,1.481434,5.41293,54.752353,-0.100571,0.023193,0.986786,-0.027013,0.015236,-0.005936,58.679718,6.302841,-148.4077,,,
729863065.236081,1.481434,5.41293,54.752353,-0.100571,0.023193,0.986786,-0.027013,0.015236,-0.005936,59.087723,6.308548,-148.624756,,,
729863065.239346,1.472783,5.416543,54.751821,-0.104218,0.025589,0.988571,-0.027013,0.015236,-0.005936,59.087723,6.308548,-148.624756,,,
729863065.242682,1.465818,5.412083,54.751969,-0.104218,0.025589,0.988571,-0.012163,0.008388,-0.005552,59.087723,6.308548,-148.624756,,,
729863065.246022,1.465818,5.412083,54.751969,-0.104218,0.025589,0.988571,-0.012163,0.008388,-0.005552,59.087723,6.308548,-148.624756,,,
729863065.2494,1.461793,5.413878,54.751627,-0.098541,0.023911,0.995895,-0.012163,0.008388,-0.005552,59.087723,6.308548,-148.624756,,,
729863065.252699,1.459025,5.408452,54.750605,-0.098541,0.023911,0.995895,0.000132,-0.001243,-0.009497,59.087723,6.308548,-148.624756,,,
729863065.25607,1.459025,5.408452,54.750605,-0.098541,0.023911,0.995895,0.000132,-0.001243,-0.009497,59.087723,6.308548,-148.624756,,,
729863065.259347,1.458046,5.407986,54.748436,-0.095383,0.020157,0.999374,0.000132,-0.001243,-0.009497,59.087723,6.308548,-148.624756,,,
729863065.262686,1.458065,5.401613,54.745297,-0.095383,0.020157,0.999374,0.005655,-0.01175,-0.01957,59.087723,6.308548,-148.624756,,,
729863065.26601,1.458065,5.401613,54.745297,-0.095383,0.020157,0.999374,0.005655,-0.01175,-0.01957,59.087723,6.308548,-148.624756,,,
729863065.269345,1.458625,5.39811,54.740736,-0.089249,0.023972,0.992111,0.005655,-0.01175,-0.01957,59.087723,6.308548,-148.624756,,,
729863065.272711,1.459506,5.390863,54.734647,-0.089249,0.023972,0.992111,0.001022,-0.018332,-0.024291,59.087723,6.308548,-148.624756,,,
729863065.276051,1.459506,5.390863,54.734647,-0.089249,0.023972,0.992111,0.001022,-0.018332,-0.024291,58.847549,6.276001,-148.592941,,,
729863065.279139,1.459263,5.384681,54.728361,-0.091125,0.025421,0.991119,0.001022,-0.018332,-0.024291,58.847549,6.276001,-148.592941,,,
729863065.282784,1.458421,5.377598,54.722641,-0.091125,0.025421,0.991119,-0.008803,-0.019997,-0.017791,58.847549,6.276001,-148.592941,,,
729863065.286004,1.458421,5.377598,54.722641,-0.091125,0.025421,0.991119,-0.008803,-0.019997,-0.017791,58.847549,6.276001,-148.592941,,,
729863065.289345,1.455269,5.371061,54.718028,-0.098083,0.022568,0.987381,-0.008803,-0.019997,-0.017791,58.847549,6.276001,-148.592941,,,
729863065.292715,1.451944,5.363153,54.714896,-0.098083,0.022568,0.987381,-0.023554,-0.010205,-0.011052,58.847549,6.276001,-148.592941,,,
729863065.296013,1.451944,5.363153,54.714896,-0.098083,0.022568,0.987381,-0.023554,-0.010205,-0.011052,58.847549,6.276001,-148.592941,,,
729863065.299353,1.445433,5.35914,54.712679,-0.09613,0.026825,0.988312,-0.023554,-0.010205,-0.011052,58.847549,6.276001,-148.592941,,,
729863065.302732,1.438493,5.357822,54.711206,-0.09613,0.026825,0.988312,-0.024534,0.005964,-0.004657,58.847549,6.276001,-148.592941,,,
729863065.306023,1.438493,5.357822,54.711206,-0.09613,0.026825,0.988312,-0.024534,0.005964,-0.004657,58.847549,6.276001,-148.592941,,,
729863065.309367,1.431376,5.358297,54.710769,-0.094177,0.025772,0.997864,-0.024534,0.005964,-0.004657,58.847549,6.276001,-148.592941,,,
729863065.312677,1.423159,5.363768,54.710836,-0.094177,0.025772,0.997864,-0.03552,0.021496,-0.001805,58.847549,6.276001,-148.592941,,,
729863065.316011,1.423159,5.363768,54.710836,-0.094177,0.025772,0.997864,-0.03552,0.021496,-0.001805,59.065826,6.367004,-148.543259,,,
729863065.319348,1.413602,5.368297,54.71101,-0.094238,0.025528,0.994629,-0.03552,0.021496,-0.001805,59.065826,6.367004,-148.543259,,,
729863065.322679,1.402865,5.378252,54.711929,-0.094238,0.025528,0.994629,-0.041919,0.030029,0.002279,59.065826,6.367004,-148.543259,,,
729863065.326005,1.402865,5.378252,54.711929,-0.094238,0.025528,0.994629,-0.041919,0.030029,0.002279,59.065826,6.367004,-148.543259,,,
729863065.329351,1.391018,5.385968,54.713924,-0.097458,0.028656,0.992325,-0.041919,0.030029,0.002279,59.065826,6.367004,-148.543259,,,
729863065.332677,1.37863,5.393375,54.716476,-0.097458,0.028656,0.992325,-0.036009,0.009672,0.006123,59.065826,6.367004,-148.543259,,,
729863065.336012,1.37863,5.393375,54.716476,-0.097458,0.028656,0.992325,-0.036009,0.009672,0.006123,59.065826,6.367004,-148.543259,,,
729863065.339344,1.368064,5.396167,54.719373,-0.102432,0.025742,0.991501,-0.036009,0.009672,0.006123,59.065826,6.367004,-148.543259,,,
729863065.342673,1.359301,5.395243,54.722433,-0.102432,0.025742,0.991501,-0.01701,-0.01233,0.006974,59.065826,6.367004,-148.543259,,,
729863065.34601,1.359301,5.395243,54.722433,-0.102432,0.025742,0.991501,-0.01701,-0.01233,0.006974,59.065826,6.367004,-148.543259,,,
729863065.3494,1.354035,5.391732,54.725132,-0.100281,0.018341,1.001755,-0.01701,-0.01233,0.006974,59.065826,6.367004,-148.543259,,,
729863065.352782,1.351971,5.385059,54.727132,-0.100281,0.018341,1.001755,0.003473,-0.01749,-0.001524,59.065826,6.367004,-148.543259,,,
729863065.35601,1.351971,5.385059,54.727132,-0.100281,0.018341,1.001755,0.003473,-0.01749,-0.001524,59.044235,6.392853,-148.238312,,,
729863065.359361,1.351489,5.379691,54.727742,-0.092911,0.01799,1.010986,0.003473,-0.01749,-0.001524,59.044235,6.392853,-148.238312,,,
729863065.362682,1.352433,5.375199,54.727537,-0.092911,0.01799,1.010986,0.002764,-0.006907,-0.000642,59.044235,6.392853,-148.238312,,,
729863065.366014,1.352433,5.375199,54.727537,-0.092911,0.01799,1.010986,0.002764,-0.006907,-0.000642,59.044235,6.392853,-148.238312,,,
729863065.369437,1.353801,5.372212,54.727452,-0.09314,0.020081,1.007935,0.002764,-0.006907,-0.000642,59.044235,6.392853,-148.238312,,,
729863065.372665,1.35527,5.371845,54.728129,-0.09314,0.020081,1.007935,0.007281,-0.003433,0.007181,59.044235,6.392853,-148.238312,,,
729863065.376089,1.35527,5.371845,54.728129,-0.09314,0.020081,1.007935,0.007281,-0.003433,0.007181,59.044235,6.392853,-148.238312,,,
729863065.379358,1.357191,5.370018,54.730191,-0.095734,0.020874,1.0047,0.007281,-0.003433,0.007181,59.044235,6.392853,-148.238312,,,
729863065.3827,1.359861,5.369445,54.732901,-0.095734,0.020874,1.0047,0.008318,-0.003422,0.008094,59.044235,6.392853,-148.238312,,,
729863065.386033,1.359861,5.369445,54.732901,-0.095734,0.020874,1.0047,0.008318,-0.003422,0.008094,59.044235,6.392853,-148.238312,,,
729863065.389418,1.361825,5.368181,54.735625,-0.092621,0.023575,1.002838,0.008318,-0.003422,0.008094,59.044235,6.392853,-148.238312,,,
729863065.39267,1.363365,5.366242,54.737584,-0.092621,0.023575,1.002838,0.004041,-0.006165,0.002467,59.044235,6.392853,-148.238312,,,
729863065.396028,1.363365,5.366242,54.737584,-0.092621,0.023575,1.002838,0.004041,-0.006165,0.002467,59.044235,6.392853,-148.238312,,,
729863065.399356,1.364063,5.363556,54.738349,-0.087631,0.028214,0.995087,0.004041,-0.006165,0.002467,58.805801,6.480286,-148.244888,,,
729863065.402677,1.364465,5.360798,54.738217,-0.087631,0.028214,0.995087,-0.002399,-0.007366,-0.00164,58.805801,6.480286,-148.244888,,,
729863065.406008,1.364465,5.360798,54.738217,-0.087631,0.028214,0.995087,-0.002399,-0.007366,-0.00164,58.805801,6.480286,-148.244888,,,
729863065.409363,1.363138,5.358192,54.737592,-0.086014,0.029785,0.991928,-0.002399,-0.007366,-0.00164,58.805801,6.480286,-148.244888,,,
729863065.412679,1.36266,5.358228,54.736684,-0.086014,0.029785,0.991928,-0.006481,8.4e-05,-0.001257,58.805801,6.480286,-148.244888,,,
729863065.416108,1.36266,5.358228,54.736684,-0.086014,0.029785,0.991928,-0.006481,8.4e-05,-0.001257,58.805801,6.480286,-148.244888,,,
729863065.419363,1.360717,5.357449,54.735972,-0.084656,0.031143,0.993576,-0.006481,8.4e-05,-0.001257,58.805801,6.480286,-148.244888,,,
729863065.422685,1.3577,5.36106,54.735543,-0.084656,0.031143,0.993576,-0.018185,0.011321,-0.007577,58.805801,6.480286,-148.244888,,,
729863065.426026,1.3577,5.36106,54.735543,-0.084656,0.031143,0.993576,-0.018185,0.011321,-0.007577,58.805801,6.480286,-148.244888,,,
729863065.429411,1.353349,5.363477,54.734856,-0.085693,0.032394,0.987564,-0.018185,0.011321,-0.007577,58.805801,6.480286,-148.244888,,,
729863065.432677,1.346885,5.368258,54.733253,-0.085693,0.032394,0.987564,-0.01142,0.00913,-0.011772,58.805801,6.480286,-148.244888,,,
729863065.436028,1.346885,5.368258,54.733253,-0.085693,0.032394,0.987564,-0.01142,0.00913,-0.011772,58.805801,6.480286,-148.244888,,,
729863065.43937,1.342844,5.370765,54.730944,-0.088928,0.034348,0.99115,-0.01142,0.00913,-0.011772,58.691269,6.311996,-148.176712,,,
729863065.442682,1.339982,5.369967,54.728388,-0.088928,0.034348,0.99115,0.005698,-0.009945,-0.009388,58.691269,6.311996,-148.176712,,,
729863065.446028,1.339982,5.369967,54.728388,-0.088928,0.034348,0.99115,0.005698,-0.009945,-0.009388,58.691269,6.311996,-148.176712,,,
729863065.44936,1.34073,5.36722,54.726012,-0.094452,0.02562,0.997849,0.005698,-0.009945,-0.009388,58.691269,6.311996,-148.176712,,,
729863065.452694,1.343098,5.361394,54.723907,-0.094452,0.02562,0.997849,0.023912,-0.028557,-0.005373,58.691269,6.311996,-148.176712,,,
729863065.456075,1.343098,5.361394,54.723907,-0.094452,0.02562,0.997849,0.023912,-0.028557,-0.005373,58.691269,6.311996,-148.176712,,,
729863065.45936,1.348632,5.35353,54.722068,-0.099106,0.024979,0.997635,0.023912,-0.028557,-0.005373,58.691269,6.311996,-148.176712,,,
729863065.462682,1.354227,5.346079,54.71995,-0.099106,0.024979,0.997635,0.021766,-0.021544,-0.007294,58.691269,6.311996,-148.176712,,,
729863065.466023,1.354227,5.346079,54.71995,-0.099106,0.024979,0.997635,0.021766,-0.021544,-0.007294,58.691269,6.311996,-148.176712,,,
729863065.469425,1.359805,5.339354,54.717776,-0.088486,0.030014,0.997238,0.021766,-0.021544,-0.007294,58.691269,6.311996,-148.176712,,,
729863065.472675,1.364848,5.334109,54.715412,-0.088486,0.030014,0.997238,0.010011,-0.002209,-0.014186,58.691269,6.311996,-148.176712,,,
729863065.476024,1.364848,5.334109,54.715412,-0.088486,0.030014,0.997238,0.010011,-0.002209,-0.014186,58.691269,6.311996,-148.176712,,,
729863065.479352,1.368222,5.332255,54.712307,-0.083786,0.029846,0.997269,0.010011,-0.002209,-0.014186,58.670197,6.475052,-147.998154,,,
729863065.482682,1.371265,5.330984,54.708904,-0.083786,0.029846,0.997269,0.003039,0.013948,-0.013038,58.670197,6.475052,-147.998154,,,
729863065.486026,1.371265,5.330984,54.708904,-0.083786,0.029846,0.997269,0.003039,0.013948,-0.013038,58.670197,6.475052,-147.998154,,,
729863065.48936,1.372207,5.333349,54.705405,-0.087265,0.02742,0.998764,0.003039,0.013948,-0.013038,58.670197,6.475052,-147.998154,,,
729863065.492681,1.373928,5.336011,54.702787,-0.087265,0.02742,0.998764,0.00465,0.027725,-0.004406,58.670197,6.475052,-147.998154,,,
729863065.496089,1.373928,5.336011,54.702787,-0.087265,0.02742,0.998764,0.00465,0.027725,-0.004406,58.670197,6.475052,-147.998154,,,
729863065.499363,1.374581,5.342566,54.701528,-0.091751,0.026199,1.002365,0.00465,0.027725,-0.004406,58.670197,6.475052,-147.998154,,,
729863065.502673,1.377461,5.346945,54.701376,-0.091751,0.026199,1.002365,0.001367,0.021841,0.002277,58.670197,6.475052,-147.998154,,,
729863065.506028,1.377461,5.346945,54.701376,-0.091751,0.026199,1.002365,0.001367,0.021841,0.002277,58.670197,6.475052,-147.998154,,,
729863065.509407,1.377836,5.353175,54.701775,-0.093307,0.025314,0.996933,0.001367,0.021841,0.002277,58.670197,6.475052,-147.998154,,,
729863065.512669,1.379076,5.35529,54.702691,-0.093307,0.025314,0.996933,-0.005629,0.001237,-6.7e-05,58.670197,6.475052,-147.998154,,,
729863065.516035,1.379076,5.35529,54.702691,-0.093307,0.025314,0.996933,-0.005629,0.001237,-6.7e-05,58.670197,6.475052,-147.998154,,,
729863065.51934,1.377618,5.355967,54.703213,-0.08728,0.026871,0.985489,-0.005629,0.001237,-6.7e-05,58.665039,6.378418,-148.429001,,,
729863065.522672,1.377024,5.351915,54.702363,-0.08728,0.026871,0.985489,-0.00998,-0.021956,-0.012367,58.665039,6.378418,-148.429001,,,
729863065.526016,1.377024,5.351915,54.702363,-0.08728,0.026871,0.985489,-0.00998,-0.021956,-0.012367,58.665039,6.378418,-148.429001,,,
729863065.529341,1.374152,5.345617,54.69987,-0.077454,0.027588,0.982361,-0.00998,-0.021956,-0.012367,58.665039,6.378418,-148.429001,,,
729863065.532674,1.371474,5.337728,54.695185,-0.077454,0.027588,0.982361,-0.008627,-0.033938,-0.028529,58.665039,6.378418,-148.429001,,,
729863065.536077,1.371474,5.337728,54.695185,-0.077454,0.027588,0.982361,-0.008627,-0.033938,-0.028529,58.665039,6.378418,-148.429001,,,
729863065.53935,1.368619,5.327714,54.688134,-0.07222,0.020264,0.989822,-0.008627,-0.033938,-0.028529,58.665039,6.378418,-148.429001,,,
729863065.542718,1.366874,5.320042,54.679111,-0.07222,0.020264,0.989822,-0.000328,-0.021834,-0.037507,58.665039,6.378418,-148.429001,,,
729863065.54604,1.366874,5.320042,54.679111,-0.07222,0.020264,0.989822,-0.000328,-0.021834,-0.037507,58.665039,6.378418,-148.429001,,,
729863065.549442,1.365777,5.312826,54.668624,-0.071671,0.017059,1.002045,-0.000328,-0.021834,-0.037507,58.665039,6.378418,-148.429001,,,
729863065.552675,1.367511,5.305701,54.657606,-0.071671,0.017059,1.002045,0.016865,-0.005563,-0.034653,58.665039,6.378418,-148.429001,,,
729863065.556026,1.367511,5.305701,54.657606,-0.071671,0.017059,1.002045,0.016865,-0.005563,-0.034653,58.665039,6.378418,-148.429001,,,
729863065.55936,1.370393,5.303414,54.646867,-0.077744,0.014465,1.014069,0.016865,-0.005563,-0.034653,58.665039,6.378418,-148.429001,,,
729863065.562683,1.377434,5.301272,54.637134,-0.077744,0.014465,1.014069,0.032809,0.012326,-0.027522,58.6297,6.29808,-148.222778,,,
729863065.566031,1.377434,5.301272,54.637134,-0.077744,0.014465,1.014069,0.032809,0.012326,-0.027522,58.6297,6.29808,-148.222778,,,
729863065.569358,1.384895,5.304022,54.628224,-0.090317,0.010651,1.015381,0.032809,0.012326,-0.027522,58.6297,6.29808,-148.222778,,,
729863065.572682,1.393911,5.306331,54.620514,-0.090317,0.010651,1.015381,0.032819,0.017824,-0.022286,58.6297,6.29808,-148.222778,,,
729863065.576092,1.393911,5.306331,54.620514,-0.090317,0.010651,1.015381,0.032819,0.017824,-0.022286,58.6297,6.29808,-148.222778,,,
729863065.579358,1.402241,5.31051,54.613954,-0.094193,0.014069,1.002731,0.032819,0.017824,-0.022286,58.6297,6.29808,-148.222778,,,
729863065.582684,1.40997,5.314134,54.607666,-0.094193,0.014069,1.002731,0.018394,0.003937,-0.02211,58.6297,6.29808,-148.222778,,,
729863065.586014,1.40997,5.314134,54.607666,-0.094193,0.014069,1.002731,0.018394,0.003937,-0.02211,58.6297,6.29808,-148.222778,,,
729863065.589424,1.415072,5.315548,54.601155,-0.092926,0.021927,0.98172,0.018394,0.003937,-0.02211,58.6297,6.29808,-148.222778,,,
729863065.592674,1.417343,5.314524,54.594124,-0.092926,0.021927,0.98172,-0.000876,-0.00645,-0.027488,58.6297,6.29808,-148.222778,,,
729863065.596014,1.417343,5.314524,54.594124,-0.092926,0.021927,0.98172,-0.000876,-0.00645,-0.027488,58.6297,6.29808,-148.222778,,,
729863065.599371,1.416804,5.312231,54.586552,-0.090714,0.025009,0.970474,-0.000876,-0.00645,-0.027488,58.6297,6.29808,-148.222778,,,
729863065.60268,1.414443,5.306516,54.579089,-0.090714,0.025009,0.970474,-0.01473,-0.018061,-0.026703,58.629364,6.102158,-148.160309,,,
729863065.606036,1.414443,5.306516,54.579089,-0.090714,0.025009,0.970474,-0.01473,-0.018061,-0.026703,58.629364,6.102158,-148.160309,,,
729863065.609362,1.409739,5.301169,54.571998,-0.096466,0.024567,0.972778,-0.01473,-0.018061,-0.026703,58.629364,6.102158,-148.160309,,,
729863065.612681,1.40549,5.289128,54.565115,-0.096466,0.024567,0.972778,-0.007824,-0.027286,-0.028714,58.629364,6.102158,-148.160309,,,
729863065.616089,1.40549,5.289128,54.565115,-0.096466,0.024567,0.972778,-0.007824,-0.027286,-0.028714,58.629364,6.102158,-148.160309,,,
729863065.619334,1.401544,5.28069,54.557798,-0.093948,0.024185,0.979401,-0.007824,-0.027286,-0.028714,58.629364,6.102158,-148.160309,,,
729863065.622677,1.396984,5.266266,54.550197,-0.093948,0.024185,0.979401,-0.003049,-0.019446,-0.030745,58.629364,6.102158,-148.160309,,,
729863065.626005,1.396984,5.266266,54.550197,-0.093948,0.024185,0.979401,-0.003049,-0.019446,-0.030745,58.629364,6.102158,-148.160309,,,
729863065.629407,1.394437,5.259838,54.541995,-0.094223,0.021729,0.989731,-0.003049,-0.019446,-0.030745,58.629364,6.102158,-148.160309,,,
729863065.63267,1.390274,5.250225,54.533773,-0.094223,0.021729,0.989731,-0.003737,0.003586,-0.026551,58.629364,6.102158,-148.160309,,,
729863065.636024,1.390274,5.250225,54.533773,-0.094223,0.021729,0.989731,-0.003737,0.003586,-0.026551,58.629364,6.102158,-148.160309,,,
729863065.63935,1.387507,5.24952,54.526325,-0.095276,0.019363,0.989792,-0.003737,0.003586,-0.026551,58.629364,6.102158,-148.160309,,,
729863065.642677,1.382812,5.247276,54.520493,-0.095276,0.019363,0.989792,-0.004447,0.016862,-0.016438,58.6026,6.063599,-148.400269,,,
729863065.64602,1.382812,5.247276,54.520493,-0.095276,0.019363,0.989792,-0.004447,0.016862,-0.016438,58.6026,6.063599,-148.400269,,,
729863065.649345,1.380962,5.250617,54.515484,-0.099213,0.019806,0.990875,-0.004447,0.016862,-0.016438,58.6026,6.063599,-148.400269,,,
729863065.652531,1.376676,5.255268,54.510912,-0.099213,0.019806,0.990875,-0.005518,0.029016,-0.018319,58.6026,6.063599,-148.400269,,,
729863065.656097,1.376676,5.255268,54.510912,-0.099213,0.019806,0.990875,-0.005518,0.029016,-0.018319,58.6026,6.063599,-148.400269,,,
729863065.659343,1.37491,5.262001,54.506434,-0.104111,0.021088,0.99765,-0.005518,0.029016,-0.018319,58.6026,6.063599,-148.400269,,,
729863065.662679,1.370711,5.271033,54.501685,-0.104111,0.021088,0.99765,-0.007408,0.033522,-0.019315,58.6026,6.063599,-148.400269,,,
729863065.666023,1.370711,5.271033,54.501685,-0.104111,0.021088,0.99765,-0.007408,0.033522,-0.019315,58.6026,6.063599,-148.400269,,,
729863065.669404,1.367485,5.279767,54.497024,-0.108124,0.020508,0.992462,-0.007408,0.033522,-0.019315,58.6026,6.063599,-148.400269,,,
729863065.67267,1.363893,5.287842,54.493049,-0.108124,0.020508,0.992462,-0.00966,0.015796,-0.008658,58.6026,6.063599,-148.400269,,,
729863065.676009,1.363893,5.287842,54.493049,-0.108124,0.020508,0.992462,-0.00966,0.015796,-0.008658,58.6026,6.063599,-148.400269,,,
729863065.679351,1.360729,5.292757,54.490785,-0.112595,0.023621,0.987701,-0.00966,0.015796,-0.008658,58.6026,6.063599,-148.400269,,,
729863065.682669,1.360729,5.293787,54.489993,-0.112595,0.023621,0.987701,0.000916,-0.016849,0.002702,58.764206,6.189713,-148.259888,,,
729863065.686025,1.359444,5.293787,54.489993,-0.112595,0.023621,0.987701,0.000916,-0.016849,0.002702,58.764206,6.189713,-148.259888,,,
729863065.689383,1.359247,5.289341,54.489551,-0.118301,0.023102,0.993851,0.000916,-0.016849,0.002702,58.764206,6.189713,-148.259888,,,
729863065.692673,1.360579,5.282682,54.490005,-0.118301,0.023102,0.993851,0.00996,-0.039558,0.002201,58.764206,6.189713,-148.259888,,,
729863065.69609,1.360579,5.282682,54.490005,-0.118301,0.023102,0.993851,0.00996,-0.039558,0.002201,58.764206,6.189713,-148.259888,,,
729863065.699345,1.363333,5.271513,54.491321,-0.114899,0.017441,0.996658,0.00996,-0.039558,0.002201,58.764206,6.189713,-148.259888,,,
729863065.702689,1.363333,5.271513,54.493114,-0.114899,0.017441,0.996658,0.025891,-0.042958,0.012149,58.764206,6.189713,-148.259888,,,
729863065.706023,1.368068,5.260173,54.493114,-0.114899,0.017441,0.996658,0.025891,-0.042958,0.012149,58.764206,6.189713,-148.259888,,,
729863065.709436,1.375085,5.247248,54.496276,-0.107452,0.017303,1.007751,0.025891,-0.042958,0.012149,58.764206,6.189713,-148.259888,,,
729863065.712668,1.383432,5.235256,54.500782,-0.107452,0.017303,1.007751,0.035323,-0.035088,0.020503,58.764206,6.189713,-148.259888,,,
729863065.716045,1.383432,5.235256,54.500782,-0.107452,0.017303,1.007751,0.035323,-0.035088,0.020503,58.764206,6.189713,-148.259888,,,
729863065.719352,1.393608,5.223805,54.506232,-0.098618,0.022659,1.008423,0.035323,-0.035088,0.020503,58.764206,6.189713,-148.259888,,,
729863065.722693,1.402366,5.216585,54.511621,-0.098618,0.022659,1.008423,0.027482,-0.012303,0.014052,58.764206,6.189713,-148.259888,,,
729863065.726044,1.402366,5.216585,54.511621,-0.098618,0.022659,1.008423,0.027482,-0.012303,0.014052,58.47641,6.075363,-148.482468,,,
729863065.729494,1.410683,5.211008,54.515697,-0.082382,0.027481,1.005234,0.027482,-0.012303,0.014052,58.47641,6.075363,-148.482468,,,
729863065.73268,1.410683,5.211008,54.518107,-0.082382,0.027481,1.005234,0.012719,0.011566,0.005078,58.47641,6.075363,-148.482468,,,
729863065.736086,1.41629,5.212581,54.518107,-0.082382,0.027481,1.005234,0.012719,0.011566,0.005078,58.47641,6.075363,-148.482468,,,
729863065.739362,1.420971,5.214569,54.519717,-0.081314,0.026794,0.997726,0.012719,0.011566,0.005078,58.47641,6.075363,-148.482468,,,
729863065.742751,1.423112,5.222377,54.520631,-0.081314,0.026794,0.997726,0.003793,0.012821,0.006629,58.47641,6.075363,-148.482468,,,
729863065.74601,1.423112,5.222377,54.520631,-0.081314,0.026794,0.997726,0.003793,0.012821,0.006629,58.47641,6.075363,-148.482468,,,
729863065.749351,1.42417,5.225455,54.52199,-0.087265,0.028717,0.992126,0.003793,0.012821,0.006629,58.47641,6.075363,-148.482468,,,
729863065.7527,1.42417,5.225455,54.52199,-0.087265,0.028717,0.992126,-0.008016,0.006912,0.00426,58.47641,6.075363,-148.482468,,,
729863065.756015,1.422645,5.233306,54.524095,-0.087265,0.028717,0.992126,-0.008016,0.006912,0.00426,58.47641,6.075363,-148.482468,,,
729863065.759361,1.420682,5.234675,54.526332,-0.086456,0.030273,0.983459,-0.008016,0.006912,0.00426,58.47641,6.075363,-148.482468,,,
729863065.762754,1.420682,5.243257,54.5272,-0.086456,0.030273,0.983459,-0.012755,0.012264,-0.008968,58.47641,6.075363,-148.482468,,,
729863065.766004,1.417476,5.243257,54.5272,-0.086456,0.030273,0.983459,-0.012755,0.012264,-0.008968,58.814423,6.040543,-148.259201,,,
729863065.769349,1.413742,5.246049,54.52639,-0.083847,0.033676,0.992004,-0.012755,0.012264,-0.008968,58.814423,6.040543,-148.259201,,,
729863065.772728,1.413742,5.246049,54.52639,-0.083847,0.033676,0.992004,-0.007334,0.024153,-0.00861,58.814423,6.040543,-148.259201,,,
729863065.77602,1.409419,5.258294,54.52406,-0.083847,0.033676,0.992004,-0.007334,0.024153,-0.00861,58.814423,6.040543,-148.259201,,,
729863065.77943,1.407075,5.263649,54.521978,-0.092438,0.026566,1.002884,-0.007334,0.024153,-0.00861,58.814423,6.040543,-148.259201,,,
729863065.782706,1.407075,5.263649,54.521978,-0.092438,0.026566,1.002884,-0.007334,0.024153,-0.00861,58.814423,6.040543,-148.259201,,,
729863065.786081,1.404559,5.276048,54.520718,-0.092438,0.026566,1.002884,0.000976,0.023657,0.000338,58.814423,6.040543,-148.259201,,,
729863065.789367,1.404169,5.281709,54.520662,-0.09671,0.026566,1.003082,0.000976,0.023657,0.000338,58.814423,6.040543,-148.259201,,,
729863065.792755,1.404169,5.281709,54.520662,-0.09671,0.026566,1.003082,0.000976,0.023657,0.000338,58.814423,6.040543,-148.259201,,,
729863065.796021,1.402276,5.290578,54.520842,-0.09671,0.026566,1.003082,0.001332,0.013823,-0.001956,58.814423,6.040543,-148.259201,,,
729863065.799346,1.4017,5.294779,54.520639,-0.098206,0.026657,0.998383,0.001332,0.013823,-0.001956,58.814423,6.040543,-148.259201,,,
729863065.802714,1.4017,5.294779,54.520639,-0.098206,0.026657,0.998383,0.001332,0.013823,-0.001956,58.814423,6.040543,-148.259201,,,
729863065.806016,1.401787,5.296807,54.51993,-0.098206,0.026657,0.998383,0.00968,-0.006294,0.000108,58.810913,6.036026,-148.362152,,,
729863065.809353,1.403669,5.295146,54.519491,-0.101303,0.021942,0.993454,0.00968,-0.006294,0.000108,58.810913,6.036026,-148.362152,,,
729863065.812757,1.403669,5.295146,54.519491,-0.101303,0.021942,0.993454,0.00968,-0.006294,0.000108,58.810913,6.036026,-148.362152,,,
729863065.816026,1.407311,5.286861,54.51998,-0.101303,0.021942,0.993454,0.010677,-0.018951,0.002733,58.810913,6.036026,-148.362152,,,
729863065.819342,1.410845,5.280825,54.521144,-0.100388,0.019745,0.994858,0.010677,-0.018951,0.002733,58.810913,6.036026,-148.362152,,,
729863065.822691,1.410845,5.280825,54.521144,-0.100388,0.019745,0.994858,0.010677,-0.018951,0.002733,58.810913,6.036026,-148.362152,,,
729863065.826092,1.414814,5.271822,54.522917,-0.100388,0.019745,0.994858,0.010106,-0.018699,0.008875,58.810913,6.036026,-148.362152,,,
729863065.829339,1.417881,5.26602,54.524896,-0.09613,0.024994,0.995392,0.010106,-0.018699,0.008875,58.810913,6.036026,-148.362152,,,
729863065.832688,1.417881,5.26602,54.524896,-0.09613,0.024994,0.995392,0.010106,-0.018699,0.008875,58.810913,6.036026,-148.362152,,,
729863065.836037,1.421447,5.260417,54.526986,-0.09613,0.024994,0.995392,0.00717,-0.006471,0.002713,58.810913,6.036026,-148.362152,,,
729863065.83935,1.423979,5.257655,54.528665,-0.0914,0.026031,0.998276,0.00717,-0.006471,0.002713,58.810913,6.036026,-148.362152,,,
729863065.842722,1.423979,5.257655,54.528665,-0.0914,0.026031,0.998276,0.00717,-0.006471,0.002713,58.810913,6.036026,-148.362152,,,
729863065.846014,1.428478,5.255038,54.529805,-0.0914,0.026031,0.998276,0.008962,0.00775,0.001136,58.810913,6.036026,-148.362152,,,
729863065.849378,1.431322,5.256065,54.530319,-0.089035,0.023468,1.003128,0.008962,0.00775,0.001136,58.558151,6.117645,-148.168106,,,
729863065.852742,1.431322,5.256065,54.530319,-0.089035,0.023468,1.003128,0.008962,0.00775,0.001136,58.558151,6.117645,-148.168106,,,
729863065.85602,1.435451,5.256128,54.530576,-0.089035,0.023468,1.003128,0.007156,0.011923,0.001194,58.558151,6.117645,-148.168106,,,
729863065.859352,1.43762,5.258583,54.531011,-0.090225,0.024017,0.99794,0.007156,0.011923,0.001194,58.558151,6.117645,-148.168106,,,
729863065.862769,1.43762,5.258583,54.531011,-0.090225,0.024017,0.99794,0.007156,0.011923,0.001194,58.558151,6.117645,-148.168106,,,
729863065.866025,1.439302,5.26183,54.531768,-0.090225,0.024017,0.99794,0.004446,0.00933,0.004266,58.558151,6.117645,-148.168106,,,
729863065.869356,1.440545,5.263863,54.532775,-0.091415,0.026993,0.990784,0.004446,0.00933,0.004266,58.558151,6.117645,-148.168106,,,
729863065.872729,1.440545,5.263863,54.532775,-0.091415,0.026993,0.990784,0.004446,0.00933,0.004266,58.558151,6.117645,-148.168106,,,
729863065.876072,1.44195,5.265467,54.533612,-0.091415,0.026993,0.990784,0.006588,-0.004673,-0.00094,58.558151,6.117645,-148.168106,,,
729863065.879343,1.443531,5.264171,54.534543,-0.091766,0.026428,0.991898,0.006588,-0.004673,-0.00094,58.558151,6.117645,-148.168106,,,
729863065.882687,1.443531,5.264171,54.534543,-0.091766,0.026428,0.991898,0.006588,-0.004673,-0.00094,58.558151,6.117645,-148.168106,,,
729863065.886022,1.4467,5.263977,54.535156,-0.091766,0.026428,0.991898,0.009805,-0.009205,-0.000368,58.558151,6.117645,-148.168106,,,
729863065.889352,1.45006,5.260933,54.535149,-0.092148,0.025772,0.992462,0.009805,-0.009205,-0.000368,58.648865,6.106216,-148.451172,,,
729863065.892692,1.45006,5.260933,54.535149,-0.092148,0.025772,0.992462,0.009805,-0.009205,-0.000368,58.648865,6.106216,-148.451172,,,
729863065.896019,1.451285,5.260996,54.535687,-0.092148,0.025772,0.992462,0.005136,-0.009696,0.006891,58.648865,6.106216,-148.451172,,,
729863065.899348,1.452466,5.257682,54.537509,-0.090591,0.026306,0.983963,0.005136,-0.009696,0.006891,58.648865,6.106216,-148.451172,,,
729863065.902698,1.452466,5.257682,54.537509,-0.090591,0.026306,0.983963,0.005136,-0.009696,0.006891,58.648865,6.106216,-148.451172,,,
729863065.906038,1.451587,5.257301,54.540205,-0.090591,0.026306,0.983963,-0.009839,0.006412,0.010113,58.648865,6.106216,-148.451172,,,
729863065.909355,1.44952,5.257003,54.543527,-0.085861,0.029877,0.983246,-0.009839,0.006412,0.010113,58.648865,6.106216,-148.451172,,,
729863065.91278,1.44952,5.257003,54.543527,-0.085861,0.029877,0.983246,-0.009839,0.006412,0.010113,58.648865,6.106216,-148.451172,,,
729863065.916001,1.445312,5.261186,54.546328,-0.085861,0.029877,0.983246,-0.014725,0.027614,0.002582,58.648865,6.106216,-148.451172,,,
729863065.919354,1.440672,5.267954,54.547749,-0.07843,0.031509,0.990952,-0.014725,0.027614,0.002582,58.648865,6.106216,-148.451172,,,
729863065.922689,1.440672,5.267954,54.547749,-0.07843,0.031509,0.990952,-0.014725,0.027614,0.002582,58.648865,6.106216,-148.451172,,,
729863065.926077,1.437246,5.276227,54.547958,-0.07843,0.031509,0.990952,-0.006709,0.032124,-0.005819,58.648865,6.106216,-148.451172,,,
729863065.929342,1.434949,5.285301,54.547203,-0.080963,0.025238,0.999954,-0.006709,0.032124,-0.005819,58.469986,6.132462,-148.293869,,,
729863065.932692,1.434949,5.285301,54.547203,-0.080963,0.025238,0.999954,-0.006709,0.032124,-0.005819,58.469986,6.132462,-148.293869,,,
729863065.93602,1.433269,5.292956,54.545575,-0.080963,0.025238,0.999954,0.000801,0.03007,-0.008481,58.469986,6.132462,-148.293869,,,
729863065.939353,1.433213,5.301328,54.543264,-0.085556,0.020035,1.002838,0.000801,0.03007,-0.008481,58.469986,6.132462,-148.293869,,,
729863065.942693,1.433213,5.301328,54.543264,-0.085556,0.020035,1.002838,0.000801,0.03007,-0.008481,58.469986,6.132462,-148.293869,,,
729863065.946033,1.43396,5.308279,54.540731,-0.085556,0.020035,1.002838,0.005385,0.021055,-0.012936,58.469986,6.132462,-148.293869,,,
729863065.949351,1.435336,5.313609,54.538013,-0.090622,0.020996,1.000122,0.005385,0.021055,-0.012936,58.469986,6.132462,-148.293869,,,
729863065.952674,1.435336,5.313609,54.538013,-0.090622,0.020996,1.000122,0.005385,0.021055,-0.012936,58.469986,6.132462,-148.293869,,,
729863065.956023,1.43763,5.316693,54.535761,-0.090622,0.020996,1.000122,0.009017,0.007364,-0.002591,58.469986,6.132462,-148.293869,,,
729863065.959352,1.439204,5.318215,54.535289,-0.099243,0.022385,0.991348,0.009017,0.007364,-0.002591,58.469986,6.132462,-148.293869,,,
729863065.962764,1.439204,5.318215,54.535289,-0.099243,0.022385,0.991348,0.009017,0.007364,-0.002591,58.469986,6.132462,-148.293869,,,
729863065.966017,1.440042,5.318085,54.536716,-0.099243,0.022385,0.991348,-0.003392,-0.002093,0.009296,58.469986,6.132462,-148.293869,,,
729863065.969344,1.439753,5.316582,54.539376,-0.103333,0.02359,0.982315,-0.003392,-0.002093,0.009296,58.628448,6.178543,-148.411102,,,
729863065.972682,1.439753,5.316582,54.539376,-0.103333,0.02359,0.982315,-0.003392,-0.002093,0.009296,58.628448,6.178543,-148.411102,,,
729863065.976068,1.438944,5.313148,54.543978,-0.103333,0.02359,0.982315,-0.00732,-0.016955,0.021342,58.628448,6.178543,-148.411102,,,
729863065.979348,1.437826,5.307474,54.550013,-0.097198,0.02655,0.978378,-0.00732,-0.016955,0.021342,58.628448,6.178543,-148.411102,,,
729863065.982692,1.437826,5.307474,54.550013,-0.097198,0.02655,0.978378,-0.00732,-0.016955,0.021342,58.628448,6.178543,-148.411102,,,
729863065.986025,1.436492,5.299849,54.556044,-0.097198,0.02655,0.978378,-0.006918,-0.020946,0.017362,58.628448,6.178543,-148.411102,,,
729863065.989443,1.43444,5.292264,54.561575,-0.085968,0.02681,0.980682,-0.006918,-0.020946,0.017362,58.628448,6.178543,-148.411102,,,
729863065.992707,1.43444,5.292264,54.561575,-0.085968,0.02681,0.980682,-0.006918,-0.020946,0.017362,58.628448,6.178543,-148.411102,,,
729863065.996054,1.433624,5.282911,54.566477,-0.085968,0.02681,0.980682,-0.008345,-0.01659,0.011728,58.628448,6.178543,-148.411102,,,
729863065.999348,1.431294,5.276885,54.5708,-0.078537,0.023514,0.983124,-0.008345,-0.01659,0.011728,58.628448,6.178543,-148.411102,,,
729863066.0028,1.431294,5.276885,54.5708,-0.078537,0.023514,0.983124,-0.008345,-0.01659,0.011728,58.628448,6.178543,-148.411102,,,
729863066.006012,1.42982,5.269109,54.574441,-0.078537,0.023514,0.983124,-0.013937,0.006157,0.003699,58.628448,6.178543,-148.411102,,,
729863066.009349,1.426068,5.269037,54.577192,-0.074951,0.026794,0.989456,-0.013937,0.006157,0.003699,58.628448,6.178543,-148.411102,,,
729863066.012693,1.426068,5.269037,54.577192,-0.074951,0.026794,0.989456,-0.013937,0.006157,0.003699,58.683594,5.94342,-148.563461,,,
729863066.016074,1.420521,5.269667,54.578625,-0.074951,0.026794,0.989456,-0.022167,0.032425,-0.003761,58.683594,5.94342,-148.563461,,,
729863066.01939,1.414322,5.277162,54.578581,-0.071594,0.026978,0.995056,-0.022167,0.032425,-0.003761,58.683594,5.94342,-148.563461,,,
729863066.02271,1.414322,5.277162,54.578581,-0.071594,0.026978,0.995056,-0.022167,0.032425,-0.003761,58.683594,5.94342,-148.563461,,,
729863066.026038,1.406331,5.286261,54.577873,-0.071594,0.026978,0.995056,-0.025474,0.046122,-0.007666,58.683594,5.94342,-148.563461,,,
729863066.029355,1.398293,5.298877,54.577123,-0.078568,0.020935,0.995544,-0.025474,0.046122,-0.007666,58.683594,5.94342,-148.563461,,,
729863066.032696,1.398293,5.298877,54.577123,-0.078568,0.020935,0.995544,-0.025474,0.046122,-0.007666,58.683594,5.94342,-148.563461,,,
729863066.036021,1.39018,5.310206,54.57662,-0.078568,0.020935,0.995544,-0.020391,0.028468,-0.00459,58.683594,5.94342,-148.563461,,,
729863066.039344,1.384286,5.317919,54.576466,-0.091492,0.021423,0.996796,-0.020391,0.028468,-0.00459,58.683594,5.94342,-148.563461,,,
729863066.04268,1.384286,5.317919,54.576466,-0.091492,0.021423,0.996796,-0.020391,0.028468,-0.00459,58.683594,5.94342,-148.563461,,,
729863066.04602,1.379237,5.323919,54.576649,-0.091492,0.021423,0.996796,-0.010987,-0.004404,-0.001092,58.683594,5.94342,-148.563461,,,
729863066.049343,1.376076,5.322618,54.576814,-0.091507,0.020782,0.995575,-0.010987,-0.004404,-0.001092,58.683594,5.94342,-148.563461,,,
729863066.052678,1.376076,5.322618,54.576814,-0.091507,0.020782,0.995575,-0.010987,-0.004404,-0.001092,58.822952,6.147964,-148.193069,,,
729863066.056037,1.374023,5.320555,54.576648,-0.091507,0.020782,0.995575,-0.000797,-0.032804,-0.003041,58.822952,6.147964,-148.193069,,,
729863066.059342,1.372465,5.312093,54.575891,-0.086899,0.01828,0.993912,-0.000797,-0.032804,-0.003041,58.822952,6.147964,-148.193069,,,
729863066.062685,1.372465,5.312093,54.575891,-0.086899,0.01828,0.993912,-0.000797,-0.032804,-0.003041,58.822952,6.147964,-148.193069,,,
729863066.066118,1.373063,5.303488,54.574178,-0.086899,0.01828,0.993912,0.0017,-0.03407,-0.010626,58.822952,6.147964,-148.193069,,,
729863066.069348,1.37331,5.293588,54.571957,-0.082474,0.022949,0.997894,0.0017,-0.03407,-0.010626,58.822952,6.147964,-148.193069,,,
729863066.072705,1.37331,5.293588,54.571957,-0.082474,0.022949,0.997894,0.0017,-0.03407,-0.010626,58.822952,6.147964,-148.193069,,,
729863066.076046,1.373195,5.282595,54.569745,-0.082474,0.022949,0.997894,-0.00431,-0.013722,-0.012814,58.822952,6.147964,-148.193069,,,
729863066.079351,1.371822,5.276962,54.567721,-0.078705,0.023148,0.999863,-0.00431,-0.013722,-0.012814,58.822952,6.147964,-148.193069,,,
729863066.082698,1.371822,5.276962,54.567721,-0.078705,0.023148,0.999863,-0.00431,-0.013722,-0.012814,58.822952,6.147964,-148.193069,,,
729863066.086033,1.370185,5.269775,54.565562,-0.078705,0.023148,0.999863,-0.002475,-0.004506,-0.011813,58.822952,6.147964,-148.193069,,,
729863066.089351,1.369266,5.268028,54.562864,-0.07637,0.022583,0.997971,-0.002475,-0.004506,-0.011813,58.822952,6.147964,-148.193069,,,
729863066.092724,1.369266,5.268028,54.562864,-0.07637,0.022583,0.997971,-0.002475,-0.004506,-0.011813,58.577408,6.128189,-148.489761,,,
729863066.096027,1.369839,5.261427,54.56014,-0.07637,0.022583,0.997971,0.00719,0.000636,-0.013949,58.577408,6.128189,-148.489761,,,
729863066.099357,1.370585,5.260936,54.556701,-0.077286,0.024963,1.001022,0.00719,0.000636,-0.013949,58.577408,6.128189,-148.489761,,,
729863066.102761,1.370585,5.260936,54.556701,-0.077286,0.024963,1.001022,0.00719,0.000636,-0.013949,58.577408,6.128189,-148.489761,,,
729863066.106045,1.372761,5.255526,54.552204,-0.077286,0.024963,1.001022,0.008855,0.006476,-0.021404,58.577408,6.128189,-148.489761,,,
729863066.109346,1.374498,5.257278,54.546511,-0.0755,0.028244,0.998184,0.008855,0.006476,-0.021404,58.577408,6.128189,-148.489761,,,
729863066.112698,1.374498,5.257278,54.546511,-0.0755,0.028244,0.998184,0.008855,0.006476,-0.021404,58.577408,6.128189,-148.489761,,,
729863066.116105,1.374323,5.257436,54.540356,-0.0755,0.028244,0.998184,-0.002764,0.024739,-0.026191,58.577408,6.128189,-148.489761,,,
729863066.11934,1.373109,5.262669,54.533469,-0.079239,0.029205,0.994812,-0.002764,0.024739,-0.026191,58.577408,6.128189,-148.489761,,,
729863066.122706,1.373109,5.262669,54.533469,-0.079239,0.029205,0.994812,-0.002764,0.024739,-0.026191,58.577408,6.128189,-148.489761,,,
