Time (sec),Pitch (deg),Roll (deg),Yaw(deg),X-Acceleration (g),Y-Acceleration (g),Z-Acceleration (g),Pitch Rate (deg/sec),Roll Rate (deg/sec),Yaw Rate (deg/sec),Magnetic Field in X direction (uT),Magnetic Field in Y direction (uT),Magnetic Field in Z Direction (uT),Latitude (deg),Longitude (deg),Altitude (m)
729861191.478279,-0.609556,4.889777,47.453851,-0.094376,-0.007889,0.97287,0.004397,0.033567,-0.003052,71.09671,12.284637,-151.237579,,,
729861191.481627,-0.616208,4.894734,47.453469,-0.094376,-0.007889,0.97287,-0.032277,0.016235,-0.004938,71.09671,12.284637,-151.237579,,,
729861191.484918,-0.616208,4.894734,47.453469,-0.094376,-0.007889,0.97287,-0.032277,0.016235,-0.004938,71.09671,12.284637,-151.237579,,,
729861191.488276,-0.627025,4.894281,47.453468,-0.095779,-0.005981,0.963425,-0.032277,0.016235,-0.004938,71.09671,12.284637,-151.237579,,,
729861191.491594,-0.643056,4.895008,47.454212,-0.095779,-0.005981,0.963425,-0.061248,0.00121,-0.002543,71.09671,12.284637,-151.237579,,,
729861191.494967,-0.643056,4.895008,47.454212,-0.095779,-0.005981,0.963425,-0.061248,0.00121,-0.002543,71.326187,12.515488,-151.098129,,,
729861191.498288,-0.661173,4.89307,47.456024,-0.100937,-0.006424,0.974533,-0.061248,0.00121,-0.002543,71.326187,12.515488,-151.098129,,,
729861191.501593,-0.682407,4.891059,47.459029,-0.100937,-0.006424,0.974533,-0.076401,-0.008192,0.004393,71.326187,12.515488,-151.098129,,,
729861191.50494,-0.682407,4.891059,47.459029,-0.100937,-0.006424,0.974533,-0.076401,-0.008192,0.004393,71.326187,12.515488,-151.098129,,,
729861191.508353,-0.703783,4.88689,47.463398,-0.104553,-0.008514,0.983887,-0.076401,-0.008192,0.004393,71.326187,12.515488,-151.098129,,,
729861191.511583,-0.725605,4.883415,47.469708,-0.104553,-0.008514,0.983887,-0.076266,-0.00932,0.01787,71.326187,12.515488,-151.098129,,,
729861191.514941,-0.725605,4.883415,47.469708,-0.104553,-0.008514,0.983887,-0.076266,-0.00932,0.01787,71.326187,12.515488,-151.098129,,,
729861191.518264,-0.745758,4.877932,47.478239,-0.106689,-0.014526,0.992188,-0.076266,-0.00932,0.01787,71.326187,12.515488,-151.098129,,,
729861191.521589,-0.763543,4.8739,47.488407,-0.106689,-0.014526,0.992188,-0.058537,-0.012771,0.030552,71.326187,12.515488,-151.098129,,,
729861191.524927,-0.763543,4.8739,47.488407,-0.106689,-0.014526,0.992188,-0.058537,-0.012771,0.030552,71.326187,12.515488,-151.098129,,,
729861191.528254,-0.777838,4.867489,47.499004,-0.100769,-0.018906,1.00267,-0.058537,-0.012771,0.030552,71.326187,12.515488,-151.098129,,,
729861191.531589,-0.787698,4.863191,47.50953,-0.100769,-0.018906,1.00267,-0.029963,-0.014319,0.032324,71.326187,12.515488,-151.098129,,,
729861191.535004,-0.787698,4.863191,47.50953,-0.100769,-0.018906,1.00267,-0.029963,-0.014319,0.032324,71.326187,12.515488,-151.098129,,,
729861191.538267,-0.794846,4.857176,47.519095,-0.088181,-0.018188,1.007919,-0.029963,-0.014319,0.032324,71.361038,12.645447,-151.144608,,,
729861191.541594,-0.796224,4.853555,47.527312,-0.088181,-0.018188,1.007919,0.001219,-0.009368,0.02528,71.361038,12.645447,-151.144608,,,
729861191.544943,-0.796224,4.853555,47.527312,-0.088181,-0.018188,1.007919,0.001219,-0.009368,0.02528,71.361038,12.645447,-151.144608,,,
729861191.548324,-0.794816,4.85003,47.534132,-0.085587,-0.021378,1.008118,0.001219,-0.009368,0.02528,71.361038,12.645447,-151.144608,,,
729861191.551576,-0.789517,4.846205,47.540032,-0.085587,-0.021378,1.008118,0.020225,-0.011648,0.020471,71.361038,12.645447,-151.144608,,,
729861191.554944,-0.789517,4.846205,47.540032,-0.085587,-0.021378,1.008118,0.020225,-0.011648,0.020471,71.361038,12.645447,-151.144608,,,
729861191.558266,-0.783143,4.843456,47.545411,-0.079529,-0.016037,0.998383,0.020225,-0.011648,0.020471,71.361038,12.645447,-151.144608,,,
729861191.561586,-0.779025,4.835501,47.55009,-0.079529,-0.016037,0.998383,0.008059,-0.030371,0.014759,71.361038,12.645447,-151.144608,,,
729861191.564946,-0.779025,4.835501,47.55009,-0.079529,-0.016037,0.998383,0.008059,-0.030371,0.014759,71.361038,12.645447,-151.144608,,,
729861191.568269,-0.77665,4.828984,47.553373,-0.069305,-0.008606,0.974564,0.008059,-0.030371,0.014759,71.361038,12.645447,-151.144608,,,
729861191.571596,-0.779316,4.816433,47.554752,-0.069305,-0.008606,0.974564,-0.015341,-0.043116,-0.000156,71.361038,12.645447,-151.144608,,,
729861191.57498,-0.779316,4.816433,47.554752,-0.069305,-0.008606,0.974564,-0.015341,-0.043116,-0.000156,71.361038,12.645447,-151.144608,,,
729861191.578272,-0.784493,4.808388,47.555125,-0.060471,-0.00235,0.965454,-0.015341,-0.043116,-0.000156,71.210373,12.905762,-151.477951,,,
729861191.581586,-0.795799,4.794355,47.55508,-0.060471,-0.00235,0.965454,-0.047308,-0.046395,-0.005175,71.210373,12.905762,-151.477951,,,
729861191.584921,-0.795799,4.794355,47.55508,-0.060471,-0.00235,0.965454,-0.047308,-0.046395,-0.005175,71.210373,12.905762,-151.477951,,,
729861191.588314,-0.810357,4.786664,47.555588,-0.055328,-0.003143,0.962341,-0.047308,-0.046395,-0.005175,71.210373,12.905762,-151.477951,,,
729861191.591587,-0.830444,4.773255,47.55641,-0.055328,-0.003143,0.962341,-0.077285,-0.040961,-0.004815,71.210373,12.905762,-151.477951,,,
729861191.594923,-0.830444,4.773255,47.55641,-0.055328,-0.003143,0.962341,-0.077285,-0.040961,-0.004815,71.210373,12.905762,-151.477951,,,
729861191.598252,-0.854345,4.769449,47.556987,-0.049255,-0.003189,0.974136,-0.077285,-0.040961,-0.004815,71.210373,12.905762,-151.477951,,,
729861191.601588,-0.881351,4.762491,47.556649,-0.049255,-0.003189,0.974136,-0.096124,-0.013132,-0.012059,71.210373,12.905762,-151.477951,,,
729861191.604935,-0.881351,4.762491,47.556649,-0.049255,-0.003189,0.974136,-0.096124,-0.013132,-0.012059,71.210373,12.905762,-151.477951,,,
729861191.608261,-0.910451,4.766606,47.55471,-0.042648,-0.008179,0.988419,-0.096124,-0.013132,-0.012059,71.210373,12.905762,-151.477951,,,
729861191.611597,-0.939528,4.769671,47.550695,-0.042648,-0.008179,0.988419,-0.099823,0.021618,-0.026249,71.210373,12.905762,-151.477951,,,
729861191.615007,-0.939528,4.769671,47.550695,-0.042648,-0.008179,0.988419,-0.099823,0.021618,-0.026249,71.210373,12.905762,-151.477951,,,
729861191.618254,-0.969006,4.77777,47.545757,-0.045059,-0.013107,0.997177,-0.099823,0.021618,-0.026249,71.41745,13.054321,-151.750809,,,
729861191.621595,-0.997436,4.784815,47.539705,-0.045059,-0.013107,0.997177,-0.093643,0.027668,-0.033406,71.41745,13.054321,-151.750809,,,
729861191.624947,-0.997436,4.784815,47.539705,-0.045059,-0.013107,0.997177,-0.093643,0.027668,-0.033406,71.41745,13.054321,-151.750809,,,
729861191.628261,-1.02395,4.791397,47.53257,-0.059647,-0.016785,1.003662,-0.093643,0.027668,-0.033406,71.41745,13.054321,-151.750809,,,
729861191.631593,-1.046766,4.797066,47.524876,-0.059647,-0.016785,1.003662,-0.071601,0.023166,-0.035488,71.41745,13.054321,-151.750809,,,
729861191.634925,-1.046766,4.797066,47.524876,-0.059647,-0.016785,1.003662,-0.071601,0.023166,-0.035488,71.41745,13.054321,-151.750809,,,
729861191.6382,-1.066578,4.802703,47.516689,-0.069458,-0.022552,1.019119,-0.071601,0.023166,-0.035488,71.41745,13.054321,-151.750809,,,
729861191.641602,-1.082866,4.809672,47.508101,-0.069458,-0.022552,1.019119,-0.047131,0.029265,-0.036278,71.41745,13.054321,-151.750809,,,
729861191.644946,-1.082866,4.809672,47.508101,-0.069458,-0.022552,1.019119,-0.047131,0.029265,-0.036278,71.41745,13.054321,-151.750809,,,
729861191.648273,-1.093955,4.81494,47.499487,-0.073166,-0.026062,1.026108,-0.047131,0.029265,-0.036278,71.41745,13.054321,-151.750809,,,
729861191.6516,-1.104341,4.824283,47.49085,-0.073166,-0.026062,1.026108,-0.031413,0.036616,-0.035512,71.41745,13.054321,-151.750809,,,
729861191.654942,-1.104341,4.824283,47.49085,-0.073166,-0.026062,1.026108,-0.031413,0.036616,-0.035512,71.41745,13.054321,-151.750809,,,
729861191.65826,-1.110373,4.827431,47.482163,-0.082458,-0.022415,1.02298,-0.031413,0.036616,-0.035512,71.623627,13.111038,-151.8452,,,
729861191.661589,-1.118658,4.834455,47.47371,-0.082458,-0.022415,1.02298,-0.024641,0.022714,-0.034114,71.623627,13.111038,-151.8452,,,
729861191.664922,-1.118658,4.834455,47.47371,-0.082458,-0.022415,1.02298,-0.024641,0.022714,-0.034114,71.623627,13.111038,-151.8452,,,
729861191.668262,-1.123242,4.830484,47.465068,-0.089401,-0.017471,1.008118,-0.024641,0.022714,-0.034114,71.623627,13.111038,-151.8452,,,
729861191.671594,-1.131675,4.831082,47.456816,-0.089401,-0.017471,1.008118,-0.027564,0.000546,-0.0327,71.623627,13.111038,-151.8452,,,
729861191.674942,-1.131675,4.831082,47.456816,-0.089401,-0.017471,1.008118,-0.027564,0.000546,-0.0327,71.623627,13.111038,-151.8452,,,
729861191.678333,-1.138136,4.820169,47.44859,-0.096924,-0.0168,1.000671,-0.027564,0.000546,-0.0327,71.623627,13.111038,-151.8452,,,
729861191.681578,-1.149816,4.817003,47.441697,-0.096924,-0.0168,1.000671,-0.041382,-0.009848,-0.025763,71.623627,13.111038,-151.8452,,,
729861191.684941,-1.149816,4.817003,47.441697,-0.096924,-0.0168,1.000671,-0.041382,-0.009848,-0.025763,71.623627,13.111038,-151.8452,,,
729861191.68826,-1.160984,4.800941,47.436248,-0.103638,-0.011902,0.995712,-0.041382,-0.009848,-0.025763,71.623627,13.111038,-151.8452,,,
729861191.69159,-1.177169,4.796094,47.432255,-0.103638,-0.011902,0.995712,-0.058884,-0.013227,-0.018688,71.623627,13.111038,-151.8452,,,
729861191.694955,-1.177169,4.796094,47.432255,-0.103638,-0.011902,0.995712,-0.058884,-0.013227,-0.018688,71.623627,13.111038,-151.8452,,,
729861191.698287,-1.193161,4.779092,47.42918,-0.101151,-0.00972,0.996735,-0.058884,-0.013227,-0.018688,71.623627,13.111038,-151.8452,,,
729861191.701593,-1.210597,4.774072,47.427284,-0.101151,-0.00972,0.996735,-0.057422,-0.014101,-0.012024,71.68042,13.280258,-151.73558,,,
729861191.705015,-1.210597,4.774072,47.427284,-0.101151,-0.00972,0.996735,-0.057422,-0.014101,-0.012024,71.68042,13.280258,-151.73558,,,
729861191.708267,-1.225591,4.761012,47.425581,-0.103806,-0.015259,1.008179,-0.057422,-0.014101,-0.012024,71.68042,13.280258,-151.73558,,,
729861191.711595,-1.239271,4.757472,47.423915,-0.103806,-0.015259,1.008179,-0.041475,-0.004758,-0.011645,71.68042,13.280258,-151.73558,,,
729861191.714937,-1.239271,4.757472,47.423915,-0.103806,-0.015259,1.008179,-0.041475,-0.004758,-0.011645,71.68042,13.280258,-151.73558,,,
729861191.718326,-1.249618,4.752403,47.421515,-0.099731,-0.019806,1.023102,-0.041475,-0.004758,-0.011645,71.68042,13.280258,-151.73558,,,
729861191.721575,-1.256702,4.755533,47.420221,-0.099731,-0.019806,1.023102,-0.017274,0.020234,-0.002614,71.68042,13.280258,-151.73558,,,
729861191.724938,-1.256702,4.755533,47.420221,-0.099731,-0.019806,1.023102,-0.017274,0.020234,-0.002614,71.68042,13.280258,-151.73558,,,
729861191.728337,-1.260588,4.758997,47.420752,-0.103271,-0.026611,1.034195,-0.017274,0.020234,-0.002614,71.68042,13.280258,-151.73558,,,
729861191.73159,-1.260377,4.768881,47.423619,-0.103271,-0.026611,1.034195,0.006124,0.040877,0.015116,71.68042,13.280258,-151.73558,,,
729861191.734942,-1.260377,4.768881,47.423619,-0.103271,-0.026611,1.034195,0.006124,0.040877,0.015116,71.68042,13.280258,-151.73558,,,
729861191.738272,-1.257448,4.779332,47.429291,-0.111755,-0.025848,1.027084,0.006124,0.040877,0.015116,71.68042,13.280258,-151.73558,,,
729861191.741593,-1.251554,4.791876,47.437295,-0.111755,-0.025848,1.027084,0.023479,0.0463,0.032605,71.604736,13.284027,-151.807404,,,
729861191.744946,-1.251554,4.791876,47.437295,-0.111755,-0.025848,1.027084,0.023479,0.0463,0.032605,71.604736,13.284027,-151.807404,,,
729861191.74826,-1.24176,4.804626,47.44692,-0.109802,-0.02272,1.018967,0.023479,0.0463,0.032605,71.604736,13.284027,-151.807404,,,
729861191.751597,-1.230124,4.815388,47.456593,-0.109802,-0.02272,1.018967,0.040605,0.036841,0.034495,71.604736,13.284027,-151.807404,,,
729861191.754997,-1.230124,4.815388,47.456593,-0.109802,-0.02272,1.018967,0.040605,0.036841,0.034495,71.604736,13.284027,-151.807404,,,
729861191.758276,-1.217426,4.826131,47.464967,-0.101562,-0.019684,1.011566,0.040605,0.036841,0.034495,71.604736,13.284027,-151.807404,,,
729861191.761596,-1.206341,4.832384,47.471637,-0.101562,-0.019684,1.011566,0.034394,0.019647,0.022358,71.604736,13.284027,-151.807404,,,
729861191.764938,-1.206341,4.832384,47.471637,-0.101562,-0.019684,1.011566,0.034394,0.019647,0.022358,71.604736,13.284027,-151.807404,,,
729861191.768338,-1.195466,4.840273,47.478151,-0.100861,-0.018524,1.003571,0.034394,0.019647,0.022358,71.604736,13.284027,-151.807404,,,
729861191.771583,-1.186376,4.844476,47.48578,-0.100861,-0.018524,1.003571,0.027835,0.015073,0.030063,71.604736,13.284027,-151.807404,,,
729861191.774937,-1.186376,4.844476,47.48578,-0.100861,-0.018524,1.003571,0.027835,0.015073,0.030063,71.604736,13.284027,-151.807404,,,
729861191.778255,-1.177616,4.849649,47.495082,-0.104156,-0.018326,0.997421,0.027835,0.015073,0.030063,71.604736,13.284027,-151.807404,,,
729861191.781588,-1.172015,4.848563,47.506953,-0.104156,-0.018326,0.997421,0.013175,-0.009311,0.04719,72.550446,13.097534,-150.504959,,,
729861191.784938,-1.172015,4.848563,47.506953,-0.104156,-0.018326,0.997421,0.013175,-0.009311,0.04719,72.550446,13.097534,-150.504959,,,
729861191.788271,-1.167445,4.845805,47.521429,-0.101242,-0.016037,0.989151,0.013175,-0.009311,0.04719,72.550446,13.097534,-150.504959,,,
729861191.791594,-1.165212,4.836305,47.536803,-0.101242,-0.016037,0.989151,0.001882,-0.036068,0.052872,72.550446,13.097534,-150.504959,,,
729861191.794945,-1.165212,4.836305,47.536803,-0.101242,-0.016037,0.989151,0.001882,-0.036068,0.052872,72.550446,13.097534,-150.504959,,,
729861191.798256,-1.163274,4.827229,47.551582,-0.087555,-0.014465,0.98909,0.001882,-0.036068,0.052872,72.550446,13.097534,-150.504959,,,
729861191.801594,-1.161287,4.814508,47.564362,-0.087555,-0.014465,0.98909,0.005453,-0.041555,0.039557,72.550446,13.097534,-150.504959,,,
729861191.804992,-1.161287,4.814508,47.564362,-0.087555,-0.014465,0.98909,0.005453,-0.041555,0.039557,72.550446,13.097534,-150.504959,,,
729861191.808263,-1.158391,4.805492,47.575098,-0.071625,-0.016861,1.004166,0.005453,-0.041555,0.039557,72.550446,13.097534,-150.504959,,,
729861191.811594,-1.153833,4.794974,47.583951,-0.071625,-0.016861,1.004166,0.013843,-0.031692,0.027502,72.550446,13.097534,-150.504959,,,
729861191.814941,-1.153833,4.794974,47.583951,-0.071625,-0.016861,1.004166,0.013843,-0.031692,0.027502,72.550446,13.097534,-150.504959,,,
729861191.81832,-1.150439,4.792336,47.591219,-0.062363,-0.019302,1.008743,0.013843,-0.031692,0.027502,72.550446,13.097534,-150.504959,,,
729861191.821588,-1.145398,4.78826,47.596908,-0.062363,-0.019302,1.008743,0.018984,-0.003439,0.017704,71.757507,13.359497,-151.407013,,,
729861191.824936,-1.145398,4.78826,47.596908,-0.062363,-0.019302,1.008743,0.018984,-0.003439,0.017704,71.757507,13.359497,-151.407013,,,
729861191.828268,-1.140402,4.795819,47.600861,-0.052856,-0.016083,1.009918,0.018984,-0.003439,0.017704,71.757507,13.359497,-151.407013,,,
729861191.831683,-1.135394,4.80422,47.602934,-0.052856,-0.016083,1.009918,0.016508,0.044138,0.005153,71.757507,13.359497,-151.407013,,,
729861191.834914,-1.135394,4.80422,47.602934,-0.052856,-0.016083,1.009918,0.016508,0.044138,0.005153,71.757507,13.359497,-151.407013,,,
729861191.838266,-1.130642,4.823444,47.603576,-0.050156,-0.017715,1.012573,0.016508,0.044138,0.005153,71.757507,13.359497,-151.407013,,,
729861191.841592,-1.124828,4.8446,47.602921,-0.050156,-0.017715,1.012573,0.02391,0.08779,-0.002738,71.757507,13.359497,-151.407013,,,
729861191.844998,-1.124828,4.8446,47.602921,-0.050156,-0.017715,1.012573,0.02391,0.08779,-0.002738,71.757507,13.359497,-151.407013,,,
729861191.84826,-1.11746,4.873392,47.602007,-0.063354,-0.020157,1.013199,0.02391,0.08779,-0.002738,71.757507,13.359497,-151.407013,,,
729861191.851588,-1.109226,4.900295,47.601303,-0.063354,-0.020157,1.013199,0.03124,0.096751,-0.000118,71.757507,13.359497,-151.407013,,,
729861191.854923,-1.109226,4.900295,47.601303,-0.063354,-0.020157,1.013199,0.03124,0.096751,-0.000118,71.757507,13.359497,-151.407013,,,
729861191.858253,-1.099606,4.929461,47.600976,-0.08197,-0.015167,0.99826,0.03124,0.096751,-0.000118,71.757507,13.359497,-151.407013,,,
729861191.861588,-1.089275,4.950536,47.600757,-0.08197,-0.015167,0.99826,0.03674,0.067511,0.001663,71.757507,13.359497,-151.407013,,,
729861191.864946,-1.089275,4.950536,47.600757,-0.08197,-0.015167,0.99826,0.03674,0.067511,0.001663,71.918655,13.238571,-151.056976,,,
729861191.868254,-1.080054,4.971185,47.600473,-0.089569,-0.009949,0.97728,0.03674,0.067511,0.001663,71.918655,13.238571,-151.056976,,,
729861191.87159,-1.074247,4.982499,47.59918,-0.089569,-0.009949,0.97728,0.016532,0.032426,-0.006632,71.918655,13.238571,-151.056976,,,
729861191.874945,-1.074247,4.982499,47.59918,-0.089569,-0.009949,0.97728,0.016532,0.032426,-0.006632,71.918655,13.238571,-151.056976,,,
729861191.878255,-1.07015,4.990329,47.597544,-0.090103,-0.007416,0.961395,0.016532,0.032426,-0.006632,71.918655,13.238571,-151.056976,,,
729861191.881588,-1.070083,4.992481,47.596569,-0.090103,-0.007416,0.961395,-0.005069,0.003965,-0.003716,71.918655,13.238571,-151.056976,,,
729861191.885015,-1.070083,4.992481,47.596569,-0.090103,-0.007416,0.961395,-0.005069,0.003965,-0.003716,71.918655,13.238571,-151.056976,,,
729861191.888255,-1.071823,4.987859,47.596227,-0.090164,-0.008743,0.95726,-0.005069,0.003965,-0.003716,71.918655,13.238571,-151.056976,,,
729861191.891596,-1.076183,4.984298,47.596358,-0.090164,-0.008743,0.95726,-0.018751,-0.014546,-0.002132,71.918655,13.238571,-151.056976,,,
729861191.894921,-1.076183,4.984298,47.596358,-0.090164,-0.008743,0.95726,-0.018751,-0.014546,-0.002132,71.918655,13.238571,-151.056976,,,
729861191.898262,-1.082386,4.970965,47.596523,-0.088684,-0.006592,0.960129,-0.018751,-0.014546,-0.002132,71.918655,13.238571,-151.056976,,,
729861191.901586,-1.090057,4.962144,47.596698,-0.088684,-0.006592,0.960129,-0.028592,-0.030981,-0.003836,71.918655,13.238571,-151.056976,,,
729861191.90493,-1.090057,4.962144,47.596698,-0.088684,-0.006592,0.960129,-0.028592,-0.030981,-0.003836,72.112366,13.016113,-151.227844,,,
729861191.908262,-1.098182,4.944262,47.595821,-0.076599,-0.010513,0.972382,-0.028592,-0.030981,-0.003836,72.112366,13.016113,-151.227844,,,
729861191.911585,-1.105898,4.939105,47.593845,-0.076599,-0.010513,0.972382,-0.022887,-0.007881,-0.012275,72.112366,13.016113,-151.227844,,,
729861191.914944,-1.105898,4.939105,47.593845,-0.076599,-0.010513,0.972382,-0.022887,-0.007881,-0.012275,72.112366,13.016113,-151.227844,,,
729861191.918263,-1.112155,4.927735,47.590346,-0.0672,-0.01712,0.992645,-0.022887,-0.007881,-0.012275,72.112366,13.016113,-151.227844,,,
729861191.921599,-1.118708,4.932339,47.585846,-0.0672,-0.01712,0.992645,-0.01976,0.026787,-0.020527,72.112366,13.016113,-151.227844,,,
729861191.924994,-1.118708,4.932339,47.585846,-0.0672,-0.01712,0.992645,-0.01976,0.026787,-0.020527,72.112366,13.016113,-151.227844,,,
729861191.92826,-1.124616,4.932951,47.580177,-0.060974,-0.020523,0.998489,-0.01976,0.026787,-0.020527,72.112366,13.016113,-151.227844,,,
729861191.931586,-1.129456,4.945411,47.573473,-0.060974,-0.020523,0.998489,-0.011594,0.050608,-0.028268,72.112366,13.016113,-151.227844,,,
729861191.93494,-1.129456,4.945411,47.573473,-0.060974,-0.020523,0.998489,-0.011594,0.050608,-0.028268,72.112366,13.016113,-151.227844,,,
729861191.938266,-1.131859,4.957385,47.565255,-0.064362,-0.026443,1.002777,-0.011594,0.050608,-0.028268,72.112366,13.016113,-151.227844,,,
729861191.941661,-1.13287,4.972889,47.556078,-0.064362,-0.026443,1.002777,0.003488,0.058668,-0.034016,72.112366,13.016113,-151.227844,,,
729861191.944916,-1.13287,4.972889,47.556078,-0.064362,-0.026443,1.002777,0.003488,0.058668,-0.034016,71.893845,13.243103,-151.568237,,,
729861191.948252,-1.129496,4.989376,47.546081,-0.077652,-0.031174,1.008728,0.003488,0.058668,-0.034016,71.893845,13.243103,-151.568237,,,
729861191.951595,-1.123725,5.003727,47.534832,-0.077652,-0.031174,1.008728,0.031843,0.051092,-0.040153,71.893845,13.243103,-151.568237,,,
729861191.954921,-1.123725,5.003727,47.534832,-0.077652,-0.031174,1.008728,0.031843,0.051092,-0.040153,71.893845,13.243103,-151.568237,,,
729861191.95829,-1.112428,5.017883,47.523178,-0.091171,-0.034393,1.014267,0.031843,0.051092,-0.040153,71.893845,13.243103,-151.568237,,,
729861191.961669,-1.101288,5.027587,47.512014,-0.091171,-0.034393,1.014267,0.046732,0.031693,-0.035107,71.893845,13.243103,-151.568237,,,
729861191.964994,-1.101288,5.027587,47.512014,-0.091171,-0.034393,1.014267,0.046732,0.031693,-0.035107,71.893845,13.243103,-151.568237,,,
729861191.968254,-1.086844,5.035798,47.501066,-0.098999,-0.028397,1.009903,0.046732,0.031693,-0.035107,71.893845,13.243103,-151.568237,,,
729861191.971691,-1.074752,5.038113,47.490056,-0.098999,-0.028397,1.009903,0.044417,0.004402,-0.035479,71.893845,13.243103,-151.568237,,,
729861191.974934,-1.074752,5.038113,47.490056,-0.098999,-0.028397,1.009903,0.044417,0.004402,-0.035479,71.893845,13.243103,-151.568237,,,
729861191.978257,-1.061262,5.038164,47.479596,-0.101227,-0.024612,0.993088,0.044417,0.004402,-0.035479,71.893845,13.243103,-151.568237,,,
729861191.981686,-1.052159,5.032972,47.470551,-0.101227,-0.024612,0.993088,0.028779,-0.021419,-0.026792,71.893845,13.243103,-151.568237,,,
729861191.984932,-1.052159,5.032972,47.470551,-0.101227,-0.024612,0.993088,0.028779,-0.021419,-0.026792,71.893845,13.243103,-151.568237,,,
729861191.988261,-1.044362,5.022463,47.463022,-0.106522,-0.017609,0.98085,0.028779,-0.021419,-0.026792,71.812103,13.032822,-151.653793,,,
729861191.99171,-1.044362,5.010484,47.456439,-0.106522,-0.017609,0.98085,0.005089,-0.042219,-0.022431,71.812103,13.032822,-151.653793,,,
729861191.994918,-1.041806,5.010484,47.456439,-0.106522,-0.017609,0.98085,0.005089,-0.042219,-0.022431,71.812103,13.032822,-151.653793,,,
729861191.99826,-1.042167,4.991849,47.45095,-0.1026,-0.011154,0.97049,0.005089,-0.042219,-0.022431,71.812103,13.032822,-151.653793,,,
729861192.001653,-1.042167,4.991849,47.45095,-0.1026,-0.011154,0.97049,0.005089,-0.042219,-0.022431,71.812103,13.032822,-151.653793,,,
729861192.004985,-1.046683,4.978509,47.446788,-0.1026,-0.011154,0.97049,-0.021576,-0.040931,-0.016123,71.812103,13.032822,-151.653793,,,
729861192.008258,-1.055454,4.95992,47.443608,-0.09726,-0.010712,0.970047,-0.021576,-0.040931,-0.016123,71.812103,13.032822,-151.653793,,,
729861192.011634,-1.055454,4.95992,47.443608,-0.09726,-0.010712,0.970047,-0.021576,-0.040931,-0.016123,71.812103,13.032822,-151.653793,,,
729861192.014936,-1.066683,4.952513,47.44209,-0.09726,-0.010712,0.970047,-0.040679,-0.014338,-0.007058,71.812103,13.032822,-151.653793,,,
729861192.018267,-1.07995,4.943555,47.441067,-0.094559,-0.014694,0.981979,-0.040679,-0.014338,-0.007058,71.812103,13.032822,-151.653793,,,
729861192.021657,-1.07995,4.943555,47.441067,-0.094559,-0.014694,0.981979,-0.040679,-0.014338,-0.007058,71.812103,13.032822,-151.653793,,,
729861192.024931,-1.091767,4.944308,47.440141,-0.094559,-0.014694,0.981979,-0.037971,0.010641,-0.006997,71.812103,13.032822,-151.653793,,,
729861192.028259,-1.104082,4.944468,47.439648,-0.094254,-0.018661,0.991821,-0.037971,0.010641,-0.006997,71.878967,13.230469,-151.469513,,,
729861192.031672,-1.104082,4.944468,47.439648,-0.094254,-0.018661,0.991821,-0.037971,0.010641,-0.006997,71.878967,13.230469,-151.469513,,,
729861192.034936,-1.112689,4.951397,47.439442,-0.094254,-0.018661,0.991821,-0.025812,0.033426,-0.004385,71.878967,13.230469,-151.469513,,,
729861192.038262,-1.122091,4.960841,47.43887,-0.088455,-0.023071,0.996353,-0.025812,0.033426,-0.004385,71.878967,13.230469,-151.469513,,,
729861192.041652,-1.122091,4.960841,47.43887,-0.088455,-0.023071,0.996353,-0.025812,0.033426,-0.004385,71.878967,13.230469,-151.469513,,,
729861192.044988,-1.125748,4.971306,47.437439,-0.088455,-0.023071,0.996353,-0.005412,0.042184,-0.00857,71.878967,13.230469,-151.469513,,,
729861192.048251,-1.128154,4.985626,47.435333,-0.087204,-0.029144,1.001434,-0.005412,0.042184,-0.00857,71.878967,13.230469,-151.469513,,,
729861192.051648,-1.128154,4.985626,47.435333,-0.087204,-0.029144,1.001434,-0.005412,0.042184,-0.00857,71.878967,13.230469,-151.469513,,,
729861192.05493,-1.125769,4.997519,47.432195,-0.087204,-0.029144,1.001434,0.014521,0.044839,-0.013639,71.878967,13.230469,-151.469513,,,
729861192.058258,-1.122362,5.013601,47.427872,-0.088226,-0.029221,1.003098,0.014521,0.044839,-0.013639,71.878967,13.230469,-151.469513,,,
729861192.061693,-1.122362,5.013601,47.427872,-0.088226,-0.029221,1.003098,0.014521,0.044839,-0.013639,71.878967,13.230469,-151.469513,,,
729861192.064934,-1.11694,5.026005,47.421724,-0.088226,-0.029221,1.003098,0.022463,0.046547,-0.025186,71.878967,13.230469,-151.469513,,,
729861192.068266,-1.111593,5.042943,47.414106,-0.091782,-0.024017,0.999664,0.022463,0.046547,-0.025186,71.874969,12.997635,-151.784378,,,
729861192.0717,-1.111593,5.042943,47.414106,-0.091782,-0.024017,0.999664,0.022463,0.046547,-0.025186,71.874969,12.997635,-151.784378,,,
729861192.074933,-1.107168,5.051481,47.405956,-0.091782,-0.024017,0.999664,0.015447,0.026374,-0.028755,71.874969,12.997635,-151.784378,,,
729861192.078256,-1.103128,5.061909,47.397902,-0.09671,-0.022263,0.982315,0.015447,0.026374,-0.028755,71.874969,12.997635,-151.784378,,,
729861192.08161,-1.103128,5.061909,47.397902,-0.09671,-0.022263,0.982315,0.015447,0.026374,-0.028755,71.874969,12.997635,-151.784378,,,
729861192.084919,-1.103142,5.063218,47.390199,-0.09671,-0.022263,0.982315,-0.004142,0.000993,-0.027275,71.874969,12.997635,-151.784378,,,
729861192.088256,-1.105527,5.065593,47.383995,-0.100082,-0.019684,0.970581,-0.004142,0.000993,-0.027275,71.874969,12.997635,-151.784378,,,
729861192.091596,-1.105527,5.065593,47.383995,-0.100082,-0.019684,0.970581,-0.004142,0.000993,-0.027275,71.874969,12.997635,-151.784378,,,
729861192.094923,-1.113629,5.061872,47.380043,-0.100082,-0.019684,0.970581,-0.03231,-0.014962,-0.013521,71.874969,12.997635,-151.784378,,,
729861192.098257,-1.123725,5.057842,47.377973,-0.099991,-0.018509,0.97049,-0.03231,-0.014962,-0.013521,71.874969,12.997635,-151.784378,,,
729861192.101599,-1.123725,5.057842,47.377973,-0.099991,-0.018509,0.97049,-0.03231,-0.014962,-0.013521,71.874969,12.997635,-151.784378,,,
729861192.104937,-1.136638,5.048818,47.377578,-0.099991,-0.018509,0.97049,-0.04707,-0.033146,-0.002747,71.874969,12.997635,-151.784378,,,
729861192.108264,-1.149899,5.041072,47.377976,-0.093323,-0.019348,0.979523,-0.04707,-0.033146,-0.002747,71.770462,13.159821,-151.999176,,,
729861192.1117,-1.149899,5.041072,47.377976,-0.093323,-0.019348,0.979523,-0.04707,-0.033146,-0.002747,71.770462,13.159821,-151.999176,,,
729861192.11492,-1.164245,5.031698,47.377362,-0.093323,-0.019348,0.979523,-0.05083,-0.02838,-0.009789,71.770462,13.159821,-151.999176,,,
729861192.118257,-1.179576,5.025513,47.37534,-0.081558,-0.02211,0.992203,-0.05083,-0.02838,-0.009789,71.770462,13.159821,-151.999176,,,
729861192.12159,-1.179576,5.025513,47.37534,-0.081558,-0.02211,0.992203,-0.05083,-0.02838,-0.009789,71.770462,13.159821,-151.999176,,,
729861192.125009,-1.194282,5.02235,47.371531,-0.081558,-0.02211,0.992203,-0.047929,-0.001886,-0.021949,71.770462,13.159821,-151.999176,,,
729861192.12825,-1.208987,5.021926,47.36669,-0.077606,-0.024628,1.005814,-0.047929,-0.001886,-0.021949,71.770462,13.159821,-151.999176,,,
729861192.131608,-1.208987,5.021926,47.36669,-0.077606,-0.024628,1.005814,-0.047929,-0.001886,-0.021949,71.770462,13.159821,-151.999176,,,
729861192.134945,-1.220473,5.024791,47.361594,-0.077606,-0.024628,1.005814,-0.034696,0.018042,-0.022605,71.770462,13.159821,-151.999176,,,
729861192.138257,-1.231417,5.029697,47.356789,-0.084641,-0.029846,1.011292,-0.034696,0.018042,-0.022605,71.770462,13.159821,-151.999176,,,
729861192.14159,-1.231417,5.029697,47.356789,-0.084641,-0.029846,1.011292,-0.034696,0.018042,-0.022605,71.770462,13.159821,-151.999176,,,
729861192.14495,-1.237745,5.035609,47.352798,-0.084641,-0.029846,1.011292,-0.013604,0.025586,-0.015008,71.770462,13.159821,-151.999176,,,
729861192.148256,-1.241175,5.043396,47.350212,-0.090622,-0.032211,1.011887,-0.013604,0.025586,-0.015008,71.770462,13.159821,-151.999176,,,
729861192.151679,-1.241175,5.043396,47.350212,-0.090622,-0.032211,1.011887,-0.013604,0.025586,-0.015008,71.708405,13.010437,-152.035889,,,
729861192.154932,-1.241043,5.050595,47.348796,-0.090622,-0.032211,1.011887,0.006158,0.027243,-0.004979,71.708405,13.010437,-152.035889,,,
729861192.158303,-1.239071,5.061126,47.34784,-0.09642,-0.030991,1.011612,0.006158,0.027243,-0.004979,71.708405,13.010437,-152.035889,,,
729861192.161596,-1.239071,5.061126,47.34784,-0.09642,-0.030991,1.011612,0.006158,0.027243,-0.004979,71.708405,13.010437,-152.035889,,,
729861192.164984,-1.236679,5.070393,47.346911,-0.09642,-0.030991,1.011612,0.006893,0.036447,-0.004304,71.708405,13.010437,-152.035889,,,
729861192.168256,-1.235882,5.083477,47.346022,-0.093231,-0.024582,0.999969,0.006893,0.036447,-0.004304,71.708405,13.010437,-152.035889,,,
729861192.171682,-1.235882,5.083477,47.346022,-0.093231,-0.024582,0.999969,0.006893,0.036447,-0.004304,71.708405,13.010437,-152.035889,,,
729861192.174922,-1.237606,5.092284,47.344767,-0.093231,-0.024582,0.999969,-0.008915,0.032812,-0.007703,71.708405,13.010437,-152.035889,,,
729861192.178258,-1.241017,5.104155,47.342788,-0.094391,-0.015869,0.985413,-0.008915,0.032812,-0.007703,71.708405,13.010437,-152.035889,,,
729861192.181595,-1.241017,5.104155,47.342788,-0.094391,-0.015869,0.985413,-0.008915,0.032812,-0.007703,71.708405,13.010437,-152.035889,,,
729861192.184928,-1.247026,5.110005,47.339926,-0.094391,-0.015869,0.985413,-0.022903,0.019127,-0.01441,71.708405,13.010437,-152.035889,,,
729861192.18826,-1.254149,5.115437,47.336419,-0.09993,-0.014801,0.982269,-0.022903,0.019127,-0.01441,71.708405,13.010437,-152.035889,,,
729861192.19159,-1.254149,5.115437,47.336419,-0.09993,-0.014801,0.982269,-0.022903,0.019127,-0.01441,72.153809,13.135635,-151.957504,,,
729861192.194929,-1.263336,5.115101,47.332606,-0.09993,-0.014801,0.982269,-0.032456,-0.00392,-0.016999,72.153809,13.135635,-151.957504,,,
729861192.198277,-1.272971,5.109401,47.329215,-0.105057,-0.019684,0.985931,-0.032456,-0.00392,-0.016999,72.153809,13.135635,-151.957504,,,
729861192.201633,-1.272971,5.109401,47.329215,-0.105057,-0.019684,0.985931,-0.032456,-0.00392,-0.016999,72.153809,13.135635,-151.957504,,,
729861192.20492,-1.283338,5.100779,47.326946,-0.105057,-0.019684,0.985931,-0.036596,-0.032957,-0.009632,72.153809,13.135635,-151.957504,,,
729861192.20832,-1.293671,5.08642,47.32585,-0.103851,-0.021545,0.990662,-0.036596,-0.032957,-0.009632,72.153809,13.135635,-151.957504,,,
729861192.211582,-1.293671,5.08642,47.32585,-0.103851,-0.021545,0.990662,-0.036596,-0.032957,-0.009632,72.153809,13.135635,-151.957504,,,
729861192.214967,-1.30193,5.075419,47.325683,-0.103851,-0.021545,0.990662,-0.025022,-0.034922,-0.002714,72.153809,13.135635,-151.957504,,,
729861192.218255,-1.309605,5.063352,47.325966,-0.097504,-0.022781,1.005875,-0.025022,-0.034922,-0.002714,72.153809,13.135635,-151.957504,,,
729861192.221592,-1.309605,5.063352,47.325966,-0.097504,-0.022781,1.005875,-0.025022,-0.034922,-0.002714,72.153809,13.135635,-151.957504,,,
729861192.224931,-1.314861,5.055041,47.326833,-0.097504,-0.022781,1.005875,-0.015436,-0.02285,0.001883,72.153809,13.135635,-151.957504,,,
729861192.228276,-1.320359,5.048994,47.3284,-0.092285,-0.027985,1.010162,-0.015436,-0.02285,0.001883,72.153809,13.135635,-151.957504,,,
729861192.231589,-1.320359,5.048994,47.3284,-0.092285,-0.027985,1.010162,-0.015436,-0.02285,0.001883,72.024323,13.145935,-151.790588,,,
729861192.234943,-1.322563,5.046887,47.330615,-0.092285,-0.027985,1.010162,-0.004662,0.002647,0.007267,72.024323,13.145935,-151.790588,,,
729861192.238255,-1.324937,5.050438,47.333555,-0.084152,-0.026535,1.005508,-0.004662,0.002647,0.007267,72.024323,13.145935,-151.790588,,,
729861192.2417,-1.324937,5.050438,47.333555,-0.084152,-0.026535,1.005508,-0.004662,0.002647,0.007267,72.024323,13.145935,-151.790588,,,
729861192.244952,-1.324641,5.055324,47.336841,-0.084152,-0.026535,1.005508,0.002579,0.024326,0.010575,72.024323,13.145935,-151.790588,,,
729861192.24827,-1.32386,5.064043,47.340401,-0.082016,-0.023972,1.000671,0.002579,0.024326,0.010575,72.024323,13.145935,-151.790588,,,
729861192.251601,-1.32386,5.064043,47.340401,-0.082016,-0.023972,1.000671,0.002579,0.024326,0.010575,72.024323,13.145935,-151.790588,,,
729861192.25501,-1.320951,5.072204,47.344121,-0.082016,-0.023972,1.000671,0.013484,0.033558,0.012937,72.024323,13.145935,-151.790588,,,
729861192.258259,-1.315047,5.083285,47.347996,-0.082504,-0.026566,0.999557,0.013484,0.033558,0.012937,72.024323,13.145935,-151.790588,,,
729861192.261595,-1.315047,5.083285,47.347996,-0.082504,-0.026566,0.999557,0.013484,0.033558,0.012937,72.024323,13.145935,-151.790588,,,
729861192.26499,-1.309935,5.092337,47.351012,-0.082504,-0.026566,0.999557,0.016075,0.031748,0.007451,72.024323,13.145935,-151.790588,,,
729861192.268281,-1.303685,5.103173,47.352217,-0.080826,-0.022659,0.989365,0.016075,0.031748,0.007451,72.024323,13.145935,-151.790588,,,
729861192.271598,-1.303685,5.103173,47.352217,-0.080826,-0.022659,0.989365,0.016075,0.031748,0.007451,72.024323,13.145935,-151.790588,,,
729861192.274951,-1.299417,5.108314,47.351833,-0.080826,-0.022659,0.989365,0.014583,0.015253,-0.003302,71.968369,13.215256,-151.609131,,,
729861192.278258,-1.295972,5.114895,47.349692,-0.082916,-0.016556,0.978775,0.014583,0.015253,-0.003302,71.968369,13.215256,-151.609131,,,
729861192.281696,-1.295972,5.114895,47.349692,-0.082916,-0.016556,0.978775,0.014583,0.015253,-0.003302,71.968369,13.215256,-151.609131,,,
729861192.284949,-1.296958,5.113599,47.345115,-0.082916,-0.016556,0.978775,-0.007995,-0.007041,-0.021629,71.968369,13.215256,-151.609131,,,
729861192.288266,-1.300915,5.114666,47.339816,-0.084396,-0.013702,0.969604,-0.007995,-0.007041,-0.021629,71.968369,13.215256,-151.609131,,,
729861192.291596,-1.300915,5.114666,47.339816,-0.084396,-0.013702,0.969604,-0.007995,-0.007041,-0.021629,71.968369,13.215256,-151.609131,,,
729861192.295027,-1.308374,5.111367,47.334297,-0.084396,-0.013702,0.969604,-0.030788,-0.006514,-0.024448,71.968369,13.215256,-151.609131,,,
729861192.298251,-1.318871,5.112747,47.328681,-0.089066,-0.015488,0.981171,-0.030788,-0.006514,-0.024448,71.968369,13.215256,-151.609131,,,
729861192.301595,-1.318871,5.112747,47.328681,-0.089066,-0.015488,0.981171,-0.030788,-0.006514,-0.024448,71.968369,13.215256,-151.609131,,,
729861192.304952,-1.332277,5.113727,47.323957,-0.089066,-0.015488,0.981171,-0.04955,0.009432,-0.019435,71.968369,13.215256,-151.609131,,,
729861192.308257,-1.348532,5.117866,47.320865,-0.098312,-0.021179,0.991196,-0.04955,0.009432,-0.019435,71.968369,13.215256,-151.609131,,,
729861192.311617,-1.348532,5.117866,47.320865,-0.098312,-0.021179,0.991196,-0.04955,0.009432,-0.019435,71.968369,13.215256,-151.609131,,,
729861192.314937,-1.364969,5.124261,47.318534,-0.098312,-0.021179,0.991196,-0.055797,0.030879,-0.014568,71.952957,13.038559,-151.866104,,,
729861192.318262,-1.381439,5.131912,47.316289,-0.097687,-0.018219,1.001999,-0.055797,0.030879,-0.014568,71.952957,13.038559,-151.866104,,,
729861192.321683,-1.381439,5.131912,47.316289,-0.097687,-0.018219,1.001999,-0.055797,0.030879,-0.014568,71.952957,13.038559,-151.866104,,,
729861192.324944,-1.395492,5.142686,47.314119,-0.097687,-0.018219,1.001999,-0.044387,0.043465,-0.013235,71.952957,13.038559,-151.866104,,,
729861192.328337,-1.407623,5.151204,47.31235,-0.098251,-0.024612,1.006149,-0.044387,0.043465,-0.013235,71.952957,13.038559,-151.866104,,,
729861192.331606,-1.407623,5.151204,47.31235,-0.098251,-0.024612,1.006149,-0.044387,0.043465,-0.013235,71.952957,13.038559,-151.866104,,,
729861192.334927,-1.41745,5.160305,47.311322,-0.098251,-0.024612,1.006149,-0.0283,0.031418,-0.007079,71.952957,13.038559,-151.866104,,,
729861192.338259,-1.42399,5.164539,47.310916,-0.106644,-0.028748,1.002014,-0.0283,0.031418,-0.007079,71.952957,13.038559,-151.866104,,,
729861192.341602,-1.42399,5.164539,47.310916,-0.106644,-0.028748,1.002014,-0.0283,0.031418,-0.007079,71.952957,13.038559,-151.866104,,,
729861192.344999,-1.426174,5.166264,47.311198,-0.106644,-0.028748,1.002014,-6.7e-05,0.000314,-7e-05,71.952957,13.038559,-151.866104,,,
729861192.348247,-1.42344,5.159856,47.311254,-0.110153,-0.02803,1.002869,-6.7e-05,0.000314,-7e-05,71.952957,13.038559,-151.866104,,,
729861192.351606,-1.42344,5.159856,47.311254,-0.110153,-0.02803,1.002869,-6.7e-05,0.000314,-7e-05,71.952957,13.038559,-151.866104,,,
729861192.354934,-1.416696,5.151315,47.31114,-0.110153,-0.02803,1.002869,0.029362,-0.033206,0.000921,72.041901,13.218842,-151.815659,,,
729861192.358257,-1.405868,5.139033,47.310816,-0.099136,-0.031326,1.004364,0.029362,-0.033206,0.000921,72.041901,13.218842,-151.815659,,,
729861192.361596,-1.405868,5.139033,47.310816,-0.099136,-0.031326,1.004364,0.029362,-0.033206,0.000921,72.041901,13.218842,-151.815659,,,
729861192.364951,-1.39455,5.128445,47.310285,-0.099136,-0.031326,1.004364,0.042552,-0.033432,0.000349,72.041901,13.218842,-151.815659,,,
729861192.368273,-1.380651,5.118521,47.309614,-0.088486,-0.030289,1.004715,0.042552,-0.033432,0.000349,72.041901,13.218842,-151.815659,,,
729861192.37165,-1.380651,5.118521,47.309614,-0.088486,-0.030289,1.004715,0.042552,-0.033432,0.000349,72.041901,13.218842,-151.815659,,,
729861192.374933,-1.369381,5.111943,47.309221,-0.088486,-0.030289,1.004715,0.036954,-0.015654,0.001673,72.041901,13.218842,-151.815659,,,
729861192.378264,-1.357955,5.107178,47.309584,-0.087646,-0.023315,0.997711,0.036954,-0.015654,0.001673,72.041901,13.218842,-151.815659,,,
729861192.381596,-1.357955,5.107178,47.309584,-0.087646,-0.023315,0.997711,0.036954,-0.015654,0.001673,72.041901,13.218842,-151.815659,,,
729861192.384968,-1.350703,5.104374,47.310724,-0.087646,-0.023315,0.997711,0.019147,-0.00286,0.005442,72.041901,13.218842,-151.815659,,,
729861192.388267,-1.345853,5.106248,47.313003,-0.086121,-0.018661,0.988022,0.019147,-0.00286,0.005442,72.041901,13.218842,-151.815659,,,
729861192.391594,-1.345853,5.106248,47.313003,-0.086121,-0.018661,0.988022,0.019147,-0.00286,0.005442,72.041901,13.218842,-151.815659,,,
729861192.394963,-1.34467,5.107013,47.316547,-0.086121,-0.018661,0.988022,-0.002357,0.005481,0.012747,73.209137,12.987152,-149.410141,,,
729861192.398259,-1.345218,5.110686,47.320934,-0.087097,-0.017166,0.980225,-0.002357,0.005481,0.012747,73.209137,12.987152,-149.410141,,,
729861192.4016,-1.345218,5.110686,47.320934,-0.087097,-0.017166,0.980225,-0.002357,0.005481,0.012747,73.209137,12.987152,-149.410141,,,
729861192.40493,-1.349002,5.111183,47.325831,-0.087097,-0.017166,0.980225,-0.018691,0.001909,0.015322,73.209137,12.987152,-149.410141,,,
729861192.40826,-1.354343,5.112206,47.330775,-0.086166,-0.017166,0.975098,-0.018691,0.001909,0.015322,73.209137,12.987152,-149.410141,,,
729861192.411624,-1.354343,5.112206,47.330775,-0.086166,-0.017166,0.975098,-0.018691,0.001909,0.015322,73.209137,12.987152,-149.410141,,,
729861192.414951,-1.360781,5.110052,47.335015,-0.086166,-0.017166,0.975098,-0.024218,-0.006965,0.010147,73.209137,12.987152,-149.410141,,,
729861192.418269,-1.368558,5.110977,47.338406,-0.083771,-0.017349,0.977493,-0.024218,-0.006965,0.010147,73.209137,12.987152,-149.410141,,,
729861192.421596,-1.368558,5.110977,47.338406,-0.083771,-0.017349,0.977493,-0.024218,-0.006965,0.010147,73.209137,12.987152,-149.410141,,,
729861192.424976,-1.375084,5.107571,47.340561,-0.083771,-0.017349,0.977493,-0.021579,-0.008183,0.002437,73.209137,12.987152,-149.410141,,,
729861192.428265,-1.380649,5.110554,47.342144,-0.080933,-0.023117,0.988983,-0.021579,-0.008183,0.002437,73.209137,12.987152,-149.410141,,,
729861192.4316,-1.380649,5.110554,47.342144,-0.080933,-0.023117,0.988983,-0.021579,-0.008183,0.002437,73.209137,12.987152,-149.410141,,,
729861192.434933,-1.382224,5.109131,47.343295,-0.080933,-0.023117,0.988983,0.000841,0.000425,0.002376,73.209137,12.987152,-149.410141,,,
729861192.438278,-1.382126,5.112419,47.344368,-0.07872,-0.029984,0.998627,0.000841,0.000425,0.002376,72.12706,13.185654,-151.734543,,,
729861192.441601,-1.382126,5.112419,47.344368,-0.07872,-0.029984,0.998627,0.000841,0.000425,0.002376,72.12706,13.185654,-151.734543,,,
729861192.444934,-1.378936,5.113072,47.344485,-0.07872,-0.029984,0.998627,0.01439,0.007855,-0.002445,72.12706,13.185654,-151.734543,,,
729861192.448268,-1.376219,5.114999,47.342944,-0.072998,-0.026886,0.997345,0.01439,0.007855,-0.002445,72.12706,13.185654,-151.734543,,,
729861192.451648,-1.376219,5.114999,47.342944,-0.072998,-0.026886,0.997345,0.01439,0.007855,-0.002445,72.12706,13.185654,-151.734543,,,
729861192.454956,-1.372285,5.117799,47.339592,-0.072998,-0.026886,0.997345,0.014381,0.014244,-0.015049,72.12706,13.185654,-151.734543,,,
729861192.458265,-1.369343,5.120035,47.334635,-0.073792,-0.024399,0.991196,0.014381,0.014244,-0.015049,72.12706,13.185654,-151.734543,,,
729861192.461603,-1.369343,5.120035,47.334635,-0.073792,-0.024399,0.991196,0.014381,0.014244,-0.015049,72.12706,13.185654,-151.734543,,,
729861192.465001,-1.368203,5.121438,47.328613,-0.073792,-0.024399,0.991196,0.002249,0.004359,-0.023697,72.12706,13.185654,-151.734543,,,
729861192.468311,-1.369193,5.119625,47.321961,-0.083755,-0.023117,0.98085,0.002249,0.004359,-0.023697,72.12706,13.185654,-151.734543,,,
729861192.471627,-1.369193,5.119625,47.321961,-0.083755,-0.023117,0.98085,0.002249,0.004359,-0.023697,72.12706,13.185654,-151.734543,,,
729861192.474944,-1.374281,5.116177,47.315421,-0.083755,-0.023117,0.98085,-0.020604,-0.011338,-0.024997,72.12706,13.185654,-151.734543,,,
729861192.478258,-1.381127,5.110918,47.309671,-0.086609,-0.022308,0.977493,-0.020604,-0.011338,-0.024997,71.82309,13.115387,-151.781738,,,
729861192.481626,-1.381127,5.110918,47.309671,-0.086609,-0.022308,0.977493,-0.020604,-0.011338,-0.024997,71.82309,13.115387,-151.781738,,,
729861192.484936,-1.391998,5.105724,47.305109,-0.086609,-0.022308,0.977493,-0.040772,-0.014871,-0.018606,71.82309,13.115387,-151.781738,,,
729861192.488329,-1.403655,5.099978,47.301863,-0.089676,-0.023819,0.982422,-0.040772,-0.014871,-0.018606,71.82309,13.115387,-151.781738,,,
729861192.491651,-1.403655,5.099978,47.301863,-0.089676,-0.023819,0.982422,-0.040772,-0.014871,-0.018606,71.82309,13.115387,-151.781738,,,
729861192.494926,-1.416687,5.093411,47.299398,-0.089676,-0.023819,0.982422,-0.043243,-0.02238,-0.013457,71.82309,13.115387,-151.781738,,,
729861192.498261,-1.427252,5.085003,47.296931,-0.08931,-0.025848,0.993286,-0.043243,-0.02238,-0.013457,71.82309,13.115387,-151.781738,,,
729861192.501605,-1.427252,5.085003,47.296931,-0.08931,-0.025848,0.993286,-0.043243,-0.02238,-0.013457,71.82309,13.115387,-151.781738,,,
729861192.505025,-1.438143,5.077259,47.293522,-0.08931,-0.025848,0.993286,-0.03485,-0.023615,-0.019411,71.82309,13.115387,-151.781738,,,
729861192.508313,-1.447242,5.069316,47.288744,-0.084656,-0.028305,1.002441,-0.03485,-0.023615,-0.019411,71.82309,13.115387,-151.781738,,,
729861192.511597,-1.447242,5.069316,47.288744,-0.084656,-0.028305,1.002441,-0.03485,-0.023615,-0.019411,71.82309,13.115387,-151.781738,,,
729861192.514943,-1.455406,5.066543,47.282662,-0.084656,-0.028305,1.002441,-0.023349,0.001043,-0.027768,71.82309,13.115387,-151.781738,,,
729861192.518256,-1.462293,5.065707,47.275447,-0.085602,-0.029266,1.015594,-0.023349,0.001043,-0.027768,71.725327,13.321136,-151.595764,,,
729861192.521604,-1.462293,5.065707,47.275447,-0.085602,-0.029266,1.015594,-0.023349,0.001043,-0.027768,71.725327,13.321136,-151.595764,,,
729861192.524933,-1.466857,5.072027,47.268549,-0.085602,-0.029266,1.015594,-0.011004,0.031822,-0.024958,71.725327,13.321136,-151.595764,,,
729861192.528263,-1.469813,5.076665,47.262553,-0.097824,-0.030136,1.016083,-0.011004,0.031822,-0.024958,71.725327,13.321136,-151.595764,,,
729861192.531658,-1.469813,5.076665,47.262553,-0.097824,-0.030136,1.016083,-0.011004,0.031822,-0.024958,71.725327,13.321136,-151.595764,,,
729861192.534924,-1.469088,5.086251,47.258088,-0.097824,-0.030136,1.016083,0.009733,0.037904,-0.013061,71.725327,13.321136,-151.595764,,,
729861192.538266,-1.465135,5.090511,47.254832,-0.108536,-0.030212,1.009674,0.009733,0.037904,-0.013061,71.725327,13.321136,-151.595764,,,
729861192.541594,-1.465135,5.090511,47.254832,-0.108536,-0.030212,1.009674,0.009733,0.037904,-0.013061,71.725327,13.321136,-151.595764,,,
729861192.545014,-1.459229,5.097224,47.252783,-0.108536,-0.030212,1.009674,0.024985,0.022212,-0.004084,71.725327,13.321136,-151.595764,,,
729861192.548311,-1.451714,5.099552,47.251219,-0.111526,-0.028091,1.001266,0.024985,0.022212,-0.004084,71.725327,13.321136,-151.595764,,,
729861192.551601,-1.451714,5.099552,47.251219,-0.111526,-0.028091,1.001266,0.024985,0.022212,-0.004084,71.725327,13.321136,-151.595764,,,
729861192.55493,-1.444753,5.100128,47.249779,-0.111526,-0.028091,1.001266,0.022033,-0.001314,-0.003708,71.725327,13.321136,-151.595764,,,
729861192.558325,-1.438735,5.095948,47.248198,-0.108658,-0.020172,0.985168,0.022033,-0.001314,-0.003708,72.093491,13.169983,-151.926041,,,
729861192.561603,-1.438735,5.095948,47.248198,-0.108658,-0.020172,0.985168,0.022033,-0.001314,-0.003708,72.093491,13.169983,-151.926041,,,
729861192.564955,-1.434628,5.087423,47.24666,-0.108658,-0.020172,0.985168,0.012468,-0.034437,-0.004374,72.093491,13.169983,-151.926041,,,
729861192.568269,-1.432011,5.076043,47.245717,-0.105423,-0.019516,0.979355,0.012468,-0.034437,-0.004374,72.093491,13.169983,-151.926041,,,
729861192.571612,-1.432011,5.076043,47.245717,-0.105423,-0.019516,0.979355,0.012468,-0.034437,-0.004374,72.093491,13.169983,-151.926041,,,
729861192.574943,-1.431853,5.063176,47.24572,-0.105423,-0.019516,0.979355,-0.003409,-0.040968,0.000958,72.093491,13.169983,-151.926041,,,
729861192.578344,-1.433498,5.051822,47.24748,-0.1026,-0.022095,0.991394,-0.003409,-0.040968,0.000958,72.093491,13.169983,-151.926041,,,
729861192.581666,-1.433498,5.051822,47.24748,-0.1026,-0.022095,0.991394,-0.003409,-0.040968,0.000958,72.093491,13.169983,-151.926041,,,
729861192.584926,-1.435515,5.041882,47.250833,-0.1026,-0.022095,0.991394,-0.007676,-0.027717,0.011783,72.093491,13.169983,-151.926041,,,
729861192.588268,-1.437776,5.033605,47.255956,-0.097549,-0.023392,1.001404,-0.007676,-0.027717,0.011783,72.093491,13.169983,-151.926041,,,
729861192.591627,-1.437776,5.033605,47.255956,-0.097549,-0.023392,1.001404,-0.007676,-0.027717,0.011783,72.093491,13.169983,-151.926041,,,
729861192.594718,-1.43913,5.027465,47.262915,-0.097549,-0.023392,1.001404,-0.006164,-0.016354,0.024624,72.093491,13.169983,-151.926041,,,
729861192.598337,-1.440372,5.021396,47.27048,-0.091797,-0.02298,1.003113,-0.006164,-0.016354,0.024624,72.093491,13.169983,-151.926041,,,
729861192.601637,-1.440372,5.021396,47.27048,-0.091797,-0.02298,1.003113,-0.006164,-0.016354,0.024624,71.713867,13.202866,-151.714691,,,
729861192.604963,-1.44064,5.018701,47.27834,-0.091797,-0.02298,1.003113,-0.003494,-0.003436,0.026618,71.713867,13.202866,-151.714691,,,
729861192.608297,-1.441426,5.019706,47.285399,-0.082993,-0.026077,1.004883,-0.003494,-0.003436,0.026618,71.713867,13.202866,-151.714691,,,
729861192.611613,-1.441426,5.019706,47.285399,-0.082993,-0.026077,1.004883,-0.003494,-0.003436,0.026618,71.713867,13.202866,-151.714691,,,
729861192.614941,-1.439697,5.021787,47.291374,-0.082993,-0.026077,1.004883,0.008684,0.012688,0.020249,71.713867,13.202866,-151.714691,,,
729861192.618263,-1.437781,5.030782,47.296644,-0.07399,-0.029129,1.008453,0.008684,0.012688,0.020249,71.713867,13.202866,-151.714691,,,
729861192.621704,-1.437781,5.030782,47.296644,-0.07399,-0.029129,1.008453,0.008684,0.012688,0.020249,71.713867,13.202866,-151.714691,,,
729861192.624934,-1.434419,5.036591,47.300466,-0.07399,-0.029129,1.008453,0.013165,0.025612,0.011387,71.713867,13.202866,-151.714691,,,
729861192.628307,-1.430419,5.050065,47.303893,-0.074203,-0.025833,1.003357,0.013165,0.025612,0.011387,71.713867,13.202866,-151.714691,,,
729861192.631604,-1.430419,5.050065,47.303893,-0.074203,-0.025833,1.003357,0.013165,0.025612,0.011387,71.713867,13.202866,-151.714691,,,
729861192.635034,-1.424359,5.057848,47.307225,-0.074203,-0.025833,1.003357,0.023348,0.029883,0.01276,71.713867,13.202866,-151.714691,,,
729861192.638329,-1.415918,5.072052,47.311252,-0.07753,-0.029282,1.000763,0.023348,0.029883,0.01276,71.713867,13.202866,-151.714691,,,
729861192.641617,-1.415918,5.072052,47.311252,-0.07753,-0.029282,1.000763,0.023348,0.029883,0.01276,71.760864,13.214951,-151.59877,,,
729861192.644949,-1.406656,5.079327,47.315713,-0.07753,-0.029282,1.000763,0.031982,0.024918,0.017687,71.760864,13.214951,-151.59877,,,
729861192.648294,-1.406656,5.079327,47.320022,-0.077652,-0.029633,0.996643,0.031982,0.024918,0.017687,71.760864,13.214951,-151.59877,,,
729861192.651597,-1.396644,5.090721,47.320022,-0.077652,-0.029633,0.996643,0.031982,0.024918,0.017687,71.760864,13.214951,-151.59877,,,
729861192.654939,-1.388226,5.095979,47.322612,-0.077652,-0.029633,0.996643,0.028938,0.020722,0.00635,71.760864,13.214951,-151.59877,,,
729861192.658306,-1.379993,5.105499,47.322546,-0.066818,-0.023819,0.993973,0.028938,0.020722,0.00635,71.760864,13.214951,-151.59877,,,
729861192.661617,-1.379993,5.105499,47.322546,-0.066818,-0.023819,0.993973,0.028938,0.020722,0.00635,71.760864,13.214951,-151.59877,,,
729861192.664941,-1.373521,5.110562,47.319274,-0.066818,-0.023819,0.993973,0.021795,0.021279,-0.01591,71.760864,13.214951,-151.59877,,,
729861192.668291,-1.373521,5.110562,47.319274,-0.066681,-0.025223,0.996368,0.021795,0.021279,-0.01591,71.760864,13.214951,-151.59877,,,
729861192.671607,-1.367958,5.11799,47.313957,-0.066681,-0.025223,0.996368,0.021795,0.021279,-0.01591,71.760864,13.214951,-151.59877,,,
729861192.675014,-1.362903,5.122831,47.307449,-0.066681,-0.025223,0.996368,0.019855,0.020669,-0.024053,71.760864,13.214951,-151.59877,,,
729861192.67835,-1.362903,5.122831,47.307449,-0.080551,-0.030121,0.998108,0.019855,0.020669,-0.024053,71.760864,13.214951,-151.59877,,,
729861192.681591,-1.3579,5.127551,47.300578,-0.080551,-0.030121,0.998108,0.019855,0.020669,-0.024053,71.932129,13.283051,-152.001175,,,
729861192.684932,-1.352942,5.12953,47.294084,-0.080551,-0.030121,0.998108,0.019944,0.00754,-0.021275,71.932129,13.283051,-152.001175,,,
729861192.688265,-1.352942,5.12953,47.294084,-0.080551,-0.030121,0.998108,0.019944,0.00754,-0.021275,71.932129,13.283051,-152.001175,,,
729861192.691617,-1.348048,5.128069,47.287981,-0.087921,-0.027008,0.994461,0.019944,0.00754,-0.021275,71.932129,13.283051,-152.001175,,,
729861192.694946,-1.342899,5.125101,47.282082,-0.087921,-0.027008,0.994461,0.019586,-0.01171,-0.020102,71.932129,13.283051,-152.001175,,,
729861192.698261,-1.342899,5.125101,47.282082,-0.091217,-0.026016,0.985107,0.019586,-0.01171,-0.020102,71.932129,13.283051,-152.001175,,,
729861192.70167,-1.338898,5.115535,47.276304,-0.091217,-0.026016,0.985107,0.019586,-0.01171,-0.020102,71.932129,13.283051,-152.001175,,,
729861192.70494,-1.334004,5.108579,47.271242,-0.091217,-0.026016,0.985107,0.018781,-0.021825,-0.015803,71.932129,13.283051,-152.001175,,,
729861192.708277,-1.334004,5.108579,47.271242,-0.091217,-0.026016,0.985107,0.018781,-0.021825,-0.015803,71.932129,13.283051,-152.001175,,,
729861192.71161,-1.329534,5.097033,47.267569,-0.092072,-0.028152,0.983566,0.018781,-0.021825,-0.015803,71.932129,13.283051,-152.001175,,,
729861192.715011,-1.323919,5.090035,47.265472,-0.092072,-0.028152,0.983566,0.021512,-0.021342,-0.00529,71.932129,13.283051,-152.001175,,,
729861192.718266,-1.323919,5.090035,47.265472,-0.096359,-0.025177,0.984604,0.021512,-0.021342,-0.00529,71.932129,13.283051,-152.001175,,,
729861192.721603,-1.319653,5.080055,47.26412,-0.096359,-0.025177,0.984604,0.021512,-0.021342,-0.00529,71.817078,12.961792,-151.922211,,,
729861192.724959,-1.316428,5.074789,47.263743,-0.096359,-0.025177,0.984604,0.007888,-0.012029,-0.000285,71.817078,12.961792,-151.922211,,,
729861192.728316,-1.316428,5.074789,47.263743,-0.096359,-0.025177,0.984604,0.007888,-0.012029,-0.000285,71.817078,12.961792,-151.922211,,,
729861192.731608,-1.316969,5.06916,47.2637,-0.088898,-0.018707,0.97316,0.007888,-0.012029,-0.000285,71.817078,12.961792,-151.922211,,,
729861192.734947,-1.31823,5.069579,47.263631,-0.088898,-0.018707,0.97316,-0.007978,0.011314,-0.002271,71.817078,12.961792,-151.922211,,,
729861192.738282,-1.31823,5.069579,47.263631,-0.088898,-0.018707,0.97316,-0.007978,0.011314,-0.002271,71.817078,12.961792,-151.922211,,,
729861192.741603,-1.321521,5.068238,47.263066,-0.08403,-0.018524,0.974625,-0.007978,0.011314,-0.002271,71.817078,12.961792,-151.922211,,,
729861192.744935,-1.325783,5.075213,47.262002,-0.08403,-0.018524,0.974625,-0.01652,0.032971,-0.007365,71.817078,12.961792,-151.922211,,,
729861192.748268,-1.325783,5.075213,47.262002,-0.08403,-0.018524,0.974625,-0.01652,0.032971,-0.007365,71.817078,12.961792,-151.922211,,,
729861192.751674,-1.331608,5.078053,47.260542,-0.088577,-0.022949,0.978546,-0.01652,0.032971,-0.007365,71.817078,12.961792,-151.922211,,,
729861192.754943,-1.338269,5.08915,47.259698,-0.088577,-0.022949,0.978546,-0.023489,0.043954,-0.004699,71.817078,12.961792,-151.922211,,,
729861192.758266,-1.338269,5.08915,47.259698,-0.088577,-0.022949,0.978546,-0.023489,0.043954,-0.004699,71.817078,12.961792,-151.922211,,,
729861192.761643,-1.347032,5.097651,47.260105,-0.090347,-0.023407,0.979889,-0.023489,0.043954,-0.004699,71.817078,12.961792,-151.922211,,,
729861192.765028,-1.354925,5.107661,47.261725,-0.090347,-0.023407,0.979889,-0.026978,0.032891,0.002968,72.200882,12.855591,-151.046951,,,
729861192.768294,-1.354925,5.107661,47.261725,-0.090347,-0.023407,0.979889,-0.026978,0.032891,0.002968,72.200882,12.855591,-151.046951,,,
729861192.771601,-1.363471,5.114393,47.263775,-0.093811,-0.028168,0.981674,-0.026978,0.032891,0.002968,72.200882,12.855591,-151.046951,,,
729861192.774937,-1.370335,5.119349,47.266081,-0.093811,-0.028168,0.981674,-0.022063,0.015143,0.005111,72.200882,12.855591,-151.046951,,,
729861192.778314,-1.370335,5.119349,47.266081,-0.093811,-0.028168,0.981674,-0.022063,0.015143,0.005111,72.200882,12.855591,-151.046951,,,
729861192.781598,-1.376632,5.122619,47.267779,-0.094345,-0.031082,0.989365,-0.022063,0.015143,0.005111,72.200882,12.855591,-151.046951,,,
729861192.78495,-1.381898,5.123952,47.268455,-0.094345,-0.031082,0.989365,-0.017096,0.004981,-0.001526,72.200882,12.855591,-151.046951,,,
729861192.788296,-1.381898,5.123952,47.268455,-0.094345,-0.031082,0.989365,-0.017096,0.004981,-0.001526,72.200882,12.855591,-151.046951,,,
729861192.791678,-1.38733,5.125938,47.268368,-0.092194,-0.03447,0.996429,-0.017096,0.004981,-0.001526,72.200882,12.855591,-151.046951,,,
729861192.794947,-1.391303,5.127876,47.268235,-0.092194,-0.03447,0.996429,-0.011508,0.009981,-0.001289,72.200882,12.855591,-151.046951,,,
729861192.798295,-1.391303,5.127876,47.268235,-0.092194,-0.03447,0.996429,-0.011508,0.009981,-0.001289,72.200882,12.855591,-151.046951,,,
729861192.801609,-1.394685,5.132108,47.268948,-0.094559,-0.032211,1.005325,-0.011508,0.009981,-0.001289,72.200882,12.855591,-151.046951,,,
729861192.804935,-1.396178,5.134142,47.270551,-0.094559,-0.032211,1.005325,-0.002877,0.009168,0.006076,72.048721,12.975555,-152.27597,,,
729861192.808277,-1.396178,5.134142,47.270551,-0.094559,-0.032211,1.005325,-0.002877,0.009168,0.006076,72.048721,12.975555,-152.27597,,,
729861192.811615,-1.396288,5.137596,47.273683,-0.099487,-0.030991,1.006287,-0.002877,0.009168,0.006076,72.048721,12.975555,-152.27597,,,
729861192.814992,-1.39698,5.139771,47.278526,-0.099487,-0.030991,1.006287,-0.003237,0.007804,0.018208,72.048721,12.975555,-152.27597,,,
729861192.818351,-1.39698,5.139771,47.278526,-0.099487,-0.030991,1.006287,-0.003237,0.007804,0.018208,72.048721,12.975555,-152.27597,,,
729861192.821596,-1.397105,5.140009,47.284293,-0.096603,-0.027313,0.996017,-0.003237,0.007804,0.018208,72.048721,12.975555,-152.27597,,,
729861192.824954,-1.399506,5.14003,47.289173,-0.096603,-0.027313,0.996017,-0.010109,-0.000628,0.011229,72.048721,12.975555,-152.27597,,,
729861192.828324,-1.399506,5.14003,47.289173,-0.096603,-0.027313,0.996017,-0.010109,-0.000628,0.011229,72.048721,12.975555,-152.27597,,,
729861192.831651,-1.40196,5.138371,47.292524,-0.090988,-0.023834,0.990433,-0.010109,-0.000628,0.011229,72.048721,12.975555,-152.27597,,,
729861192.834931,-1.405291,5.136368,47.294414,-0.090988,-0.023834,0.990433,-0.012824,-0.00403,0.000724,72.048721,12.975555,-152.27597,,,
729861192.838282,-1.405291,5.136368,47.294414,-0.090988,-0.023834,0.990433,-0.012824,-0.00403,0.000724,72.048721,12.975555,-152.27597,,,
729861192.841666,-1.4085,5.134451,47.294848,-0.084396,-0.025223,0.994232,-0.012824,-0.00403,0.000724,72.048721,12.975555,-152.27597,,,
729861192.844924,-1.410713,5.131311,47.294067,-0.084396,-0.025223,0.994232,-0.003936,-0.008852,-0.006925,72.518829,13.040085,-150.974823,,,
729861192.848279,-1.410713,5.131311,47.294067,-0.084396,-0.025223,0.994232,-0.003936,-0.008852,-0.006925,72.518829,13.040085,-150.974823,,,
729861192.851604,-1.411748,5.129447,47.292237,-0.08255,-0.025955,1.001556,-0.003936,-0.008852,-0.006925,72.518829,13.040085,-150.974823,,,
729861192.855012,-1.409659,5.127404,47.289431,-0.08255,-0.025955,1.001556,0.013442,-0.000189,-0.011993,72.518829,13.040085,-150.974823,,,
729861192.858277,-1.409659,5.127404,47.289431,-0.08255,-0.025955,1.001556,0.013442,-0.000189,-0.011993,72.518829,13.040085,-150.974823,,,
729861192.861616,-1.406411,5.129806,47.28598,-0.084991,-0.027771,1.017426,0.013442,-0.000189,-0.011993,72.518829,13.040085,-150.974823,,,
729861192.864939,-1.401021,5.133644,47.283251,-0.084991,-0.027771,1.017426,0.021223,0.021906,-0.005959,72.518829,13.040085,-150.974823,,,
729861192.868272,-1.401021,5.133644,47.283251,-0.084991,-0.027771,1.017426,0.021223,0.021906,-0.005959,72.518829,13.040085,-150.974823,,,
729861192.871616,-1.395705,5.140405,47.282319,-0.092651,-0.031937,1.013046,0.021223,0.021906,-0.005959,72.518829,13.040085,-150.974823,,,
729861192.874935,-1.387754,5.147091,47.283718,-0.092651,-0.031937,1.013046,0.026025,0.026671,0.010929,72.518829,13.040085,-150.974823,,,
729861192.878271,-1.387754,5.147091,47.283718,-0.092651,-0.031937,1.013046,0.026025,0.026671,0.010929,72.518829,13.040085,-150.974823,,,
729861192.881688,-1.382224,5.153425,47.286993,-0.096725,-0.023392,0.997833,0.026025,0.026671,0.010929,72.518829,13.040085,-150.974823,,,
729861192.884919,-1.377632,5.15592,47.290999,-0.096725,-0.023392,0.997833,0.008298,0.006036,0.014501,72.518829,13.040085,-150.974823,,,
729861192.888278,-1.377632,5.15592,47.290999,-0.096725,-0.023392,0.997833,0.008298,0.006036,0.014501,72.21286,13.116074,-151.046478,,,
729861192.891608,-1.378409,5.15813,47.295728,-0.096756,-0.013748,0.971909,0.008298,0.006036,0.014501,72.21286,13.116074,-151.046478,,,
729861192.894931,-1.382387,5.155899,47.300619,-0.096756,-0.013748,0.971909,-0.023691,-0.009145,0.013083,72.21286,13.116074,-151.046478,,,
729861192.898273,-1.382387,5.155899,47.300619,-0.096756,-0.013748,0.971909,-0.023691,-0.009145,0.013083,72.21286,13.116074,-151.046478,,,
729861192.901603,-1.391463,5.154368,47.305281,-0.092499,-0.012939,0.96283,-0.023691,-0.009145,0.013083,72.21286,13.116074,-151.046478,,,
729861192.904931,-1.403295,5.150415,47.30932,-0.092499,-0.012939,0.96283,-0.048024,-0.010469,0.006919,72.21286,13.116074,-151.046478,,,
729861192.908328,-1.403295,5.150415,47.30932,-0.092499,-0.012939,0.96283,-0.048024,-0.010469,0.006919,72.21286,13.116074,-151.046478,,,
729861192.911594,-1.418277,5.147544,47.313154,-0.087814,-0.014404,0.972961,-0.048024,-0.010469,0.006919,72.21286,13.116074,-151.046478,,,
729861192.914931,-1.434565,5.145253,47.316709,-0.087814,-0.014404,0.972961,-0.056634,-0.00221,0.004328,72.21286,13.116074,-151.046478,,,
729861192.918262,-1.434565,5.145253,47.316709,-0.087814,-0.014404,0.972961,-0.056634,-0.00221,0.004328,72.21286,13.116074,-151.046478,,,
729861192.921637,-1.450784,5.144079,47.319658,-0.086929,-0.019394,0.987442,-0.056634,-0.00221,0.004328,72.21286,13.116074,-151.046478,,,
