Time (sec),Pitch (deg),Roll (deg),Yaw(deg),X-Acceleration (g),Y-Acceleration (g),Z-Acceleration (g),Pitch Rate (deg/sec),Roll Rate (deg/sec),Yaw Rate (deg/sec),Magnetic Field in X direction (uT),Magnetic Field in Y direction (uT),Magnetic Field in Z Direction (uT),Latitude (deg),Longitude (deg),Altitude (m)
729862730.561185,-0.662042,-0.565877,-163.918219,0.003891,-0.010056,0.999619,-0.010741,0.002323,-0.003982,48.343994,36.879898,-138.596802,,,
729862730.564374,-0.664828,-0.565813,-163.918975,0.006454,-0.004333,0.997696,-0.010741,0.002323,-0.003982,48.343994,36.879898,-138.596802,,,
729862730.567924,-0.664828,-0.565813,-163.918975,0.006454,-0.004333,0.997696,-0.010741,0.002323,-0.003982,48.343994,36.879898,-138.596802,,,
729862730.571191,-0.666072,-0.568196,-163.919484,0.006454,-0.004333,0.997696,-0.011653,-6.4e-05,-0.003496,48.343994,36.879898,-138.596802,,,
729862730.574526,-0.669185,-0.568948,-163.919714,0.001938,-0.005615,0.993179,-0.011653,-6.4e-05,-0.003496,48.343994,36.879898,-138.596802,,,
729862730.577867,-0.669185,-0.568948,-163.919714,0.001938,-0.005615,0.993179,-0.011653,-6.4e-05,-0.003496,48.343994,36.879898,-138.596802,,,
729862730.5811,-0.672831,-0.571646,-163.91911,0.001938,-0.005615,0.993179,-0.02002,6.9e-05,0.007894,48.343994,36.879898,-138.596802,,,
729862730.584548,-0.678408,-0.572352,-163.917098,-0.004227,-0.009186,0.98912,-0.02002,6.9e-05,0.007894,48.343994,36.879898,-138.596802,,,
729862730.587875,-0.678408,-0.572352,-163.917098,-0.004227,-0.009186,0.98912,-0.02002,6.9e-05,0.007894,48.343994,36.879898,-138.596802,,,
729862730.5912,-0.685512,-0.572833,-163.913372,-0.004227,-0.009186,0.98912,-0.023222,0.014721,0.021348,48.343994,36.879898,-138.596802,,,
729862730.594522,-0.693252,-0.569763,-163.907428,-0.008545,-0.012772,0.995316,-0.023222,0.014721,0.021348,48.343994,36.879898,-138.596802,,,
729862730.597668,-0.693252,-0.569763,-163.907428,-0.008545,-0.012772,0.995316,-0.023222,0.014721,0.021348,48.343994,36.879898,-138.596802,,,
729862730.601211,-0.70166,-0.568191,-163.900154,-0.008545,-0.012772,0.995316,-0.025889,0.008178,0.023992,48.22673,36.991653,-138.661133,,,
729862730.604291,-0.709475,-0.56652,-163.892665,-0.005005,-0.012894,0.997543,-0.025889,0.008178,0.023992,48.22673,36.991653,-138.661133,,,
729862730.607883,-0.709475,-0.56652,-163.892665,-0.005005,-0.012894,0.997543,-0.025889,0.008178,0.023992,48.22673,36.991653,-138.661133,,,
729862730.61118,-0.716343,-0.56729,-163.885436,-0.005005,-0.012894,0.997543,-0.017221,-0.004552,0.026002,48.22673,36.991653,-138.661133,,,
729862730.614402,-0.722295,-0.56849,-163.878079,-0.002731,-0.014832,1.000931,-0.017221,-0.004552,0.026002,48.22673,36.991653,-138.661133,,,
729862730.617951,-0.722295,-0.56849,-163.878079,-0.002731,-0.014832,1.000931,-0.017221,-0.004552,0.026002,48.22673,36.991653,-138.661133,,,
729862730.621273,-0.727209,-0.570193,-163.870219,-0.002731,-0.014832,1.000931,-0.016815,-0.010358,0.024399,48.22673,36.991653,-138.661133,,,
729862730.624552,-0.732625,-0.573041,-163.862209,0.000671,-0.012573,1.00351,-0.016815,-0.010358,0.024399,48.22673,36.991653,-138.661133,,,
729862730.627863,-0.732625,-0.573041,-163.862209,0.000671,-0.012573,1.00351,-0.016815,-0.010358,0.024399,48.22673,36.991653,-138.661133,,,
729862730.631014,-0.737602,-0.574744,-163.854189,0.000671,-0.012573,1.00351,-0.018665,-0.009295,0.028445,48.22673,36.991653,-138.661133,,,
729862730.634518,-0.743213,-0.578068,-163.846215,0.003693,-0.011612,1.001373,-0.018665,-0.009295,0.028445,48.22673,36.991653,-138.661133,,,
729862730.637796,-0.743213,-0.578068,-163.846215,0.003693,-0.011612,1.001373,-0.018665,-0.009295,0.028445,48.22673,36.991653,-138.661133,,,
729862730.641155,-0.748487,-0.57988,-163.838101,0.003693,-0.011612,1.001373,-0.018864,-0.003445,0.025418,48.680099,36.942535,-139.064331,,,
729862730.644478,-0.753973,-0.581978,-163.829742,0.005753,-0.014755,1.007309,-0.018864,-0.003445,0.025418,48.680099,36.942535,-139.064331,,,
729862730.647598,-0.753973,-0.581978,-163.829742,0.005753,-0.014755,1.007309,-0.018864,-0.003445,0.025418,48.680099,36.942535,-139.064331,,,
729862730.651179,-0.756625,-0.581163,-163.821651,0.005753,-0.014755,1.007309,-0.006344,0.010221,0.025084,48.680099,36.942535,-139.064331,,,
729862730.654538,-0.759189,-0.578838,-163.813746,0.007568,-0.020676,1.016724,-0.006344,0.010221,0.025084,48.680099,36.942535,-139.064331,,,
729862730.657889,-0.759189,-0.578838,-163.813746,0.007568,-0.020676,1.016724,-0.006344,0.010221,0.025084,48.680099,36.942535,-139.064331,,,
729862730.661197,-0.758517,-0.572032,-163.805477,0.007568,-0.020676,1.016724,0.005467,0.022998,0.026114,48.680099,36.942535,-139.064331,,,
729862730.664335,-0.75771,-0.565844,-163.796956,0.009842,-0.02095,1.016617,0.005467,0.022998,0.026114,48.680099,36.942535,-139.064331,,,
729862730.667963,-0.75771,-0.565844,-163.796956,0.009842,-0.02095,1.016617,0.005467,0.022998,0.026114,48.680099,36.942535,-139.064331,,,
729862730.6712,-0.75504,-0.554439,-163.788908,0.009842,-0.02095,1.016617,0.012747,0.028989,0.023525,48.680099,36.942535,-139.064331,,,
729862730.67453,-0.752225,-0.5468,-163.781341,0.009598,-0.022568,1.010681,0.012747,0.028989,0.023525,48.680099,36.942535,-139.064331,,,
729862730.677867,-0.752225,-0.5468,-163.781341,0.009598,-0.022568,1.010681,0.012747,0.028989,0.023525,48.680099,36.942535,-139.064331,,,
729862730.681012,-0.748201,-0.535836,-163.773782,0.009598,-0.022568,1.010681,0.015158,0.020632,0.022781,48.680099,36.942535,-139.064331,,,
729862730.68455,-0.743952,-0.53058,-163.766755,0.00943,-0.019653,1.001907,0.015158,0.020632,0.022781,48.457596,36.797714,-138.719238,,,
729862730.687855,-0.743952,-0.53058,-163.766755,0.00943,-0.019653,1.001907,0.015158,0.020632,0.022781,48.457596,36.797714,-138.719238,,,
729862730.691209,-0.740604,-0.523292,-163.759521,0.00943,-0.019653,1.001907,0.005755,0.011767,0.025033,48.457596,36.797714,-138.719238,,,
729862730.694528,-0.738721,-0.520018,-163.751608,0.007996,-0.020355,0.99173,0.005755,0.011767,0.025033,48.457596,36.797714,-138.719238,,,
729862730.697664,-0.738721,-0.520018,-163.751608,0.007996,-0.020355,0.99173,0.005755,0.011767,0.025033,48.457596,36.797714,-138.719238,,,
729862730.701242,-0.739286,-0.515029,-163.743184,0.007996,-0.020355,0.99173,-0.007894,0.003839,0.028405,48.457596,36.797714,-138.719238,,,
729862730.704532,-0.74108,-0.513944,-163.734606,0.01059,-0.017563,0.986221,-0.007894,0.003839,0.028405,48.457596,36.797714,-138.719238,,,
729862730.707945,-0.74108,-0.513944,-163.734606,0.01059,-0.017563,0.986221,-0.007894,0.003839,0.028405,48.457596,36.797714,-138.719238,,,
729862730.7112,-0.744653,-0.511915,-163.726214,0.01059,-0.017563,0.986221,-0.022744,-0.001181,0.026378,48.457596,36.797714,-138.719238,,,
729862730.714397,-0.750998,-0.512408,-163.718554,0.014297,-0.014755,0.980942,-0.022744,-0.001181,0.026378,48.457596,36.797714,-138.719238,,,
729862730.71788,-0.750998,-0.512408,-163.718554,0.014297,-0.014755,0.980942,-0.022744,-0.001181,0.026378,48.457596,36.797714,-138.719238,,,
729862730.721206,-0.75954,-0.5127,-163.711509,0.014297,-0.014755,0.980942,-0.033377,-0.007653,0.01881,48.457596,36.797714,-138.719238,,,
729862730.724527,-0.769447,-0.514777,-163.705605,0.021484,-0.011124,0.984726,-0.033377,-0.007653,0.01881,48.875565,36.678696,-139.052307,,,
729862730.72787,-0.769447,-0.514777,-163.705605,0.021484,-0.011124,0.984726,-0.033377,-0.007653,0.01881,48.875565,36.678696,-139.052307,,,
729862730.730999,-0.780122,-0.517233,-163.700243,0.021484,-0.011124,0.984726,-0.034627,-0.01026,0.017457,48.875565,36.678696,-139.052307,,,
729862730.734554,-0.789809,-0.521289,-163.69447,0.023743,-0.017776,0.996964,-0.034627,-0.01026,0.017457,48.875565,36.678696,-139.052307,,,
729862730.737869,-0.789809,-0.521289,-163.69447,0.023743,-0.017776,0.996964,-0.034627,-0.01026,0.017457,48.875565,36.678696,-139.052307,,,
729862730.741201,-0.799355,-0.525009,-163.688381,0.023743,-0.017776,0.996964,-0.017173,-0.012171,0.020845,48.875565,36.678696,-139.052307,,,
729862730.744521,-0.80545,-0.528955,-163.682561,0.022797,-0.022964,1.011993,-0.017173,-0.012171,0.020845,48.875565,36.678696,-139.052307,,,
729862730.747713,-0.80545,-0.528955,-163.682561,0.022797,-0.022964,1.011993,-0.017173,-0.012171,0.020845,48.875565,36.678696,-139.052307,,,
729862730.751219,-0.810748,-0.533143,-163.677476,0.022797,-0.022964,1.011993,-0.002509,-0.012702,0.010746,48.875565,36.678696,-139.052307,,,
729862730.754521,-0.812097,-0.537103,-163.67345,0.027359,-0.022476,1.014282,-0.002509,-0.012702,0.010746,48.875565,36.678696,-139.052307,,,
729862730.757883,-0.812097,-0.537103,-163.67345,0.027359,-0.022476,1.014282,-0.002509,-0.012702,0.010746,48.875565,36.678696,-139.052307,,,
729862730.761296,-0.813302,-0.540726,-163.671612,0.027359,-0.022476,1.014282,0.006604,-0.012983,-0.007795,48.875565,36.678696,-139.052307,,,
729862730.764346,-0.812596,-0.544374,-163.672371,0.035248,-0.016815,1.01059,0.006604,-0.012983,-0.007795,48.846008,36.670959,-139.010818,,,
729862730.767882,-0.812596,-0.544374,-163.672371,0.035248,-0.016815,1.01059,0.006604,-0.012983,-0.007795,48.846008,36.670959,-139.010818,,,
729862730.771204,-0.812059,-0.547534,-163.675502,0.035248,-0.016815,1.01059,0.005253,0.004553,-0.020492,48.846008,36.670959,-139.010818,,,
729862730.77452,-0.810577,-0.548128,-163.680227,0.040314,-0.01326,1.005432,0.005253,0.004553,-0.020492,48.846008,36.670959,-139.010818,,,
729862730.777853,-0.810577,-0.548128,-163.680227,0.040314,-0.01326,1.005432,0.005253,0.004553,-0.020492,48.846008,36.670959,-139.010818,,,
729862730.781003,-0.810596,-0.544194,-163.68526,0.040314,-0.01326,1.005432,0.004669,0.041418,-0.017016,48.846008,36.670959,-139.010818,,,
729862730.784548,-0.809602,-0.534796,-163.689622,0.032745,-0.016418,1.004974,0.004669,0.041418,-0.017016,48.846008,36.670959,-139.010818,,,
729862730.787952,-0.809602,-0.534796,-163.689622,0.032745,-0.016418,1.004974,0.004669,0.041418,-0.017016,48.846008,36.670959,-139.010818,,,
729862730.791209,-0.809503,-0.520781,-163.693353,0.032745,-0.016418,1.004974,0.00276,0.065039,-0.012186,48.846008,36.670959,-139.010818,,,
729862730.794533,-0.8088,-0.503044,-163.696786,0.026642,-0.018448,1.003723,0.00276,0.065039,-0.012186,48.846008,36.670959,-139.010818,,,
729862730.797676,-0.8088,-0.503044,-163.696786,0.026642,-0.018448,1.003723,0.00276,0.065039,-0.012186,48.846008,36.670959,-139.010818,,,
729862730.801317,-0.808386,-0.486188,-163.701015,0.026642,-0.018448,1.003723,-0.004032,0.061663,-0.018673,48.846008,36.670959,-139.010818,,,
729862730.804522,-0.808715,-0.469007,-163.706366,0.023407,-0.015839,0.994644,-0.004032,0.061663,-0.018673,48.846008,36.670959,-139.010818,,,
729862730.807873,-0.808715,-0.469007,-163.706366,0.023407,-0.015839,0.994644,-0.004032,0.061663,-0.018673,48.988174,36.50296,-138.866501,,,
729862730.811186,-0.809558,-0.458502,-163.712636,0.023407,-0.015839,0.994644,-0.004985,0.035536,-0.029444,48.988174,36.50296,-138.866501,,,
729862730.814326,-0.811111,-0.448101,-163.719921,0.021851,-0.012878,0.989761,-0.004985,0.035536,-0.029444,48.988174,36.50296,-138.866501,,,
729862730.817903,-0.811111,-0.448101,-163.719921,0.021851,-0.012878,0.989761,-0.004985,0.035536,-0.029444,48.988174,36.50296,-138.866501,,,
729862730.821191,-0.813464,-0.444339,-163.727914,0.021851,-0.012878,0.989761,-0.001407,0.016524,-0.025782,48.988174,36.50296,-138.866501,,,
729862730.824527,-0.814279,-0.439483,-163.735875,0.015533,-0.015884,0.991669,-0.001407,0.016524,-0.025782,48.988174,36.50296,-138.866501,,,
729862730.827856,-0.814279,-0.439483,-163.735875,0.015533,-0.015884,0.991669,-0.001407,0.016524,-0.025782,48.988174,36.50296,-138.866501,,,
729862730.830996,-0.816843,-0.440863,-163.743795,0.015533,-0.015884,0.991669,-0.000925,0.010529,-0.031238,48.988174,36.50296,-138.866501,,,
729862730.834547,-0.817023,-0.439119,-163.751881,0.013184,-0.014114,0.995392,-0.000925,0.010529,-0.031238,48.988174,36.50296,-138.866501,,,
729862730.837927,-0.817023,-0.439119,-163.751881,0.013184,-0.014114,0.995392,-0.000925,0.010529,-0.031238,48.988174,36.50296,-138.866501,,,
729862730.841185,-0.818051,-0.441634,-163.760098,0.013184,-0.014114,0.995392,0.004864,0.015164,-0.027656,48.988174,36.50296,-138.866501,,,
729862730.844527,-0.817117,-0.438666,-163.767396,0.010651,-0.01239,1.002625,0.004864,0.015164,-0.027656,48.988174,36.50296,-138.866501,,,
729862730.847682,-0.817117,-0.438666,-163.767396,0.010651,-0.01239,1.002625,0.004864,0.015164,-0.027656,48.809555,36.921661,-138.664032,,,
729862730.851276,-0.815496,-0.441515,-163.774314,0.010651,-0.01239,1.002625,0.009395,0.022871,-0.02298,48.809555,36.921661,-138.664032,,,
729862730.854515,-0.812735,-0.435773,-163.780698,0.007858,-0.015106,1.00206,0.009395,0.022871,-0.02298,48.809555,36.921661,-138.664032,,,
729862730.857876,-0.812735,-0.435773,-163.780698,0.007858,-0.015106,1.00206,0.009395,0.022871,-0.02298,48.809555,36.921661,-138.664032,,,
729862730.861186,-0.809304,-0.436281,-163.786661,0.007858,-0.015106,1.00206,0.014517,0.030281,-0.025029,48.809555,36.921661,-138.664032,,,
729862730.864317,-0.80565,-0.428092,-163.792676,0.007812,-0.013245,1.000076,0.014517,0.030281,-0.025029,48.809555,36.921661,-138.664032,,,
729862730.868005,-0.80565,-0.428092,-163.792676,0.007812,-0.013245,1.000076,0.014517,0.030281,-0.025029,48.809555,36.921661,-138.664032,,,
729862730.871246,-0.803032,-0.424733,-163.799054,0.007812,-0.013245,1.000076,0.006428,0.029451,-0.025832,48.809555,36.921661,-138.664032,,,
729862730.874617,-0.800828,-0.4167,-163.805782,0.006592,-0.013,0.990387,0.006428,0.029451,-0.025832,48.809555,36.921661,-138.664032,,,
729862730.877896,-0.800828,-0.4167,-163.805782,0.006592,-0.013,0.990387,0.006428,0.029451,-0.025832,48.809555,36.921661,-138.664032,,,
729862730.881006,-0.800326,-0.414238,-163.812838,0.006592,-0.013,0.990387,0.004725,0.026437,-0.021054,48.809555,36.921661,-138.664032,,,
729862730.884567,-0.799399,-0.407735,-163.81938,0.003815,-0.010818,0.985672,0.004725,0.026437,-0.021054,48.809555,36.921661,-138.664032,,,
729862730.887856,-0.799399,-0.407735,-163.81938,0.003815,-0.010818,0.985672,0.004725,0.026437,-0.021054,48.692108,36.62851,-138.92662,,,
729862730.891191,-0.799305,-0.404511,-163.824464,0.003815,-0.010818,0.985672,-0.000899,0.027503,-0.008842,48.692108,36.62851,-138.92662,,,
729862730.894525,-0.800006,-0.397223,-163.82767,-0.005493,-0.015945,0.991348,-0.000899,0.027503,-0.008842,48.692108,36.62851,-138.92662,,,
729862730.897672,-0.800006,-0.397223,-163.82767,-0.005493,-0.015945,0.991348,-0.000899,0.027503,-0.008842,48.692108,36.62851,-138.92662,,,
729862730.901257,-0.800997,-0.392968,-163.829084,-0.005493,-0.015945,0.991348,-0.001908,0.030548,-0.002602,48.692108,36.62851,-138.92662,,,
729862730.904525,-0.801837,-0.38487,-163.829085,-0.0065,-0.018127,0.996887,-0.001908,0.030548,-0.002602,48.692108,36.62851,-138.92662,,,
729862730.907853,-0.801837,-0.38487,-163.829085,-0.0065,-0.018127,0.996887,-0.001908,0.030548,-0.002602,48.692108,36.62851,-138.92662,,,
729862730.911189,-0.802648,-0.378545,-163.828565,-0.0065,-0.018127,0.996887,0.002193,0.029544,-0.002004,48.692108,36.62851,-138.92662,,,
729862730.914337,-0.802323,-0.370685,-163.828242,0.000763,-0.014053,0.999649,0.002193,0.029544,-0.002004,48.692108,36.62851,-138.92662,,,
729862730.917896,-0.802323,-0.370685,-163.828242,0.000763,-0.014053,0.999649,0.002193,0.029544,-0.002004,48.692108,36.62851,-138.92662,,,
729862730.921198,-0.801549,-0.365019,-163.828361,0.000763,-0.014053,0.999649,0.000553,0.022563,-0.003569,48.692108,36.62851,-138.92662,,,
729862730.92452,-0.801643,-0.358695,-163.828956,0.003586,-0.009613,0.993454,0.000553,0.022563,-0.003569,48.692108,36.62851,-138.92662,,,
729862730.927854,-0.801643,-0.358695,-163.828956,0.003586,-0.009613,0.993454,0.000553,0.022563,-0.003569,48.485748,36.748505,-138.902008,,,
729862730.930999,-0.802162,-0.354396,-163.829617,0.003586,-0.009613,0.993454,-0.009491,0.013771,-0.001119,48.485748,36.748505,-138.902008,,,
729862730.934556,-0.804003,-0.350597,-163.829492,0.00383,-0.010208,0.982727,-0.009491,0.013771,-0.001119,48.485748,36.748505,-138.902008,,,
729862730.937849,-0.804003,-0.350597,-163.829492,0.00383,-0.010208,0.982727,-0.009491,0.013771,-0.001119,48.485748,36.748505,-138.902008,,,
729862730.941191,-0.806936,-0.346889,-163.828333,0.00383,-0.010208,0.982727,-0.012392,0.01585,0.006281,48.485748,36.748505,-138.902008,,,
729862730.944518,-0.810188,-0.34246,-163.826277,-0.000275,-0.012207,0.989182,-0.012392,0.01585,0.006281,48.485748,36.748505,-138.902008,,,
729862730.94767,-0.810188,-0.34246,-163.826277,-0.000275,-0.012207,0.989182,-0.012392,0.01585,0.006281,48.485748,36.748505,-138.902008,,,
729862730.951221,-0.813584,-0.338767,-163.82389,-0.000275,-0.012207,0.989182,-0.009725,0.012714,0.008068,48.485748,36.748505,-138.902008,,,
729862730.954519,-0.816375,-0.335345,-163.821191,0.005508,-0.014175,0.995804,-0.009725,0.012714,0.008068,48.485748,36.748505,-138.902008,,,
729862730.957872,-0.816375,-0.335345,-163.821191,0.005508,-0.014175,0.995804,-0.009725,0.012714,0.008068,48.485748,36.748505,-138.902008,,,
729862730.961197,-0.818084,-0.332818,-163.818174,0.005508,-0.014175,0.995804,-0.001627,0.011756,0.006211,48.485748,36.748505,-138.902008,,,
729862730.964323,-0.819413,-0.330509,-163.815502,0.008331,-0.015076,0.997681,-0.001627,0.011756,0.006211,48.485748,36.748505,-138.902008,,,
729862730.968018,-0.819413,-0.330509,-163.815502,0.008331,-0.015076,0.997681,-0.001627,0.011756,0.006211,48.485748,36.748505,-138.902008,,,
729862730.971203,-0.818736,-0.327713,-163.81267,0.008331,-0.015076,0.997681,0.007186,0.008834,0.008201,48.473633,36.63031,-138.959732,,,
729862730.97445,-0.816987,-0.326435,-163.809599,0.005844,-0.017273,1.002213,0.007186,0.008834,0.008201,48.473633,36.63031,-138.959732,,,
729862730.977873,-0.816987,-0.326435,-163.809599,0.005844,-0.017273,1.002213,0.007186,0.008834,0.008201,48.473633,36.63031,-138.959732,,,
729862730.98099,-0.815543,-0.322071,-163.806754,0.005844,-0.017273,1.002213,0.011046,0.005429,0.003829,48.473633,36.63031,-138.959732,,,
729862730.984547,-0.812992,-0.321271,-163.804435,0.007751,-0.010651,1.000504,0.011046,0.005429,0.003829,48.473633,36.63031,-138.959732,,,
729862730.98763,-0.812992,-0.321271,-163.804435,0.007751,-0.010651,1.000504,0.011046,0.005429,0.003829,48.473633,36.63031,-138.959732,,,
729862730.991214,-0.811135,-0.317422,-163.801795,0.007751,-0.010651,1.000504,0.006581,0.011593,0.01587,48.473633,36.63031,-138.959732,,,
729862730.994588,-0.809994,-0.314416,-163.797605,0.003143,-0.013062,0.998535,0.006581,0.011593,0.01587,48.473633,36.63031,-138.959732,,,
729862730.997652,-0.809994,-0.314416,-163.797605,0.003143,-0.013062,0.998535,0.006581,0.011593,0.01587,48.473633,36.63031,-138.959732,,,
729862731.001221,-0.808822,-0.310753,-163.791628,0.003143,-0.013062,0.998535,0.004139,0.004824,0.027665,48.473633,36.63031,-138.959732,,,
729862731.004568,-0.807881,-0.309257,-163.78438,0.00116,-0.013107,0.99202,0.004139,0.004824,0.027665,48.473633,36.63031,-138.959732,,,
729862731.007584,-0.807881,-0.309257,-163.78438,0.00116,-0.013107,0.99202,0.004139,0.004824,0.027665,48.473633,36.63031,-138.959732,,,
729862731.011227,-0.80721,-0.308299,-163.776817,0.00116,-0.013107,0.99202,-0.010102,0.010025,0.023153,48.300644,36.696243,-139.000351,,,
729862731.014399,-0.809204,-0.3067,-163.769538,0.006332,-0.006882,0.985947,-0.010102,0.010025,0.023153,48.300644,36.696243,-139.000351,,,
729862731.017697,-0.809204,-0.3067,-163.769538,0.006332,-0.006882,0.985947,-0.010102,0.010025,0.023153,48.300644,36.696243,-139.000351,,,
729862731.021207,-0.812417,-0.301815,-163.762709,0.006332,-0.006882,0.985947,-0.017253,0.02436,0.020192,48.300644,36.696243,-139.000351,,,
729862731.024558,-0.817491,-0.29559,-163.756495,0.007278,-0.008484,0.990463,-0.017253,0.02436,0.020192,48.300644,36.696243,-139.000351,,,
729862731.027668,-0.817491,-0.29559,-163.756495,0.007278,-0.008484,0.990463,-0.017253,0.02436,0.020192,48.300644,36.696243,-139.000351,,,
729862731.031058,-0.82307,-0.287903,-163.751064,0.007278,-0.008484,0.990463,-0.022392,0.028496,0.016231,48.300644,36.696243,-139.000351,,,
729862731.034501,-0.830047,-0.28089,-163.745992,0.010941,-0.007935,0.988998,-0.022392,0.028496,0.016231,48.300644,36.696243,-139.000351,,,
729862731.037875,-0.830047,-0.28089,-163.745992,0.010941,-0.007935,0.988998,-0.022392,0.028496,0.016231,48.300644,36.696243,-139.000351,,,
729862731.041214,-0.838012,-0.273801,-163.741291,0.010941,-0.007935,0.988998,-0.029854,0.028691,0.012567,48.300644,36.696243,-139.000351,,,
729862731.044608,-0.847149,-0.266107,-163.737267,0.01004,-0.007065,0.987213,-0.029854,0.028691,0.012567,48.300644,36.696243,-139.000351,,,
729862731.047723,-0.847149,-0.266107,-163.737267,0.01004,-0.007065,0.987213,-0.029854,0.028691,0.012567,48.300644,36.696243,-139.000351,,,
729862731.051297,-0.857149,-0.258836,-163.733799,0.01004,-0.007065,0.987213,-0.033867,0.024914,0.012584,48.340607,36.788132,-139.009903,,,
729862731.054539,-0.866935,-0.251765,-163.730261,0.005035,-0.01268,0.988464,-0.033867,0.024914,0.012584,48.340607,36.788132,-139.009903,,,
729862731.057963,-0.866935,-0.251765,-163.730261,0.005035,-0.01268,0.988464,-0.033867,0.024914,0.012584,48.340607,36.788132,-139.009903,,,
729862731.061227,-0.875971,-0.247588,-163.726511,0.005035,-0.01268,0.988464,-0.019446,0.00421,0.010701,48.340607,36.788132,-139.009903,,,
729862731.064356,-0.875971,-0.247588,-163.726511,0.005035,-0.01268,0.988464,-0.019446,0.00421,0.010701,48.340607,36.788132,-139.009903,,,
729862731.06789,-0.883028,-0.246447,-163.722824,0.002518,-0.017456,0.994354,-0.019446,0.00421,0.010701,48.340607,36.788132,-139.009903,,,
729862731.071196,-0.886779,-0.24953,-163.719358,0.002518,-0.017456,0.994354,-0.009299,-0.01623,0.011059,48.340607,36.788132,-139.009903,,,
729862731.074575,-0.890384,-0.254118,-163.716157,0.002441,-0.015472,0.999329,-0.009299,-0.01623,0.011059,48.340607,36.788132,-139.009903,,,
729862731.077862,-0.890384,-0.254118,-163.716157,0.002441,-0.015472,0.999329,-0.009299,-0.01623,0.011059,48.340607,36.788132,-139.009903,,,
729862731.081004,-0.892498,-0.258766,-163.712764,0.002441,-0.015472,0.999329,-0.001332,-0.023126,0.013958,48.340607,36.788132,-139.009903,,,
729862731.084623,-0.893493,-0.265237,-163.708961,0.00209,-0.017532,1.001297,-0.001332,-0.023126,0.013958,48.340607,36.788132,-139.009903,,,
729862731.087858,-0.893493,-0.265237,-163.708961,0.00209,-0.017532,1.001297,-0.001332,-0.023126,0.013958,48.340607,36.788132,-139.009903,,,
729862731.091188,-0.892204,-0.272327,-163.704386,0.00209,-0.017532,1.001297,0.006172,-0.024708,0.01103,48.158768,36.871078,-138.251984,,,
729862731.094572,-0.892204,-0.280109,-163.699923,0.005554,-0.019928,1.004242,0.006172,-0.024708,0.01103,48.158768,36.871078,-138.251984,,,
729862731.097716,-0.89075,-0.280109,-163.699923,0.005554,-0.019928,1.004242,0.006172,-0.024708,0.01103,48.158768,36.871078,-138.251984,,,
729862731.101214,-0.887211,-0.28753,-163.696953,0.005554,-0.019928,1.004242,0.003021,-0.014856,0.004202,48.158768,36.871078,-138.251984,,,
729862731.10459,-0.885987,-0.29286,-163.69524,0.012756,-0.01384,1.002472,0.003021,-0.014856,0.004202,48.158768,36.871078,-138.251984,,,
729862731.107883,-0.885987,-0.29286,-163.69524,0.012756,-0.01384,1.002472,0.003021,-0.014856,0.004202,48.158768,36.871078,-138.251984,,,
729862731.111266,-0.884856,-0.297099,-163.694721,0.012756,-0.01384,1.002472,-0.007586,0.00212,-0.004225,48.158768,36.871078,-138.251984,,,
729862731.114421,-0.884856,-0.297099,-163.694721,0.012756,-0.01384,1.002472,-0.007586,0.00212,-0.004225,48.158768,36.871078,-138.251984,,,
729862731.117905,-0.886875,-0.298208,-163.695249,0.015717,-0.009583,0.993576,-0.007586,0.00212,-0.004225,48.158768,36.871078,-138.251984,,,
729862731.121213,-0.890171,-0.297905,-163.695852,0.015717,-0.009583,0.993576,-0.03066,0.015479,-0.000501,48.158768,36.871078,-138.251984,,,
729862731.124634,-0.897819,-0.293899,-163.696123,0.014771,-0.009338,0.984146,-0.03066,0.015479,-0.000501,48.158768,36.871078,-138.251984,,,
729862731.127857,-0.897819,-0.293899,-163.696123,0.014771,-0.009338,0.984146,-0.03066,0.015479,-0.000501,48.158768,36.871078,-138.251984,,,
729862731.131003,-0.906497,-0.289607,-163.696589,0.014771,-0.009338,0.984146,-0.043765,0.022845,-0.004185,48.158768,36.871078,-138.251984,,,
729862731.134549,-0.906497,-0.289607,-163.696589,0.014771,-0.009338,0.984146,-0.043765,0.022845,-0.004185,48.099075,36.835632,-138.908142,,,
729862731.13796,-0.919259,-0.284102,-163.697192,0.006439,-0.011108,0.978989,-0.043765,0.022845,-0.004185,48.099075,36.835632,-138.908142,,,
729862731.141214,-0.933227,-0.278301,-163.698415,0.006439,-0.011108,0.978989,-0.044208,0.017423,-0.005552,48.099075,36.835632,-138.908142,,,
729862731.144581,-0.933227,-0.278301,-163.698415,0.006439,-0.011108,0.978989,-0.044208,0.017423,-0.005552,48.099075,36.835632,-138.908142,,,
729862731.14768,-0.94624,-0.273509,-163.700178,0.004929,-0.011673,0.986923,-0.044208,0.017423,-0.005552,48.099075,36.835632,-138.908142,,,
729862731.151223,-0.957274,-0.270013,-163.701672,0.004929,-0.011673,0.986923,-0.022894,0.000919,-0.00729,48.099075,36.835632,-138.908142,,,
729862731.154532,-0.957274,-0.270013,-163.701672,0.004929,-0.011673,0.986923,-0.022894,0.000919,-0.00729,48.099075,36.835632,-138.908142,,,
729862731.157889,-0.965475,-0.26916,-163.703591,0.004974,-0.018539,1.003326,-0.022894,0.000919,-0.00729,48.099075,36.835632,-138.908142,,,
729862731.161276,-0.969423,-0.270608,-163.706046,0.004974,-0.018539,1.003326,0.003312,-0.016403,-0.010791,48.099075,36.835632,-138.908142,,,
729862731.164553,-0.969423,-0.270608,-163.706046,0.004974,-0.018539,1.003326,0.003312,-0.016403,-0.010791,48.099075,36.835632,-138.908142,,,
729862731.167872,-0.970108,-0.274929,-163.708803,0.004547,-0.017395,1.006607,0.003312,-0.016403,-0.010791,48.099075,36.835632,-138.908142,,,
729862731.171197,-0.969157,-0.27911,-163.71173,0.004547,-0.017395,1.006607,0.006693,-0.014875,-0.009265,48.099075,36.835632,-138.908142,,,
729862731.174575,-0.969157,-0.27911,-163.71173,0.004547,-0.017395,1.006607,0.006693,-0.014875,-0.009265,47.914368,37.073807,-138.966278,,,
729862731.177856,-0.967307,-0.283734,-163.713897,-0.000931,-0.019318,1.002701,0.006693,-0.014875,-0.009265,47.914368,37.073807,-138.966278,,,
729862731.181014,-0.965914,-0.288522,-163.715032,-0.000931,-0.019318,1.002701,0.002233,-0.006038,-0.003112,47.914368,37.073807,-138.966278,,,
729862731.184632,-0.965914,-0.288522,-163.715032,-0.000931,-0.019318,1.002701,0.002233,-0.006038,-0.003112,47.914368,37.073807,-138.966278,,,
729862731.187917,-0.965379,-0.291023,-163.715942,-0.00322,-0.018295,0.996246,0.002233,-0.006038,-0.003112,47.914368,37.073807,-138.966278,,,
729862731.191283,-0.965447,-0.293435,-163.716549,-0.00322,-0.018295,0.996246,-0.007984,0.008939,-0.003065,47.914368,37.073807,-138.966278,,,
729862731.194548,-0.965447,-0.293435,-163.716549,-0.00322,-0.018295,0.996246,-0.007984,0.008939,-0.003065,47.914368,37.073807,-138.966278,,,
729862731.197683,-0.967474,-0.292442,-163.717008,0.00589,-0.013962,0.994324,-0.007984,0.008939,-0.003065,47.914368,37.073807,-138.966278,,,
729862731.201233,-0.969469,-0.292621,-163.718662,0.00589,-0.013962,0.994324,-0.020375,0.016907,-0.01116,47.914368,37.073807,-138.966278,,,
729862731.204555,-0.969469,-0.292621,-163.718662,0.00589,-0.013962,0.994324,-0.020375,0.016907,-0.01116,47.914368,37.073807,-138.966278,,,
729862731.20787,-0.975212,-0.288597,-163.721238,0.011871,-0.011902,0.991791,-0.020375,0.016907,-0.01116,47.914368,37.073807,-138.966278,,,
729862731.211189,-0.981244,-0.285292,-163.724381,0.011871,-0.011902,0.991791,-0.027928,0.029381,-0.013269,47.914368,37.073807,-138.966278,,,
729862731.214332,-0.981244,-0.285292,-163.724381,0.011871,-0.011902,0.991791,-0.027928,0.029381,-0.013269,47.953323,36.86058,-139.150085,,,
729862731.217901,-0.989374,-0.27806,-163.727913,0.010712,-0.010178,0.995911,-0.027928,0.029381,-0.013269,47.953323,36.86058,-139.150085,,,
729862731.221188,-0.997943,-0.268772,-163.731457,0.010712,-0.010178,0.995911,-0.037229,0.04364,-0.006867,47.953323,36.86058,-139.150085,,,
729862731.224561,-0.997943,-0.268772,-163.731457,0.010712,-0.010178,0.995911,-0.037229,0.04364,-0.006867,47.953323,36.86058,-139.150085,,,
729862731.227965,-1.009122,-0.257454,-163.73366,0.008621,-0.013168,0.998428,-0.037229,0.04364,-0.006867,47.953323,36.86058,-139.150085,,,
729862731.230995,-1.020493,-0.244361,-163.734916,0.008621,-0.013168,0.998428,-0.043079,0.054374,-0.002693,47.953323,36.86058,-139.150085,,,
729862731.234607,-1.020493,-0.244361,-163.734916,0.008621,-0.013168,0.998428,-0.043079,0.054374,-0.002693,47.953323,36.86058,-139.150085,,,
729862731.237865,-1.03361,-0.229681,-163.735806,0.003357,-0.015457,0.994583,-0.043079,0.054374,-0.002693,47.953323,36.86058,-139.150085,,,
729862731.241194,-1.047808,-0.214779,-163.736093,0.003357,-0.015457,0.994583,-0.045138,0.056282,0.003503,47.953323,36.86058,-139.150085,,,
729862731.244538,-1.047808,-0.214779,-163.736093,0.003357,-0.015457,0.994583,-0.045138,0.056282,0.003503,47.953323,36.86058,-139.150085,,,
729862731.24767,-1.061077,-0.199252,-163.735651,-0.002716,-0.019302,0.999512,-0.045138,0.056282,0.003503,47.953323,36.86058,-139.150085,,,
729862731.251217,-1.072139,-0.183596,-163.734322,-0.002716,-0.019302,0.999512,-0.027291,0.049885,0.007385,47.953323,36.86058,-139.150085,,,
729862731.254522,-1.072139,-0.183596,-163.734322,-0.002716,-0.019302,0.999512,-0.027291,0.049885,0.007385,48.061218,36.976212,-138.87439,,,
729862731.257866,-1.080717,-0.168925,-163.732264,-0.005814,-0.023712,1.013046,-0.027291,0.049885,0.007385,48.061218,36.976212,-138.87439,,,
729862731.261191,-1.086234,-0.155155,-163.728904,-0.005814,-0.023712,1.013046,-0.000679,0.032326,0.014171,48.061218,36.976212,-138.87439,,,
729862731.264426,-1.086234,-0.155155,-163.728904,-0.005814,-0.023712,1.013046,-0.000679,0.032326,0.014171,48.061218,36.976212,-138.87439,,,
729862731.267904,-1.087468,-0.14543,-163.725015,-0.008224,-0.026627,1.023132,-0.000679,0.032326,0.014171,48.061218,36.976212,-138.87439,,,
729862731.271199,-1.083923,-0.137935,-163.720845,-0.008224,-0.026627,1.023132,0.024754,0.005385,0.015101,48.061218,36.976212,-138.87439,,,
729862731.274526,-1.083923,-0.137935,-163.720845,-0.008224,-0.026627,1.023132,0.024754,0.005385,0.015101,48.061218,36.976212,-138.87439,,,
729862731.277661,-1.077877,-0.135901,-163.716177,-0.002487,-0.024658,1.02005,0.024754,0.005385,0.015101,48.061218,36.976212,-138.87439,,,
729862731.281031,-1.070149,-0.140009,-163.71177,-0.002487,-0.024658,1.02005,0.024355,-0.031611,0.00994,48.061218,36.976212,-138.87439,,,
729862731.284574,-1.070149,-0.140009,-163.71177,-0.002487,-0.024658,1.02005,0.024355,-0.031611,0.00994,48.061218,36.976212,-138.87439,,,
729862731.287872,-1.064257,-0.14752,-163.708418,-0.001907,-0.017792,1.00174,0.024355,-0.031611,0.00994,48.061218,36.976212,-138.87439,,,
729862731.291248,-1.058521,-0.161255,-163.705622,-0.001907,-0.017792,1.00174,0.003149,-0.046598,0.009254,48.061218,36.976212,-138.87439,,,
729862731.294515,-1.058521,-0.161255,-163.705622,-0.001907,-0.017792,1.00174,0.003149,-0.046598,0.009254,48.061218,36.976212,-138.87439,,,
729862731.297677,-1.056971,-0.175058,-163.70259,0.003799,-0.011368,0.987793,0.003149,-0.046598,0.009254,47.799713,37.200562,-139.118393,,,
729862731.301219,-1.057406,-0.191163,-163.699559,0.003799,-0.011368,0.987793,-0.020237,-0.045201,0.011514,47.799713,37.200562,-139.118393,,,
729862731.304531,-1.057406,-0.191163,-163.699559,0.003799,-0.011368,0.987793,-0.020237,-0.045201,0.011514,47.799713,37.200562,-139.118393,,,
729862731.307878,-1.062965,-0.204199,-163.696379,0.008484,-0.009567,0.985855,-0.020237,-0.045201,0.011514,47.799713,37.200562,-139.118393,,,
729862731.311195,-1.070348,-0.216154,-163.693105,0.008484,-0.009567,0.985855,-0.035552,-0.027509,0.010552,47.799713,37.200562,-139.118393,,,
729862731.314387,-1.070348,-0.216154,-163.693105,0.008484,-0.009567,0.985855,-0.035552,-0.027509,0.010552,47.799713,37.200562,-139.118393,,,
729862731.317898,-1.08059,-0.224574,-163.68998,0.016586,-0.008438,0.991882,-0.035552,-0.027509,0.010552,47.799713,37.200562,-139.118393,,,
729862731.321192,-1.091878,-0.229957,-163.687236,0.016586,-0.008438,0.991882,-0.045751,-0.003627,0.006236,47.799713,37.200562,-139.118393,,,
729862731.324537,-1.091878,-0.229957,-163.687236,0.016586,-0.008438,0.991882,-0.045751,-0.003627,0.006236,47.799713,37.200562,-139.118393,,,
729862731.327865,-1.10461,-0.23293,-163.684789,0.023224,-0.008591,0.998047,-0.045751,-0.003627,0.006236,47.799713,37.200562,-139.118393,,,
729862731.33099,-1.118394,-0.230247,-163.682717,0.023224,-0.008591,0.998047,-0.045062,0.023122,0.005323,47.799713,37.200562,-139.118393,,,
729862731.334568,-1.118394,-0.230247,-163.682717,0.023224,-0.008591,0.998047,-0.045062,0.023122,0.005323,47.799713,37.200562,-139.118393,,,
729862731.337871,-1.131711,-0.225472,-163.680921,0.024857,-0.012817,1.005875,-0.045062,0.023122,0.005323,47.709167,37.456573,-139.199097,,,
729862731.341192,-1.145443,-0.21622,-163.679317,0.024857,-0.012817,1.005875,-0.038886,0.022194,0.002397,47.709167,37.456573,-139.199097,,,
729862731.34454,-1.145443,-0.21622,-163.679317,0.024857,-0.012817,1.005875,-0.038886,0.022194,0.002397,47.709167,37.456573,-139.199097,,,
729862731.34767,-1.157255,-0.20994,-163.678552,0.018112,-0.014725,1.006897,-0.038886,0.022194,0.002397,47.709167,37.456573,-139.199097,,,
729862731.351224,-1.168385,-0.203327,-163.678459,0.018112,-0.014725,1.006897,-0.025142,0.008456,-0.000715,47.709167,37.456573,-139.199097,,,
729862731.354595,-1.168385,-0.203327,-163.678459,0.018112,-0.014725,1.006897,-0.025142,0.008456,-0.000715,47.709167,37.456573,-139.199097,,,
729862731.357872,-1.17582,-0.200813,-163.67906,0.012482,-0.017166,1.008347,-0.025142,0.008456,-0.000715,47.709167,37.456573,-139.199097,,,
729862731.361193,-1.180581,-0.197803,-163.679507,0.012482,-0.017166,1.008347,0.00043,0.008559,0.002496,47.709167,37.456573,-139.199097,,,
729862731.364345,-1.180581,-0.197803,-163.679507,0.012482,-0.017166,1.008347,0.00043,0.008559,0.002496,47.709167,37.456573,-139.199097,,,
729862731.36789,-1.181885,-0.196361,-163.678887,0.00885,-0.023956,1.0224,0.00043,0.008559,0.002496,47.709167,37.456573,-139.199097,,,
729862731.371194,-1.179675,-0.192987,-163.677071,0.00885,-0.023956,1.0224,0.015238,0.011986,0.011872,47.709167,37.456573,-139.199097,,,
729862731.374523,-1.179675,-0.192987,-163.677071,0.00885,-0.023956,1.0224,0.015238,0.011986,0.011872,47.709167,37.456573,-139.199097,,,
729862731.377867,-1.176724,-0.190009,-163.674164,0.006058,-0.026138,1.024155,0.015238,0.011986,0.011872,47.761551,36.936295,-139.435928,,,
729862731.380991,-1.170516,-0.187813,-163.670608,0.006058,-0.026138,1.024155,0.018403,0.005265,0.010084,47.761551,36.936295,-139.435928,,,
729862731.384562,-1.170516,-0.187813,-163.670608,0.006058,-0.026138,1.024155,0.018403,0.005265,0.010084,47.761551,36.936295,-139.435928,,,
729862731.387871,-1.16504,-0.18658,-163.666949,0.00441,-0.021423,1.016235,0.018403,0.005265,0.010084,47.761551,36.936295,-139.435928,,,
729862731.391196,-1.156874,-0.18842,-163.664054,0.00441,-0.021423,1.016235,0.019296,0.003204,0.00285,47.761551,36.936295,-139.435928,,,
729862731.3946,-1.156874,-0.18842,-163.664054,0.00441,-0.021423,1.016235,0.019296,0.003204,0.00285,47.761551,36.936295,-139.435928,,,
729862731.3977,-1.151425,-0.188646,-163.662349,0.007141,-0.014908,1.008514,0.019296,0.003204,0.00285,47.761551,36.936295,-139.435928,,,
729862731.401231,-1.145019,-0.192271,-163.661339,0.007141,-0.014908,1.008514,0.013746,0.00433,0.002486,47.761551,36.936295,-139.435928,,,
729862731.404523,-1.145019,-0.192271,-163.661339,0.007141,-0.014908,1.008514,0.013746,0.00433,0.002486,47.761551,36.936295,-139.435928,,,
729862731.407854,-1.141538,-0.191849,-163.65997,0.007965,-0.01413,1.006302,0.013746,0.00433,0.002486,47.761551,36.936295,-139.435928,,,
729862731.411192,-1.13686,-0.196583,-163.658285,0.007965,-0.01413,1.006302,0.005517,-0.00143,0.004969,47.761551,36.936295,-139.435928,,,
729862731.414316,-1.13686,-0.196583,-163.658285,0.007965,-0.01413,1.006302,0.005517,-0.00143,0.004969,47.761551,36.936295,-139.435928,,,
729862731.417975,-1.135279,-0.197711,-163.656318,0.004181,-0.016373,0.999054,0.005517,-0.00143,0.004969,47.761551,36.936295,-139.435928,,,
729862731.421187,-1.132975,-0.204795,-163.654633,0.004181,-0.016373,0.999054,0.003871,-0.014851,0.00326,47.632217,37.415268,-138.959152,,,
729862731.424533,-1.132975,-0.204795,-163.654633,0.004181,-0.016373,0.999054,0.003871,-0.014851,0.00326,47.632217,37.415268,-138.959152,,,
729862731.427882,-1.13217,-0.208867,-163.653519,0.00148,-0.011993,0.99588,0.003871,-0.014851,0.00326,47.632217,37.415268,-138.959152,,,
729862731.430992,-1.130575,-0.217154,-163.652883,0.00148,-0.011993,0.99588,0.007878,-0.015088,0.002709,47.632217,37.415268,-138.959152,,,
729862731.434561,-1.130575,-0.217154,-163.652883,0.00148,-0.011993,0.99588,0.007878,-0.015088,0.002709,47.632217,37.415268,-138.959152,,,
729862731.437866,-1.129235,-0.222969,-163.652101,0.000885,-0.014465,0.99971,0.007878,-0.015088,0.002709,47.632217,37.415268,-138.959152,,,
729862731.441181,-1.126583,-0.230435,-163.650747,0.000885,-0.014465,0.99971,0.010208,-0.017079,0.006153,47.632217,37.415268,-138.959152,,,
729862731.444611,-1.126583,-0.230435,-163.650747,0.000885,-0.014465,0.99971,0.010208,-0.017079,0.006153,47.632217,37.415268,-138.959152,,,
729862731.447636,-1.124189,-0.236274,-163.648899,0.002274,-0.017532,1.000305,0.010208,-0.017079,0.006153,47.632217,37.415268,-138.959152,,,
729862731.451228,-1.122593,-0.24272,-163.646865,0.002274,-0.017532,1.000305,0.008362,-0.01241,0.003059,47.632217,37.415268,-138.959152,,,
729862731.454536,-1.122593,-0.24272,-163.646865,0.002274,-0.017532,1.000305,0.008362,-0.01241,0.003059,47.632217,37.415268,-138.959152,,,
729862731.457973,-1.119869,-0.247173,-163.645212,0.004578,-0.013351,0.996613,0.008362,-0.01241,0.003059,47.632217,37.415268,-138.959152,,,
729862731.461184,-1.118546,-0.250058,-163.643681,0.004578,-0.013351,0.996613,0.010685,-0.00034,0.005616,48.025528,37.252655,-138.900131,,,
729862731.464341,-1.118546,-0.250058,-163.643681,0.004578,-0.013351,0.996613,0.010685,-0.00034,0.005616,48.025528,37.252655,-138.900131,,,
729862731.467902,-1.116426,-0.251326,-163.641518,0.002792,-0.015762,0.996994,0.010685,-0.00034,0.005616,48.025528,37.252655,-138.900131,,,
729862731.471197,-1.113965,-0.251668,-163.639229,0.002792,-0.015762,0.996994,0.00498,0.000963,0.005481,48.025528,37.252655,-138.900131,,,
729862731.47455,-1.113965,-0.251668,-163.639229,0.002792,-0.015762,0.996994,0.00498,0.000963,0.005481,48.025528,37.252655,-138.900131,,,
729862731.477863,-1.112296,-0.251564,-163.637345,0.001816,-0.016052,0.994598,0.00498,0.000963,0.005481,48.025528,37.252655,-138.900131,,,
729862731.480991,-1.110244,-0.253687,-163.636015,0.001816,-0.016052,0.994598,0.008249,-0.009165,-0.002135,48.025528,37.252655,-138.900131,,,
729862731.484635,-1.110244,-0.253687,-163.636015,0.001816,-0.016052,0.994598,0.008249,-0.009165,-0.002135,48.025528,37.252655,-138.900131,,,
729862731.487867,-1.108427,-0.25677,-163.635836,0.003311,-0.015167,0.992172,0.008249,-0.009165,-0.002135,48.025528,37.252655,-138.900131,,,
729862731.491195,-1.104411,-0.262009,-163.636992,0.003311,-0.015167,0.992172,0.020318,-0.020008,-0.008022,48.025528,37.252655,-138.900131,,,
729862731.49455,-1.104411,-0.262009,-163.636992,0.003311,-0.015167,0.992172,0.020318,-0.020008,-0.008022,48.025528,37.252655,-138.900131,,,
729862731.497665,-1.0998,-0.26781,-163.638189,0.005981,-0.016083,1.000748,0.020318,-0.020008,-0.008022,48.025528,37.252655,-138.900131,,,
729862731.501219,-1.092702,-0.273906,-163.639486,0.005981,-0.016083,1.000748,0.034104,-0.025547,-0.005618,47.707825,37.188995,-138.778671,,,
729862731.504531,-1.092702,-0.273906,-163.639486,0.005981,-0.016083,1.000748,0.034104,-0.025547,-0.005618,47.707825,37.188995,-138.778671,,,
729862731.50787,-1.084207,-0.280702,-163.640624,0.001404,-0.02092,1.005142,0.034104,-0.025547,-0.005618,47.707825,37.188995,-138.778671,,,
729862731.511218,-1.073483,-0.287295,-163.641149,0.001404,-0.02092,1.005142,0.031262,-0.027714,-0.001761,47.707825,37.188995,-138.778671,,,
729862731.514398,-1.073483,-0.287295,-163.641149,0.001404,-0.02092,1.005142,0.031262,-0.027714,-0.001761,47.707825,37.188995,-138.778671,,,
729862731.517889,-1.0645,-0.295372,-163.64114,-0.002182,-0.022751,0.996933,0.031262,-0.027714,-0.001761,47.707825,37.188995,-138.778671,,,
729862731.521198,-1.056045,-0.302931,-163.641272,-0.002182,-0.022751,0.996933,0.019429,-0.031265,-0.001804,47.707825,37.188995,-138.778671,,,
729862731.524629,-1.056045,-0.302931,-163.641272,-0.002182,-0.022751,0.996933,0.019429,-0.031265,-0.001804,47.707825,37.188995,-138.778671,,,
729862731.527638,-1.050385,-0.311719,-163.642106,-0.001114,-0.017197,0.985657,0.019429,-0.031265,-0.001804,47.707825,37.188995,-138.778671,,,
729862731.530996,-1.047584,-0.319844,-163.643188,-0.001114,-0.017197,0.985657,-0.004137,-0.026706,-0.00368,47.707825,37.188995,-138.778671,,,
729862731.534619,-1.047584,-0.319844,-163.643188,-0.001114,-0.017197,0.985657,-0.004137,-0.026706,-0.00368,47.707825,37.188995,-138.778671,,,
729862731.537864,-1.04807,-0.328095,-163.644216,0.00412,-0.011383,0.974731,-0.004137,-0.026706,-0.00368,47.707825,37.188995,-138.778671,,,
729862731.541186,-1.049835,-0.334641,-163.645507,0.00412,-0.011383,0.974731,-0.017153,-0.011955,-0.004153,47.757065,37.155273,-138.640564,,,
729862731.54454,-1.049835,-0.334641,-163.645507,0.00412,-0.011383,0.974731,-0.017153,-0.011955,-0.004153,47.757065,37.155273,-138.640564,,,
729862731.54772,-1.054625,-0.338885,-163.64653,0.005096,-0.012009,0.978088,-0.017153,-0.011955,-0.004153,47.757065,37.155273,-138.640564,,,
729862731.551219,-1.060281,-0.339025,-163.646223,0.005096,-0.012009,0.978088,-0.018573,0.016229,0.003686,47.757065,37.155273,-138.640564,,,
729862731.554606,-1.060281,-0.339025,-163.646223,0.005096,-0.012009,0.978088,-0.018573,0.016229,0.003686,47.757065,37.155273,-138.640564,,,
729862731.557876,-1.066363,-0.336449,-163.645234,0.000885,-0.020569,0.991776,-0.018573,0.016229,0.003686,47.757065,37.155273,-138.640564,,,
729862731.561194,-1.071099,-0.329632,-163.643026,0.000885,-0.020569,0.991776,-0.014686,0.033546,0.011043,47.757065,37.155273,-138.640564,,,
729862731.564334,-1.071099,-0.329632,-163.643026,0.000885,-0.020569,0.991776,-0.014686,0.033546,0.011043,47.757065,37.155273,-138.640564,,,
729862731.567924,-1.076181,-0.321341,-163.639278,-0.001022,-0.022369,0.996536,-0.014686,0.033546,0.011043,47.757065,37.155273,-138.640564,,,
729862731.571191,-1.080138,-0.311612,-163.635287,-0.001022,-0.022369,0.996536,-0.011941,0.030828,0.014032,47.757065,37.155273,-138.640564,,,
729862731.574527,-1.080138,-0.311612,-163.635287,-0.001022,-0.022369,0.996536,-0.011941,0.030828,0.014032,47.757065,37.155273,-138.640564,,,
729862731.577883,-1.08374,-0.303397,-163.631333,-0.002533,-0.021423,0.991348,-0.011941,0.030828,0.014032,47.757065,37.155273,-138.640564,,,
729862731.580994,-1.086344,-0.297692,-163.6272,-0.002533,-0.021423,0.991348,-0.001199,0.002234,0.017502,47.757065,37.155273,-138.640564,,,
729862731.584631,-1.086344,-0.297692,-163.6272,-0.002533,-0.021423,0.991348,-0.001199,0.002234,0.017502,48.024216,37.201157,-138.980255,,,
729862731.587864,-1.087847,-0.296046,-163.62249,-0.006241,-0.023804,0.987976,-0.001199,0.002234,0.017502,48.024216,37.201157,-138.980255,,,
729862731.591194,-1.088964,-0.297737,-163.617646,-0.006241,-0.023804,0.987976,-0.004872,-0.02582,0.013959,48.024216,37.201157,-138.980255,,,
729862731.594539,-1.088964,-0.297737,-163.617646,-0.006241,-0.023804,0.987976,-0.004872,-0.02582,0.013959,48.024216,37.201157,-138.980255,,,
729862731.597654,-1.089882,-0.304313,-163.613301,-0.004425,-0.023575,0.984848,-0.004872,-0.02582,0.013959,48.024216,37.201157,-138.980255,,,
729862731.601218,-1.092148,-0.311842,-163.608135,-0.004425,-0.023575,0.984848,-0.007387,-0.035457,0.020179,48.024216,37.201157,-138.980255,,,
729862731.604543,-1.092148,-0.311842,-163.608135,-0.004425,-0.023575,0.984848,-0.007387,-0.035457,0.020179,48.024216,37.201157,-138.980255,,,
729862731.608098,-1.094396,-0.322528,-163.602175,-0.000534,-0.02211,0.984634,-0.007387,-0.035457,0.020179,48.024216,37.201157,-138.980255,,,
729862731.611188,-1.096246,-0.331479,-163.595734,-0.000534,-0.02211,0.984634,-0.005712,-0.029074,0.023339,48.024216,37.201157,-138.980255,,,
729862731.614341,-1.096246,-0.331479,-163.595734,-0.000534,-0.02211,0.984634,-0.005712,-0.029074,0.023339,48.024216,37.201157,-138.980255,,,
729862731.617892,-1.098121,-0.340103,-163.588577,4.6e-05,-0.023193,0.994186,-0.005712,-0.029074,0.023339,48.024216,37.201157,-138.980255,,,
729862731.621193,-1.097529,-0.347015,-163.581626,4.6e-05,-0.023193,0.994186,0.002688,-0.015986,0.020598,48.024216,37.201157,-138.980255,,,
729862731.624619,-1.097529,-0.347015,-163.581626,4.6e-05,-0.023193,0.994186,0.002688,-0.015986,0.020598,47.920227,37.034485,-139.111404,,,
729862731.627863,-1.097216,-0.352068,-163.575344,0.00705,-0.020752,1.005493,0.002688,-0.015986,0.020598,47.920227,37.034485,-139.111404,,,
729862731.630993,-1.095174,-0.354043,-163.569173,0.00705,-0.020752,1.005493,0.008755,0.00309,0.017641,47.920227,37.034485,-139.111404,,,
729862731.634559,-1.095174,-0.354043,-163.569173,0.00705,-0.020752,1.005493,0.008755,0.00309,0.017641,47.920227,37.034485,-139.111404,,,
729862731.637864,-1.093845,-0.353876,-163.563057,0.008133,-0.019012,1.00322,0.008755,0.00309,0.017641,47.920227,37.034485,-139.111404,,,
729862731.6412,-1.092988,-0.350779,-163.557059,0.008133,-0.019012,1.00322,0.001804,0.013414,0.01647,47.920227,37.034485,-139.111404,,,
729862731.64454,-1.092988,-0.350779,-163.557059,0.008133,-0.019012,1.00322,0.001804,0.013414,0.01647,47.920227,37.034485,-139.111404,,,
729862731.647676,-1.092312,-0.347947,-163.551513,0.007355,-0.019028,0.994003,0.001804,0.013414,0.01647,47.920227,37.034485,-139.111404,,,
729862731.651148,-1.093057,-0.342999,-163.546452,0.007355,-0.019028,0.994003,-0.005854,0.014283,0.013878,47.920227,37.034485,-139.111404,,,
729862731.65454,-1.093057,-0.342999,-163.546452,0.007355,-0.019028,0.994003,-0.005854,0.014283,0.013878,47.920227,37.034485,-139.111404,,,
729862731.657855,-1.094174,-0.339693,-163.541752,0.006607,-0.015259,0.985367,-0.005854,0.014283,0.013878,47.920227,37.034485,-139.111404,,,
729862731.661194,-1.097162,-0.335712,-163.537411,0.006607,-0.015259,0.985367,-0.013363,-0.003039,0.015509,47.920227,37.034485,-139.111404,,,
729862731.664377,-1.097162,-0.335712,-163.537411,0.006607,-0.015259,0.985367,-0.013363,-0.003039,0.015509,48.126495,37.005615,-139.287079,,,
729862731.667885,-1.100967,-0.335642,-163.533162,0.004578,-0.016754,0.978012,-0.013363,-0.003039,0.015509,48.126495,37.005615,-139.287079,,,
729862731.671196,-1.107592,-0.33464,-163.5283,0.004578,-0.016754,0.978012,-0.029153,-0.009803,0.018704,48.126495,37.005615,-139.287079,,,
729862731.674582,-1.107592,-0.33464,-163.5283,0.004578,-0.016754,0.978012,-0.029153,-0.009803,0.018704,48.126495,37.005615,-139.287079,,,
729862731.677869,-1.115705,-0.337411,-163.522314,-0.000458,-0.016006,0.976288,-0.029153,-0.009803,0.018704,48.126495,37.005615,-139.287079,,,
729862731.680996,-1.125542,-0.339162,-163.514925,-0.000458,-0.016006,0.976288,-0.030583,-0.01517,0.026071,48.126495,37.005615,-139.287079,,,
729862731.684558,-1.125542,-0.339162,-163.514925,-0.000458,-0.016006,0.976288,-0.030583,-0.01517,0.026071,48.126495,37.005615,-139.287079,,,
729862731.687925,-1.13479,-0.343441,-163.507262,-0.002625,-0.021179,0.987976,-0.030583,-0.01517,0.026071,48.126495,37.005615,-139.287079,,,
729862731.691192,-1.144358,-0.347626,-163.499656,-0.002625,-0.021179,0.987976,-0.026629,-0.021558,0.025934,48.126495,37.005615,-139.287079,,,
729862731.694536,-1.144358,-0.347626,-163.499656,-0.002625,-0.021179,0.987976,-0.026629,-0.021558,0.025934,48.126495,37.005615,-139.287079,,,
729862731.697673,-1.152454,-0.354664,-163.491747,0.002808,-0.020569,0.99559,-0.026629,-0.021558,0.025934,48.126495,37.005615,-139.287079,,,
729862731.701223,-1.159396,-0.360394,-163.483984,0.002808,-0.020569,0.99559,-0.014573,-0.01463,0.024574,48.126495,37.005615,-139.287079,,,
729862731.704517,-1.159396,-0.360394,-163.483984,0.002808,-0.020569,0.99559,-0.014573,-0.01463,0.024574,48.250931,37.334778,-139.021286,,,
729862731.707675,-1.163753,-0.365711,-163.476538,0.007217,-0.023972,1.008316,-0.014573,-0.01463,0.024574,48.250931,37.334778,-139.021286,,,
729862731.711241,-1.165989,-0.37076,-163.468667,0.007217,-0.023972,1.008316,0.001984,-0.012603,0.023885,48.250931,37.334778,-139.021286,,,
729862731.714387,-1.165989,-0.37076,-163.468667,0.007217,-0.023972,1.008316,0.001984,-0.012603,0.023885,48.250931,37.334778,-139.021286,,,
729862731.717902,-1.166268,-0.375366,-163.461045,0.011902,-0.025955,1.011597,0.001984,-0.012603,0.023885,48.250931,37.334778,-139.021286,,,
729862731.721196,-1.165028,-0.380062,-163.454444,0.011902,-0.025955,1.011597,0.006307,-0.015019,0.017176,48.250931,37.334778,-139.021286,,,
729862731.724534,-1.165028,-0.380062,-163.454444,0.011902,-0.025955,1.011597,0.006307,-0.015019,0.017176,48.250931,37.334778,-139.021286,,,
729862731.727628,-1.164068,-0.38451,-163.448875,0.014114,-0.018677,1.002365,0.006307,-0.015019,0.017176,48.250931,37.334778,-139.021286,,,
729862731.731067,-1.16286,-0.388584,-163.444252,0.014114,-0.018677,1.002365,0.000165,-0.006215,0.01533,48.250931,37.334778,-139.021286,,,
729862731.734572,-1.16286,-0.388584,-163.444252,0.014114,-0.018677,1.002365,0.000165,-0.006215,0.01533,48.250931,37.334778,-139.021286,,,
729862731.737867,-1.162348,-0.391289,-163.439867,0.015259,-0.016052,0.995728,0.000165,-0.006215,0.01533,48.250931,37.334778,-139.021286,,,
729862731.741205,-1.162082,-0.392825,-163.435513,0.015259,-0.016052,0.995728,-0.006144,-0.003033,0.015151,48.250931,37.334778,-139.021286,,,
729862731.744552,-1.162082,-0.392825,-163.435513,0.015259,-0.016052,0.995728,-0.006144,-0.003033,0.015151,48.250931,37.334778,-139.021286,,,
729862731.747676,-1.164022,-0.394033,-163.431085,0.013474,-0.014297,0.994431,-0.006144,-0.003033,0.015151,48.394424,37.190384,-139.198441,,,
729862731.751221,-1.166834,-0.394073,-163.425895,0.013474,-0.014297,0.994431,-0.01341,-0.004361,0.022173,48.394424,37.190384,-139.198441,,,
729862731.754525,-1.166834,-0.394073,-163.425895,0.013474,-0.014297,0.994431,-0.01341,-0.004361,0.022173,48.394424,37.190384,-139.198441,,,
729862731.757857,-1.171134,-0.395507,-163.419438,0.006073,-0.018433,0.995224,-0.01341,-0.004361,0.022173,48.394424,37.190384,-139.198441,,,
729862731.761191,-1.174434,-0.395845,-163.4124,0.006073,-0.018433,0.995224,-0.011864,-0.010839,0.024245,48.394424,37.190384,-139.198441,,,
729862731.764336,-1.174434,-0.395845,-163.4124,0.006073,-0.018433,0.995224,-0.011864,-0.010839,0.024245,48.394424,37.190384,-139.198441,,,
729862731.767973,-1.178383,-0.399005,-163.405525,0.005157,-0.020111,1.000031,-0.011864,-0.010839,0.024245,48.394424,37.190384,-139.198441,,,
729862731.771259,-1.182127,-0.401127,-163.39894,0.005157,-0.020111,1.000031,-0.008763,-0.017605,0.018279,48.394424,37.190384,-139.198441,,,
729862731.77453,-1.182127,-0.401127,-163.39894,0.005157,-0.020111,1.000031,-0.008763,-0.017605,0.018279,48.394424,37.190384,-139.198441,,,
729862731.777871,-1.184999,-0.406166,-163.393294,0.011429,-0.018677,1.002441,-0.008763,-0.017605,0.018279,48.394424,37.190384,-139.198441,,,
729862731.781064,-1.184999,-0.406166,-163.393294,0.011429,-0.018677,1.002441,-0.008763,-0.017605,0.018279,48.394424,37.190384,-139.198441,,,
729862731.784556,-1.187566,-0.411342,-163.388065,0.011429,-0.018677,1.002441,-0.010243,-0.015187,0.019157,48.394424,37.190384,-139.198441,,,
729862731.787881,-1.190297,-0.416869,-163.382362,0.012222,-0.018906,1.000107,-0.010243,-0.015187,0.019157,48.505463,37.227936,-138.966278,,,
729862731.791258,-1.193511,-0.421327,-163.375802,0.012222,-0.018906,1.000107,-0.005528,-0.005488,0.025211,48.505463,37.227936,-138.966278,,,
729862731.794599,-1.193511,-0.421327,-163.375802,0.012222,-0.018906,1.000107,-0.005528,-0.005488,0.025211,48.505463,37.227936,-138.966278,,,
729862731.797661,-1.195431,-0.42362,-163.368332,0.010788,-0.020355,1.002045,-0.005528,-0.005488,0.025211,48.505463,37.227936,-138.966278,,,
729862731.801221,-1.19751,-0.424685,-163.360426,0.010788,-0.020355,1.002045,-0.003274,0.005799,0.02405,48.505463,37.227936,-138.966278,,,
729862731.804535,-1.19751,-0.424685,-163.360426,0.010788,-0.020355,1.002045,-0.003274,0.005799,0.02405,48.505463,37.227936,-138.966278,,,
729862731.807952,-1.198582,-0.423048,-163.35299,0.014069,-0.024399,1.007202,-0.003274,0.005799,0.02405,48.505463,37.227936,-138.966278,,,
729862731.811234,-1.197805,-0.42229,-163.346678,0.014069,-0.024399,1.007202,0.005246,0.011476,0.010768,48.505463,37.227936,-138.966278,,,
729862731.814341,-1.197805,-0.42229,-163.346678,0.014069,-0.024399,1.007202,0.005246,0.011476,0.010768,48.505463,37.227936,-138.966278,,,
729862731.817888,-1.196421,-0.419115,-163.342005,0.020493,-0.017593,1.006805,0.005246,0.011476,0.010768,48.505463,37.227936,-138.966278,,,
729862731.821261,-1.192881,-0.417517,-163.338607,0.020493,-0.017593,1.006805,0.017017,0.012116,0.008712,48.505463,37.227936,-138.966278,,,
729862731.82452,-1.192881,-0.417517,-163.338607,0.020493,-0.017593,1.006805,0.017017,0.012116,0.008712,48.505463,37.227936,-138.966278,,,
729862731.827868,-1.189014,-0.414232,-163.335214,0.01828,-0.017181,1.005524,0.017017,0.012116,0.008712,48.737869,37.494827,-139.506165,,,
729862731.831028,-1.189014,-0.414232,-163.335214,0.01828,-0.017181,1.005524,0.017017,0.012116,0.008712,48.737869,37.494827,-139.506165,,,
729862731.834611,-1.183373,-0.413025,-163.331601,0.01828,-0.017181,1.005524,0.015203,0.002604,0.010953,48.737869,37.494827,-139.506165,,,
729862731.837852,-1.179009,-0.412394,-163.328045,0.009125,-0.0186,0.996521,0.015203,0.002604,0.010953,48.737869,37.494827,-139.506165,,,
729862731.841286,-1.179009,-0.413339,-163.324653,0.009125,-0.0186,0.996521,0.012351,-0.01424,0.010755,48.737869,37.494827,-139.506165,,,
729862731.844521,-1.175051,-0.413339,-163.324653,0.009125,-0.0186,0.996521,0.012351,-0.01424,0.010755,48.737869,37.494827,-139.506165,,,
729862731.847716,-1.171854,-0.417536,-163.321139,0.007675,-0.014435,0.986908,0.012351,-0.01424,0.010755,48.737869,37.494827,-139.506165,,,
729862731.851215,-1.171854,-0.417536,-163.317966,0.007675,-0.014435,0.986908,0.003326,-0.02829,0.010674,48.737869,37.494827,-139.506165,,,
729862731.854529,-1.169771,-0.423919,-163.317966,0.007675,-0.014435,0.986908,0.003326,-0.02829,0.010674,48.737869,37.494827,-139.506165,,,
729862731.857861,-1.169424,-0.432132,-163.314835,0.00766,-0.016373,0.982071,0.003326,-0.02829,0.010674,48.737869,37.494827,-139.506165,,,
729862731.861266,-1.169424,-0.442601,-163.311391,0.00766,-0.016373,0.982071,-0.005482,-0.03036,0.012703,48.737869,37.494827,-139.506165,,,
729862731.864319,-1.169859,-0.442601,-163.311391,0.00766,-0.016373,0.982071,-0.005482,-0.03036,0.012703,48.737869,37.494827,-139.506165,,,
729862731.867965,-1.171799,-0.451629,-163.308024,0.010666,-0.015991,0.984116,-0.005482,-0.03036,0.012703,48.737869,37.494827,-139.506165,,,
729862731.871228,-1.171799,-0.451629,-163.308024,0.010666,-0.015991,0.984116,-0.005482,-0.03036,0.012703,48.673416,37.415009,-139.358017,,,
729862731.874599,-1.174599,-0.460459,-163.304424,0.010666,-0.015991,0.984116,-0.011459,-0.015168,0.01074,48.673416,37.415009,-139.358017,,,
729862731.877859,-1.178466,-0.466278,-163.300507,0.014038,-0.014618,0.987686,-0.011459,-0.015168,0.01074,48.673416,37.415009,-139.358017,,,
729862731.880989,-1.178466,-0.466278,-163.300507,0.014038,-0.014618,0.987686,-0.011459,-0.015168,0.01074,48.673416,37.415009,-139.358017,,,
729862731.884568,-1.182743,-0.468811,-163.297417,0.014038,-0.014618,0.987686,-0.015932,0.013304,0.007838,48.673416,37.415009,-139.358017,,,
729862731.887908,-1.18725,-0.46677,-163.295105,0.017395,-0.016052,0.996841,-0.015932,0.013304,0.007838,48.673416,37.415009,-139.358017,,,
729862731.891204,-1.18725,-0.46677,-163.295105,0.017395,-0.016052,0.996841,-0.015932,0.013304,0.007838,48.673416,37.415009,-139.358017,,,
729862731.894531,-1.192041,-0.46405,-163.293126,0.017395,-0.016052,0.996841,-0.009052,0.022768,0.006062,48.673416,37.415009,-139.358017,,,
729862731.897653,-1.195594,-0.457819,-163.291501,0.018265,-0.016479,1.001312,-0.009052,0.022768,0.006062,48.673416,37.415009,-139.358017,,,
729862731.901321,-1.195594,-0.457819,-163.291501,0.018265,-0.016479,1.001312,-0.009052,0.022768,0.006062,48.673416,37.415009,-139.358017,,,
729862731.904532,-1.196745,-0.452923,-163.290393,0.018265,-0.016479,1.001312,0.003278,0.032187,0.004924,48.673416,37.415009,-139.358017,,,
729862731.907863,-1.19664,-0.444078,-163.28932,0.009766,-0.021652,1.008102,0.003278,0.032187,0.004924,48.673416,37.415009,-139.358017,,,
729862731.911237,-1.19664,-0.444078,-163.28932,0.009766,-0.021652,1.008102,0.003278,0.032187,0.004924,48.829468,37.62764,-139.748917,,,
729862731.914364,-1.194936,-0.437512,-163.28754,0.009766,-0.021652,1.008102,0.00394,0.024985,0.0077,48.829468,37.62764,-139.748917,,,
729862731.917882,-1.193401,-0.4303,-163.285234,0.00267,-0.023819,1.005264,0.00394,0.024985,0.0077,48.829468,37.62764,-139.748917,,,
729862731.921238,-1.193401,-0.4303,-163.285234,0.00267,-0.023819,1.005264,0.00394,0.024985,0.0077,48.829468,37.62764,-139.748917,,,
729862731.924529,-1.191443,-0.424945,-163.282686,0.00267,-0.023819,1.005264,0.002572,0.010747,0.012097,48.829468,37.62764,-139.748917,,,
729862731.927861,-1.190742,-0.421351,-163.27976,0.001114,-0.023544,0.995636,0.002572,0.010747,0.012097,48.829468,37.62764,-139.748917,,,
729862731.930951,-1.190742,-0.421351,-163.27976,0.001114,-0.023544,0.995636,0.002572,0.010747,0.012097,48.829468,37.62764,-139.748917,,,
729862731.934587,-1.190197,-0.42018,-163.27671,0.001114,-0.023544,0.995636,-0.006246,0.001201,0.011559,48.829468,37.62764,-139.748917,,,
729862731.937859,-1.192165,-0.420536,-163.273559,-0.001678,-0.024414,0.994629,-0.006246,0.001201,0.011559,48.829468,37.62764,-139.748917,,,
729862731.941288,-1.192165,-0.420536,-163.273559,-0.001678,-0.024414,0.994629,-0.006246,0.001201,0.011559,48.829468,37.62764,-139.748917,,,
729862731.944535,-1.193906,-0.422138,-163.269097,-0.001678,-0.024414,0.994629,-0.003922,-0.006945,0.016912,48.829468,37.62764,-139.748917,,,
729862731.947667,-1.195899,-0.424717,-163.263715,-0.0009,-0.026505,1.002472,-0.003922,-0.006945,0.016912,48.829468,37.62764,-139.748917,,,
729862731.951257,-1.195899,-0.424717,-163.263715,-0.0009,-0.026505,1.002472,-0.003922,-0.006945,0.016912,48.791855,37.245865,-139.891037,,,
729862731.954603,-1.195774,-0.428303,-163.258257,-0.0009,-0.026505,1.002472,0.00198,0.000889,0.016833,48.791855,37.245865,-139.891037,,,
729862731.957863,-1.195741,-0.429671,-163.252575,0.006561,-0.025085,1.010742,0.00198,0.000889,0.016833,48.791855,37.245865,-139.891037,,,
729862731.961195,-1.195741,-0.429671,-163.252575,0.006561,-0.025085,1.010742,0.00198,0.000889,0.016833,48.791855,37.245865,-139.891037,,,
729862731.964288,-1.194409,-0.431247,-163.247507,0.006561,-0.025085,1.010742,0.00309,0.002453,0.013446,48.791855,37.245865,-139.891037,,,
729862731.967889,-1.19354,-0.430772,-163.243006,0.011536,-0.020569,1.007874,0.00309,0.002453,0.013446,48.791855,37.245865,-139.891037,,,
729862731.971186,-1.19354,-0.430772,-163.243006,0.011536,-0.020569,1.007874,0.00309,0.002453,0.013446,48.791855,37.245865,-139.891037,,,
729862731.97454,-1.191771,-0.434027,-163.238537,0.011536,-0.020569,1.007874,0.000635,-0.00329,0.017215,48.791855,37.245865,-139.891037,,,
729862731.977858,-1.191605,-0.43555,-163.233886,0.009933,-0.017792,0.995117,0.000635,-0.00329,0.017215,48.791855,37.245865,-139.891037,,,
729862731.981049,-1.191605,-0.43555,-163.233886,0.009933,-0.017792,0.995117,0.000635,-0.00329,0.017215,48.791855,37.245865,-139.891037,,,
729862731.984578,-1.191671,-0.438887,-163.229163,0.009933,-0.017792,0.995117,-0.006443,0.000624,0.018346,48.791855,37.245865,-139.891037,,,
729862731.987858,-1.193566,-0.439773,-163.223766,0.009552,-0.015762,0.989197,-0.006443,0.000624,0.018346,48.791855,37.245865,-139.891037,,,
