Time (sec),Pitch (deg),Roll (deg),Yaw(deg),X-Acceleration (g),Y-Acceleration (g),Z-Acceleration (g),Pitch Rate (deg/sec),Roll Rate (deg/sec),Yaw Rate (deg/sec),Magnetic Field in X direction (uT),Magnetic Field in Y direction (uT),Magnetic Field in Z Direction (uT),Latitude (deg),Longitude (deg),Altitude (m)
729861670.780678,0.443187,-0.035545,122.157793,-0.009445,0.007294,0.994766,-0.032061,-0.016878,-0.007062,65.491928,32.717758,-145.811096,,,
729861670.783937,0.442267,-0.042073,122.156681,-0.01004,-0.003876,1.014648,-0.032061,-0.016878,-0.007062,65.491928,32.717758,-145.811096,,,
729861670.787327,0.44598,-0.050356,122.155786,-0.01004,-0.003876,1.014648,0.009594,-0.024765,-0.004101,65.491928,32.717758,-145.811096,,,
729861670.79062,0.44598,-0.050356,122.155786,-0.01004,-0.003876,1.014648,0.009594,-0.024765,-0.004101,65.491928,32.717758,-145.811096,,,
729861670.794027,0.455795,-0.05677,122.155423,-0.008392,-0.004822,1.023483,0.009594,-0.024765,-0.004101,65.491928,32.717758,-145.811096,,,
729861670.797287,0.467685,-0.063423,122.155955,-0.008392,-0.004822,1.023483,0.037347,-0.020379,-0.001622,65.491928,32.717758,-145.811096,,,
729861670.800618,0.467685,-0.063423,122.155955,-0.008392,-0.004822,1.023483,0.037347,-0.020379,-0.001622,65.491928,32.717758,-145.811096,,,
729861670.803982,0.483505,-0.066106,122.156912,-0.006348,-0.002426,1.021851,0.037347,-0.020379,-0.001622,65.491928,32.717758,-145.811096,,,
729861670.807263,0.49701,-0.070237,122.159126,-0.006348,-0.002426,1.021851,0.048891,-0.012997,0.005094,65.491928,32.717758,-145.811096,,,
729861670.810622,0.49701,-0.070237,122.159126,-0.006348,-0.002426,1.021851,0.048891,-0.012997,0.005094,65.119797,32.664108,-145.519745,,,
729861670.813938,0.510883,-0.068907,122.162677,-0.007889,0.00293,1.009613,0.048891,-0.012997,0.005094,65.119797,32.664108,-145.519745,,,
729861670.817289,0.519473,-0.070269,122.167207,-0.007889,0.00293,1.009613,0.033306,-0.000729,0.013143,65.119797,32.664108,-145.519745,,,
729861670.820639,0.519473,-0.070269,122.167207,-0.007889,0.00293,1.009613,0.033306,-0.000729,0.013143,65.119797,32.664108,-145.519745,,,
729861670.823925,0.527442,-0.065572,122.172005,-0.004501,0.010956,0.992981,0.033306,-0.000729,0.013143,65.119797,32.664108,-145.519745,,,
729861670.827295,0.532156,-0.063525,122.176707,-0.004501,0.010956,0.992981,0.017548,0.00861,0.012042,65.119797,32.664108,-145.519745,,,
729861670.830405,0.532156,-0.063525,122.176707,-0.004501,0.010956,0.992981,0.017548,0.00861,0.012042,65.119797,32.664108,-145.519745,,,
729861670.833952,0.537053,-0.056038,122.180775,0.002304,0.015305,0.990799,0.017548,0.00861,0.012042,65.119797,32.664108,-145.519745,,,
729861670.837332,0.538968,-0.05176,122.183571,0.002304,0.015305,0.990799,0.010314,0.017736,0.007513,65.119797,32.664108,-145.519745,,,
729861670.840607,0.538968,-0.05176,122.183571,0.002304,0.015305,0.990799,0.010314,0.017736,0.007513,65.119797,32.664108,-145.519745,,,
729861670.843964,0.540397,-0.043779,122.184766,0.007828,0.017609,0.994232,0.010314,0.017736,0.007513,65.119797,32.664108,-145.519745,,,
729861670.847261,0.541158,-0.039128,122.184144,0.007828,0.017609,0.994232,0.003993,0.016702,-0.001837,65.119797,32.664108,-145.519745,,,
729861670.850593,0.541158,-0.039128,122.184144,0.007828,0.017609,0.994232,0.003993,0.016702,-0.001837,65.200287,32.786362,-145.464355,,,
729861670.853966,0.53977,-0.031071,122.181884,0.011719,0.01944,0.994949,0.003993,0.016702,-0.001837,65.200287,32.786362,-145.464355,,,
729861670.857286,0.539575,-0.025659,122.178722,0.011719,0.01944,0.994949,-0.001439,0.021763,-0.010575,65.200287,32.786362,-145.464355,,,
729861670.860617,0.539575,-0.025659,122.178722,0.011719,0.01944,0.994949,-0.001439,0.021763,-0.010575,65.200287,32.786362,-145.464355,,,
729861670.863949,0.534113,-0.016214,122.175485,0.009033,0.017731,0.995453,-0.001439,0.021763,-0.010575,65.200287,32.786362,-145.464355,,,
729861670.867321,0.53207,-0.009824,122.17283,0.009033,0.017731,0.995453,-0.002339,0.025253,-0.012601,65.200287,32.786362,-145.464355,,,
729861670.870663,0.53207,-0.009824,122.17283,0.009033,0.017731,0.995453,-0.002339,0.025253,-0.012601,65.200287,32.786362,-145.464355,,,
729861670.873942,0.524841,-0.000736,122.170805,0.003647,0.014282,0.999603,-0.002339,0.025253,-0.012601,65.200287,32.786362,-145.464355,,,
729861670.877255,0.524841,-0.000736,122.170805,0.003647,0.014282,0.999603,-0.011938,0.021685,-0.004604,65.200287,32.786362,-145.464355,,,
729861670.880605,0.520482,0.005145,122.169875,0.003647,0.014282,0.999603,-0.011938,0.021685,-0.004604,65.200287,32.786362,-145.464355,,,
729861670.883979,0.512258,0.012773,122.170005,0.000839,0.013382,1.00116,-0.011938,0.021685,-0.004604,65.200287,32.786362,-145.464355,,,
729861670.887358,0.512258,0.017325,122.170858,0.000839,0.013382,1.00116,-0.021918,0.020021,-7e-05,65.200287,32.786362,-145.464355,,,
729861670.890596,0.505924,0.017325,122.170858,0.000839,0.013382,1.00116,-0.021918,0.020021,-7e-05,65.275848,32.41272,-145.554794,,,
729861670.893955,0.497223,0.023599,122.172282,0.000443,0.014267,0.999985,-0.021918,0.020021,-7e-05,65.275848,32.41272,-145.554794,,,
729861670.897328,0.497223,0.023599,122.172282,0.000443,0.014267,0.999985,-0.026823,0.014385,0.000606,65.275848,32.41272,-145.554794,,,
729861670.900606,0.4889,0.026527,122.173594,0.000443,0.014267,0.999985,-0.026823,0.014385,0.000606,65.275848,32.41272,-145.554794,,,
729861670.903974,0.482623,0.029627,122.174276,0.002945,0.013199,1.002106,-0.026823,0.014385,0.000606,65.275848,32.41272,-145.554794,,,
729861670.907288,0.482623,0.029627,122.174276,0.002945,0.013199,1.002106,-0.02225,0.012741,-0.00242,65.275848,32.41272,-145.554794,,,
729861670.910651,0.476418,0.03268,122.174128,0.002945,0.013199,1.002106,-0.02225,0.012741,-0.00242,65.275848,32.41272,-145.554794,,,
729861670.91393,0.474795,0.034371,122.173161,0.004974,0.013138,1.008896,-0.02225,0.012741,-0.00242,65.275848,32.41272,-145.554794,,,
729861670.917272,0.474795,0.034371,122.173161,0.004974,0.013138,1.008896,-0.02225,0.012741,-0.00242,65.275848,32.41272,-145.554794,,,
729861670.920646,0.473573,0.037763,122.171596,0.004974,0.013138,1.008896,-0.007525,0.015754,-0.004304,65.275848,32.41272,-145.554794,,,
729861670.923926,0.478598,0.03741,122.169052,0.010498,0.012054,1.015335,-0.007525,0.015754,-0.004304,65.275848,32.41272,-145.554794,,,
729861670.927353,0.478598,0.03741,122.169052,0.010498,0.012054,1.015335,-0.007525,0.015754,-0.004304,65.275848,32.41272,-145.554794,,,
729861670.930607,0.482749,0.041489,122.165466,0.010498,0.012054,1.015335,0.013179,0.015601,-0.01244,65.275848,32.41272,-145.554794,,,
729861670.934011,0.492714,0.041112,122.160712,0.013565,0.010986,1.014053,0.013179,0.015601,-0.01244,65.075531,32.844772,-145.27005,,,
729861670.937312,0.492714,0.041112,122.160712,0.013565,0.010986,1.014053,0.013179,0.015601,-0.01244,65.075531,32.844772,-145.27005,,,
729861670.940595,0.500198,0.045587,122.154121,0.013565,0.010986,1.014053,0.025057,0.015917,-0.023943,65.075531,32.844772,-145.27005,,,
729861670.943928,0.509117,0.046642,122.146799,0.009796,0.010666,1.005783,0.025057,0.015917,-0.023943,65.075531,32.844772,-145.27005,,,
729861670.947331,0.509117,0.046642,122.146799,0.009796,0.010666,1.005783,0.025057,0.015917,-0.023943,65.075531,32.844772,-145.27005,,,
729861670.95059,0.513852,0.05113,122.138946,0.009796,0.010666,1.005783,0.020811,0.017022,-0.026963,65.075531,32.844772,-145.27005,,,
729861670.953976,0.516964,0.055055,122.130627,0.005905,0.014114,0.989716,0.020811,0.017022,-0.026963,65.075531,32.844772,-145.27005,,,
729861670.957318,0.516964,0.055055,122.130627,0.005905,0.014114,0.989716,0.020811,0.017022,-0.026963,65.075531,32.844772,-145.27005,,,
729861670.960657,0.515863,0.061478,122.122682,0.005905,0.014114,0.989716,-0.001222,0.023886,-0.030075,65.075531,32.844772,-145.27005,,,
729861670.963928,0.513642,0.069939,122.115948,-0.001862,0.015915,0.980835,-0.001222,0.023886,-0.030075,65.075531,32.844772,-145.27005,,,
729861670.967318,0.513642,0.069939,122.115948,-0.001862,0.015915,0.980835,-0.001222,0.023886,-0.030075,65.075531,32.844772,-145.27005,,,
729861670.970699,0.506725,0.08096,122.110848,-0.001862,0.015915,0.980835,-0.021591,0.038729,-0.020923,65.075531,32.844772,-145.27005,,,
729861670.973926,0.498984,0.092294,122.107512,-0.009064,0.013824,0.978287,-0.021591,0.038729,-0.020923,65.3918,32.731339,-145.574036,,,
729861670.977289,0.498984,0.092294,122.107512,-0.009064,0.013824,0.978287,-0.021591,0.038729,-0.020923,65.3918,32.731339,-145.574036,,,
729861670.980607,0.488254,0.10385,122.105909,-0.009064,0.013824,0.978287,-0.03561,0.045911,-0.009258,65.3918,32.731339,-145.574036,,,
729861670.983928,0.477899,0.112111,122.105199,-0.014984,0.009598,0.979858,-0.03561,0.045911,-0.009258,65.3918,32.731339,-145.574036,,,
729861670.987333,0.477899,0.112111,122.105199,-0.014984,0.009598,0.979858,-0.03561,0.045911,-0.009258,65.3918,32.731339,-145.574036,,,
729861670.990605,0.466421,0.121268,122.104952,-0.014984,0.009598,0.979858,-0.039872,0.03608,-0.001801,65.3918,32.731339,-145.574036,,,
729861670.993925,0.457654,0.12524,122.104895,-0.015015,0.009293,0.979584,-0.039872,0.03608,-0.001801,65.3918,32.731339,-145.574036,,,
729861670.997382,0.457654,0.12524,122.104895,-0.015015,0.009293,0.979584,-0.039872,0.03608,-0.001801,65.3918,32.731339,-145.574036,,,
729861671.000608,0.448484,0.130685,122.104735,-0.015015,0.009293,0.979584,-0.032873,0.024897,-0.002344,65.3918,32.731339,-145.574036,,,
729861671.003979,0.440595,0.128621,122.105143,-0.016556,0.008041,0.986099,-0.032873,0.024897,-0.002344,65.3918,32.731339,-145.574036,,,
729861671.00729,0.440595,0.128621,122.105143,-0.016556,0.008041,0.986099,-0.032873,0.024897,-0.002344,65.3918,32.731339,-145.574036,,,
729861671.010692,0.432165,0.130502,122.107038,-0.016556,0.008041,0.986099,-0.026222,0.011604,0.002431,65.3918,32.731339,-145.574036,,,
729861671.01394,0.425654,0.125244,122.111122,-0.021484,0.004852,0.990494,-0.026222,0.011604,0.002431,65.255127,32.646698,-145.667023,,,
729861671.017144,0.425654,0.125244,122.111122,-0.021484,0.004852,0.990494,-0.026222,0.011604,0.002431,65.255127,32.646698,-145.667023,,,
729861671.020754,0.419003,0.124165,122.116664,-0.021484,0.004852,0.990494,-0.025301,0.000203,0.015707,65.255127,32.646698,-145.667023,,,
729861671.023942,0.413911,0.118612,122.123336,-0.023361,-0.000549,0.993835,-0.025301,0.000203,0.015707,65.255127,32.646698,-145.667023,,,
729861671.027281,0.413911,0.118612,122.123336,-0.023361,-0.000549,0.993835,-0.025301,0.000203,0.015707,65.255127,32.646698,-145.667023,,,
729861671.030594,0.408333,0.116837,122.131265,-0.023361,-0.000549,0.993835,-0.01949,-0.004147,0.028158,65.255127,32.646698,-145.667023,,,
729861671.03394,0.407256,0.113154,122.140283,-0.024979,-0.001328,1.001617,-0.01949,-0.004147,0.028158,65.255127,32.646698,-145.667023,,,
729861671.037308,0.407256,0.113154,122.140283,-0.024979,-0.001328,1.001617,-0.01949,-0.004147,0.028158,65.255127,32.646698,-145.667023,,,
729861671.040606,0.404252,0.11018,122.14999,-0.024979,-0.001328,1.001617,-0.009917,-0.005606,0.03091,65.255127,32.646698,-145.667023,,,
729861671.04394,0.404773,0.106274,122.159985,-0.020111,0.000397,1.011276,-0.009917,-0.005606,0.03091,65.255127,32.646698,-145.667023,,,
729861671.047305,0.404773,0.106274,122.159985,-0.020111,0.000397,1.011276,-0.009917,-0.005606,0.03091,65.255127,32.646698,-145.667023,,,
729861671.050667,0.404377,0.10073,122.170164,-0.020111,0.000397,1.011276,-0.001709,-0.019191,0.035468,65.255127,32.646698,-145.667023,,,
729861671.054016,0.407694,0.097288,122.180515,-0.016602,0.001587,1.015533,-0.001709,-0.019191,0.035468,65.255127,32.646698,-145.667023,,,
729861671.05728,0.407694,0.097288,122.180515,-0.016602,0.001587,1.015533,-0.001709,-0.019191,0.035468,65.243958,32.83757,-145.814362,,,
729861671.060606,0.411307,0.087422,122.190647,-0.016602,0.001587,1.015533,0.012854,-0.031064,0.036786,65.243958,32.83757,-145.814362,,,
729861671.063935,0.417547,0.081242,122.199749,-0.009476,0.002243,1.021164,0.012854,-0.031064,0.036786,65.243958,32.83757,-145.814362,,,
729861671.067305,0.417547,0.081242,122.199749,-0.009476,0.002243,1.021164,0.012854,-0.031064,0.036786,65.243958,32.83757,-145.814362,,,
729861671.070643,0.424511,0.068223,122.207902,-0.009476,0.002243,1.021164,0.021184,-0.042666,0.029782,65.243958,32.83757,-145.814362,,,
729861671.073927,0.432898,0.05872,122.215208,-0.002472,0.005493,1.018402,0.021184,-0.042666,0.029782,65.243958,32.83757,-145.814362,,,
729861671.077378,0.432898,0.05872,122.215208,-0.002472,0.005493,1.018402,0.021184,-0.042666,0.029782,65.243958,32.83757,-145.814362,,,
729861671.080665,0.440421,0.042611,122.221697,-0.002472,0.005493,1.018402,0.029293,-0.052641,0.022232,65.243958,32.83757,-145.814362,,,
729861671.083932,0.446953,0.033022,122.227128,0.00267,0.009171,1.007767,0.029293,-0.052641,0.022232,65.243958,32.83757,-145.814362,,,
729861671.087314,0.446953,0.033022,122.227128,0.00267,0.009171,1.007767,0.029293,-0.052641,0.022232,65.243958,32.83757,-145.814362,,,
729861671.090615,0.451668,0.017018,122.23185,0.00267,0.009171,1.007767,0.01846,-0.054995,0.014862,65.243958,32.83757,-145.814362,,,
729861671.0939,0.451729,0.01082,122.236258,0.004959,0.012787,0.999817,0.01846,-0.054995,0.014862,65.243958,32.83757,-145.814362,,,
729861671.097209,0.451729,0.01082,122.236258,0.004959,0.012787,0.999817,0.01846,-0.054995,0.014862,65.087784,32.850357,-145.122818,,,
729861671.100463,0.45034,-0.000476,122.240684,0.004959,0.012787,0.999817,0.00024,-0.039568,0.013208,65.087784,32.850357,-145.122818,,,
729861671.104017,0.443528,0.001566,122.245488,0.005188,0.014786,0.991226,0.00024,-0.039568,0.013208,65.087784,32.850357,-145.122818,,,
729861671.107258,0.443528,0.001566,122.245488,0.005188,0.014786,0.991226,0.00024,-0.039568,0.013208,65.087784,32.850357,-145.122818,,,
729861671.110605,0.437053,-0.001791,122.25144,0.005188,0.014786,0.991226,-0.020034,-0.013012,0.017796,65.087784,32.850357,-145.122818,,,
729861671.113932,0.425308,0.006544,122.258201,0.005615,0.014572,0.990646,-0.020034,-0.013012,0.017796,65.087784,32.850357,-145.122818,,,
729861671.117258,0.425308,0.006544,122.258201,0.005615,0.014572,0.990646,-0.020034,-0.013012,0.017796,65.087784,32.850357,-145.122818,,,
729861671.120644,0.413861,0.009275,122.265255,0.005615,0.014572,0.990646,-0.03596,0.011249,0.02282,65.087784,32.850357,-145.122818,,,
729861671.123924,0.399487,0.021485,122.271934,0.007477,0.01152,0.993134,-0.03596,0.011249,0.02282,65.087784,32.850357,-145.122818,,,
729861671.127306,0.399487,0.021485,122.271934,0.007477,0.01152,0.993134,-0.03596,0.011249,0.02282,65.087784,32.850357,-145.122818,,,
729861671.1306,0.387716,0.028703,122.277349,0.007477,0.01152,0.993134,-0.04055,0.026753,0.019369,65.087784,32.850357,-145.122818,,,
729861671.133928,0.375335,0.042729,122.281099,0.014267,0.010971,0.999863,-0.04055,0.026753,0.019369,65.087784,32.850357,-145.122818,,,
729861671.137306,0.375335,0.042729,122.281099,0.014267,0.010971,0.999863,-0.04055,0.026753,0.019369,65.048248,32.990067,-145.574814,,,
729861671.140677,0.366954,0.052224,122.283356,0.014267,0.010971,0.999863,-0.033739,0.038608,0.008472,65.048248,32.990067,-145.574814,,,
729861671.143924,0.360831,0.063958,122.284557,0.016312,0.0103,1.011002,-0.033739,0.038608,0.008472,65.048248,32.990067,-145.574814,,,
729861671.147273,0.360831,0.063958,122.284557,0.016312,0.0103,1.011002,-0.033739,0.038608,0.008472,65.048248,32.990067,-145.574814,,,
729861671.150601,0.360655,0.073308,122.285439,0.016312,0.0103,1.011002,-0.005772,0.036722,0.001012,65.048248,32.990067,-145.574814,,,
729861671.153971,0.365845,0.08203,122.286009,0.012543,0.00444,1.020447,-0.005772,0.036722,0.001012,65.048248,32.990067,-145.574814,,,
729861671.157312,0.365845,0.08203,122.286009,0.012543,0.00444,1.020447,-0.005772,0.036722,0.001012,65.048248,32.990067,-145.574814,,,
729861671.160602,0.376362,0.091486,122.28641,0.012543,0.00444,1.020447,0.029916,0.036643,-0.001135,65.048248,32.990067,-145.574814,,,
729861671.163929,0.394153,0.099595,122.28693,0.007629,0.000504,1.025055,0.029916,0.036643,-0.001135,65.048248,32.990067,-145.574814,,,
729861671.167337,0.394153,0.099595,122.28693,0.007629,0.000504,1.025055,0.029916,0.036643,-0.001135,65.048248,32.990067,-145.574814,,,
729861671.170637,0.416429,0.110264,122.287301,0.007629,0.000504,1.025055,0.072322,0.039594,-0.000283,65.048248,32.990067,-145.574814,,,
729861671.173919,0.445354,0.118446,122.288351,0.003372,-0.001251,1.023605,0.072322,0.039594,-0.000283,65.048248,32.990067,-145.574814,,,
729861671.177257,0.445354,0.118446,122.288351,0.003372,-0.001251,1.023605,0.072322,0.039594,-0.000283,65.21405,32.903076,-145.516266,,,
729861671.180592,0.474757,0.129779,122.290036,0.003372,-0.001251,1.023605,0.100525,0.042421,0.006248,65.21405,32.903076,-145.516266,,,
729861671.183947,0.507036,0.136906,122.292159,-0.001953,0.00145,1.015961,0.100525,0.042421,0.006248,65.21405,32.903076,-145.516266,,,
729861671.187301,0.507036,0.136906,122.292159,-0.001953,0.00145,1.015961,0.100525,0.042421,0.006248,65.21405,32.903076,-145.516266,,,
729861671.190617,0.536379,0.144602,122.294734,-0.001953,0.00145,1.015961,0.106762,0.029069,0.008461,65.21405,32.903076,-145.516266,,,
729861671.193927,0.56331,0.147504,122.296593,-0.004227,0.00705,0.992477,0.106762,0.029069,0.008461,65.21405,32.903076,-145.516266,,,
729861671.197267,0.56331,0.147504,122.296593,-0.004227,0.00705,0.992477,0.106762,0.029069,0.008461,65.21405,32.903076,-145.516266,,,
729861671.200604,0.583928,0.151985,122.296745,-0.004227,0.00705,0.992477,0.077751,0.018915,-0.001521,65.21405,32.903076,-145.516266,,,
729861671.203974,0.598242,0.150094,122.295349,-0.006165,0.016129,0.970123,0.077751,0.018915,-0.001521,65.21405,32.903076,-145.516266,,,
729861671.20735,0.598242,0.150094,122.295349,-0.006165,0.016129,0.970123,0.077751,0.018915,-0.001521,65.21405,32.903076,-145.516266,,,
729861671.210591,0.604782,0.150934,122.292699,-0.006165,0.016129,0.970123,0.030462,0.005424,-0.010041,65.21405,32.903076,-145.516266,,,
729861671.213927,0.603832,0.143445,122.289205,-0.00676,0.024918,0.957657,0.030462,0.005424,-0.010041,65.21405,32.903076,-145.516266,,,
729861671.217326,0.603832,0.143445,122.289205,-0.00676,0.024918,0.957657,0.030462,0.005424,-0.010041,65.21405,32.903076,-145.516266,,,
729861671.220665,0.596081,0.141809,122.285633,-0.00676,0.024918,0.957657,-0.018445,-0.001269,-0.015485,65.342743,32.577042,-145.704575,,,
729861671.223918,0.581353,0.134159,122.282431,-0.010742,0.025299,0.950714,-0.018445,-0.001269,-0.015485,65.342743,32.577042,-145.704575,,,
729861671.227268,0.581353,0.134159,122.282431,-0.010742,0.025299,0.950714,-0.018445,-0.001269,-0.015485,65.342743,32.577042,-145.704575,,,
729861671.230676,0.561627,0.131409,122.279672,-0.010742,0.025299,0.950714,-0.064149,-0.005193,-0.012202,65.342743,32.577042,-145.704575,,,
729861671.233919,0.536305,0.125199,122.277893,-0.012756,0.020187,0.95961,-0.064149,-0.005193,-0.012202,65.342743,32.577042,-145.704575,,,
729861671.2373,0.536305,0.125199,122.277893,-0.012756,0.020187,0.95961,-0.064149,-0.005193,-0.012202,65.342743,32.577042,-145.704575,,,
729861671.240609,0.50988,0.123038,122.277271,-0.012756,0.020187,0.95961,-0.091959,-0.003858,-0.003993,65.342743,32.577042,-145.704575,,,
729861671.243926,0.479827,0.118294,122.278299,-0.013962,0.014786,0.973724,-0.091959,-0.003858,-0.003993,65.342743,32.577042,-145.704575,,,
729861671.24728,0.479827,0.118294,122.278299,-0.013962,0.014786,0.973724,-0.091959,-0.003858,-0.003993,65.342743,32.577042,-145.704575,,,
729861671.250604,0.452959,0.116019,122.280486,-0.013962,0.014786,0.973724,-0.095741,-0.00528,0.00579,65.342743,32.577042,-145.704575,,,
729861671.25397,0.42806,0.113021,122.283522,-0.013824,0.004883,0.992111,-0.095741,-0.00528,0.00579,65.342743,32.577042,-145.704575,,,
729861671.257319,0.42806,0.113021,122.283522,-0.013824,0.004883,0.992111,-0.095741,-0.00528,0.00579,65.342743,32.577042,-145.704575,,,
729861671.260599,0.410777,0.11159,122.287778,-0.013824,0.004883,0.992111,-0.065129,-0.004943,0.013928,65.188629,32.884842,-145.566177,,,
729861671.263928,0.399582,0.111337,122.293529,-0.01239,-0.006271,1.018021,-0.065129,-0.004943,0.013928,65.188629,32.884842,-145.566177,,,
729861671.267328,0.399582,0.111337,122.293529,-0.01239,-0.006271,1.018021,-0.065129,-0.004943,0.013928,65.188629,32.884842,-145.566177,,,
729861671.270632,0.39745,0.111468,122.300453,-0.01239,-0.006271,1.018021,-0.012081,0.003478,0.021655,65.188629,32.884842,-145.566177,,,
729861671.273927,0.403008,0.112675,122.308165,-0.011551,-0.012283,1.037964,-0.012081,0.003478,0.021655,65.188629,32.884842,-145.566177,,,
729861671.277267,0.403008,0.112675,122.308165,-0.011551,-0.012283,1.037964,-0.012081,0.003478,0.021655,65.188629,32.884842,-145.566177,,,
729861671.280653,0.413091,0.11293,122.315959,-0.011551,-0.012283,1.037964,0.031447,0.005213,0.025495,65.188629,32.884842,-145.566177,,,
729861671.283919,0.428223,0.112519,122.323317,-0.009888,-0.011719,1.036407,0.031447,0.005213,0.025495,65.188629,32.884842,-145.566177,,,
729861671.287294,0.428223,0.112519,122.323317,-0.009888,-0.011719,1.036407,0.031447,0.005213,0.025495,65.188629,32.884842,-145.566177,,,
729861671.290627,0.442046,0.108871,122.331034,-0.009888,-0.011719,1.036407,0.04977,-0.00573,0.024869,65.188629,32.884842,-145.566177,,,
729861671.293924,0.457908,0.10399,122.338323,-0.007401,-0.00351,1.01535,0.04977,-0.00573,0.024869,65.188629,32.884842,-145.566177,,,
729861671.297266,0.457908,0.10399,122.338323,-0.007401,-0.00351,1.01535,0.04977,-0.00573,0.024869,65.188629,32.884842,-145.566177,,,
729861671.300597,0.466909,0.095346,122.34455,-0.007401,-0.00351,1.01535,0.037298,-0.02435,0.021035,65.312119,32.674423,-145.882874,,,
729861671.303963,0.473486,0.086003,122.350036,-0.006302,0.007996,0.98764,0.037298,-0.02435,0.021035,65.312119,32.674423,-145.882874,,,
729861671.307287,0.473486,0.086003,122.350036,-0.006302,0.007996,0.98764,0.037298,-0.02435,0.021035,65.312119,32.674423,-145.882874,,,
729861671.310609,0.472248,0.072667,122.354461,-0.006302,0.007996,0.98764,0.003466,-0.041228,0.01312,65.312119,32.674423,-145.882874,,,
729861671.313924,0.468023,0.060653,122.358188,-0.003632,0.016556,0.971527,0.003466,-0.041228,0.01312,65.312119,32.674423,-145.882874,,,
729861671.317276,0.468023,0.060653,122.358188,-0.003632,0.016556,0.971527,0.003466,-0.041228,0.01312,65.312119,32.674423,-145.882874,,,
729861671.320717,0.459124,0.045954,122.361154,-0.003632,0.016556,0.971527,-0.029053,-0.047832,0.008868,65.312119,32.674423,-145.882874,,,
729861671.323917,0.449063,0.035255,122.362705,0.000259,0.017853,0.977081,-0.029053,-0.047832,0.008868,65.312119,32.674423,-145.882874,,,
729861671.327256,0.449063,0.035255,122.362705,0.000259,0.017853,0.977081,-0.029053,-0.047832,0.008868,65.312119,32.674423,-145.882874,,,
729861671.33059,0.437332,0.024087,122.362929,0.000259,0.017853,0.977081,-0.039714,-0.039679,0.000296,65.312119,32.674423,-145.882874,,,
729861671.333921,0.424973,0.018311,122.361695,0.00676,0.012802,0.995056,-0.039714,-0.039679,0.000296,65.312119,32.674423,-145.882874,,,
729861671.337302,0.424973,0.018311,122.361695,0.00676,0.012802,0.995056,-0.039714,-0.039679,0.000296,65.312119,32.674423,-145.882874,,,
729861671.340588,0.415971,0.012099,122.359326,0.00676,0.012802,0.995056,-0.03519,-0.020002,-0.007012,65.24939,32.784607,-145.44429,,,
729861671.343939,0.405547,0.011255,122.356515,0.009033,0.009979,1.006882,-0.03519,-0.020002,-0.007012,65.24939,32.784607,-145.44429,,,
729861671.347255,0.405547,0.011255,122.356515,0.009033,0.009979,1.006882,-0.03519,-0.020002,-0.007012,65.24939,32.784607,-145.44429,,,
729861671.350593,0.399301,0.011265,122.353593,0.009033,0.009979,1.006882,-0.020232,0.000789,-0.009596,65.24939,32.784607,-145.44429,,,
729861671.354067,0.39133,0.016399,122.351238,0.00824,0.006638,1.006729,-0.020232,0.000789,-0.009596,65.24939,32.784607,-145.44429,,,
729861671.357321,0.39133,0.016399,122.351238,0.00824,0.006638,1.006729,-0.020232,0.000789,-0.009596,65.24939,32.784607,-145.44429,,,
729861671.360646,0.389512,0.021331,122.350445,0.00824,0.006638,1.006729,-0.008102,0.020645,-0.006065,65.24939,32.784607,-145.44429,,,
729861671.363996,0.386913,0.02986,122.351095,0.002411,-1.5e-05,1.006729,-0.008102,0.020645,-0.006065,65.24939,32.784607,-145.44429,,,
729861671.367267,0.386913,0.02986,122.351095,0.002411,-1.5e-05,1.006729,-0.008102,0.020645,-0.006065,65.24939,32.784607,-145.44429,,,
729861671.37069,0.38877,0.038228,122.352704,0.002411,-1.5e-05,1.006729,0.004391,0.030267,0.004166,65.24939,32.784607,-145.44429,,,
729861671.373922,0.390362,0.049153,122.355286,-0.000107,-0.002274,1.006775,0.004391,0.030267,0.004166,65.24939,32.784607,-145.44429,,,
729861671.37727,0.390362,0.049153,122.355286,-0.000107,-0.002274,1.006775,0.004391,0.030267,0.004166,65.24939,32.784607,-145.44429,,,
729861671.380603,0.394946,0.057914,122.358017,-0.000107,-0.002274,1.006775,0.015992,0.034431,0.008252,65.24939,32.784607,-145.44429,,,
729861671.383928,0.403201,0.067365,122.36017,-0.000732,0.000885,1.005142,0.015992,0.034431,0.008252,65.240479,32.91188,-145.797134,,,
729861671.387299,0.403201,0.067365,122.36017,-0.000732,0.000885,1.005142,0.015992,0.034431,0.008252,65.240479,32.91188,-145.797134,,,
729861671.390604,0.411837,0.072624,122.36248,-0.000732,0.000885,1.005142,0.02971,0.024911,0.004053,65.240479,32.91188,-145.797134,,,
729861671.393925,0.424581,0.074729,122.364361,-0.002014,0.001831,1.003433,0.02971,0.024911,0.004053,65.240479,32.91188,-145.797134,,,
729861671.397361,0.424581,0.074729,122.364361,-0.002014,0.001831,1.003433,0.02971,0.024911,0.004053,65.240479,32.91188,-145.797134,,,
729861671.400603,0.433781,0.073087,122.365067,-0.002014,0.001831,1.003433,0.03449,0.001761,0.001477,65.240479,32.91188,-145.797134,,,
729861671.403964,0.444917,0.067074,122.364537,-0.000778,0.00563,0.995453,0.03449,0.001761,0.001477,65.240479,32.91188,-145.797134,,,
729861671.407259,0.444917,0.067074,122.364537,-0.000778,0.00563,0.995453,0.03449,0.001761,0.001477,65.240479,32.91188,-145.797134,,,
729861671.410669,0.451213,0.059828,122.362892,-0.000778,0.00563,0.995453,0.022446,-0.020025,-0.005911,65.240479,32.91188,-145.797134,,,
729861671.413918,0.455885,0.047975,122.360683,-0.001358,0.01091,0.985687,0.022446,-0.020025,-0.005911,65.240479,32.91188,-145.797134,,,
729861671.417257,0.455885,0.047975,122.360683,-0.001358,0.01091,0.985687,0.022446,-0.020025,-0.005911,65.240479,32.91188,-145.797134,,,
729861671.420631,0.456602,0.040521,122.358056,-0.001358,0.01091,0.985687,0.00847,-0.025088,-0.010462,65.240479,32.91188,-145.797134,,,
729861671.423923,0.455589,0.03082,122.356369,-0.001602,0.012512,0.98259,0.00847,-0.025088,-0.010462,65.109985,32.709763,-145.676331,,,
729861671.427277,0.455589,0.03082,122.356369,-0.001602,0.012512,0.98259,0.00847,-0.025088,-0.010462,65.109985,32.709763,-145.676331,,,
729861671.43059,0.451598,0.026556,122.355544,-0.001602,0.012512,0.98259,-0.011328,-0.014639,-0.004274,65.109985,32.709763,-145.676331,,,
729861671.433919,0.443813,0.022365,122.35508,-0.001114,0.011948,0.982895,-0.011328,-0.014639,-0.004274,65.109985,32.709763,-145.676331,,,
729861671.437342,0.443813,0.022365,122.35508,-0.001114,0.011948,0.982895,-0.011328,-0.014639,-0.004274,65.109985,32.709763,-145.676331,,,
729861671.440598,0.434458,0.022708,122.355254,-0.001114,0.011948,0.982895,-0.029266,0.000811,-0.000832,65.109985,32.709763,-145.676331,,,
729861671.443917,0.420827,0.024623,122.355347,-0.001236,0.012085,0.982025,-0.029266,0.000811,-0.000832,65.109985,32.709763,-145.676331,,,
729861671.447281,0.420827,0.024623,122.355347,-0.001236,0.012085,0.982025,-0.029266,0.000811,-0.000832,65.109985,32.709763,-145.676331,,,
729861671.450558,0.409215,0.02855,122.355211,-0.001236,0.012085,0.982025,-0.04102,0.016693,-0.001462,65.109985,32.709763,-145.676331,,,
729861671.453928,0.39553,0.032808,122.355508,-4.6e-05,0.009903,0.986237,-0.04102,0.016693,-0.001462,65.109985,32.709763,-145.676331,,,
729861671.457217,0.39553,0.032808,122.355508,-4.6e-05,0.009903,0.986237,-0.04102,0.016693,-0.001462,65.109985,32.709763,-145.676331,,,
729861671.460557,0.385971,0.036263,122.356109,-4.6e-05,0.009903,0.986237,-0.035344,0.018642,0.000416,65.109985,32.709763,-145.676331,,,
729861671.463862,0.376169,0.038652,122.356757,-0.001709,0.004944,0.998672,-0.035344,0.018642,0.000416,65.386337,32.997086,-145.676468,,,
729861671.467193,0.376169,0.038652,122.356757,-0.001709,0.004944,0.998672,-0.035344,0.018642,0.000416,65.386337,32.997086,-145.676468,,,
729861671.470542,0.369266,0.038184,122.357704,-0.001709,0.004944,0.998672,-0.026235,0.002401,0.001203,65.386337,32.997086,-145.676468,,,
729861671.473906,0.36288,0.035686,122.358747,-0.002884,0.002594,1.003036,-0.026235,0.002401,0.001203,65.386337,32.997086,-145.676468,,,
729861671.477277,0.36288,0.035686,122.358747,-0.002884,0.002594,1.003036,-0.026235,0.002401,0.001203,65.386337,32.997086,-145.676468,,,
729861671.480595,0.360225,0.030613,122.360102,-0.002884,0.002594,1.003036,-0.010374,-0.014016,0.000667,65.386337,32.997086,-145.676468,,,
729861671.483928,0.359804,0.023913,122.361522,-0.00322,0.002289,1.003876,-0.010374,-0.014016,0.000667,65.386337,32.997086,-145.676468,,,
729861671.487303,0.359804,0.023913,122.361522,-0.00322,0.002289,1.003876,-0.010374,-0.014016,0.000667,65.386337,32.997086,-145.676468,,,
729861671.490585,0.360598,0.016253,122.36288,-0.00322,0.002289,1.003876,0.001017,-0.024225,0.002579,65.386337,32.997086,-145.676468,,,
729861671.493925,0.364328,0.009018,122.364456,-0.000748,0.001297,1.005295,0.001017,-0.024225,0.002579,65.386337,32.997086,-145.676468,,,
729861671.497364,0.364328,0.009018,122.364456,-0.000748,0.001297,1.005295,0.001017,-0.024225,0.002579,65.386337,32.997086,-145.676468,,,
729861671.500603,0.367097,0.002515,122.365833,-0.000748,0.001297,1.005295,0.008771,-0.021713,0.004515,65.386337,32.997086,-145.676468,,,
729861671.503968,0.371707,-0.001839,122.366854,0.002167,0.003052,1.001694,0.008771,-0.021713,0.004515,65.386337,32.997086,-145.676468,,,
729861671.507264,0.371707,-0.001839,122.366854,0.002167,0.003052,1.001694,0.008771,-0.021713,0.004515,65.158356,32.922806,-145.226822,,,
729861671.510667,0.374649,-0.005075,122.367863,0.002167,0.003052,1.001694,0.011045,-0.010686,0.004108,65.158356,32.922806,-145.226822,,,
729861671.513913,0.378163,-0.0054,122.368236,0.004913,0.005188,0.996536,0.011045,-0.010686,0.004108,65.158356,32.922806,-145.226822,,,
729861671.517272,0.378163,-0.0054,122.368236,0.004913,0.005188,0.996536,0.011045,-0.010686,0.004108,65.158356,32.922806,-145.226822,,,
729861671.520656,0.378046,-0.004042,122.36733,0.004913,0.005188,0.996536,-0.000387,0.006573,-0.004637,65.158356,32.922806,-145.226822,,,
729861671.523918,0.3771,-0.000401,122.365626,0.00737,0.012527,0.985687,-0.000387,0.006573,-0.004637,65.158356,32.922806,-145.226822,,,
729861671.527272,0.3771,-0.000401,122.365626,0.00737,0.012527,0.985687,-0.000387,0.006573,-0.004637,65.158356,32.922806,-145.226822,,,
729861671.530606,0.372261,0.005827,122.363119,0.00737,0.012527,0.985687,-0.015719,0.023085,-0.010898,65.158356,32.922806,-145.226822,,,
729861671.533926,0.366378,0.015003,122.359592,0.007996,0.015259,0.978302,-0.015719,0.023085,-0.010898,65.158356,32.922806,-145.226822,,,
729861671.537301,0.366378,0.015003,122.359592,0.007996,0.015259,0.978302,-0.015719,0.023085,-0.010898,65.158356,32.922806,-145.226822,,,
729861671.540592,0.358157,0.026519,122.355827,0.007996,0.015259,0.978302,-0.025371,0.043146,-0.015178,65.158356,32.922806,-145.226822,,,
729861671.543971,0.348048,0.039881,122.352543,0.002823,0.013229,0.982773,-0.025371,0.043146,-0.015178,65.158356,32.922806,-145.226822,,,
729861671.547359,0.348048,0.039881,122.352543,0.002823,0.013229,0.982773,-0.025371,0.043146,-0.015178,65.262772,32.898956,-145.580383,,,
729861671.550676,0.336855,0.052994,122.349944,0.002823,0.013229,0.982773,-0.033902,0.047955,-0.00996,65.262772,32.898956,-145.580383,,,
729861671.554011,0.323117,0.065674,122.348133,-0.003937,0.005722,0.983398,-0.033902,0.047955,-0.00996,65.262772,32.898956,-145.580383,,,
729861671.557367,0.323117,0.065674,122.348133,-0.003937,0.005722,0.983398,-0.033902,0.047955,-0.00996,65.262772,32.898956,-145.580383,,,
729861671.56066,0.309208,0.074562,122.346583,-0.003937,0.005722,0.983398,-0.044331,0.038722,-0.003809,65.262772,32.898956,-145.580383,,,
729861671.563933,0.292588,0.080847,122.345415,-0.009811,0.005798,0.981277,-0.044331,0.038722,-0.003809,65.262772,32.898956,-145.580383,,,
729861671.567272,0.292588,0.080847,122.345415,-0.009811,0.005798,0.981277,-0.044331,0.038722,-0.003809,65.262772,32.898956,-145.580383,,,
729861671.570649,0.276222,0.083333,122.345089,-0.009811,0.005798,0.981277,-0.056624,0.013247,-0.003835,65.262772,32.898956,-145.580383,,,
729861671.573914,0.276222,0.083333,122.345089,-0.011719,0.006378,0.984177,-0.056624,0.013247,-0.003835,65.262772,32.898956,-145.580383,,,
729861671.577282,0.258911,0.081435,122.345142,-0.011719,0.006378,0.984177,-0.056624,0.013247,-0.003835,65.262772,32.898956,-145.580383,,,
729861671.580601,0.243829,0.076674,122.345566,-0.011719,0.006378,0.984177,-0.052594,-0.012014,0.001185,65.262772,32.898956,-145.580383,,,
729861671.583729,0.243829,0.076674,122.345566,-0.011719,0.006378,0.984177,-0.052594,-0.012014,0.001185,65.262772,32.898956,-145.580383,,,
729861671.587355,0.231091,0.068327,122.346761,-0.012009,0.000931,0.988739,-0.052594,-0.012014,0.001185,65.451019,33.140549,-145.634567,,,
729861671.590597,0.221822,0.061203,122.348354,-0.012009,0.000931,0.988739,-0.034659,-0.0247,0.004023,65.451019,33.140549,-145.634567,,,
729861671.593994,0.216914,0.051546,122.350624,-0.008163,-0.002579,1.003571,-0.034659,-0.0247,0.004023,65.451019,33.140549,-145.634567,,,
729861671.597278,0.216914,0.051546,122.350624,-0.008163,-0.002579,1.003571,-0.034659,-0.0247,0.004023,65.451019,33.140549,-145.634567,,,
729861671.600605,0.213768,0.045851,122.353472,-0.008163,-0.002579,1.003571,-0.010344,-0.016455,0.006051,65.451019,33.140549,-145.634567,,,
729861671.603989,0.216998,0.038278,122.356144,-0.004135,-0.003387,1.014343,-0.010344,-0.016455,0.006051,65.451019,33.140549,-145.634567,,,
729861671.607332,0.216998,0.038278,122.356144,-0.004135,-0.003387,1.014343,-0.010344,-0.016455,0.006051,65.451019,33.140549,-145.634567,,,
729861671.610655,0.220367,0.035814,122.358395,-0.004135,-0.003387,1.014343,0.007565,-0.006852,0.009831,65.451019,33.140549,-145.634567,,,
729861671.613919,0.220367,0.035814,122.358395,0.001724,-0.002182,1.013702,0.007565,-0.006852,0.009831,65.451019,33.140549,-145.634567,,,
729861671.617249,0.230353,0.032504,122.359874,0.001724,-0.002182,1.013702,0.007565,-0.006852,0.009831,65.451019,33.140549,-145.634567,,,
729861671.620647,0.240175,0.034023,122.360907,0.001724,-0.002182,1.013702,0.030564,0.009296,0.000285,65.451019,33.140549,-145.634567,,,
729861671.623949,0.240175,0.034023,122.360907,0.003876,-0.000854,1.01474,0.030564,0.009296,0.000285,65.451019,33.140549,-145.634567,,,
729861671.627251,0.254744,0.037348,122.361471,0.003876,-0.000854,1.01474,0.030564,0.009296,0.000285,65.579727,32.787598,-145.36264,,,
729861671.630587,0.268296,0.042598,122.361461,0.003876,-0.000854,1.01474,0.048779,0.020834,0.000378,65.579727,32.787598,-145.36264,,,
729861671.633922,0.268296,0.042598,122.361461,0.002945,0.00351,1.0112,0.048779,0.020834,0.000378,65.579727,32.787598,-145.36264,,,
729861671.637293,0.28069,0.050253,122.361493,0.002945,0.00351,1.0112,0.048779,0.020834,0.000378,65.579727,32.787598,-145.36264,,,
729861671.6406,0.290472,0.055144,122.361772,0.002945,0.00351,1.0112,0.038501,0.020025,0.000101,65.579727,32.787598,-145.36264,,,
729861671.64397,0.290472,0.055144,122.361772,-0.000519,0.007935,0.992706,0.038501,0.020025,0.000101,65.579727,32.787598,-145.36264,,,
729861671.647313,0.297343,0.063498,122.361624,-0.000519,0.007935,0.992706,0.038501,0.020025,0.000101,65.579727,32.787598,-145.36264,,,
729861671.650603,0.299204,0.066966,122.360588,-0.000519,0.007935,0.992706,0.009897,0.014242,-0.002486,65.579727,32.787598,-145.36264,,,
729861671.653689,0.299204,0.066966,122.360588,-0.000519,0.007935,0.992706,0.009897,0.014242,-0.002486,65.579727,32.787598,-145.36264,,,
729861671.657335,0.297085,0.073378,122.35831,-0.000748,0.014236,0.977402,0.009897,0.014242,-0.002486,65.579727,32.787598,-145.36264,,,
729861671.660585,0.291369,0.074568,122.354979,-0.000748,0.014236,0.977402,-0.017377,0.007225,-0.011425,65.579727,32.787598,-145.36264,,,
729861671.664001,0.291369,0.074568,122.354979,0.000732,0.016556,0.971008,-0.017377,0.007225,-0.011425,65.579727,32.787598,-145.36264,,,
729861671.667253,0.281164,0.078553,122.351537,0.000732,0.016556,0.971008,-0.017377,0.007225,-0.011425,65.579727,32.787598,-145.36264,,,
729861671.670284,0.270973,0.07829,122.348193,0.000732,0.016556,0.971008,-0.034929,0.002055,-0.013014,65.496948,33.065613,-145.653336,,,
729861671.67408,0.270973,0.07829,122.348193,0.000519,0.012085,0.975922,-0.034929,0.002055,-0.013014,65.496948,33.065613,-145.653336,,,
729861671.677252,0.257166,0.079616,122.345276,0.000519,0.012085,0.975922,-0.034929,0.002055,-0.013014,65.496948,33.065613,-145.653336,,,
729861671.680583,0.245405,0.078755,122.34345,0.000519,0.012085,0.975922,-0.041472,-0.000376,-0.008415,65.496948,33.065613,-145.653336,,,
729861671.683978,0.245405,0.078755,122.34345,0.000519,0.012085,0.975922,-0.041472,-0.000376,-0.008415,65.496948,33.065613,-145.653336,,,
729861671.686926,0.231797,0.077896,122.342672,-0.001831,0.005585,0.98642,-0.041472,-0.000376,-0.008415,65.496948,33.065613,-145.653336,,,
729861671.690624,0.221181,0.075891,122.343526,-0.001831,0.005585,0.98642,-0.037004,-0.00543,0.000299,65.496948,33.065613,-145.653336,,,
729861671.693971,0.221181,0.075891,122.343526,-0.001831,0.005585,0.98642,-0.037004,-0.00543,0.000299,65.496948,33.065613,-145.653336,,,
729861671.697321,0.210487,0.070468,122.345882,-0.00563,0.0009,0.999527,-0.037004,-0.00543,0.000299,65.496948,33.065613,-145.653336,,,
729861671.700584,0.203653,0.063936,122.349309,-0.00563,0.0009,0.999527,-0.026585,-0.015505,0.012958,65.496948,33.065613,-145.653336,,,
729861671.703599,0.203653,0.063936,122.349309,-0.00563,0.0009,0.999527,-0.026585,-0.015505,0.012958,65.496948,33.065613,-145.653336,,,
729861671.707315,0.19797,0.052309,122.353331,-0.009811,-0.004227,1.014694,-0.026585,-0.015505,0.012958,65.496948,33.065613,-145.653336,,,
729861671.710582,0.196653,0.039453,122.356996,-0.009811,-0.004227,1.014694,-0.008685,-0.040468,0.014538,65.397156,32.654526,-145.387344,,,
729861671.713929,0.196653,0.039453,122.356996,-0.009811,-0.004227,1.014694,-0.008685,-0.040468,0.014538,65.397156,32.654526,-145.387344,,,
729861671.717264,0.200228,0.023216,122.359694,-0.003418,-0.003769,1.029984,-0.008685,-0.040468,0.014538,65.397156,32.654526,-145.387344,,,
729861671.720269,0.207263,0.006267,122.360652,-0.003418,-0.003769,1.029984,0.022368,-0.05665,0.004335,65.397156,32.654526,-145.387344,,,
729861671.724009,0.207263,0.006267,122.360652,-0.003418,-0.003769,1.029984,0.022368,-0.05665,0.004335,65.397156,32.654526,-145.387344,,,
729861671.727268,0.219426,-0.009897,122.359757,0.007904,0.002563,1.040283,0.022368,-0.05665,0.004335,65.397156,32.654526,-145.387344,,,
729861671.730584,0.232122,-0.024422,122.357637,0.007904,0.002563,1.040283,0.04346,-0.051579,-0.00784,65.397156,32.654526,-145.387344,,,
729861671.73395,0.232122,-0.024422,122.357637,0.007904,0.002563,1.040283,0.04346,-0.051579,-0.00784,65.397156,32.654526,-145.387344,,,
729861671.736984,0.25038,-0.03578,122.354815,0.012192,0.003204,1.041733,0.04346,-0.051579,-0.00784,65.397156,32.654526,-145.387344,,,
729861671.740617,0.265624,-0.043015,122.351529,0.012192,0.003204,1.041733,0.052906,-0.024376,-0.013368,65.397156,32.654526,-145.387344,,,
729861671.743938,0.265624,-0.043015,122.351529,0.012192,0.003204,1.041733,0.052906,-0.024376,-0.013368,65.397156,32.654526,-145.387344,,,
729861671.747258,0.283128,-0.044756,122.347987,0.013351,0.005112,1.031464,0.052906,-0.024376,-0.013368,65.397156,32.654526,-145.387344,,,
729861671.750579,0.295452,-0.040534,122.345064,0.013351,0.005112,1.031464,0.0465,0.012068,-0.009929,65.278091,32.840698,-145.690079,,,
729861671.753671,0.295452,-0.040534,122.345064,0.013351,0.005112,1.031464,0.0465,0.012068,-0.009929,65.278091,32.840698,-145.690079,,,
729861671.757304,0.306654,-0.030248,122.34288,0.009079,0.007828,1.014252,0.0465,0.012068,-0.009929,65.278091,32.840698,-145.690079,,,
729861671.760581,0.313283,-0.015519,122.341455,0.009079,0.007828,1.014252,0.027295,0.053019,-0.006734,65.278091,32.840698,-145.690079,,,
729861671.764031,0.313283,-0.015519,122.341455,0.009079,0.007828,1.014252,0.027295,0.053019,-0.006734,65.278091,32.840698,-145.690079,,,
729861671.767253,0.316553,0.002561,122.340568,0.003021,0.009171,0.99791,0.027295,0.053019,-0.006734,65.278091,32.840698,-145.690079,,,
729861671.770699,0.317557,0.020256,122.339676,0.003021,0.009171,0.99791,0.006631,0.065102,-0.002571,65.278091,32.840698,-145.690079,,,
729861671.773933,0.317557,0.020256,122.339676,0.003021,0.009171,0.99791,0.006631,0.065102,-0.002571,65.278091,32.840698,-145.690079,,,
729861671.777334,0.314617,0.038568,122.33802,0.000244,0.010727,0.981888,0.006631,0.065102,-0.002571,65.278091,32.840698,-145.690079,,,
729861671.780579,0.311522,0.050694,122.334973,0.000244,0.010727,0.981888,-0.009833,0.049372,-0.01244,65.278091,32.840698,-145.690079,,,
729861671.783957,0.311522,0.050694,122.334973,0.000244,0.010727,0.981888,-0.009833,0.049372,-0.01244,65.278091,32.840698,-145.690079,,,
729861671.787288,0.305672,0.059395,122.330098,-0.001709,0.013016,0.972641,-0.009833,0.049372,-0.01244,65.278091,32.840698,-145.690079,,,
729861671.790582,0.302137,0.060301,122.323665,-0.001709,0.013016,0.972641,-0.01273,0.011856,-0.021115,65.393219,32.940979,-145.827042,,,
729861671.793926,0.302137,0.060301,122.323665,-0.001709,0.013016,0.972641,-0.01273,0.011856,-0.021115,65.393219,32.940979,-145.827042,,,
729861671.797253,0.297192,0.055033,122.317049,-0.004333,0.010834,0.973816,-0.01273,0.011856,-0.021115,65.393219,32.940979,-145.827042,,,
729861671.800586,0.294315,0.04536,122.311186,-0.004333,0.010834,0.973816,-0.00824,-0.026791,-0.023675,65.393219,32.940979,-145.827042,,,
729861671.80399,0.294315,0.04536,122.311186,-0.004333,0.010834,0.973816,-0.00824,-0.026791,-0.023675,65.393219,32.940979,-145.827042,,,
729861671.807247,0.291725,0.029849,122.307158,-0.011993,0.006653,0.976166,-0.00824,-0.026791,-0.023675,65.393219,32.940979,-145.827042,,,
729861671.810588,0.29034,0.015909,122.305573,-0.011993,0.006653,0.976166,-0.00682,-0.045333,-0.010567,65.393219,32.940979,-145.827042,,,
729861671.813933,0.29034,0.015909,122.305573,-0.011993,0.006653,0.976166,-0.00682,-0.045333,-0.010567,65.393219,32.940979,-145.827042,,,
729861671.817339,0.289795,-0.001315,122.3063,-0.015701,0.000427,0.984467,-0.00682,-0.045333,-0.010567,65.393219,32.940979,-145.827042,,,
729861671.82063,0.290832,-0.01497,122.309037,-0.015701,0.000427,0.984467,0.001831,-0.044401,0.007459,65.393219,32.940979,-145.827042,,,
729861671.823908,0.290832,-0.01497,122.309037,-0.015701,0.000427,0.984467,0.001831,-0.044401,0.007459,65.393219,32.940979,-145.827042,,,
729861671.827274,0.293711,-0.03085,122.313394,-0.014572,-0.003662,0.997131,0.001831,-0.044401,0.007459,65.393219,32.940979,-145.827042,,,
729861671.830576,0.298291,-0.041713,122.318601,-0.014572,-0.003662,0.997131,0.013329,-0.038254,0.016989,65.393219,32.940979,-145.827042,,,
729861671.833932,0.298291,-0.041713,122.318601,-0.014572,-0.003662,0.997131,0.013329,-0.038254,0.016989,65.216873,32.920074,-145.517334,,,
729861671.837299,0.305132,-0.05324,122.323212,-0.008972,-0.001801,0.995728,0.013329,-0.038254,0.016989,65.216873,32.920074,-145.517334,,,
729861671.840573,0.311987,-0.061472,122.326834,-0.008972,-0.001801,0.995728,0.024161,-0.028035,0.014209,65.216873,32.920074,-145.517334,,,
729861671.843997,0.311987,-0.061472,122.326834,-0.008972,-0.001801,0.995728,0.024161,-0.028035,0.014209,65.216873,32.920074,-145.517334,,,
729861671.847253,0.320768,-0.069148,122.329641,0.001892,0.002777,0.995895,0.024161,-0.028035,0.014209,65.216873,32.920074,-145.517334,,,
729861671.850587,0.329527,-0.076002,122.330856,0.001892,0.002777,0.995895,0.030352,-0.023457,0.002542,65.216873,32.920074,-145.517334,,,
729861671.853972,0.329527,-0.076002,122.330856,0.001892,0.002777,0.995895,0.030352,-0.023457,0.002542,65.216873,32.920074,-145.517334,,,
729861671.857305,0.340627,-0.080325,122.330837,0.009811,0.006927,0.993378,0.030352,-0.023457,0.002542,65.216873,32.920074,-145.517334,,,
729861671.860568,0.350464,-0.082605,122.329423,0.009811,0.006927,0.993378,0.0359,-0.007722,-0.00435,65.216873,32.920074,-145.517334,,,
729861671.863929,0.350464,-0.082605,122.329423,0.009811,0.006927,0.993378,0.0359,-0.007722,-0.00435,65.216873,32.920074,-145.517334,,,
729861671.867256,0.361722,-0.080481,122.326557,0.011627,0.008636,0.995438,0.0359,-0.007722,-0.00435,65.216873,32.920074,-145.517334,,,
729861671.870614,0.369625,-0.077103,122.323032,0.011627,0.008636,0.995438,0.031696,0.010953,-0.013822,65.216873,32.920074,-145.517334,,,
729861671.873904,0.369625,-0.077103,122.323032,0.011627,0.008636,0.995438,0.031696,0.010953,-0.013822,65.07048,32.837387,-145.461212,,,
729861671.87725,0.376377,-0.068831,122.319021,0.009445,0.008682,0.991562,0.031696,0.010953,-0.013822,65.07048,32.837387,-145.461212,,,
729861671.880576,0.37889,-0.061847,122.314883,0.009445,0.008682,0.991562,0.012616,0.027425,-0.016558,65.07048,32.837387,-145.461212,,,
729861671.883989,0.37889,-0.061847,122.314883,0.009445,0.008682,0.991562,0.012616,0.027425,-0.016558,65.07048,32.837387,-145.461212,,,
729861671.887291,0.376182,-0.04744,122.310873,0.003311,0.011536,0.979187,0.012616,0.027425,-0.016558,65.07048,32.837387,-145.461212,,,
729861671.89058,0.370284,-0.037869,122.307767,0.003311,0.011536,0.979187,-0.018196,0.036184,-0.014472,65.07048,32.837387,-145.461212,,,
729861671.893924,0.370284,-0.037869,122.307767,0.003311,0.011536,0.979187,-0.018196,0.036184,-0.014472,65.07048,32.837387,-145.461212,,,
729861671.897323,0.358157,-0.022171,122.305508,-0.001984,0.012268,0.970383,-0.018196,0.036184,-0.014472,65.07048,32.837387,-145.461212,,,
729861671.900577,0.344085,-0.012184,122.30426,-0.001984,0.012268,0.970383,-0.042668,0.037289,-0.008098,65.07048,32.837387,-145.461212,,,
729861671.904015,0.344085,-0.012184,122.30426,-0.001984,0.012268,0.970383,-0.042668,0.037289,-0.008098,65.07048,32.837387,-145.461212,,,
729861671.907252,0.325645,-0.000126,122.30466,-0.009323,0.0103,0.968979,-0.042668,0.037289,-0.008098,65.07048,32.837387,-145.461212,,,
729861671.910579,0.308476,0.006478,122.306195,-0.009323,0.0103,0.968979,-0.057837,0.026937,0.003223,65.07048,32.837387,-145.461212,,,
729861671.913909,0.308476,0.006478,122.306195,-0.009323,0.0103,0.968979,-0.057837,0.026937,0.003223,65.390686,32.972015,-145.388947,,,
729861671.917274,0.290615,0.011185,122.308485,-0.012756,0.006561,0.977112,-0.057837,0.026937,0.003223,65.390686,32.972015,-145.388947,,,
729861671.920621,0.276121,0.011598,122.311265,-0.012756,0.006561,0.977112,-0.051985,0.00999,0.006317,65.390686,32.972015,-145.388947,,,
729861671.923953,0.276121,0.011598,122.311265,-0.012756,0.006561,0.977112,-0.051985,0.00999,0.006317,65.390686,32.972015,-145.388947,,,
729861671.92738,0.265176,0.00814,122.31356,-0.009979,-0.000473,0.994003,-0.051985,0.00999,0.006317,65.390686,32.972015,-145.388947,,,
729861671.930621,0.258839,0.003112,122.314971,-0.009979,-0.000473,0.994003,-0.023605,-0.011901,0.00395,65.390686,32.972015,-145.388947,,,
729861671.934018,0.258839,0.003112,122.314971,-0.009979,-0.000473,0.994003,-0.023605,-0.011901,0.00395,65.390686,32.972015,-145.388947,,,
729861671.937308,0.258159,-0.007606,122.315405,-0.003036,-0.004761,1.013489,-0.023605,-0.011901,0.00395,65.390686,32.972015,-145.388947,,,
729861671.94059,0.261337,-0.016534,122.314987,-0.003036,-0.004761,1.013489,0.007175,-0.027197,-0.00133,65.390686,32.972015,-145.388947,,,
729861671.943929,0.261337,-0.016534,122.314987,-0.003036,-0.004761,1.013489,0.007175,-0.027197,-0.00133,65.390686,32.972015,-145.388947,,,
729861671.947344,0.270424,-0.029735,122.31419,0.000458,-0.003952,1.025208,0.007175,-0.027197,-0.00133,65.390686,32.972015,-145.388947,,,
729861671.950571,0.28229,-0.037931,122.313264,0.000458,-0.003952,1.025208,0.039177,-0.029235,-0.003461,65.390686,32.972015,-145.388947,,,
729861671.954018,0.28229,-0.037931,122.313264,0.000458,-0.003952,1.025208,0.039177,-0.029235,-0.003461,65.390686,32.972015,-145.388947,,,
729861671.957265,0.298513,-0.046661,122.31271,0.003799,-0.003845,1.027344,0.039177,-0.029235,-0.003461,65.179596,32.891113,-145.425369,,,
729861671.96058,0.315181,-0.049523,122.312475,0.003799,-0.003845,1.027344,0.057211,-0.01154,-0.000349,65.179596,32.891113,-145.425369,,,
729861671.963927,0.315181,-0.049523,122.312475,0.003799,-0.003845,1.027344,0.057211,-0.01154,-0.000349,65.179596,32.891113,-145.425369,,,
729861671.967249,0.334542,-0.049135,122.312434,0.004395,-0.002533,1.021851,0.057211,-0.01154,-0.000349,65.179596,32.891113,-145.425369,,,
729861671.970347,0.350765,-0.044829,122.312325,0.004395,-0.002533,1.021851,0.058666,0.013858,0.001385,65.179596,32.891113,-145.425369,,,
729861671.973972,0.350765,-0.044829,122.312325,0.004395,-0.002533,1.021851,0.058666,0.013858,0.001385,65.179596,32.891113,-145.425369,,,
729861671.977256,0.367083,-0.035108,122.311875,0.008087,0.005127,1.006638,0.058666,0.013858,0.001385,65.179596,32.891113,-145.425369,,,
729861671.980585,0.379354,-0.024916,122.310541,0.008087,0.005127,1.006638,0.047954,0.034531,-0.006916,65.179596,32.891113,-145.425369,,,
729861671.983672,0.379354,-0.024916,122.310541,0.008087,0.005127,1.006638,0.047954,0.034531,-0.006916,65.179596,32.891113,-145.425369,,,
729861671.986973,0.389793,-0.008892,122.307788,0.010544,0.012573,0.993286,0.047954,0.034531,-0.006916,65.179596,32.891113,-145.425369,,,
729861671.990622,0.396694,0.003734,122.303921,0.010544,0.012573,0.993286,0.02629,0.044685,-0.014171,65.179596,32.891113,-145.425369,,,
729861671.993928,0.396694,0.003734,122.303921,0.010544,0.012573,0.993286,0.02629,0.044685,-0.014171,65.179596,32.891113,-145.425369,,,
729861671.997319,0.399562,0.02148,122.298926,0.009613,0.016068,0.977966,0.02629,0.044685,-0.014171,65.052383,32.979156,-145.637543,,,
729861672.000581,0.399298,0.034461,122.293161,0.009613,0.016068,0.977966,0.001313,0.048107,-0.022218,65.052383,32.979156,-145.637543,,,
729861672.003599,0.399298,0.034461,122.293161,0.009613,0.016068,0.977966,0.001313,0.048107,-0.022218,65.052383,32.979156,-145.637543,,,
729861672.007325,0.392376,0.049635,122.287899,0.005432,0.01741,0.971771,0.001313,0.048107,-0.022218,65.052383,32.979156,-145.637543,,,
729861672.010564,0.384857,0.062355,122.283675,0.005432,0.01741,0.971771,-0.024193,0.047831,-0.018804,65.052383,32.979156,-145.637543,,,
729861672.01392,0.384857,0.062355,122.283675,0.005432,0.01741,0.971771,-0.024193,0.047831,-0.018804,65.052383,32.979156,-145.637543,,,
729861672.01725,0.370847,0.074542,122.280283,-0.00061,0.015274,0.97049,-0.024193,0.047831,-0.018804,65.052383,32.979156,-145.637543,,,
729861672.020312,0.359313,0.085744,122.277629,-0.00061,0.015274,0.97049,-0.039873,0.043652,-0.010666,65.052383,32.979156,-145.637543,,,
729861672.023959,0.359313,0.085744,122.277629,-0.00061,0.015274,0.97049,-0.039873,0.043652,-0.010666,65.052383,32.979156,-145.637543,,,
729861672.027283,0.34476,0.095025,122.275516,-0.008499,0.010223,0.97905,-0.039873,0.043652,-0.010666,65.052383,32.979156,-145.637543,,,
729861672.030583,0.333751,0.104588,122.273328,-0.008499,0.010223,0.97905,-0.038049,0.037346,-0.010406,65.052383,32.979156,-145.637543,,,
729861672.034022,0.333751,0.104588,122.273328,-0.008499,0.010223,0.97905,-0.038049,0.037346,-0.010406,65.052383,32.979156,-145.637543,,,
729861672.036976,0.322115,0.109917,122.270481,-0.008698,0.005356,0.987381,-0.038049,0.037346,-0.010406,65.350845,32.701294,-145.334885,,,
729861672.040612,0.316832,0.115892,122.267439,-0.008698,0.005356,0.987381,-0.022448,0.025399,-0.009277,65.350845,32.701294,-145.334885,,,
729861672.043917,0.316832,0.115892,122.267439,-0.008698,0.005356,0.987381,-0.022448,0.025399,-0.009277,65.350845,32.701294,-145.334885,,,
729861672.04733,0.31368,0.1181,122.264732,-0.007523,-0.000168,0.996368,-0.022448,0.025399,-0.009277,65.350845,32.701294,-145.334885,,,
729861672.050582,0.315863,0.1212,122.26247,-0.007523,-0.000168,0.996368,0.006281,0.014094,-0.007964,65.350845,32.701294,-145.334885,,,
729861672.05364,0.315863,0.1212,122.26247,-0.007523,-0.000168,0.996368,0.006281,0.014094,-0.007964,65.350845,32.701294,-145.334885,,,
729861672.057297,0.321469,0.118405,122.260652,-0.011215,-0.003891,1.001785,0.006281,0.014094,-0.007964,65.350845,32.701294,-145.334885,,,
729861672.060578,0.327308,0.118512,122.259625,-0.011215,-0.003891,1.001785,0.020482,0.003973,-0.00516,65.350845,32.701294,-145.334885,,,
729861672.063915,0.327308,0.118512,122.259625,-0.011215,-0.003891,1.001785,0.020482,0.003973,-0.00516,65.350845,32.701294,-145.334885,,,
729861672.06727,0.335974,0.112756,122.259472,-0.010345,-0.002884,1.000076,0.020482,0.003973,-0.00516,65.350845,32.701294,-145.334885,,,
729861672.07033,0.341412,0.110786,122.25987,-0.010345,-0.002884,1.000076,0.020627,-0.006136,0.001267,65.350845,32.701294,-145.334885,,,
729861672.073959,0.341412,0.110786,122.25987,-0.010345,-0.002884,1.000076,0.020627,-0.006136,0.001267,65.350845,32.701294,-145.334885,,,
729861672.077246,0.348159,0.104289,122.26105,-0.012161,0.000259,0.989639,0.020627,-0.006136,0.001267,65.315689,32.912506,-145.605576,,,
729861672.080579,0.349677,0.101603,122.262394,-0.012161,0.000259,0.989639,0.007024,-0.006402,0.003283,65.315689,32.912506,-145.605576,,,
729861672.083911,0.349677,0.101603,122.262394,-0.012161,0.000259,0.989639,0.007024,-0.006402,0.003283,65.315689,32.912506,-145.605576,,,
729861672.087319,0.352887,0.097951,122.263068,-0.007324,0.006271,0.986038,0.007024,-0.006402,0.003283,65.315689,32.912506,-145.605576,,,
729861672.090575,0.350441,0.097519,122.26333,-0.007324,0.006271,0.986038,-0.005295,-0.001052,-0.000564,65.315689,32.912506,-145.605576,,,
729861672.093912,0.350441,0.097519,122.26333,-0.007324,0.006271,0.986038,-0.005295,-0.001052,-0.000564,65.315689,32.912506,-145.605576,,,
729861672.097313,0.348777,0.099199,122.262982,-0.002121,0.00795,0.984146,-0.005295,-0.001052,-0.000564,65.315689,32.912506,-145.605576,,,
729861672.100573,0.343164,0.101938,122.2619,-0.002121,0.00795,0.984146,-0.01623,0.010942,-0.000797,65.315689,32.912506,-145.605576,,,
729861672.103976,0.343164,0.101938,122.2619,-0.002121,0.00795,0.984146,-0.01623,0.010942,-0.000797,65.315689,32.912506,-145.605576,,,
729861672.107238,0.337047,0.1102,122.260654,0.001129,0.009567,0.983154,-0.01623,0.010942,-0.000797,65.315689,32.912506,-145.605576,,,
729861672.110582,0.329272,0.118737,122.258828,0.001129,0.009567,0.983154,-0.023391,0.027572,-0.007239,65.315689,32.912506,-145.605576,,,
729861672.113909,0.329272,0.118737,122.258828,0.001129,0.009567,0.983154,-0.023391,0.027572,-0.007239,65.315689,32.912506,-145.605576,,,
729861672.117259,0.319415,0.131656,122.25577,0.004379,0.010529,0.985947,-0.023391,0.027572,-0.007239,65.315689,32.912506,-145.605576,,,
729861672.12062,0.309373,0.1447,122.251942,0.004379,0.010529,0.985947,-0.03367,0.046931,-0.012928,65.445709,32.910721,-145.709198,,,
729861672.123987,0.309373,0.1447,122.251942,0.004379,0.010529,0.985947,-0.03367,0.046931,-0.012928,65.445709,32.910721,-145.709198,,,
729861672.127251,0.296885,0.159559,122.248183,0.001068,0.008255,0.992462,-0.03367,0.046931,-0.012928,65.445709,32.910721,-145.709198,,,
729861672.130573,0.285644,0.17063,122.245015,0.001068,0.008255,0.992462,-0.041225,0.043771,-0.014704,65.445709,32.910721,-145.709198,,,
729861672.133917,0.285644,0.17063,122.245015,0.001068,0.008255,0.992462,-0.041225,0.043771,-0.014704,65.445709,32.910721,-145.709198,,,
729861672.137315,0.271749,0.181,122.242247,-0.005234,0.00531,0.992325,-0.041225,0.043771,-0.014704,65.445709,32.910721,-145.709198,,,
729861672.140567,0.25919,0.18655,122.239712,-0.005234,0.00531,0.992325,-0.040784,0.023577,-0.010465,65.445709,32.910721,-145.709198,,,
729861672.143917,0.25919,0.18655,122.239712,-0.005234,0.00531,0.992325,-0.040784,0.023577,-0.010465,65.445709,32.910721,-145.709198,,,
729861672.147251,0.245068,0.191475,122.237263,-0.010834,0.003159,0.993271,-0.040784,0.023577,-0.010465,65.445709,32.910721,-145.709198,,,
729861672.150571,0.233059,0.190836,122.235248,-0.010834,0.003159,0.993271,-0.044244,0.003246,-0.007909,65.445709,32.910721,-145.709198,,,
729861672.153963,0.233059,0.190836,122.235248,-0.010834,0.003159,0.993271,-0.044244,0.003246,-0.007909,65.445709,32.910721,-145.709198,,,
729861672.157301,0.221454,0.190127,122.234191,-0.012894,0.001709,0.992569,-0.044244,0.003246,-0.007909,65.445709,32.910721,-145.709198,,,
729861672.160566,0.211525,0.18592,122.234246,-0.012894,0.001709,0.992569,-0.03664,-0.01213,-0.001652,65.364319,32.713409,-145.38472,,,
729861672.164,0.211525,0.18592,122.234246,-0.012894,0.001709,0.992569,-0.03664,-0.01213,-0.001652,65.364319,32.713409,-145.38472,,,
729861672.167263,0.204214,0.1825,122.23543,-0.012527,-0.002487,1.003525,-0.03664,-0.01213,-0.001652,65.364319,32.713409,-145.38472,,,
729861672.170625,0.197065,0.179764,122.237392,-0.012527,-0.002487,1.003525,-0.027408,-0.009164,0.005824,65.364319,32.713409,-145.38472,,,
729861672.173922,0.197065,0.179764,122.237392,-0.012527,-0.002487,1.003525,-0.027408,-0.009164,0.005824,65.364319,32.713409,-145.38472,,,
729861672.177312,0.193905,0.17897,122.24032,-0.00795,-0.005371,1.00827,-0.027408,-0.009164,0.005824,65.364319,32.713409,-145.38472,,,
729861672.180562,0.191682,0.181922,122.243942,-0.00795,-0.005371,1.00827,-0.009702,0.01382,0.011256,65.364319,32.713409,-145.38472,,,
729861672.183928,0.191682,0.181922,122.243942,-0.00795,-0.005371,1.00827,-0.009702,0.01382,0.011256,65.364319,32.713409,-145.38472,,,
729861672.187288,0.194497,0.186602,122.24784,-0.004486,-0.003204,1.010559,-0.009702,0.01382,0.011256,65.364319,32.713409,-145.38472,,,
729861672.190567,0.198323,0.197561,122.252696,-0.004486,-0.003204,1.010559,0.013483,0.036519,0.015556,65.364319,32.713409,-145.38472,,,
729861672.193917,0.198323,0.197561,122.252696,-0.004486,-0.003204,1.010559,0.013483,0.036519,0.015556,65.364319,32.713409,-145.38472,,,
729861672.197244,0.206701,0.208164,122.258424,-0.004333,-0.003983,1.012863,0.013483,0.036519,0.015556,65.364319,32.713409,-145.38472,,,
729861672.200578,0.213779,0.222216,122.264434,-0.004333,-0.003983,1.012863,0.022629,0.05111,0.022959,65.256744,32.844406,-145.506866,,,
729861672.204008,0.213779,0.222216,122.264434,-0.004333,-0.003983,1.012863,0.022629,0.05111,0.022959,65.256744,32.844406,-145.506866,,,
729861672.207229,0.220642,0.233678,122.270426,-0.005783,-0.002029,1.003067,0.022629,0.05111,0.022959,65.256744,32.844406,-145.506866,,,
729861672.21064,0.222982,0.24221,122.27634,-0.005783,-0.002029,1.003067,0.010564,0.038354,0.020349,65.256744,32.844406,-145.506866,,,
729861672.213899,0.222982,0.24221,122.27634,-0.005783,-0.002029,1.003067,0.010564,0.038354,0.020349,65.256744,32.844406,-145.506866,,,
729861672.217265,0.219904,0.247133,122.281271,-0.004807,0.00592,0.97937,0.010564,0.038354,0.020349,65.256744,32.844406,-145.506866,,,
729861672.220618,0.210635,0.244624,122.284999,-0.004807,0.00592,0.97937,-0.026753,0.001633,0.01117,65.256744,32.844406,-145.506866,,,
729861672.223901,0.210635,0.244624,122.284999,-0.004807,0.00592,0.97937,-0.026753,0.001633,0.01117,65.256744,32.844406,-145.506866,,,
729861672.227333,0.195043,0.238167,122.288395,-0.00618,0.013306,0.95903,-0.026753,0.001633,0.01117,65.256744,32.844406,-145.506866,,,
729861672.230591,0.174349,0.222912,122.291177,-0.00618,0.013306,0.95903,-0.067597,-0.047197,0.008833,65.256744,32.844406,-145.506866,,,
729861672.233931,0.174349,0.222912,122.291177,-0.00618,0.013306,0.95903,-0.067597,-0.047197,0.008833,65.256744,32.844406,-145.506866,,,
729861672.237301,0.149219,0.206726,122.293677,-0.006866,0.013962,0.964447,-0.067597,-0.047197,0.008833,65.256744,32.844406,-145.506866,,,
