Time (sec),Pitch (deg),Roll (deg),Yaw(deg),X-Acceleration (g),Y-Acceleration (g),Z-Acceleration (g),Pitch Rate (deg/sec),Roll Rate (deg/sec),Yaw Rate (deg/sec),Magnetic Field in X direction (uT),Magnetic Field in Y direction (uT),Magnetic Field in Z Direction (uT),Latitude (deg),Longitude (deg),Altitude (m)
729861216.858432,-0.80757,4.016467,47.316886,-0.083328,-0.002319,1.011215,0.02628,-0.028733,0.025736,70.215652,13.960953,-151.867981,,,
729861216.861743,-0.799656,4.01029,47.323568,-0.067673,-1.5e-05,1.01561,0.02628,-0.028733,0.025736,70.215652,13.960953,-151.867981,,,
729861216.865176,-0.799656,4.01029,47.323568,-0.067673,-1.5e-05,1.01561,0.02628,-0.028733,0.025736,70.215652,13.960953,-151.867981,,,
729861216.868429,-0.796557,4.011487,47.330286,-0.067673,-1.5e-05,1.01561,0.005643,0.01837,0.024483,70.215652,13.960953,-151.867981,,,
729861216.871751,-0.792165,4.015247,47.337921,-0.053818,-0.000458,1.023956,0.005643,0.01837,0.024483,70.215652,13.960953,-151.867981,,,
729861216.875098,-0.792165,4.015247,47.337921,-0.053818,-0.000458,1.023956,0.005643,0.01837,0.024483,70.215652,13.960953,-151.867981,,,
729861216.878483,-0.78908,4.027229,47.346487,-0.053818,-0.000458,1.023956,0.011395,0.051416,0.03098,70.215652,13.960953,-151.867981,,,
729861216.881747,-0.782916,4.040152,47.355412,-0.060043,-0.007797,1.032486,0.011395,0.051416,0.03098,70.215652,13.960953,-151.867981,,,
729861216.885099,-0.782916,4.040152,47.355412,-0.060043,-0.007797,1.032486,0.011395,0.051416,0.03098,70.215652,13.960953,-151.867981,,,
729861216.888429,-0.775605,4.05578,47.364387,-0.060043,-0.007797,1.032486,0.028201,0.057341,0.032336,70.215652,13.960953,-151.867981,,,
729861216.891832,-0.76618,4.074883,47.373953,-0.066727,-0.010391,1.023895,0.028201,0.057341,0.032336,70.215652,13.960953,-151.867981,,,
729861216.895106,-0.76618,4.074883,47.373953,-0.066727,-0.010391,1.023895,0.028201,0.057341,0.032336,70.215652,13.960953,-151.867981,,,
729861216.898424,-0.755266,4.085061,47.383859,-0.066727,-0.010391,1.023895,0.035741,0.027958,0.035722,70.202515,13.765701,-151.814438,,,
729861216.90174,-0.74501,4.097278,47.393568,-0.065308,-0.005585,0.997101,0.035741,0.027958,0.035722,70.202515,13.765701,-151.814438,,,
729861216.905127,-0.74501,4.097278,47.393568,-0.065308,-0.005585,0.997101,0.035741,0.027958,0.035722,70.202515,13.765701,-151.814438,,,
729861216.908404,-0.733856,4.094586,47.403115,-0.065308,-0.005585,0.997101,0.036712,-0.017091,0.03545,70.202515,13.765701,-151.814438,,,
729861216.911745,-0.724842,4.095111,47.412348,-0.063339,-0.002533,0.986267,0.036712,-0.017091,0.03545,70.202515,13.765701,-151.814438,,,
729861216.915087,-0.724842,4.095111,47.412348,-0.063339,-0.002533,0.986267,0.036712,-0.017091,0.03545,70.202515,13.765701,-151.814438,,,
729861216.91847,-0.715306,4.085195,47.419955,-0.063339,-0.002533,0.986267,0.029687,-0.034614,0.024258,70.202515,13.765701,-151.814438,,,
729861216.92174,-0.706598,4.079514,47.426064,-0.05394,-0.003174,0.990646,0.029687,-0.034614,0.024258,70.202515,13.765701,-151.814438,,,
729861216.925088,-0.706598,4.079514,47.426064,-0.05394,-0.003174,0.990646,0.029687,-0.034614,0.024258,70.202515,13.765701,-151.814438,,,
729861216.928408,-0.698211,4.070124,47.430564,-0.05394,-0.003174,0.990646,0.027983,-0.028434,0.013336,70.202515,13.765701,-151.814438,,,
729861216.931745,-0.687201,4.065031,47.433415,-0.046677,-0.006729,1.000397,0.027983,-0.028434,0.013336,70.202515,13.765701,-151.814438,,,
729861216.935086,-0.687201,4.065031,47.433415,-0.046677,-0.006729,1.000397,0.027983,-0.028434,0.013336,70.202515,13.765701,-151.814438,,,
729861216.938437,-0.674105,4.06072,47.43489,-0.046677,-0.006729,1.000397,0.051718,-0.005193,0.005637,70.106354,13.54274,-151.744614,,,
729861216.941741,-0.65498,4.060477,47.434758,-0.042679,-0.014023,1.019852,0.051718,-0.005193,0.005637,70.106354,13.54274,-151.744614,,,
729861216.945078,-0.65498,4.060477,47.434758,-0.042679,-0.014023,1.019852,0.051718,-0.005193,0.005637,70.106354,13.54274,-151.744614,,,
729861216.948422,-0.631773,4.063247,47.432942,-0.042679,-0.014023,1.019852,0.090738,0.01724,-0.003333,70.106354,13.54274,-151.744614,,,
729861216.951834,-0.603174,4.066269,47.429515,-0.045303,-0.017776,1.0271,0.090738,0.01724,-0.003333,70.106354,13.54274,-151.744614,,,
729861216.955121,-0.603174,4.066269,47.429515,-0.045303,-0.017776,1.0271,0.090738,0.01724,-0.003333,70.106354,13.54274,-151.744614,,,
729861216.958435,-0.574378,4.074874,47.424348,-0.045303,-0.017776,1.0271,0.102571,0.036519,-0.014859,70.106354,13.54274,-151.744614,,,
729861216.961754,-0.546205,4.082202,47.418103,-0.048096,-0.009201,1.005371,0.102571,0.036519,-0.014859,70.106354,13.54274,-151.744614,,,
729861216.965101,-0.546205,4.082202,47.418103,-0.048096,-0.009201,1.005371,0.102571,0.036519,-0.014859,70.106354,13.54274,-151.744614,,,
729861216.96849,-0.521614,4.093129,47.411511,-0.048096,-0.009201,1.005371,0.081555,0.042197,-0.018923,70.106354,13.54274,-151.744614,,,
729861216.971746,-0.500504,4.102676,47.405074,-0.055435,-0.006012,0.98465,0.081555,0.042197,-0.018923,70.106354,13.54274,-151.744614,,,
729861216.975098,-0.500504,4.102676,47.405074,-0.055435,-0.006012,0.98465,0.081555,0.042197,-0.018923,70.106354,13.54274,-151.744614,,,
729861216.978427,-0.482445,4.112969,47.399941,-0.055435,-0.006012,0.98465,0.058129,0.036149,-0.011537,69.995834,13.26828,-151.633514,,,
729861216.981793,-0.466454,4.119814,47.396781,-0.075562,-0.008301,0.977158,0.058129,0.036149,-0.011537,69.995834,13.26828,-151.633514,,,
729861216.985101,-0.466454,4.119814,47.396781,-0.075562,-0.008301,0.977158,0.058129,0.036149,-0.011537,69.995834,13.26828,-151.633514,,,
729861216.988438,-0.453069,4.125726,47.395685,-0.075562,-0.008301,0.977158,0.04221,0.017818,0.001532,69.995834,13.26828,-151.633514,,,
729861216.991745,-0.441387,4.127281,47.395849,-0.084885,-0.005569,0.972351,0.04221,0.017818,0.001532,69.995834,13.26828,-151.633514,,,
729861216.995133,-0.441387,4.127281,47.395849,-0.084885,-0.005569,0.972351,0.04221,0.017818,0.001532,69.995834,13.26828,-151.633514,,,
729861216.998421,-0.433548,4.12992,47.396882,-0.084885,-0.005569,0.972351,0.023696,0.008928,0.006132,69.995834,13.26828,-151.633514,,,
729861217.001848,-0.426411,4.126902,47.39875,-0.082733,-0.008118,0.978012,0.023696,0.008928,0.006132,69.995834,13.26828,-151.633514,,,
729861217.004978,-0.426411,4.126902,47.39875,-0.082733,-0.008118,0.978012,0.023696,0.008928,0.006132,69.995834,13.26828,-151.633514,,,
729861217.008489,-0.420745,4.12847,47.402334,-0.082733,-0.008118,0.978012,0.019496,0.007434,0.01757,69.995834,13.26828,-151.633514,,,
729861217.011818,-0.413674,4.121737,47.407874,-0.089523,-0.015182,0.983261,0.019496,0.007434,0.01757,69.995834,13.26828,-151.633514,,,
729861217.015098,-0.413674,4.121737,47.407874,-0.089523,-0.015182,0.983261,0.019496,0.007434,0.01757,69.995834,13.26828,-151.633514,,,
729861217.018418,-0.405667,4.122536,47.414783,-0.089523,-0.015182,0.983261,0.02882,0.00392,0.027353,70.040512,13.423615,-151.770691,,,
729861217.021745,-0.397202,4.112466,47.422343,-0.086182,-0.010712,0.981689,0.02882,0.00392,0.027353,70.040512,13.423615,-151.770691,,,
729861217.025089,-0.397202,4.112466,47.422343,-0.086182,-0.010712,0.981689,0.02882,0.00392,0.027353,70.040512,13.423615,-151.770691,,,
729861217.028419,-0.385642,4.111037,47.429801,-0.086182,-0.010712,0.981689,0.044804,-0.003917,0.027304,70.040512,13.423615,-151.770691,,,
729861217.031749,-0.373743,4.099442,47.43613,-0.077744,-0.011734,0.986877,0.044804,-0.003917,0.027304,70.040512,13.423615,-151.770691,,,
729861217.035161,-0.373743,4.099442,47.43613,-0.077744,-0.011734,0.986877,0.044804,-0.003917,0.027304,70.040512,13.423615,-151.770691,,,
729861217.038436,-0.356628,4.097348,47.440081,-0.077744,-0.011734,0.986877,0.063707,-0.004122,0.011616,70.040512,13.423615,-151.770691,,,
729861217.041745,-0.339215,4.087388,47.440587,-0.069687,-0.011185,0.994293,0.063707,-0.004122,0.011616,70.040512,13.423615,-151.770691,,,
729861217.045087,-0.339215,4.087388,47.440587,-0.069687,-0.011185,0.994293,0.063707,-0.004122,0.011616,70.040512,13.423615,-151.770691,,,
729861217.048429,-0.320551,4.085503,47.437647,-0.069687,-0.011185,0.994293,0.065914,-0.003107,-0.012672,70.040512,13.423615,-151.770691,,,
729861217.051791,-0.303658,4.077314,47.432102,-0.058212,-0.00444,0.979446,0.065914,-0.003107,-0.012672,70.040512,13.423615,-151.770691,,,
729861217.0551,-0.303658,4.077314,47.432102,-0.058212,-0.00444,0.979446,0.065914,-0.003107,-0.012672,70.040512,13.423615,-151.770691,,,
729861217.058488,-0.289788,4.074558,47.425312,-0.058212,-0.00444,0.979446,0.044916,-0.006297,-0.023106,70.040512,13.423615,-151.770691,,,
729861217.061759,-0.27972,4.072451,47.41799,-0.060516,-0.003357,0.968475,0.044916,-0.006297,-0.023106,69.984406,13.149002,-151.857498,,,
729861217.065101,-0.27972,4.072451,47.41799,-0.060516,-0.003357,0.968475,0.044916,-0.006297,-0.023106,69.984406,13.149002,-151.857498,,,
729861217.068417,-0.272821,4.071291,47.411124,-0.060516,-0.003357,0.968475,0.019639,0.001612,-0.021723,69.984406,13.149002,-151.857498,,,
729861217.071745,-0.269702,4.077293,47.405968,-0.075378,-0.006561,0.97197,0.019639,0.001612,-0.021723,69.984406,13.149002,-151.857498,,,
729861217.075104,-0.269702,4.077293,47.405968,-0.075378,-0.006561,0.97197,0.019639,0.001612,-0.021723,69.984406,13.149002,-151.857498,,,
729861217.078428,-0.268643,4.08006,47.403777,-0.075378,-0.006561,0.97197,0.000969,0.01587,-0.002186,69.984406,13.149002,-151.857498,,,
729861217.081817,-0.268295,4.087917,47.405041,-0.084183,-0.012878,0.980499,0.000969,0.01587,-0.002186,69.984406,13.149002,-151.857498,,,
729861217.085077,-0.268295,4.087917,47.405041,-0.084183,-0.012878,0.980499,0.000969,0.01587,-0.002186,69.984406,13.149002,-151.857498,,,
729861217.088416,-0.265958,4.092145,47.408901,-0.084183,-0.012878,0.980499,0.010942,0.0193,0.016737,69.984406,13.149002,-151.857498,,,
729861217.091783,-0.263795,4.102252,47.41463,-0.084137,-0.013428,0.992691,0.010942,0.0193,0.016737,69.984406,13.149002,-151.857498,,,
729861217.095153,-0.263795,4.102252,47.41463,-0.084137,-0.013428,0.992691,0.010942,0.0193,0.016737,69.984406,13.149002,-151.857498,,,
729861217.098437,-0.25798,4.105662,47.421361,-0.084137,-0.013428,0.992691,0.020119,0.013769,0.024572,69.984406,13.149002,-151.857498,,,
729861217.101747,-0.253499,4.113496,47.427618,-0.077896,-0.00943,0.984344,0.020119,0.013769,0.024572,70.185455,12.882156,-151.401001,,,
729861217.105133,-0.253499,4.113496,47.427618,-0.077896,-0.00943,0.984344,0.020119,0.013769,0.024572,70.185455,12.882156,-151.401001,,,
729861217.108493,-0.24789,4.115314,47.432368,-0.077896,-0.00943,0.984344,0.017921,0.007179,0.014038,70.185455,12.882156,-151.401001,,,
729861217.111801,-0.243968,4.117909,47.435941,-0.07135,-0.004272,0.974014,0.017921,0.007179,0.014038,70.185455,12.882156,-151.401001,,,
729861217.115099,-0.243968,4.117909,47.435941,-0.07135,-0.004272,0.974014,0.017921,0.007179,0.014038,70.185455,12.882156,-151.401001,,,
729861217.118443,-0.239938,4.116774,47.438407,-0.07135,-0.004272,0.974014,0.012026,-0.005013,0.006,70.185455,12.882156,-151.401001,,,
729861217.121739,-0.238723,4.114104,47.440403,-0.068115,-0.001404,0.972687,0.012026,-0.005013,0.006,70.185455,12.882156,-151.401001,,,
729861217.125109,-0.238723,4.114104,47.440403,-0.068115,-0.001404,0.972687,0.012026,-0.005013,0.006,70.185455,12.882156,-151.401001,,,
729861217.128468,-0.23836,4.111142,47.442204,-0.068115,-0.001404,0.972687,-0.00039,-0.007007,0.003795,70.185455,12.882156,-151.401001,,,
729861217.131752,-0.240458,4.106865,47.443164,-0.063461,-0.003387,0.979675,-0.00039,-0.007007,0.003795,70.185455,12.882156,-151.401001,,,
729861217.135157,-0.240458,4.106865,47.443164,-0.063461,-0.003387,0.979675,-0.00039,-0.007007,0.003795,70.185455,12.882156,-151.401001,,,
729861217.13842,-0.244945,4.105682,47.443208,-0.063461,-0.003387,0.979675,-0.018233,0.001124,-0.003968,70.185455,12.882156,-151.401001,,,
729861217.141773,-0.251056,4.104041,47.442494,-0.061127,-0.008194,0.992004,-0.018233,0.001124,-0.003968,70.072067,12.960297,-151.481766,,,
729861217.145096,-0.251056,4.104041,47.442494,-0.061127,-0.008194,0.992004,-0.018233,0.001124,-0.003968,70.072067,12.960297,-151.481766,,,
729861217.148495,-0.258567,4.106415,47.441109,-0.061127,-0.008194,0.992004,-0.026587,0.013623,-0.009393,70.072067,12.960297,-151.481766,,,
729861217.151741,-0.266038,4.110294,47.439379,-0.070694,-0.012299,1.005585,-0.026587,0.013623,-0.009393,70.072067,12.960297,-151.481766,,,
729861217.155094,-0.266038,4.110294,47.439379,-0.070694,-0.012299,1.005585,-0.026587,0.013623,-0.009393,70.072067,12.960297,-151.481766,,,
729861217.158434,-0.272823,4.113906,47.438087,-0.070694,-0.012299,1.005585,-0.021653,0.014716,-0.005988,70.072067,12.960297,-151.481766,,,
729861217.161787,-0.280144,4.120733,47.43818,-0.077087,-0.013611,1.007294,-0.021653,0.014716,-0.005988,70.072067,12.960297,-151.481766,,,
729861217.165059,-0.280144,4.120733,47.43818,-0.077087,-0.013611,1.007294,-0.021653,0.014716,-0.005988,70.072067,12.960297,-151.481766,,,
729861217.168483,-0.284282,4.124127,47.439674,-0.077087,-0.013611,1.007294,-0.008759,0.014243,0.004793,70.072067,12.960297,-151.481766,,,
729861217.171797,-0.28813,4.130268,47.442567,-0.081451,-0.013794,1.008728,-0.008759,0.014243,0.004793,70.072067,12.960297,-151.481766,,,
729861217.175076,-0.28813,4.130268,47.442567,-0.081451,-0.013794,1.008728,-0.008759,0.014243,0.004793,70.072067,12.960297,-151.481766,,,
729861217.178449,-0.288024,4.131761,47.446971,-0.081451,-0.013794,1.008728,0.004372,0.007647,0.016456,70.072067,12.960297,-151.481766,,,
729861217.181827,-0.288024,4.131761,47.446971,-0.084976,-0.012329,1.007797,0.004372,0.007647,0.016456,69.931778,13.089401,-152.025772,,,
729861217.185155,-0.286022,4.135255,47.45224,-0.084976,-0.012329,1.007797,0.004372,0.007647,0.016456,69.931778,13.089401,-152.025772,,,
729861217.188421,-0.279555,4.134158,47.457402,-0.084976,-0.012329,1.007797,0.026015,-0.004198,0.017389,69.931778,13.089401,-152.025772,,,
729861217.191784,-0.279555,4.134158,47.462185,-0.079742,-0.008133,1.005829,0.026015,-0.004198,0.017389,69.931778,13.089401,-152.025772,,,
729861217.195099,-0.271911,4.132466,47.462185,-0.079742,-0.008133,1.005829,0.026015,-0.004198,0.017389,69.931778,13.089401,-152.025772,,,
729861217.19848,-0.264256,4.129463,47.466049,-0.079742,-0.008133,1.005829,0.026283,-0.008902,0.011003,69.931778,13.089401,-152.025772,,,
729861217.201764,-0.264256,4.129463,47.466049,-0.074173,1.5e-05,0.996353,0.026283,-0.008902,0.011003,69.931778,13.089401,-152.025772,,,
729861217.205091,-0.256875,4.125423,47.468523,-0.074173,1.5e-05,0.996353,0.026283,-0.008902,0.011003,69.931778,13.089401,-152.025772,,,
729861217.208415,-0.252401,4.121096,47.469721,-0.074173,1.5e-05,0.996353,0.010901,-0.014561,0.000961,69.931778,13.089401,-152.025772,,,
729861217.211777,-0.250862,4.11359,47.469574,-0.066147,0.006912,0.980499,0.010901,-0.014561,0.000961,69.931778,13.089401,-152.025772,,,
729861217.215085,-0.250862,4.11359,47.469574,-0.066147,0.006912,0.980499,0.010901,-0.014561,0.000961,69.931778,13.089401,-152.025772,,,
729861217.218432,-0.253623,4.106787,47.468303,-0.066147,0.006912,0.980499,-0.015403,-0.020467,-0.008812,69.931778,13.089401,-152.025772,,,
729861217.221833,-0.253623,4.106787,47.465563,-0.06311,0.006592,0.97934,-0.015403,-0.020467,-0.008812,69.931778,13.089401,-152.025772,,,
729861217.225108,-0.260943,4.096644,47.465563,-0.06311,0.006592,0.97934,-0.015403,-0.020467,-0.008812,69.896896,13.067581,-151.506363,,,
729861217.228482,-0.271028,4.089937,47.462242,-0.06311,0.006592,0.97934,-0.038881,-0.020935,-0.014646,69.896896,13.067581,-151.506363,,,
729861217.231772,-0.271028,4.089937,47.458929,-0.065948,0.008636,0.981339,-0.038881,-0.020935,-0.014646,69.896896,13.067581,-151.506363,,,
729861217.235165,-0.285421,4.081266,47.458929,-0.065948,0.008636,0.981339,-0.038881,-0.020935,-0.014646,69.896896,13.067581,-151.506363,,,
729861217.238414,-0.300588,4.073161,47.455483,-0.065948,0.008636,0.981339,-0.055309,-0.026864,-0.016725,69.896896,13.067581,-151.506363,,,
729861217.241857,-0.300588,4.073161,47.455483,-0.065948,0.008636,0.981339,-0.055309,-0.026864,-0.016725,69.896896,13.067581,-151.506363,,,
729861217.245082,-0.318283,4.065585,47.452436,-0.067032,0.008148,0.98642,-0.055309,-0.026864,-0.016725,69.896896,13.067581,-151.506363,,,
729861217.248469,-0.33265,4.05746,47.449743,-0.067032,0.008148,0.98642,-0.046509,-0.021314,-0.013495,69.896896,13.067581,-151.506363,,,
729861217.251757,-0.33265,4.05746,47.449743,-0.067032,0.008148,0.98642,-0.046509,-0.021314,-0.013495,69.896896,13.067581,-151.506363,,,
729861217.255096,-0.348058,4.056481,47.447228,-0.063126,-0.000809,1.000839,-0.046509,-0.021314,-0.013495,69.896896,13.067581,-151.506363,,,
729861217.258418,-0.360797,4.059612,47.445088,-0.063126,-0.000809,1.000839,-0.040607,0.026623,-0.010311,69.896896,13.067581,-151.506363,,,
729861217.261832,-0.360797,4.059612,47.445088,-0.063126,-0.000809,1.000839,-0.040607,0.026623,-0.010311,69.896896,13.067581,-151.506363,,,
729861217.265082,-0.374395,4.073667,47.443865,-0.057709,-0.006073,1.007538,-0.040607,0.026623,-0.010311,70.103195,13.304153,-151.707092,,,
729861217.268434,-0.386314,4.088962,47.443242,-0.057709,-0.006073,1.007538,-0.039845,0.063706,-0.005883,70.103195,13.304153,-151.707092,,,
729861217.271759,-0.386314,4.088962,47.443242,-0.057709,-0.006073,1.007538,-0.039845,0.063706,-0.005883,70.103195,13.304153,-151.707092,,,
729861217.275179,-0.39834,4.110705,47.442616,-0.062332,-0.001572,1.003754,-0.039845,0.063706,-0.005883,70.103195,13.304153,-151.707092,,,
729861217.278428,-0.407831,4.131627,47.441589,-0.062332,-0.001572,1.003754,-0.027357,0.079216,-0.00759,70.103195,13.304153,-151.707092,,,
729861217.281769,-0.407831,4.131627,47.441589,-0.062332,-0.001572,1.003754,-0.027357,0.079216,-0.00759,70.103195,13.304153,-151.707092,,,
729861217.285089,-0.413972,4.155947,47.43984,-0.068573,-0.003372,1.011093,-0.027357,0.079216,-0.00759,70.103195,13.304153,-151.707092,,,
729861217.288497,-0.419001,4.180671,47.436848,-0.068573,-0.003372,1.011093,-0.011554,0.090775,-0.015051,70.103195,13.304153,-151.707092,,,
729861217.291751,-0.419001,4.180671,47.436848,-0.068573,-0.003372,1.011093,-0.011554,0.090775,-0.015051,70.103195,13.304153,-151.707092,,,
729861217.295165,-0.418562,4.2031,47.433463,-0.076355,-0.010315,1.009018,-0.011554,0.090775,-0.015051,70.103195,13.304153,-151.707092,,,
729861217.298413,-0.420917,4.222411,47.430032,-0.076355,-0.010315,1.009018,-0.009442,0.060056,-0.015291,70.103195,13.304153,-151.707092,,,
729861217.301818,-0.420917,4.222411,47.430032,-0.076355,-0.010315,1.009018,-0.009442,0.060056,-0.015291,70.103195,13.304153,-151.707092,,,
729861217.305082,-0.420495,4.233157,47.426754,-0.08577,-0.007904,0.994537,-0.009442,0.060056,-0.015291,70.231339,13.308578,-151.469833,,,
729861217.308421,-0.42381,4.240356,47.424738,-0.08577,-0.007904,0.994537,-0.013482,0.017117,-0.006956,70.231339,13.308578,-151.469833,,,
729861217.311771,-0.42381,4.240356,47.424738,-0.08577,-0.007904,0.994537,-0.013482,0.017117,-0.006956,70.231339,13.308578,-151.469833,,,
729861217.315159,-0.425002,4.239344,47.424302,-0.092896,-0.003662,0.989944,-0.013482,0.017117,-0.006956,70.231339,13.308578,-151.469833,,,
729861217.318425,-0.4304,4.23563,47.42553,-0.092896,-0.003662,0.989944,-0.0194,-0.018393,0.004138,70.231339,13.308578,-151.469833,,,
729861217.321798,-0.4304,4.23563,47.42553,-0.092896,-0.003662,0.989944,-0.0194,-0.018393,0.004138,70.231339,13.308578,-151.469833,,,
729861217.32509,-0.43161,4.22595,47.428238,-0.094269,-0.010269,0.997467,-0.0194,-0.018393,0.004138,70.231339,13.308578,-151.469833,,,
729861217.328434,-0.43576,4.213866,47.43217,-0.094269,-0.010269,0.997467,-0.014245,-0.0465,0.012923,70.231339,13.308578,-151.469833,,,
729861217.331788,-0.43576,4.213866,47.43217,-0.094269,-0.010269,0.997467,-0.014245,-0.0465,0.012923,70.231339,13.308578,-151.469833,,,
729861217.335084,-0.437434,4.195597,47.43705,-0.090103,-0.010941,1.002853,-0.014245,-0.0465,0.012923,70.231339,13.308578,-151.469833,,,
729861217.338419,-0.440649,4.178319,47.442501,-0.090103,-0.010941,1.002853,-0.010768,-0.059192,0.017032,70.231339,13.308578,-151.469833,,,
729861217.341876,-0.440649,4.178319,47.442501,-0.090103,-0.010941,1.002853,-0.010768,-0.059192,0.017032,70.231339,13.308578,-151.469833,,,
729861217.34511,-0.442972,4.156525,47.447648,-0.077988,-0.010574,1.002426,-0.010768,-0.059192,0.017032,70.231339,13.308578,-151.469833,,,
729861217.348425,-0.445055,4.141765,47.452762,-0.077988,-0.010574,1.002426,-0.006435,-0.042937,0.016814,70.148346,13.322327,-151.462601,,,
729861217.351796,-0.445055,4.141765,47.452762,-0.077988,-0.010574,1.002426,-0.006435,-0.042937,0.016814,70.148346,13.322327,-151.462601,,,
729861217.355136,-0.4455,4.126616,47.457108,-0.058167,-0.010818,1.00264,-0.006435,-0.042937,0.016814,70.148346,13.322327,-151.462601,,,
729861217.358417,-0.447281,4.119596,47.46026,-0.058167,-0.010818,1.00264,-0.00655,-0.013228,0.008314,70.148346,13.322327,-151.462601,,,
729861217.361758,-0.447281,4.119596,47.46026,-0.058167,-0.010818,1.00264,-0.00655,-0.013228,0.008314,70.148346,13.322327,-151.462601,,,
729861217.365085,-0.448564,4.116158,47.463087,-0.052338,-0.007126,1.001205,-0.00655,-0.013228,0.008314,70.148346,13.322327,-151.462601,,,
729861217.368499,-0.451142,4.119334,47.465776,-0.052338,-0.007126,1.001205,-0.006838,0.021368,0.007218,70.148346,13.322327,-151.462601,,,
729861217.371798,-0.451142,4.119334,47.465776,-0.052338,-0.007126,1.001205,-0.006838,0.021368,0.007218,70.148346,13.322327,-151.462601,,,
729861217.375099,-0.452303,4.126982,47.468684,-0.05603,-0.00769,1.0009,-0.006838,0.021368,0.007218,70.148346,13.322327,-151.462601,,,
729861217.37843,-0.451411,4.136348,47.471727,-0.05603,-0.00769,1.0009,0.005424,0.036249,0.00906,70.148346,13.322327,-151.462601,,,
729861217.381817,-0.451411,4.136348,47.471727,-0.05603,-0.00769,1.0009,0.005424,0.036249,0.00906,70.148346,13.322327,-151.462601,,,
729861217.38509,-0.449679,4.149508,47.474791,-0.054108,-0.009201,0.992218,0.005424,0.036249,0.00906,70.148346,13.322327,-151.462601,,,
729861217.388431,-0.446913,4.158052,47.477453,-0.054108,-0.009201,0.992218,0.010446,0.029212,0.006822,70.006683,13.355453,-151.560226,,,
729861217.391753,-0.446913,4.158052,47.477453,-0.054108,-0.009201,0.992218,0.010446,0.029212,0.006822,70.006683,13.355453,-151.560226,,,
729861217.395137,-0.442662,4.170637,47.479073,-0.053879,-0.007477,0.980881,0.010446,0.029212,0.006822,70.006683,13.355453,-151.560226,,,
729861217.39842,-0.438425,4.174969,47.479323,-0.053879,-0.007477,0.980881,0.01768,0.015402,-0.001831,70.006683,13.355453,-151.560226,,,
729861217.401745,-0.438425,4.174969,47.479323,-0.053879,-0.007477,0.980881,0.01768,0.015402,-0.001831,70.006683,13.355453,-151.560226,,,
729861217.405087,-0.433871,4.18522,47.477961,-0.055511,-0.010101,0.980911,0.01768,0.015402,-0.001831,70.006683,13.355453,-151.560226,,,
729861217.408476,-0.429186,4.187966,47.475356,-0.055511,-0.010101,0.980911,0.016821,0.01057,-0.010227,70.006683,13.355453,-151.560226,,,
729861217.411751,-0.429186,4.187966,47.475356,-0.055511,-0.010101,0.980911,0.016821,0.01057,-0.010227,70.006683,13.355453,-151.560226,,,
729861217.415096,-0.426334,4.195535,47.472031,-0.058319,-0.009476,0.981049,0.016821,0.01057,-0.010227,70.006683,13.355453,-151.560226,,,
729861217.418426,-0.425247,4.197088,47.467456,-0.058319,-0.009476,0.981049,0.000781,0.007626,-0.019813,70.006683,13.355453,-151.560226,,,
729861217.421749,-0.425247,4.197088,47.467456,-0.058319,-0.009476,0.981049,0.000781,0.007626,-0.019813,70.006683,13.355453,-151.560226,,,
729861217.425099,-0.428159,4.200864,47.462042,-0.060333,-0.004257,0.97438,0.000781,0.007626,-0.019813,70.006683,13.355453,-151.560226,,,
729861217.428412,-0.432735,4.201204,47.456363,-0.060333,-0.004257,0.97438,-0.015801,0.003256,-0.022752,70.255356,13.129166,-151.480957,,,
729861217.43176,-0.432735,4.201204,47.456363,-0.060333,-0.004257,0.97438,-0.015801,0.003256,-0.022752,70.255356,13.129166,-151.480957,,,
729861217.435142,-0.438936,4.196566,47.450986,-0.067505,-0.006287,0.976257,-0.015801,0.003256,-0.022752,70.255356,13.129166,-151.480957,,,
729861217.438405,-0.445968,4.19218,47.446421,-0.067505,-0.006287,0.976257,-0.026322,-0.019512,-0.018065,70.255356,13.129166,-151.480957,,,
729861217.44175,-0.445968,4.19218,47.446421,-0.067505,-0.006287,0.976257,-0.026322,-0.019512,-0.018065,70.255356,13.129166,-151.480957,,,
729861217.445105,-0.4539,4.176668,47.442258,-0.077957,-0.010605,0.971603,-0.026322,-0.019512,-0.018065,70.255356,13.129166,-151.480957,,,
729861217.448413,-0.461823,4.162325,47.438672,-0.077957,-0.010605,0.971603,-0.026153,-0.05538,-0.014363,70.255356,13.129166,-151.480957,,,
729861217.451766,-0.461823,4.162325,47.438672,-0.077957,-0.010605,0.971603,-0.026153,-0.05538,-0.014363,70.255356,13.129166,-151.480957,,,
729861217.455089,-0.469575,4.138621,47.43476,-0.077545,-0.005753,0.970306,-0.026153,-0.05538,-0.014363,70.255356,13.129166,-151.480957,,,
729861217.458462,-0.477536,4.119403,47.429481,-0.077545,-0.005753,0.970306,-0.024817,-0.063919,-0.024135,70.255356,13.129166,-151.480957,,,
729861217.461806,-0.477536,4.119403,47.429481,-0.077545,-0.005753,0.970306,-0.024817,-0.063919,-0.024135,70.255356,13.129166,-151.480957,,,
729861217.465082,-0.485155,4.09675,47.422363,-0.063522,-0.005585,0.980148,-0.024817,-0.063919,-0.024135,70.255356,13.129166,-151.480957,,,
729861217.468425,-0.491206,4.083847,47.413723,-0.063522,-0.005585,0.980148,-0.014616,-0.030724,-0.034414,70.194595,13.178391,-151.568436,,,
729861217.471757,-0.491206,4.083847,47.413723,-0.063522,-0.005585,0.980148,-0.014616,-0.030724,-0.034414,70.194595,13.178391,-151.568436,,,
729861217.475183,-0.495122,4.072888,47.404246,-0.060593,-0.011673,1.004654,-0.014616,-0.030724,-0.034414,70.194595,13.178391,-151.568436,,,
729861217.478412,-0.497327,4.075279,47.395269,-0.060593,-0.011673,1.004654,-0.001917,0.025197,-0.030265,70.194595,13.178391,-151.568436,,,
729861217.481771,-0.497327,4.075279,47.395269,-0.060593,-0.011673,1.004654,-0.001917,0.025197,-0.030265,70.194595,13.178391,-151.568436,,,
729861217.485088,-0.498002,4.08065,47.38768,-0.067276,-0.012314,1.01413,-0.001917,0.025197,-0.030265,70.194595,13.178391,-151.568436,,,
729861217.488504,-0.496682,4.097052,47.381688,-0.067276,-0.012314,1.01413,0.009052,0.069948,-0.01857,70.194595,13.178391,-151.568436,,,
729861217.491838,-0.496682,4.097052,47.381688,-0.067276,-0.012314,1.01413,0.009052,0.069948,-0.01857,70.194595,13.178391,-151.568436,,,
729861217.495091,-0.49582,4.113317,47.377045,-0.075943,-0.011688,1.004593,0.009052,0.069948,-0.01857,70.194595,13.178391,-151.568436,,,
729861217.498442,-0.495535,4.134334,47.372995,-0.075943,-0.011688,1.004593,0.001271,0.074202,-0.015248,70.194595,13.178391,-151.568436,,,
729861217.501762,-0.495535,4.134334,47.372995,-0.075943,-0.011688,1.004593,0.001271,0.074202,-0.015248,70.194595,13.178391,-151.568436,,,
729861217.50509,-0.495399,4.149661,47.368812,-0.085022,-0.007874,0.990021,0.001271,0.074202,-0.015248,70.194595,13.178391,-151.568436,,,
729861217.508421,-0.497004,4.16399,47.364719,-0.085022,-0.007874,0.990021,-0.006535,0.04286,-0.01542,70.194595,13.178391,-151.568436,,,
729861217.511856,-0.497004,4.16399,47.364719,-0.085022,-0.007874,0.990021,-0.006535,0.04286,-0.01542,70.382004,12.996979,-151.609512,,,
729861217.515082,-0.499596,4.169388,47.361263,-0.096176,-0.004669,0.979294,-0.006535,0.04286,-0.01542,70.382004,12.996979,-151.609512,,,
729861217.518427,-0.504468,4.1677,47.359094,-0.096176,-0.004669,0.979294,-0.017347,-0.020215,-0.007336,70.382004,12.996979,-151.609512,,,
729861217.521767,-0.504468,4.1677,47.359094,-0.096176,-0.004669,0.979294,-0.017347,-0.020215,-0.007336,70.382004,12.996979,-151.609512,,,
729861217.525196,-0.509958,4.157637,47.358359,-0.102921,-0.007339,0.974442,-0.017347,-0.020215,-0.007336,70.382004,12.996979,-151.609512,,,
729861217.528418,-0.515914,4.137888,47.358524,-0.102921,-0.007339,0.974442,-0.023168,-0.078609,-0.001335,70.382004,12.996979,-151.609512,,,
729861217.531774,-0.515914,4.137888,47.358524,-0.102921,-0.007339,0.974442,-0.023168,-0.078609,-0.001335,70.382004,12.996979,-151.609512,,,
729861217.535098,-0.523051,4.115335,47.358643,-0.094437,-0.001938,0.985031,-0.023168,-0.078609,-0.001335,70.382004,12.996979,-151.609512,,,
729861217.538416,-0.532319,4.088842,47.357867,-0.094437,-0.001938,0.985031,-0.035071,-0.090336,-0.008354,70.382004,12.996979,-151.609512,,,
729861217.541769,-0.532319,4.088842,47.357867,-0.094437,-0.001938,0.985031,-0.035071,-0.090336,-0.008354,70.382004,12.996979,-151.609512,,,
729861217.545101,-0.541618,4.062709,47.356262,-0.078583,-0.006638,0.998596,-0.035071,-0.090336,-0.008354,70.382004,12.996979,-151.609512,,,
729861217.548421,-0.550846,4.041001,47.353865,-0.078583,-0.006638,0.998596,-0.029242,-0.064085,-0.013513,70.382004,12.996979,-151.609512,,,
729861217.551746,-0.550846,4.041001,47.353865,-0.078583,-0.006638,0.998596,-0.029242,-0.064085,-0.013513,69.97168,13.32962,-151.538681,,,
729861217.555097,-0.558425,4.021901,47.350702,-0.063629,-0.014099,1.021133,-0.029242,-0.064085,-0.013513,69.97168,13.32962,-151.538681,,,
729861217.558419,-0.562165,4.013634,47.346635,-0.063629,-0.014099,1.021133,-0.002642,-0.011915,-0.018152,69.97168,13.32962,-151.538681,,,
729861217.561831,-0.562165,4.013634,47.346635,-0.063629,-0.014099,1.021133,-0.002642,-0.011915,-0.018152,69.97168,13.32962,-151.538681,,,
729861217.565112,-0.56176,4.01152,47.341612,-0.060211,-0.021454,1.046539,-0.002642,-0.011915,-0.018152,69.97168,13.32962,-151.538681,,,
729861217.568421,-0.555639,4.019473,47.336484,-0.060211,-0.021454,1.046539,0.033542,0.044476,-0.016543,69.97168,13.32962,-151.538681,,,
729861217.571777,-0.555639,4.019473,47.336484,-0.060211,-0.021454,1.046539,0.033542,0.044476,-0.016543,69.97168,13.32962,-151.538681,,,
729861217.575154,-0.544301,4.034111,47.331503,-0.066742,-0.023651,1.049515,0.033542,0.044476,-0.016543,69.97168,13.32962,-151.538681,,,
729861217.578407,-0.52881,4.051113,47.326683,-0.066742,-0.023651,1.049515,0.060356,0.065181,-0.013446,69.97168,13.32962,-151.538681,,,
729861217.582868,-0.511172,4.070621,47.321594,-0.070038,-0.015976,1.028183,0.060356,0.065181,-0.013446,69.97168,13.32962,-151.538681,,,
729861217.584996,-0.511172,4.070621,47.321594,-0.070038,-0.015976,1.028183,0.060356,0.065181,-0.013446,69.97168,13.32962,-151.538681,,,
729861217.588441,-0.493512,4.085469,47.316495,-0.070038,-0.015976,1.028183,0.060337,0.048611,-0.013412,69.97168,13.32962,-151.538681,,,
729861217.591766,-0.493512,4.085469,47.316495,-0.070038,-0.015976,1.028183,0.060337,0.048611,-0.013412,70.141571,13.066956,-151.717804,,,
729861217.595105,-0.477382,4.100868,47.312271,-0.080231,-0.006882,0.997498,0.060337,0.048611,-0.013412,70.141571,13.066956,-151.717804,,,
729861217.598424,-0.465649,4.105438,47.30861,-0.080231,-0.006882,0.997498,0.033921,0.006893,-0.011066,70.141571,13.066956,-151.717804,,,
729861217.601755,-0.465649,4.105438,47.30861,-0.080231,-0.006882,0.997498,0.033921,0.006893,-0.011066,70.141571,13.066956,-151.717804,,,
729861217.605093,-0.458041,4.110473,47.305982,-0.087753,-0.000351,0.972412,0.033921,0.006893,-0.011066,70.141571,13.066956,-151.717804,,,
729861217.608418,-0.454974,4.102506,47.3047,-0.087753,-0.000351,0.972412,0.002642,-0.034094,-0.003484,70.141571,13.066956,-151.717804,,,
729861217.611767,-0.454974,4.102506,47.3047,-0.087753,-0.000351,0.972412,0.002642,-0.034094,-0.003484,70.141571,13.066956,-151.717804,,,
729861217.615146,-0.455366,4.096577,47.304697,-0.088211,0.00238,0.970535,0.002642,-0.034094,-0.003484,70.141571,13.066956,-151.717804,,,
729861217.618436,-0.459369,4.083246,47.305912,-0.088211,0.00238,0.970535,-0.017703,-0.045156,0.003909,70.141571,13.066956,-151.717804,,,
729861217.621784,-0.459369,4.083246,47.305912,-0.088211,0.00238,0.970535,-0.017703,-0.045156,0.003909,70.141571,13.066956,-151.717804,,,
729861217.625098,-0.464904,4.072586,47.307872,-0.087051,-0.001495,0.988983,-0.017703,-0.045156,0.003909,70.141571,13.066956,-151.717804,,,
729861217.628414,-0.47114,4.060461,47.310597,-0.087051,-0.001495,0.988983,-0.019622,-0.037293,0.009294,70.141571,13.066956,-151.717804,,,
729861217.63175,-0.47114,4.060461,47.310597,-0.087051,-0.001495,0.988983,-0.019622,-0.037293,0.009294,69.968994,13.389938,-151.857941,,,
729861217.635101,-0.477275,4.049122,47.313416,-0.079224,-0.0047,1.00296,-0.019622,-0.037293,0.009294,69.968994,13.389938,-151.857941,,,
729861217.638414,-0.481939,4.041947,47.315818,-0.079224,-0.0047,1.00296,-0.013196,-0.01698,0.006913,69.968994,13.389938,-151.857941,,,
729861217.641844,-0.481939,4.041947,47.315818,-0.079224,-0.0047,1.00296,-0.013196,-0.01698,0.006913,69.968994,13.389938,-151.857941,,,
729861217.645101,-0.486096,4.034943,47.318473,-0.067627,-0.008514,1.008636,-0.013196,-0.01698,0.006913,69.968994,13.389938,-151.857941,,,
729861217.648277,-0.485666,4.033252,47.321047,-0.067627,-0.008514,1.008636,0.007619,-0.000326,0.007646,69.968994,13.389938,-151.857941,,,
729861217.651778,-0.485666,4.033252,47.321047,-0.067627,-0.008514,1.008636,0.007619,-0.000326,0.007646,69.968994,13.389938,-151.857941,,,
729861217.655186,-0.48317,4.031662,47.322907,-0.066833,-0.015778,1.016251,0.007619,-0.000326,0.007646,69.968994,13.389938,-151.857941,,,
729861217.658409,-0.473746,4.032523,47.323644,-0.066833,-0.015778,1.016251,0.04005,0.004433,0.001977,69.968994,13.389938,-151.857941,,,
729861217.661772,-0.473746,4.032523,47.323644,-0.066833,-0.015778,1.016251,0.04005,0.004433,0.001977,69.968994,13.389938,-151.857941,,,
729861217.665092,-0.461862,4.031863,47.322373,-0.06189,-0.018417,1.013428,0.04005,0.004433,0.001977,69.968994,13.389938,-151.857941,,,
729861217.668419,-0.445817,4.032731,47.317765,-0.06189,-0.018417,1.013428,0.060733,0.010068,-0.019908,69.968994,13.389938,-151.857941,,,
729861217.671766,-0.445817,4.032731,47.317765,-0.06189,-0.018417,1.013428,0.060733,0.010068,-0.019908,69.968994,13.389938,-151.857941,,,
729861217.67508,-0.428933,4.037541,47.309099,-0.05101,-0.01445,1.012604,0.060733,0.010068,-0.019908,70.058838,13.253235,-151.792831,,,
729861217.678416,-0.41174,4.043733,47.297436,-0.05101,-0.01445,1.012604,0.063177,0.030042,-0.040604,70.058838,13.253235,-151.792831,,,
729861217.681835,-0.41174,4.043733,47.297436,-0.05101,-0.01445,1.012604,0.063177,0.030042,-0.040604,70.058838,13.253235,-151.792831,,,
729861217.685097,-0.393783,4.057184,47.284655,-0.053955,-0.015564,1.013702,0.063177,0.030042,-0.040604,70.058838,13.253235,-151.792831,,,
729861217.688426,-0.377739,4.066698,47.272469,-0.053955,-0.015564,1.013702,0.056529,0.036165,-0.036568,70.058838,13.253235,-151.792831,,,
729861217.691771,-0.377739,4.066698,47.272469,-0.053955,-0.015564,1.013702,0.056529,0.036165,-0.036568,70.058838,13.253235,-151.792831,,,
729861217.695152,-0.362251,4.080621,47.262922,-0.074051,-0.015289,1.002182,0.056529,0.036165,-0.036568,70.058838,13.253235,-151.792831,,,
729861217.698419,-0.351476,4.086556,47.256117,-0.074051,-0.015289,1.002182,0.033448,0.017642,-0.018777,70.058838,13.253235,-151.792831,,,
729861217.701758,-0.351476,4.086556,47.256117,-0.074051,-0.015289,1.002182,0.033448,0.017642,-0.018777,70.058838,13.253235,-151.792831,,,
729861217.705098,-0.343627,4.094449,47.251551,-0.086563,-0.00705,0.984833,0.033448,0.017642,-0.018777,70.058838,13.253235,-151.792831,,,
729861217.708475,-0.341142,4.09628,47.249039,-0.086563,-0.00705,0.984833,0.003837,0.007607,-0.006343,70.058838,13.253235,-151.792831,,,
729861217.71172,-0.341142,4.09628,47.249039,-0.086563,-0.00705,0.984833,0.003837,0.007607,-0.006343,70.058838,13.253235,-151.792831,,,
729861217.715105,-0.340996,4.099935,47.248827,-0.085861,-0.006439,0.982178,0.003837,0.007607,-0.006343,70.268768,12.999847,-151.659286,,,
729861217.71842,-0.34245,4.099841,47.250435,-0.085861,-0.006439,0.982178,-0.005875,-0.000907,0.005749,70.268768,12.999847,-151.659286,,,
729861217.721828,-0.34245,4.099841,47.250435,-0.085861,-0.006439,0.982178,-0.005875,-0.000907,0.005749,70.268768,12.999847,-151.659286,,,
729861217.725096,-0.343494,4.096389,47.253356,-0.089615,-0.011627,0.989136,-0.005875,-0.000907,0.005749,70.268768,12.999847,-151.659286,,,
729861217.728417,-0.342657,4.091409,47.257881,-0.089615,-0.011627,0.989136,0.005357,-0.017898,0.017712,70.268768,12.999847,-151.659286,,,
729861217.731773,-0.342657,4.091409,47.257881,-0.089615,-0.011627,0.989136,0.005357,-0.017898,0.017712,70.268768,12.999847,-151.659286,,,
729861217.73515,-0.341606,4.082728,47.263611,-0.091187,-0.009171,0.988235,0.005357,-0.017898,0.017712,70.268768,12.999847,-151.659286,,,
729861217.738491,-0.336944,4.074264,47.271038,-0.091187,-0.009171,0.988235,0.016843,-0.027918,0.030316,70.268768,12.999847,-151.659286,,,
729861217.741792,-0.336944,4.074264,47.271038,-0.091187,-0.009171,0.988235,0.016843,-0.027918,0.030316,70.268768,12.999847,-151.659286,,,
729861217.745115,-0.333392,4.063819,47.280621,-0.083969,-0.008789,0.984985,0.016843,-0.027918,0.030316,70.268768,12.999847,-151.659286,,,
729861217.748431,-0.326334,4.058157,47.291415,-0.083969,-0.008789,0.984985,0.022901,-0.012699,0.039058,70.268768,12.999847,-151.659286,,,
729861217.751776,-0.326334,4.058157,47.291415,-0.083969,-0.008789,0.984985,0.022901,-0.012699,0.039058,70.268768,12.999847,-151.659286,,,
729861217.755084,-0.32082,4.049211,47.302519,-0.070023,-0.006104,0.981201,0.022901,-0.012699,0.039058,70.124298,12.991989,-151.461807,,,
729861217.758429,-0.312113,4.048237,47.312759,-0.070023,-0.006104,0.981201,0.030892,0.002158,0.033382,70.124298,12.991989,-151.461807,,,
729861217.761855,-0.312113,4.048237,47.312759,-0.070023,-0.006104,0.981201,0.030892,0.002158,0.033382,70.124298,12.991989,-151.461807,,,
729861217.765104,-0.304444,4.042572,47.320617,-0.052933,-0.003403,0.983612,0.030892,0.002158,0.033382,70.124298,12.991989,-151.461807,,,
729861217.768428,-0.294444,4.044332,47.325168,-0.052933,-0.003403,0.983612,0.034669,0.010705,0.010321,70.124298,12.991989,-151.461807,,,
729861217.771769,-0.294444,4.044332,47.325168,-0.052933,-0.003403,0.983612,0.034669,0.010705,0.010321,70.124298,12.991989,-151.461807,,,
729861217.775181,-0.28793,4.045842,47.325762,-0.043106,-0.003387,0.976273,0.034669,0.010705,0.010321,70.124298,12.991989,-151.461807,,,
729861217.778414,-0.281584,4.048078,47.322766,-0.043106,-0.003387,0.976273,0.01853,0.009632,-0.015936,70.124298,12.991989,-151.461807,,,
729861217.781762,-0.281584,4.048078,47.322766,-0.043106,-0.003387,0.976273,0.01853,0.009632,-0.015936,70.124298,12.991989,-151.461807,,,
729861217.785099,-0.278565,4.054297,47.317315,-0.044388,-0.006409,0.971786,0.01853,0.009632,-0.015936,70.124298,12.991989,-151.461807,,,
729861217.788417,-0.276825,4.054495,47.310127,-0.044388,-0.006409,0.971786,0.004274,0.00101,-0.02892,70.124298,12.991989,-151.461807,,,
729861217.79175,-0.276825,4.054495,47.310127,-0.044388,-0.006409,0.971786,0.004274,0.00101,-0.02892,70.124298,12.991989,-151.461807,,,
729861217.795165,-0.277767,4.057712,47.302465,-0.054306,-0.005051,0.968246,0.004274,0.00101,-0.02892,70.124298,12.991989,-151.461807,,,
729861217.798408,-0.281,4.05383,47.295576,-0.054306,-0.005051,0.968246,-0.013818,-0.012898,-0.024613,70.178864,12.787231,-151.611206,,,
729861217.80183,-0.281,4.05383,47.295576,-0.054306,-0.005051,0.968246,-0.013818,-0.012898,-0.024613,70.178864,12.787231,-151.611206,,,
729861217.805073,-0.288622,4.055247,47.289763,-0.056274,-0.002579,0.967697,-0.013818,-0.012898,-0.024613,70.178864,12.787231,-151.611206,,,
729861217.808427,-0.297928,4.05181,47.284741,-0.056274,-0.002579,0.967697,-0.035605,-0.006728,-0.020528,70.178864,12.787231,-151.611206,,,
729861217.811786,-0.297928,4.05181,47.284741,-0.056274,-0.002579,0.967697,-0.035605,-0.006728,-0.020528,70.178864,12.787231,-151.611206,,,
729861217.815112,-0.311156,4.056158,47.280861,-0.062057,-0.003693,0.974899,-0.035605,-0.006728,-0.020528,70.178864,12.787231,-151.611206,,,
729861217.818419,-0.326213,4.055123,47.277907,-0.062057,-0.003693,0.974899,-0.055852,0.000484,-0.015179,70.178864,12.787231,-151.611206,,,
729861217.821765,-0.326213,4.055123,47.277907,-0.062057,-0.003693,0.974899,-0.055852,0.000484,-0.015179,70.178864,12.787231,-151.611206,,,
729861217.825098,-0.34384,4.059558,47.275328,-0.06282,-0.002213,0.977173,-0.055852,0.000484,-0.015179,70.178864,12.787231,-151.611206,,,
729861217.828416,-0.362509,4.061651,47.273121,-0.06282,-0.002213,0.977173,-0.067617,0.012751,-0.01331,70.178864,12.787231,-151.611206,,,
729861217.831767,-0.362509,4.061651,47.273121,-0.06282,-0.002213,0.977173,-0.067617,0.012751,-0.01331,70.178864,12.787231,-151.611206,,,
729861217.835091,-0.382081,4.065762,47.271382,-0.06665,-0.004044,0.979187,-0.067617,0.012751,-0.01331,70.178864,12.787231,-151.611206,,,
729861217.838416,-0.401605,4.069377,47.270027,-0.06665,-0.004044,0.979187,-0.068397,0.016422,-0.010586,70.201431,12.940384,-151.652069,,,
729861217.841846,-0.401605,4.069377,47.270027,-0.06665,-0.004044,0.979187,-0.068397,0.016422,-0.010586,70.201431,12.940384,-151.652069,,,
729861217.845083,-0.419709,4.070707,47.26906,-0.073837,-0.013168,0.987488,-0.068397,0.016422,-0.010586,70.201431,12.940384,-151.652069,,,
729861217.848424,-0.434761,4.074321,47.26908,-0.073837,-0.013168,0.987488,-0.04436,0.015212,-0.002014,70.201431,12.940384,-151.652069,,,
729861217.851837,-0.434761,4.074321,47.26908,-0.073837,-0.013168,0.987488,-0.04436,0.015212,-0.002014,70.201431,12.940384,-151.652069,,,
729861217.855135,-0.444513,4.073338,47.269848,-0.080048,-0.020035,1.006668,-0.04436,0.015212,-0.002014,70.201431,12.940384,-151.652069,,,
729861217.85841,-0.450345,4.07726,47.270445,-0.080048,-0.020035,1.006668,-0.013332,0.017649,-0.001277,70.201431,12.940384,-151.652069,,,
729861217.861773,-0.450345,4.07726,47.270445,-0.080048,-0.020035,1.006668,-0.013332,0.017649,-0.001277,70.201431,12.940384,-151.652069,,,
729861217.865089,-0.452641,4.077239,47.270245,-0.074478,-0.020798,1.018112,-0.013332,0.017649,-0.001277,70.201431,12.940384,-151.652069,,,
729861217.868417,-0.453246,4.085773,47.269279,-0.074478,-0.020798,1.018112,0.000768,0.039262,-0.00587,70.201431,12.940384,-151.652069,,,
729861217.871751,-0.453246,4.085773,47.269279,-0.074478,-0.020798,1.018112,0.000768,0.039262,-0.00587,70.201431,12.940384,-151.652069,,,
729861217.875093,-0.452028,4.093499,47.267507,-0.07457,-0.02002,1.015533,0.000768,0.039262,-0.00587,70.201431,12.940384,-151.652069,,,
729861217.878415,-0.450309,4.10722,47.266287,-0.07457,-0.02002,1.015533,0.006293,0.052493,-0.001819,70.001938,13.261475,-152.20311,,,
729861217.881796,-0.450309,4.10722,47.266287,-0.07457,-0.02002,1.015533,0.006293,0.052493,-0.001819,70.001938,13.261475,-152.20311,,,
729861217.885086,-0.447364,4.116583,47.266691,-0.088547,-0.015396,1.008759,0.006293,0.052493,-0.001819,70.001938,13.261475,-152.20311,,,
729861217.888425,-0.444765,4.126402,47.268504,-0.088547,-0.015396,1.008759,0.009494,0.028288,0.008042,70.001938,13.261475,-152.20311,,,
729861217.89176,-0.444765,4.126402,47.268504,-0.088547,-0.015396,1.008759,0.009494,0.028288,0.008042,70.001938,13.261475,-152.20311,,,
729861217.895189,-0.441381,4.127262,47.271795,-0.100845,-0.005402,0.992813,0.009494,0.028288,0.008042,70.001938,13.261475,-152.20311,,,
729861217.898417,-0.440201,4.123653,47.276926,-0.100845,-0.005402,0.992813,-0.000915,-0.022307,0.01999,70.001938,13.261475,-152.20311,,,
729861217.901768,-0.440201,4.123653,47.276926,-0.100845,-0.005402,0.992813,-0.000915,-0.022307,0.01999,70.001938,13.261475,-152.20311,,,
729861217.905135,-0.440876,4.1105,47.282659,-0.100494,-0.0009,0.975327,-0.000915,-0.022307,0.01999,70.001938,13.261475,-152.20311,,,
729861217.908423,-0.445607,4.093225,47.287823,-0.100494,-0.0009,0.975327,-0.021846,-0.067604,0.014479,70.001938,13.261475,-152.20311,,,
729861217.911771,-0.445607,4.093225,47.287823,-0.100494,-0.0009,0.975327,-0.021846,-0.067604,0.014479,70.001938,13.261475,-152.20311,,,
729861217.915108,-0.452341,4.069856,47.292526,-0.085159,0.005066,0.969788,-0.021846,-0.067604,0.014479,70.001938,13.261475,-152.20311,,,
729861217.918425,-0.462713,4.044796,47.296975,-0.085159,0.005066,0.969788,-0.040272,-0.088708,0.011305,70.156982,13.040878,-151.671127,,,
729861217.921827,-0.462713,4.044796,47.296975,-0.085159,0.005066,0.969788,-0.040272,-0.088708,0.011305,70.156982,13.040878,-151.671127,,,
729861217.925095,-0.475559,4.019519,47.301432,-0.073746,0.003952,0.975571,-0.040272,-0.088708,0.011305,70.156982,13.040878,-151.671127,,,
729861217.928427,-0.489671,3.994827,47.306166,-0.073746,0.003952,0.975571,-0.051761,-0.080496,0.012527,70.156982,13.040878,-151.671127,,,
729861217.931763,-0.489671,3.994827,47.306166,-0.073746,0.003952,0.975571,-0.051761,-0.080496,0.012527,70.156982,13.040878,-151.671127,,,
729861217.935155,-0.506678,3.976363,47.311069,-0.064865,0.000885,0.986725,-0.051761,-0.080496,0.012527,70.156982,13.040878,-151.671127,,,
729861217.938419,-0.521743,3.961582,47.31645,-0.064865,0.000885,0.986725,-0.05274,-0.036939,0.016013,70.156982,13.040878,-151.671127,,,
729861217.941766,-0.521743,3.961582,47.31645,-0.064865,0.000885,0.986725,-0.05274,-0.036939,0.016013,70.156982,13.040878,-151.671127,,,
729861217.945092,-0.538387,3.95634,47.322499,-0.051956,6.1e-05,1.011642,-0.05274,-0.036939,0.016013,70.156982,13.040878,-151.671127,,,
729861217.948421,-0.550383,3.95819,47.328431,-0.051956,6.1e-05,1.011642,-0.037576,0.024474,0.016397,70.156982,13.040878,-151.671127,,,
729861217.95176,-0.550383,3.95819,47.328431,-0.051956,6.1e-05,1.011642,-0.037576,0.024474,0.016397,70.156982,13.040878,-151.671127,,,
729861217.95509,-0.56222,3.968529,47.333826,-0.047379,-0.005661,1.027924,-0.037576,0.024474,0.016397,70.156982,13.040878,-151.671127,,,
729861217.958428,-0.569774,3.983591,47.337944,-0.047379,-0.005661,1.027924,-0.023126,0.062404,0.008573,70.156982,13.040878,-151.671127,,,
729861217.961815,-0.569774,3.983591,47.337944,-0.047379,-0.005661,1.027924,-0.023126,0.062404,0.008573,69.985031,13.129257,-151.875412,,,
729861217.965084,-0.577224,4.005465,47.340577,-0.047073,-0.008804,1.018295,-0.023126,0.062404,0.008573,69.985031,13.129257,-151.875412,,,
729861217.968425,-0.581378,4.022636,47.341367,-0.047073,-0.008804,1.018295,-0.009886,0.060102,-0.003043,69.985031,13.129257,-151.875412,,,
729861217.971779,-0.581378,4.022636,47.341367,-0.047073,-0.008804,1.018295,-0.009886,0.060102,-0.003043,69.985031,13.129257,-151.875412,,,
729861217.975167,-0.582303,4.045429,47.340155,-0.058289,-0.008102,1.009857,-0.009886,0.060102,-0.003043,69.985031,13.129257,-151.875412,,,
729861217.97841,-0.580944,4.054403,47.336549,-0.058289,-0.008102,1.009857,0.00967,0.023931,-0.017741,69.985031,13.129257,-151.875412,,,
729861217.981764,-0.580944,4.054403,47.336549,-0.058289,-0.008102,1.009857,0.00967,0.023931,-0.017741,69.985031,13.129257,-151.875412,,,
729861217.985101,-0.575317,4.067837,47.33104,-0.065582,-0.006927,1.00856,0.00967,0.023931,-0.017741,69.985031,13.129257,-151.875412,,,
729861217.988418,-0.569388,4.065955,47.324652,-0.065582,-0.006927,1.00856,0.02472,-0.012539,-0.022154,69.985031,13.129257,-151.875412,,,
729861217.991781,-0.569388,4.065955,47.324652,-0.065582,-0.006927,1.00856,0.02472,-0.012539,-0.022154,69.985031,13.129257,-151.875412,,,
729861217.99508,-0.559694,4.065444,47.318614,-0.072815,-0.008911,1.00798,0.02472,-0.012539,-0.022154,69.985031,13.129257,-151.875412,,,
729861217.998421,-0.553839,4.054828,47.313741,-0.072815,-0.008911,1.00798,0.018341,-0.038738,-0.014075,69.985031,13.129257,-151.875412,,,
729861218.001829,-0.553839,4.054828,47.313741,-0.072815,-0.008911,1.00798,0.018341,-0.038738,-0.014075,69.96376,13.15361,-151.917709,,,
729861218.005077,-0.547045,4.044168,47.310914,-0.07962,-0.002914,0.998367,0.018341,-0.038738,-0.014075,69.96376,13.15361,-151.917709,,,
729861218.008419,-0.545974,4.029177,47.310425,-0.07962,-0.002914,0.998367,0.000319,-0.053957,0.001046,69.96376,13.15361,-151.917709,,,
729861218.011777,-0.545974,4.029177,47.310425,-0.07962,-0.002914,0.998367,0.000319,-0.053957,0.001046,69.96376,13.15361,-151.917709,,,
729861218.015084,-0.544782,4.011676,47.311547,-0.075195,0.002502,0.991333,0.000319,-0.053957,0.001046,69.96376,13.15361,-151.917709,,,
729861218.018413,-0.548958,3.994339,47.313241,-0.075195,0.002502,0.991333,-0.020342,-0.055597,0.003548,69.96376,13.15361,-151.917709,,,
729861218.021762,-0.548958,3.994339,47.313241,-0.075195,0.002502,0.991333,-0.020342,-0.055597,0.003548,69.96376,13.15361,-151.917709,,,
729861218.025091,-0.553279,3.974031,47.314384,-0.061661,0.00238,0.993271,-0.020342,-0.055597,0.003548,69.96376,13.15361,-151.917709,,,
729861218.028412,-0.560906,3.962388,47.31425,-0.061661,0.00238,0.993271,-0.026331,-0.029119,-0.006064,69.96376,13.15361,-151.917709,,,
729861218.031769,-0.560906,3.962388,47.31425,-0.061661,0.00238,0.993271,-0.026331,-0.029119,-0.006064,69.96376,13.15361,-151.917709,,,
729861218.035083,-0.566581,3.947815,47.312282,-0.051193,-0.002258,1.004684,-0.026331,-0.029119,-0.006064,69.96376,13.15361,-151.917709,,,
729861218.038421,-0.571374,3.942249,47.308469,-0.051193,-0.002258,1.004684,-0.01118,-0.013658,-0.018376,69.96376,13.15361,-151.917709,,,
729861218.041752,-0.571374,3.942249,47.308469,-0.051193,-0.002258,1.004684,-0.01118,-0.013658,-0.018376,70.219406,13.116943,-152.022766,,,
729861218.045082,-0.573594,3.932477,47.303724,-0.053879,-0.006943,1.013519,-0.01118,-0.013658,-0.018376,70.219406,13.116943,-152.022766,,,
729861218.048467,-0.574201,3.934116,47.298995,-0.053879,-0.006943,1.013519,0.003207,0.018136,-0.017739,70.219406,13.116943,-152.022766,,,
729861218.05157,-0.574201,3.934116,47.298995,-0.053879,-0.006943,1.013519,0.003207,0.018136,-0.017739,70.219406,13.116943,-152.022766,,,
729861218.05515,-0.573128,3.936905,47.294799,-0.057724,-0.012115,1.011017,0.003207,0.018136,-0.017739,70.219406,13.116943,-152.022766,,,
729861218.058479,-0.572347,3.949807,47.291814,-0.057724,-0.012115,1.011017,0.002858,0.057873,-0.009621,70.219406,13.116943,-152.022766,,,
729861218.061779,-0.572347,3.949807,47.291814,-0.057724,-0.012115,1.011017,0.002858,0.057873,-0.009621,70.219406,13.116943,-152.022766,,,
729861218.065097,-0.572098,3.965687,47.290004,-0.057373,-0.009247,1.001953,0.002858,0.057873,-0.009621,70.219406,13.116943,-152.022766,,,
729861218.068519,-0.574678,3.984918,47.289152,-0.057373,-0.009247,1.001953,-0.012259,0.070789,-0.004025,70.219406,13.116943,-152.022766,,,
729861218.071779,-0.574678,3.984918,47.289152,-0.057373,-0.009247,1.001953,-0.012259,0.070789,-0.004025,70.219406,13.116943,-152.022766,,,
729861218.075094,-0.579336,4.004418,47.288375,-0.062378,-0.004593,0.986359,-0.012259,0.070789,-0.004025,70.219406,13.116943,-152.022766,,,
729861218.078491,-0.579336,4.023511,47.287002,-0.062378,-0.004593,0.986359,-0.02471,0.067801,-0.009062,70.219406,13.116943,-152.022766,,,
729861218.081751,-0.586015,4.023511,47.287002,-0.062378,-0.004593,0.986359,-0.02471,0.067801,-0.009062,70.352554,13.090881,-151.773087,,,
729861218.085095,-0.592455,4.04373,47.284615,-0.073669,-0.007919,0.983017,-0.02471,0.067801,-0.009062,70.352554,13.090881,-151.773087,,,
729861218.088472,-0.600307,4.059366,47.281071,-0.073669,-0.007919,0.983017,-0.026151,0.052195,-0.017173,70.352554,13.090881,-151.773087,,,
729861218.091764,-0.600307,4.059366,47.281071,-0.073669,-0.007919,0.983017,-0.026151,0.052195,-0.017173,70.352554,13.090881,-151.773087,,,
729861218.095093,-0.604988,4.073289,47.276953,-0.079224,-0.013397,0.983459,-0.026151,0.052195,-0.017173,70.352554,13.090881,-151.773087,,,
729861218.098437,-0.604988,4.073289,47.276953,-0.079224,-0.013397,0.983459,-0.026151,0.052195,-0.017173,70.352554,13.090881,-151.773087,,,
729861218.101759,-0.61138,4.080042,47.273061,-0.079224,-0.013397,0.983459,-0.018853,0.016438,-0.014913,70.352554,13.090881,-151.773087,,,
729861218.105093,-0.613581,4.07849,47.269322,-0.08725,-0.014481,0.980972,-0.018853,0.016438,-0.014913,70.352554,13.090881,-151.773087,,,
729861218.108426,-0.613581,4.07849,47.269322,-0.08725,-0.014481,0.980972,-0.018853,0.016438,-0.014913,70.352554,13.090881,-151.773087,,,
729861218.111769,-0.616111,4.070417,47.265219,-0.08725,-0.014481,0.980972,-0.001107,-0.038846,-0.016315,70.352554,13.090881,-151.773087,,,
729861218.115098,-0.613209,4.050357,47.259807,-0.086029,-0.014099,0.988739,-0.001107,-0.038846,-0.016315,70.352554,13.090881,-151.773087,,,
729861218.118458,-0.613209,4.050357,47.259807,-0.086029,-0.014099,0.988739,-0.001107,-0.038846,-0.016315,70.352554,13.090881,-151.773087,,,
729861218.121767,-0.61019,4.032692,47.25311,-0.086029,-0.014099,0.988739,0.015924,-0.061832,-0.024517,70.352554,13.090881,-151.773087,,,
729861218.125085,-0.60545,4.009066,47.245443,-0.071823,-0.018814,0.993423,0.015924,-0.061832,-0.024517,70.192703,13.001678,-151.738434,,,
729861218.128463,-0.60545,4.009066,47.245443,-0.071823,-0.018814,0.993423,0.015924,-0.061832,-0.024517,70.192703,13.001678,-151.738434,,,
729861218.131839,-0.603095,3.993304,47.23674,-0.071823,-0.018814,0.993423,0.007838,-0.04498,-0.032714,70.192703,13.001678,-151.738434,,,
729861218.135086,-0.603305,3.978604,47.22747,-0.059891,-0.01358,0.988434,0.007838,-0.04498,-0.032714,70.192703,13.001678,-151.738434,,,
729861218.138476,-0.603305,3.978604,47.22747,-0.059891,-0.01358,0.988434,0.007838,-0.04498,-0.032714,70.192703,13.001678,-151.738434,,,
729861218.141759,-0.607482,3.974045,47.21886,-0.059891,-0.01358,0.988434,-0.020409,-0.002518,-0.03038,70.192703,13.001678,-151.738434,,,
729861218.145093,-0.615353,3.971908,47.211838,-0.061432,-0.006851,0.985687,-0.020409,-0.002518,-0.03038,70.192703,13.001678,-151.738434,,,
729861218.148486,-0.615353,3.971908,47.211838,-0.061432,-0.006851,0.985687,-0.020409,-0.002518,-0.03038,70.192703,13.001678,-151.738434,,,
729861218.151799,-0.625887,3.978658,47.206462,-0.061432,-0.006851,0.985687,-0.039472,0.032741,-0.020485,70.192703,13.001678,-151.738434,,,
729861218.155088,-0.636048,3.986203,47.20302,-0.067825,-0.014908,0.99472,-0.039472,0.032741,-0.020485,70.192703,13.001678,-151.738434,,,
729861218.158533,-0.636048,3.986203,47.20302,-0.067825,-0.014908,0.99472,-0.039472,0.032741,-0.020485,70.192703,13.001678,-151.738434,,,
729861218.161761,-0.646465,4.000269,47.201127,-0.067825,-0.014908,0.99472,-0.03305,0.05855,-0.009432,70.192703,13.001678,-151.738434,,,
729861218.165091,-0.654227,4.018486,47.199584,-0.070374,-0.020844,1.007294,-0.03305,0.05855,-0.009432,70.040695,13.161148,-151.93985,,,
729861218.168439,-0.654227,4.018486,47.199584,-0.070374,-0.020844,1.007294,-0.03305,0.05855,-0.009432,70.040695,13.161148,-151.93985,,,
729861218.171825,-0.661221,4.036639,47.197447,-0.070374,-0.020844,1.007294,-0.020198,0.064648,-0.012663,70.040695,13.161148,-151.93985,,,
729861218.175084,-0.667611,4.056035,47.194557,-0.074478,-0.018723,1.00946,-0.020198,0.064648,-0.012663,70.040695,13.161148,-151.93985,,,
729861218.178467,-0.667611,4.056035,47.194557,-0.074478,-0.018723,1.00946,-0.020198,0.064648,-0.012663,70.040695,13.161148,-151.93985,,,
729861218.181772,-0.673778,4.069927,47.191198,-0.074478,-0.018723,1.00946,-0.018975,0.043429,-0.015696,70.040695,13.161148,-151.93985,,,
729861218.185091,-0.680517,4.083227,47.187378,-0.082901,-0.017899,0.997772,-0.018975,0.043429,-0.015696,70.040695,13.161148,-151.93985,,,
729861218.188418,-0.680517,4.083227,47.187378,-0.082901,-0.017899,0.997772,-0.018975,0.043429,-0.015696,70.040695,13.161148,-151.93985,,,
729861218.191778,-0.685418,4.084918,47.183628,-0.082901,-0.017899,0.997772,-0.011639,-0.003655,-0.014287,70.040695,13.161148,-151.93985,,,
729861218.195091,-0.687732,4.08649,47.179928,-0.091888,-0.017044,1.001511,-0.011639,-0.003655,-0.014287,70.040695,13.161148,-151.93985,,,
729861218.198561,-0.687732,4.08649,47.179928,-0.091888,-0.017044,1.001511,-0.011639,-0.003655,-0.014287,70.040695,13.161148,-151.93985,,,
729861218.201762,-0.686956,4.079495,47.175852,-0.091888,-0.017044,1.001511,0.008336,-0.025454,-0.014961,70.040695,13.161148,-151.93985,,,
729861218.205096,-0.685554,4.072369,47.172198,-0.091507,-0.020935,1.017242,0.008336,-0.025454,-0.014961,70.309998,13.061279,-152.126968,,,
729861218.208486,-0.685554,4.072369,47.172198,-0.091507,-0.020935,1.017242,0.008336,-0.025454,-0.014961,70.309998,13.061279,-152.126968,,,
729861218.211823,-0.682299,4.064656,47.169666,-0.091507,-0.020935,1.017242,0.012572,-0.020572,-0.006742,70.309998,13.061279,-152.126968,,,
729861218.215079,-0.679417,4.055721,47.168724,-0.089462,-0.021118,1.013367,0.012572,-0.020572,-0.006742,70.309998,13.061279,-152.126968,,,
729861218.218444,-0.679417,4.055721,47.168724,-0.089462,-0.021118,1.013367,0.012572,-0.020572,-0.006742,70.309998,13.061279,-152.126968,,,
729861218.221771,-0.675433,4.051397,47.169548,-0.089462,-0.021118,1.013367,0.01309,-0.007315,0.005444,70.309998,13.061279,-152.126968,,,
729861218.225086,-0.671294,4.046195,47.171882,-0.087799,-0.010147,1.007828,0.01309,-0.007315,0.005444,70.309998,13.061279,-152.126968,,,
729861218.228432,-0.671294,4.046195,47.171882,-0.087799,-0.010147,1.007828,0.01309,-0.007315,0.005444,70.309998,13.061279,-152.126968,,,
729861218.231762,-0.669902,4.045013,47.17565,-0.087799,-0.010147,1.007828,-0.000273,0.000495,0.014224,70.309998,13.061279,-152.126968,,,
729861218.235078,-0.671561,4.043434,47.179546,-0.08046,-0.007156,0.996735,-0.000273,0.000495,0.014224,70.309998,13.061279,-152.126968,,,
729861218.238487,-0.671561,4.043434,47.179546,-0.08046,-0.007156,0.996735,-0.000273,0.000495,0.014224,70.309998,13.061279,-152.126968,,,
729861218.241752,-0.675228,4.044079,47.182644,-0.08046,-0.007156,0.996735,-0.01569,0.008979,0.007498,70.309998,13.061279,-152.126968,,,
729861218.245101,-0.682031,4.046274,47.185265,-0.073425,-0.010101,0.995392,-0.01569,0.008979,0.007498,70.145447,13.25882,-152.007584,,,
729861218.24842,-0.682031,4.046274,47.185265,-0.073425,-0.010101,0.995392,-0.01569,0.008979,0.007498,70.145447,13.25882,-152.007584,,,
729861218.251818,-0.688073,4.050614,47.187923,-0.073425,-0.010101,0.995392,-0.022789,0.020248,0.007229,70.145447,13.25882,-152.007584,,,
729861218.25509,-0.696621,4.05676,47.191518,-0.077744,-0.00824,0.995941,-0.022789,0.020248,0.007229,70.145447,13.25882,-152.007584,,,
729861218.258448,-0.696621,4.05676,47.191518,-0.077744,-0.00824,0.995941,-0.022789,0.020248,0.007229,70.145447,13.25882,-152.007584,,,
729861218.261764,-0.705301,4.063134,47.197189,-0.077744,-0.00824,0.995941,-0.035249,0.02483,0.020949,70.145447,13.25882,-152.007584,,,
729861218.265099,-0.715901,4.072058,47.204991,-0.079483,-0.006409,0.991486,-0.035249,0.02483,0.020949,70.145447,13.25882,-152.007584,,,
729861218.268423,-0.715901,4.072058,47.204991,-0.079483,-0.006409,0.991486,-0.035249,0.02483,0.020949,70.145447,13.25882,-152.007584,,,
729861218.271769,-0.724402,4.077688,47.213055,-0.079483,-0.006409,0.991486,-0.028022,0.021212,0.02358,70.145447,13.25882,-152.007584,,,
729861218.275083,-0.730888,4.088121,47.221126,-0.0737,-0.012161,1.003036,-0.028022,0.021212,0.02358,70.145447,13.25882,-152.007584,,,
729861218.278415,-0.730888,4.088121,47.221126,-0.0737,-0.012161,1.003036,-0.028022,0.021212,0.02358,70.145447,13.25882,-152.007584,,,
729861218.281762,-0.731191,4.091687,47.228876,-0.0737,-0.012161,1.003036,0.008473,0.013231,0.024425,70.145447,13.25882,-152.007584,,,
729861218.285085,-0.727187,4.099869,47.235085,-0.067795,-0.021927,1.017685,0.008473,0.013231,0.024425,70.145447,13.25882,-152.007584,,,
729861218.288433,-0.727187,4.099869,47.235085,-0.067795,-0.021927,1.017685,0.008473,0.013231,0.024425,70.296768,13.200424,-152.003845,,,
729861218.291761,-0.71684,4.101091,47.238586,-0.067795,-0.021927,1.017685,0.045321,0.004371,0.008601,70.296768,13.200424,-152.003845,,,
729861218.295092,-0.705072,4.105835,47.239276,-0.060959,-0.016068,1.015076,0.045321,0.004371,0.008601,70.296768,13.200424,-152.003845,,,
729861218.298426,-0.705072,4.105835,47.239276,-0.060959,-0.016068,1.015076,0.045321,0.004371,0.008601,70.296768,13.200424,-152.003845,,,
729861218.301809,-0.691341,4.1042,47.237667,-0.060959,-0.016068,1.015076,0.046134,-0.005658,-0.007009,70.296768,13.200424,-152.003845,,,
729861218.305079,-0.678926,4.106144,47.234481,-0.056198,-0.009903,0.992737,0.046134,-0.005658,-0.007009,70.296768,13.200424,-152.003845,,,
