Time (sec),Pitch (deg),Roll (deg),Yaw(deg),X-Acceleration (g),Y-Acceleration (g),Z-Acceleration (g),Pitch Rate (deg/sec),Roll Rate (deg/sec),Yaw Rate (deg/sec),Magnetic Field in X direction (uT),Magnetic Field in Y direction (uT),Magnetic Field in Z Direction (uT),Latitude (deg),Longitude (deg),Altitude (m)
729861421.322592,0.279195,0.132649,126.901275,-0.009888,0.005814,0.989014,0.009285,0.00314,0.006282,65.373886,33.859573,-146.074127,,,
729861421.325945,0.279195,0.132649,126.901275,-0.009888,0.005814,0.989014,0.009285,0.00314,0.006282,65.373886,33.859573,-146.074127,,,
729861421.329273,0.28281,0.119684,126.904276,-0.014313,0.006729,0.979172,0.013299,-0.044376,0.008673,65.373886,33.859573,-146.074127,,,
729861421.332634,0.287853,0.099373,126.907674,-0.014313,0.006729,0.979172,0.013299,-0.044376,0.008673,65.373886,33.859573,-146.074127,,,
729861421.335947,0.287853,0.099373,126.907674,-0.014313,0.006729,0.979172,0.013299,-0.044376,0.008673,65.225098,33.687988,-145.931625,,,
729861421.339305,0.294086,0.07485,126.911146,-0.013718,0.007751,0.988693,0.024184,-0.084244,0.01012,65.225098,33.687988,-145.931625,,,
729861421.342607,0.30252,0.044229,126.914161,-0.013718,0.007751,0.988693,0.024184,-0.084244,0.01012,65.225098,33.687988,-145.931625,,,
729861421.34602,0.30252,0.044229,126.914161,-0.013718,0.007751,0.988693,0.024184,-0.084244,0.01012,65.225098,33.687988,-145.931625,,,
729861421.34933,0.311253,0.009577,126.916641,-0.00946,0.008194,0.998032,0.033317,-0.116034,0.012034,65.225098,33.687988,-145.931625,,,
729861421.352594,0.321284,-0.027338,126.918196,-0.00946,0.008194,0.998032,0.033317,-0.116034,0.012034,65.225098,33.687988,-145.931625,,,
729861421.355927,0.321284,-0.027338,126.918196,-0.00946,0.008194,0.998032,0.033317,-0.116034,0.012034,65.225098,33.687988,-145.931625,,,
729861421.359338,0.331213,-0.063915,126.919425,-0.00238,0.008163,1.00267,0.038163,-0.126803,0.003353,65.225098,33.687988,-145.931625,,,
729861421.362592,0.34337,-0.09804,126.920467,-0.00238,0.008163,1.00267,0.038163,-0.126803,0.003353,65.225098,33.687988,-145.931625,,,
729861421.365986,0.34337,-0.09804,126.920467,-0.00238,0.008163,1.00267,0.038163,-0.126803,0.003353,65.225098,33.687988,-145.931625,,,
729861421.36927,0.354766,-0.128049,126.921584,0.001984,0.010727,1.011826,0.045795,-0.104559,0.003801,65.225098,33.687988,-145.931625,,,
729861421.372601,0.367949,-0.151693,126.924162,0.001984,0.010727,1.011826,0.045795,-0.104559,0.003801,65.225098,33.687988,-145.931625,,,
729861421.37593,0.367949,-0.151693,126.924162,0.001984,0.010727,1.011826,0.045795,-0.104559,0.003801,65.079453,33.649612,-145.955078,,,
729861421.379281,0.380471,-0.169297,126.927839,0.00589,0.008881,1.019089,0.045948,-0.063945,0.012102,65.079453,33.649612,-145.955078,,,
729861421.382636,0.39181,-0.178776,126.932641,0.00589,0.008881,1.019089,0.045948,-0.063945,0.012102,65.079453,33.649612,-145.955078,,,
729861421.385989,0.39181,-0.178776,126.932641,0.00589,0.008881,1.019089,0.045948,-0.063945,0.012102,65.079453,33.649612,-145.955078,,,
729861421.389272,0.401566,-0.177611,126.938559,0.008881,0.009735,1.016159,0.036005,-0.010118,0.018783,65.079453,33.649612,-145.955078,,,
729861421.3926,0.409628,-0.171566,126.94522,0.008881,0.009735,1.016159,0.036005,-0.010118,0.018783,65.079453,33.649612,-145.955078,,,
729861421.395936,0.409628,-0.171566,126.94522,0.008881,0.009735,1.016159,0.036005,-0.010118,0.018783,65.079453,33.649612,-145.955078,,,
729861421.399378,0.416586,-0.15492,126.953279,0.011932,0.010727,1.009918,0.025967,0.0398,0.027145,65.079453,33.649612,-145.955078,,,
729861421.402588,0.423604,-0.14057,126.962548,0.011932,0.010727,1.009918,0.025967,0.0398,0.027145,65.079453,33.649612,-145.955078,,,
729861421.40595,0.423604,-0.14057,126.962548,0.011932,0.010727,1.009918,0.025967,0.0398,0.027145,65.079453,33.649612,-145.955078,,,
729861421.409277,0.430518,-0.119348,126.971592,0.010925,0.008896,1.007034,0.025505,0.056182,0.033041,65.079453,33.649612,-145.955078,,,
729861421.4126,0.438104,-0.103854,126.980397,0.010925,0.008896,1.007034,0.025505,0.056182,0.033041,65.079453,33.649612,-145.955078,,,
729861421.415972,0.438104,-0.103854,126.980397,0.010925,0.008896,1.007034,0.025505,0.056182,0.033041,65.012375,33.738007,-145.799988,,,
729861421.419291,0.446701,-0.08431,126.989002,0.014023,0.009018,1.001648,0.028529,0.055362,0.030085,65.012375,33.738007,-145.799988,,,
729861421.422528,0.456592,-0.071091,126.996626,0.014023,0.009018,1.001648,0.028529,0.055362,0.030085,65.012375,33.738007,-145.799988,,,
729861421.425958,0.456592,-0.071091,126.996626,0.014023,0.009018,1.001648,0.028529,0.055362,0.030085,65.012375,33.738007,-145.799988,,,
729861421.429271,0.469199,-0.056698,127.003586,0.013519,0.012207,1.005554,0.040471,0.045057,0.022627,65.012375,33.738007,-145.799988,,,
729861421.432649,0.485667,-0.04731,127.010492,0.013519,0.012207,1.005554,0.040471,0.045057,0.022627,65.012375,33.738007,-145.799988,,,
729861421.436002,0.485667,-0.04731,127.010492,0.013519,0.012207,1.005554,0.040471,0.045057,0.022627,65.012375,33.738007,-145.799988,,,
729861421.439271,0.506398,-0.040138,127.016751,0.011429,0.008514,1.014572,0.069552,0.029287,0.020493,65.012375,33.738007,-145.799988,,,
729861421.442595,0.531446,-0.036069,127.021819,0.011429,0.008514,1.014572,0.069552,0.029287,0.020493,65.012375,33.738007,-145.799988,,,
729861421.445943,0.531446,-0.036069,127.021819,0.011429,0.008514,1.014572,0.069552,0.029287,0.020493,65.012375,33.738007,-145.799988,,,
729861421.449302,0.561399,-0.036429,127.025475,0.013199,0.009659,1.018631,0.098929,0.008836,0.013293,65.012375,33.738007,-145.799988,,,
729861421.452597,0.594782,-0.039453,127.027346,0.013199,0.009659,1.018631,0.098929,0.008836,0.013293,65.012375,33.738007,-145.799988,,,
729861421.456011,0.594782,-0.039453,127.027346,0.013199,0.009659,1.018631,0.098929,0.008836,0.013293,65.012375,33.738007,-145.799988,,,
729861421.459282,0.63153,-0.047465,127.027295,0.014618,0.012543,1.016281,0.127426,-0.016558,0.002825,65.238708,33.47728,-145.576706,,,
729861421.462606,0.672995,-0.054111,127.02602,0.014618,0.012543,1.016281,0.127426,-0.016558,0.002825,65.238708,33.47728,-145.576706,,,
729861421.465994,0.672995,-0.054111,127.02602,0.014618,0.012543,1.016281,0.127426,-0.016558,0.002825,65.238708,33.47728,-145.576706,,,
729861421.469277,0.718296,-0.062109,127.023768,0.015121,0.011414,1.02121,0.157145,-0.019158,-0.007011,65.238708,33.47728,-145.576706,,,
729861421.472603,0.768461,-0.063177,127.02091,0.015121,0.011414,1.02121,0.157145,-0.019158,-0.007011,65.238708,33.47728,-145.576706,,,
729861421.476022,0.768461,-0.063177,127.02091,0.015121,0.011414,1.02121,0.157145,-0.019158,-0.007011,65.238708,33.47728,-145.576706,,,
729861421.479268,0.822808,-0.061582,127.018652,0.013107,0.007172,1.029526,0.18798,0.011759,-0.009669,65.238708,33.47728,-145.576706,,,
729861421.482644,0.883263,-0.049526,127.017577,0.013107,0.007172,1.029526,0.18798,0.011759,-0.009669,65.238708,33.47728,-145.576706,,,
729861421.485943,0.883263,-0.049526,127.017577,0.013107,0.007172,1.029526,0.18798,0.011759,-0.009669,65.238708,33.47728,-145.576706,,,
729861421.489345,0.947334,-0.032404,127.017771,0.010452,0.006256,1.042419,0.225326,0.062755,-0.000505,65.238708,33.47728,-145.576706,,,
729861421.492587,1.016264,-0.005955,127.01836,0.010452,0.006256,1.042419,0.225326,0.062755,-0.000505,65.238708,33.47728,-145.576706,,,
729861421.495948,1.016264,-0.005955,127.01836,0.010452,0.006256,1.042419,0.225326,0.062755,-0.000505,65.238708,33.47728,-145.576706,,,
729861421.499332,1.085779,0.023319,127.018579,0.010086,0.007431,1.043137,0.24815,0.111079,0.001676,65.278107,32.867966,-146.306824,,,
729861421.502608,1.15625,0.060165,127.017593,0.010086,0.007431,1.043137,0.24815,0.111079,0.001676,65.278107,32.867966,-146.306824,,,
729861421.505998,1.15625,0.060165,127.017593,0.010086,0.007431,1.043137,0.24815,0.111079,0.001676,65.278107,32.867966,-146.306824,,,
729861421.509273,1.223882,0.098197,127.014399,0.011734,0.017776,1.02832,0.241452,0.140792,-0.008921,65.278107,32.867966,-146.306824,,,
729861421.512603,1.290418,0.139586,127.008841,0.011734,0.017776,1.02832,0.241452,0.140792,-0.008921,65.278107,32.867966,-146.306824,,,
729861421.516007,1.290418,0.139586,127.008841,0.011734,0.017776,1.02832,0.241452,0.140792,-0.008921,65.278107,32.867966,-146.306824,,,
729861421.519278,1.351129,0.177811,127.00148,0.012833,0.027817,1.011307,0.222394,0.14446,-0.024321,65.278107,32.867966,-146.306824,,,
729861421.522602,1.409149,0.21658,126.992237,0.012833,0.027817,1.011307,0.222394,0.14446,-0.024321,65.278107,32.867966,-146.306824,,,
729861421.52595,1.409149,0.21658,126.992237,0.012833,0.027817,1.011307,0.222394,0.14446,-0.024321,65.278107,32.867966,-146.306824,,,
729861421.529366,1.461021,0.249343,126.982382,0.005066,0.033325,0.990707,0.191386,0.130773,-0.034597,65.278107,32.867966,-146.306824,,,
729861421.532677,1.511049,0.282179,126.972769,0.005066,0.033325,0.990707,0.191386,0.130773,-0.034597,65.278107,32.867966,-146.306824,,,
729861421.535937,1.511049,0.282179,126.972769,0.005066,0.033325,0.990707,0.191386,0.130773,-0.034597,65.278107,32.867966,-146.306824,,,
729861421.539273,1.555238,0.307114,126.963606,-0.008896,0.033249,0.97876,0.167939,0.10944,-0.033477,65.401779,32.691788,-146.071518,,,
729861421.542625,1.601,0.333092,126.954893,-0.008896,0.033249,0.97876,0.167939,0.10944,-0.033477,65.401779,32.691788,-146.071518,,,
729861421.545956,1.601,0.333092,126.954893,-0.008896,0.033249,0.97876,0.167939,0.10944,-0.033477,65.401779,32.691788,-146.071518,,,
729861421.549315,1.644625,0.349254,126.947486,-0.020187,0.029251,0.982773,0.162381,0.080245,-0.02644,65.401779,32.691788,-146.071518,,,
729861421.55259,1.695041,0.366041,126.941541,-0.020187,0.029251,0.982773,0.162381,0.080245,-0.02644,65.401779,32.691788,-146.071518,,,
729861421.555936,1.695041,0.366041,126.941541,-0.020187,0.029251,0.982773,0.162381,0.080245,-0.02644,65.401779,32.691788,-146.071518,,,
729861421.559263,1.744155,0.37272,126.93711,-0.025223,0.020645,0.999222,0.182525,0.046376,-0.016937,65.401779,32.691788,-146.071518,,,
729861421.562597,1.803379,0.378455,126.933295,-0.025223,0.020645,0.999222,0.182525,0.046376,-0.016937,65.401779,32.691788,-146.071518,,,
729861421.566003,1.803379,0.378455,126.933295,-0.025223,0.020645,0.999222,0.182525,0.046376,-0.016937,65.401779,32.691788,-146.071518,,,
729861421.569267,1.86239,0.374855,126.929652,-0.030624,0.017914,1.015137,0.217329,0.00744,-0.013964,65.401779,32.691788,-146.071518,,,
729861421.57264,1.931187,0.371623,126.925826,-0.030624,0.017914,1.015137,0.217329,0.00744,-0.013964,65.401779,32.691788,-146.071518,,,
729861421.575934,1.931187,0.371623,126.925826,-0.030624,0.017914,1.015137,0.217329,0.00744,-0.013964,65.401779,32.691788,-146.071518,,,
729861421.579367,2.000783,0.362319,126.921978,-0.028824,0.020126,1.024902,0.254203,-0.019451,-0.013359,65.638779,32.214828,-146.192139,,,
729861421.582644,2.079587,0.355513,126.917972,-0.028824,0.020126,1.024902,0.254203,-0.019451,-0.013359,65.638779,32.214828,-146.192139,,,
729861421.58595,2.079587,0.355513,126.917972,-0.028824,0.020126,1.024902,0.254203,-0.019451,-0.013359,65.638779,32.214828,-146.192139,,,
729861421.589287,2.161386,0.345715,126.91512,-0.026749,0.022598,1.034531,0.289064,-0.019892,-0.011301,65.638779,32.214828,-146.192139,,,
729861421.592602,2.250528,0.341944,126.913309,-0.026749,0.022598,1.034531,0.289064,-0.019892,-0.011301,65.638779,32.214828,-146.192139,,,
729861421.59594,2.250528,0.341944,126.913309,-0.026749,0.022598,1.034531,0.289064,-0.019892,-0.011301,65.638779,32.214828,-146.192139,,,
729861421.599326,2.343146,0.338676,126.912436,-0.023239,0.023041,1.040573,0.322561,0.000176,-0.002939,65.638779,32.214828,-146.192139,,,
729861421.602653,2.441609,0.343363,126.91293,-0.023239,0.023041,1.040573,0.322561,0.000176,-0.002939,65.638779,32.214828,-146.192139,,,
729861421.606022,2.441609,0.343363,126.91293,-0.023239,0.023041,1.040573,0.322561,0.000176,-0.002939,65.638779,32.214828,-146.192139,,,
729861421.60927,2.545168,0.353378,126.91602,-0.022369,0.025421,1.042007,0.356337,0.035143,0.008999,65.638779,32.214828,-146.192139,,,
729861421.612596,2.65672,0.370712,126.921701,-0.022369,0.025421,1.042007,0.356337,0.035143,0.008999,65.638779,32.214828,-146.192139,,,
729861421.615987,2.65672,0.370712,126.921701,-0.022369,0.025421,1.042007,0.356337,0.035143,0.008999,65.638779,32.214828,-146.192139,,,
729861421.619339,2.774191,0.396023,126.929632,-0.022995,0.023361,1.051315,0.408652,0.082455,0.028873,65.638779,32.214828,-146.192139,,,
729861421.622587,2.900801,0.426116,126.939661,-0.022995,0.023361,1.051315,0.408652,0.082455,0.028873,65.815323,31.499527,-146.682953,,,
729861421.626033,2.900801,0.426116,126.939661,-0.022995,0.023361,1.051315,0.408652,0.082455,0.028873,65.815323,31.499527,-146.682953,,,
729861421.629284,3.034447,0.460017,126.951237,-0.023743,0.023376,1.059875,0.459327,0.121542,0.04119,65.815323,31.499527,-146.682953,,,
729861421.632639,3.173738,0.495146,126.963293,-0.023743,0.023376,1.059875,0.459327,0.121542,0.04119,65.815323,31.499527,-146.682953,,,
729861421.635935,3.173738,0.495146,126.963293,-0.023743,0.023376,1.059875,0.459327,0.121542,0.04119,65.815323,31.499527,-146.682953,,,
729861421.639275,3.317471,0.528383,126.975574,-0.024719,0.030869,1.047302,0.499209,0.123495,0.046455,65.815323,31.499527,-146.682953,,,
729861421.642594,3.464731,0.557123,126.987476,-0.024719,0.030869,1.047302,0.499209,0.123495,0.046455,65.815323,31.499527,-146.682953,,,
729861421.645982,3.464731,0.557123,126.987476,-0.024719,0.030869,1.047302,0.499209,0.123495,0.046455,65.815323,31.499527,-146.682953,,,
729861421.649312,3.614306,0.579533,126.998448,-0.023911,0.044464,1.021286,0.517973,0.08973,0.045047,65.815323,31.499527,-146.682953,,,
729861421.65259,3.764108,0.59489,127.008215,-0.023911,0.044464,1.021286,0.517973,0.08973,0.045047,65.815323,31.499527,-146.682953,,,
729861421.655929,3.764108,0.59489,127.008215,-0.023911,0.044464,1.021286,0.517973,0.08973,0.045047,65.815323,31.499527,-146.682953,,,
729861421.659266,3.911651,0.602012,127.01639,-0.020721,0.054764,0.998764,0.51907,0.035939,0.034802,65.815323,31.499527,-146.682953,,,
729861421.662594,4.056453,0.600846,127.02259,-0.020721,0.054764,0.998764,0.51907,0.035939,0.034802,66.101303,30.446915,-146.937881,,,
729861421.665961,4.056453,0.600846,127.02259,-0.020721,0.054764,0.998764,0.51907,0.035939,0.034802,66.101303,30.446915,-146.937881,,,
729861421.66926,4.200181,0.592584,127.026884,-0.016525,0.065445,0.979446,0.499317,-0.01985,0.022153,66.101303,30.446915,-146.937881,,,
729861421.672661,4.345281,0.579616,127.03015,-0.016525,0.065445,0.979446,0.499317,-0.01985,0.022153,66.101303,30.446915,-146.937881,,,
729861421.675927,4.345281,0.579616,127.03015,-0.016525,0.065445,0.979446,0.499317,-0.01985,0.022153,66.101303,30.446915,-146.937881,,,
729861421.679275,4.493315,0.564976,127.034035,-0.012756,0.071426,0.984924,0.512276,-0.048264,0.013698,66.101303,30.446915,-146.937881,,,
729861421.682712,4.646473,0.551863,127.040483,-0.012756,0.071426,0.984924,0.512276,-0.048264,0.013698,66.101303,30.446915,-146.937881,,,
729861421.685925,4.646473,0.551863,127.040483,-0.012756,0.071426,0.984924,0.512276,-0.048264,0.013698,66.101303,30.446915,-146.937881,,,
729861421.689274,4.808948,0.542977,127.050006,-0.016525,0.060532,1.016342,0.555744,-0.031909,0.033451,66.101303,30.446915,-146.937881,,,
729861421.69259,4.982131,0.540872,127.063269,-0.016525,0.060532,1.016342,0.555744,-0.031909,0.033451,66.101303,30.446915,-146.937881,,,
729861421.695994,4.982131,0.540872,127.063269,-0.016525,0.060532,1.016342,0.555744,-0.031909,0.033451,66.101303,30.446915,-146.937881,,,
729861421.699313,5.166268,0.547099,127.081227,-0.019714,0.052063,1.054169,0.62908,0.023743,0.060753,66.101303,30.446915,-146.937881,,,
729861421.702663,5.359564,0.562871,127.10338,-0.019714,0.052063,1.054169,0.62908,0.023743,0.060753,66.074066,29.449493,-147.162155,,,
729861421.705922,5.359564,0.562871,127.10338,-0.019714,0.052063,1.054169,0.62908,0.023743,0.060753,66.074066,29.449493,-147.162155,,,
729861421.709332,5.559201,0.58724,127.128396,-0.018219,0.052567,1.065018,0.68868,0.088396,0.090187,66.074066,29.449493,-147.162155,,,
729861421.712591,5.76152,0.617406,127.15573,-0.018219,0.052567,1.065018,0.68868,0.088396,0.090187,66.074066,29.449493,-147.162155,,,
729861421.716059,5.76152,0.617406,127.15573,-0.018219,0.052567,1.065018,0.68868,0.088396,0.090187,66.074066,29.449493,-147.162155,,,
729861421.719272,5.962898,0.650221,127.185188,-0.013168,0.065948,1.044281,0.705711,0.125675,0.105394,66.074066,29.449493,-147.162155,,,
729861421.72262,6.16028,0.682725,127.215726,-0.013168,0.065948,1.044281,0.705711,0.125675,0.105394,66.074066,29.449493,-147.162155,,,
729861421.725946,6.16028,0.682725,127.215726,-0.013168,0.065948,1.044281,0.705711,0.125675,0.105394,66.074066,29.449493,-147.162155,,,
729861421.72927,6.350933,0.712435,127.24509,-0.008041,0.093796,0.998657,0.668304,0.119376,0.113413,66.074066,29.449493,-147.162155,,,
729861421.732624,6.53479,0.738111,127.270945,-0.008041,0.093796,0.998657,0.668304,0.119376,0.113413,66.074066,29.449493,-147.162155,,,
729861421.735992,6.53479,0.738111,127.270945,-0.008041,0.093796,0.998657,0.668304,0.119376,0.113413,66.074066,29.449493,-147.162155,,,
729861421.739265,6.712357,0.757904,127.291614,0.002182,0.101105,0.961609,0.623413,0.088436,0.082476,66.074066,29.449493,-147.162155,,,
729861421.742622,6.883164,0.769149,127.307166,0.002182,0.101105,0.961609,0.623413,0.088436,0.082476,66.367615,27.882889,-147.437912,,,
729861421.745945,6.883164,0.769149,127.307166,0.002182,0.101105,0.961609,0.623413,0.088436,0.082476,66.367615,27.882889,-147.437912,,,
729861421.749326,7.047246,0.770113,127.318356,0.010406,0.120453,0.951141,0.574277,0.020248,0.049612,66.367615,27.882889,-147.437912,,,
729861421.752645,7.206232,0.76014,127.325645,0.010406,0.120453,0.951141,0.574277,0.020248,0.049612,66.367615,27.882889,-147.437912,,,
729861421.755938,7.206232,0.76014,127.325645,0.010406,0.120453,0.951141,0.574277,0.020248,0.049612,66.367615,27.882889,-147.437912,,,
729861421.759351,7.362173,0.741347,127.329637,0.012192,0.121979,0.933517,0.545747,-0.058143,0.02331,66.367615,27.882889,-147.437912,,,
729861421.762628,7.517217,0.717178,127.330295,0.012192,0.121979,0.933517,0.545747,-0.058143,0.02331,66.367615,27.882889,-147.437912,,,
729861421.765975,7.517217,0.717178,127.330295,0.012192,0.121979,0.933517,0.545747,-0.058143,0.02331,66.367615,27.882889,-147.437912,,,
729861421.769287,7.673384,0.69105,127.327697,0.014313,0.156738,0.952621,0.541773,-0.091117,-0.001207,66.367615,27.882889,-147.437912,,,
729861421.772655,7.83153,0.666999,127.321962,0.014313,0.156738,0.952621,0.541773,-0.091117,-0.001207,66.367615,27.882889,-147.437912,,,
729861421.775944,7.83153,0.666999,127.321962,0.014313,0.156738,0.952621,0.541773,-0.091117,-0.001207,66.367615,27.882889,-147.437912,,,
729861421.779281,7.993349,0.6462,127.313827,0.017502,0.140503,0.99025,0.557408,-0.077493,-0.021272,66.367615,27.882889,-147.437912,,,
729861421.782643,8.159735,0.630159,127.302937,0.017502,0.140503,0.99025,0.557408,-0.077493,-0.021272,66.367615,27.882889,-147.437912,,,
729861421.786007,8.159735,0.630159,127.302937,0.017502,0.140503,0.99025,0.557408,-0.077493,-0.021272,65.799286,27.094742,-147.317734,,,
729861421.789274,8.331178,0.619917,127.288848,0.019592,0.12645,1.019196,0.590765,-0.045361,-0.040092,65.799286,27.094742,-147.317734,,,
729861421.792645,8.508529,0.615475,127.272349,0.019592,0.12645,1.019196,0.590765,-0.045361,-0.040092,65.799286,27.094742,-147.317734,,,
729861421.795947,8.508529,0.615475,127.272349,0.019592,0.12645,1.019196,0.590765,-0.045361,-0.040092,65.799286,27.094742,-147.317734,,,
729861421.799338,8.692022,0.618125,127.253834,0.020264,0.127747,1.034119,0.634445,-0.002018,-0.058276,65.799286,27.094742,-147.317734,,,
729861421.802619,8.88182,0.628435,127.233576,0.020264,0.127747,1.034119,0.634445,-0.002018,-0.058276,65.799286,27.094742,-147.317734,,,
729861421.805936,8.88182,0.628435,127.233576,0.020264,0.127747,1.034119,0.634445,-0.002018,-0.058276,65.799286,27.094742,-147.317734,,,
729861421.809283,9.076613,0.644982,127.212503,0.014465,0.132141,1.045059,0.677222,0.041968,-0.067463,65.799286,27.094742,-147.317734,,,
729861421.812665,9.272682,0.667376,127.1916,0.014465,0.132141,1.045059,0.677222,0.041968,-0.067463,65.799286,27.094742,-147.317734,,,
729861421.815982,9.272682,0.667376,127.1916,0.014465,0.132141,1.045059,0.677222,0.041968,-0.067463,65.799286,27.094742,-147.317734,,,
729861421.819263,9.468291,0.696039,127.171314,0.009033,0.135239,1.037781,0.682199,0.086101,-0.064378,65.799286,27.094742,-147.317734,,,
729861421.822637,9.468291,0.729782,127.152349,0.009033,0.135239,1.037781,0.682199,0.086101,-0.064378,65.799286,27.094742,-147.317734,,,
729861421.825976,9.663449,0.729782,127.152349,0.009033,0.135239,1.037781,0.682199,0.086101,-0.064378,66.354919,25.489075,-147.509872,,,
729861421.829273,9.857411,0.766935,127.135439,-0.002258,0.139572,1.021591,0.682836,0.122469,-0.052694,66.354919,25.489075,-147.509872,,,
729861421.83266,9.857411,0.80633,127.121574,-0.002258,0.139572,1.021591,0.682836,0.122469,-0.052694,66.354919,25.489075,-147.509872,,,
729861421.835938,10.049704,0.80633,127.121574,-0.002258,0.139572,1.021591,0.682836,0.122469,-0.052694,66.354919,25.489075,-147.509872,,,
729861421.839315,10.239729,0.844835,127.111633,-0.014709,0.145752,1.017761,0.664988,0.133731,-0.03182,66.354919,25.489075,-147.509872,,,
729861421.842603,10.239729,0.880462,127.105013,-0.014709,0.145752,1.017761,0.664988,0.133731,-0.03182,66.354919,25.489075,-147.509872,,,
729861421.845954,10.427697,0.880462,127.105013,-0.014709,0.145752,1.017761,0.664988,0.133731,-0.03182,66.354919,25.489075,-147.509872,,,
729861421.849334,10.614524,0.910825,127.10011,-0.023499,0.15358,1.006287,0.648568,0.113407,-0.008287,66.354919,25.489075,-147.509872,,,
729861421.852673,10.801043,0.933469,127.096099,-0.023499,0.15358,1.006287,0.648568,0.113407,-0.008287,66.354919,25.489075,-147.509872,,,
729861421.85596,10.801043,0.933469,127.096099,-0.023499,0.15358,1.006287,0.648568,0.113407,-0.008287,66.354919,25.489075,-147.509872,,,
729861421.859291,10.98846,0.947828,127.091795,-0.018295,0.165573,0.99939,0.651041,0.061358,-0.002339,66.354919,25.489075,-147.509872,,,
729861421.862629,10.98846,0.947828,127.091795,-0.018295,0.165573,0.99939,0.651041,0.061358,-0.002339,66.354919,25.489075,-147.509872,,,
729861421.865987,11.177521,0.953993,127.085383,-0.018295,0.165573,0.99939,0.651041,0.061358,-0.002339,66.298004,24.085358,-147.848984,,,
729861421.869269,11.36939,0.951908,127.076571,-0.013504,0.176804,0.998047,0.665727,-0.003054,-0.017313,66.298004,24.085358,-147.848984,,,
729861421.872601,11.36939,0.951908,127.076571,-0.013504,0.176804,0.998047,0.665727,-0.003054,-0.017313,66.298004,24.085358,-147.848984,,,
729861421.875952,11.564875,0.943651,127.065126,-0.013504,0.176804,0.998047,0.665727,-0.003054,-0.017313,66.298004,24.085358,-147.848984,,,
729861421.879265,11.766413,0.931312,127.05098,-0.004288,0.189896,1.00354,0.694617,-0.048093,-0.034782,66.298004,24.085358,-147.848984,,,
729861421.882641,11.766413,0.931312,127.05098,-0.004288,0.189896,1.00354,0.694617,-0.048093,-0.034782,66.298004,24.085358,-147.848984,,,
729861421.885947,11.977724,0.91693,127.034803,-0.004288,0.189896,1.00354,0.694617,-0.048093,-0.034782,66.298004,24.085358,-147.848984,,,
729861421.889377,12.201873,0.902915,127.016336,-0.002319,0.193375,1.033493,0.770253,-0.061071,-0.049158,66.298004,24.085358,-147.848984,,,
729861421.892614,12.201873,0.902915,127.016336,-0.002319,0.193375,1.033493,0.770253,-0.061071,-0.049158,66.298004,24.085358,-147.848984,,,
729861421.895954,12.441369,0.891933,126.99559,-0.002319,0.193375,1.033493,0.770253,-0.061071,-0.049158,66.298004,24.085358,-147.848984,,,
729861421.899319,12.695393,0.885405,126.972832,-0.001129,0.184265,1.069427,0.87501,-0.041642,-0.064376,66.298004,24.085358,-147.848984,,,
729861421.902668,12.695393,0.885405,126.972832,-0.001129,0.184265,1.069427,0.87501,-0.041642,-0.064376,66.298004,24.085358,-147.848984,,,
729861421.905998,12.959692,0.883805,126.948668,-0.001129,0.184265,1.069427,0.87501,-0.041642,-0.064376,66.298004,24.085358,-147.848984,,,
729861421.909266,13.230161,0.887013,126.923906,-0.004608,0.182144,1.07579,0.943523,-0.009992,-0.070293,66.214996,22.667725,-147.858124,,,
729861421.912609,13.230161,0.887013,126.923906,-0.004608,0.182144,1.07579,0.943523,-0.009992,-0.070293,66.214996,22.667725,-147.858124,,,
729861421.916057,13.502931,0.895924,126.898295,-0.004608,0.182144,1.07579,0.943523,-0.009992,-0.070293,66.214996,22.667725,-147.858124,,,
729861421.919254,13.774246,0.910272,126.873036,-0.010162,0.19313,1.034317,0.950272,0.030405,-0.072135,66.214996,22.667725,-147.858124,,,
729861421.922613,13.774246,0.910272,126.873036,-0.010162,0.19313,1.034317,0.950272,0.030405,-0.072135,66.214996,22.667725,-147.858124,,,
729861421.925948,14.040843,0.928679,126.84841,-0.010162,0.19313,1.034317,0.950272,0.030405,-0.072135,66.214996,22.667725,-147.858124,,,
729861421.929266,14.300546,0.94976,126.824211,-0.015915,0.210602,0.991516,0.913809,0.053071,-0.068894,66.214996,22.667725,-147.858124,,,
729861421.93266,14.300546,0.94976,126.824211,-0.015915,0.210602,0.991516,0.913809,0.053071,-0.068894,66.214996,22.667725,-147.858124,,,
729861421.935945,14.552595,0.971938,126.800982,-0.015915,0.210602,0.991516,0.913809,0.053071,-0.068894,66.214996,22.667725,-147.858124,,,
729861421.939278,14.796834,0.994274,126.778219,-0.019623,0.237396,0.954865,0.855767,0.061607,-0.063854,66.214996,22.667725,-147.858124,,,
729861421.9426,14.796834,0.994274,126.778219,-0.019623,0.237396,0.954865,0.855767,0.061607,-0.063854,66.214996,22.667725,-147.858124,,,
729861421.945946,15.033469,1.015871,126.755761,-0.019623,0.237396,0.954865,0.855767,0.061607,-0.063854,66.214996,22.667725,-147.858124,,,
729861421.94939,15.263736,1.034595,126.733939,-0.022598,0.258194,0.935425,0.809647,0.052288,-0.061075,66.166977,20.865738,-147.97435,,,
729861421.952597,15.263736,1.034595,126.733939,-0.022598,0.258194,0.935425,0.809647,0.052288,-0.061075,66.166977,20.865738,-147.97435,,,
729861421.956033,15.489178,1.049086,126.71194,-0.022598,0.258194,0.935425,0.809647,0.052288,-0.061075,66.166977,20.865738,-147.97435,,,
729861421.959269,15.713265,1.059111,126.689441,-0.022003,0.268478,0.933395,0.779891,0.018906,-0.065418,66.166977,20.865738,-147.97435,,,
729861421.962608,15.713265,1.059111,126.689441,-0.022003,0.268478,0.933395,0.779891,0.018906,-0.065418,66.166977,20.865738,-147.97435,,,
729861421.965991,15.940103,1.066206,126.66607,-0.022003,0.268478,0.933395,0.779891,0.018906,-0.065418,66.166977,20.865738,-147.97435,,,
729861421.969266,16.174391,1.071412,126.641585,-0.022507,0.270218,0.955078,0.805675,-0.001461,-0.067469,66.166977,20.865738,-147.97435,,,
729861421.972619,16.174391,1.071412,126.641585,-0.022507,0.270218,0.955078,0.805675,-0.001461,-0.067469,66.166977,20.865738,-147.97435,,,
729861421.975953,16.421472,1.075623,126.61585,-0.022507,0.270218,0.955078,0.805675,-0.001461,-0.067469,66.166977,20.865738,-147.97435,,,
729861421.979268,16.686006,1.079123,126.587996,-0.022217,0.251556,1.014755,0.905035,-0.011595,-0.076235,66.166977,20.865738,-147.97435,,,
729861421.982698,16.686006,1.079123,126.587996,-0.022217,0.251556,1.014755,0.905035,-0.011595,-0.076235,66.166977,20.865738,-147.97435,,,
729861421.985926,16.972639,1.082542,126.557163,-0.022217,0.251556,1.014755,0.905035,-0.011595,-0.076235,66.166977,20.865738,-147.97435,,,
729861421.989268,17.284197,1.086945,126.523187,-0.018265,0.233154,1.073685,1.065827,-0.019002,-0.093349,66.218018,18.893265,-147.828354,,,
729861421.992599,17.284197,1.086945,126.523187,-0.018265,0.233154,1.073685,1.065827,-0.019002,-0.093349,66.218018,18.893265,-147.828354,,,
729861421.995933,17.620771,1.093788,126.485509,-0.018265,0.233154,1.073685,1.065827,-0.019002,-0.093349,66.218018,18.893265,-147.828354,,,
729861421.999317,17.979426,1.103438,126.444562,-0.017624,0.227509,1.109726,1.235561,-0.007205,-0.112029,66.218018,18.893265,-147.828354,,,
729861422.002623,17.979426,1.103438,126.444562,-0.017624,0.227509,1.109726,1.235561,-0.007205,-0.112029,66.218018,18.893265,-147.828354,,,
729861422.005935,18.354231,1.115464,126.401343,-0.017624,0.227509,1.109726,1.235561,-0.007205,-0.112029,66.218018,18.893265,-147.828354,,,
729861422.009268,18.737568,1.128928,126.356558,-0.018417,0.237076,1.089005,1.335652,-0.002518,-0.123867,66.218018,18.893265,-147.828354,,,
729861422.012611,18.737568,1.128928,126.356558,-0.018417,0.237076,1.089005,1.335652,-0.002518,-0.123867,66.218018,18.893265,-147.828354,,,
729861422.015983,19.121061,1.142566,126.311172,-0.018417,0.237076,1.089005,1.335652,-0.002518,-0.123867,66.218018,18.893265,-147.828354,,,
729861422.019262,19.497898,1.1543,126.265664,-0.022263,0.263336,1.006165,1.326202,-0.006541,-0.125104,66.218018,18.893265,-147.828354,,,
729861422.022664,19.497898,1.1543,126.265664,-0.022263,0.263336,1.006165,1.326202,-0.006541,-0.125104,66.218018,18.893265,-147.828354,,,
729861422.025932,19.864089,1.163471,126.221161,-0.022263,0.263336,1.006165,1.326202,-0.006541,-0.125104,66.218018,18.893265,-147.828354,,,
729861422.029267,20.216822,1.170128,126.179403,-0.031113,0.29303,0.909958,1.246183,-0.019646,-0.115778,66.454788,16.088013,-148.051819,,,
729861422.032652,20.216822,1.170128,126.179403,-0.031113,0.29303,0.909958,1.246183,-0.019646,-0.115778,66.454788,16.088013,-148.051819,,,
729861422.035986,20.553669,1.174798,126.141224,-0.031113,0.29303,0.909958,1.246183,-0.019646,-0.115778,66.454788,16.088013,-148.051819,,,
729861422.03928,20.873465,1.17709,126.107526,-0.037857,0.341507,0.853943,1.13359,-0.029977,-0.090325,66.454788,16.088013,-148.051819,,,
729861422.042609,20.873465,1.17709,126.107526,-0.037857,0.341507,0.853943,1.13359,-0.029977,-0.090325,66.454788,16.088013,-148.051819,,,
729861422.045958,21.175848,1.176291,126.078805,-0.037857,0.341507,0.853943,1.13359,-0.029977,-0.090325,66.454788,16.088013,-148.051819,,,
729861422.049317,21.462532,1.172952,126.055381,-0.042664,0.378769,0.823044,1.014333,-0.039287,-0.061294,66.454788,16.088013,-148.051819,,,
729861422.052595,21.462532,1.172952,126.055381,-0.042664,0.378769,0.823044,1.014333,-0.039287,-0.061294,66.454788,16.088013,-148.051819,,,
729861422.055959,21.737726,1.167658,126.036643,-0.042664,0.378769,0.823044,1.014333,-0.039287,-0.061294,66.454788,16.088013,-148.051819,,,
729861422.059267,22.006065,1.159952,126.020715,-0.038498,0.384506,0.831543,0.938557,-0.043321,-0.033395,66.454788,16.088013,-148.051819,,,
729861422.062673,22.006065,1.159952,126.020715,-0.038498,0.384506,0.831543,0.938557,-0.043321,-0.033395,66.454788,16.088013,-148.051819,,,
729861422.065966,22.272548,1.15122,126.005799,-0.038498,0.384506,0.831543,0.938557,-0.043321,-0.033395,66.454788,16.088013,-148.051819,,,
729861422.069264,22.542704,1.141605,125.990302,-0.029968,0.372192,0.873718,0.936049,-0.049038,-0.031005,66.454788,16.088013,-148.051819,,,
729861422.072604,22.542704,1.141605,125.990302,-0.029968,0.372192,0.873718,0.936049,-0.049038,-0.031005,66.278549,14.047012,-147.684341,,,
729861422.075997,22.821528,1.131589,125.971614,-0.029968,0.372192,0.873718,0.936049,-0.049038,-0.031005,66.278549,14.047012,-147.684341,,,
729861422.079258,23.11277,1.12181,125.948031,-0.014862,0.358459,0.928986,1.002061,-0.061334,-0.051776,66.278549,14.047012,-147.684341,,,
729861422.08268,23.11277,1.12181,125.948031,-0.014862,0.358459,0.928986,1.002061,-0.061334,-0.051776,66.278549,14.047012,-147.684341,,,
729861422.085936,23.419861,1.112925,125.919442,-0.014862,0.358459,0.928986,1.002061,-0.061334,-0.051776,66.278549,14.047012,-147.684341,,,
729861422.089269,23.746762,1.105091,125.886007,-0.001495,0.351257,0.979691,1.120175,-0.07105,-0.080996,66.278549,14.047012,-147.684341,,,
729861422.092619,23.746762,1.105091,125.886007,-0.001495,0.351257,0.979691,1.120175,-0.07105,-0.080996,66.278549,14.047012,-147.684341,,,
729861422.095998,24.097084,1.099394,125.847053,-0.001495,0.351257,0.979691,1.120175,-0.07105,-0.080996,66.278549,14.047012,-147.684341,,,
729861422.099307,24.473667,1.09771,125.80203,0.004318,0.332794,1.033432,1.29216,-0.069434,-0.114552,66.278549,14.047012,-147.684341,,,
729861422.102625,24.473667,1.09771,125.80203,0.004318,0.332794,1.033432,1.29216,-0.069434,-0.114552,66.278549,14.047012,-147.684341,,,
729861422.10593,24.876861,1.101346,125.751946,0.004318,0.332794,1.033432,1.29216,-0.069434,-0.114552,66.278549,14.047012,-147.684341,,,
729861422.109308,25.302138,1.110358,125.698148,0.006226,0.325211,1.070801,1.470792,-0.049986,-0.140809,66.278549,14.047012,-147.684341,,,
729861422.112656,25.302138,1.110358,125.698148,0.006226,0.325211,1.070801,1.470792,-0.049986,-0.140809,66.176483,11.459976,-147.430115,,,
729861422.116048,25.742929,1.124218,125.642084,0.006226,0.325211,1.070801,1.470792,-0.049986,-0.140809,66.176483,11.459976,-147.430115,,,
729861422.119324,26.192638,1.140165,125.587014,-0.00296,0.338577,1.043213,1.56477,-0.027128,-0.146878,66.176483,11.459976,-147.430115,,,
729861422.122867,26.192638,1.140165,125.587014,-0.00296,0.338577,1.043213,1.56477,-0.027128,-0.146878,66.176483,11.459976,-147.430115,,,
729861422.125957,26.644752,1.156592,125.534696,-0.00296,0.338577,1.043213,1.56477,-0.027128,-0.146878,66.176483,11.459976,-147.430115,,,
729861422.129307,27.093106,1.171656,125.48696,-0.020828,0.366333,0.955627,1.573915,-0.017352,-0.122721,66.176483,11.459976,-147.430115,,,
729861422.132546,27.093106,1.171656,125.48696,-0.020828,0.366333,0.955627,1.573915,-0.017352,-0.122721,66.176483,11.459976,-147.430115,,,
729861422.136061,27.532817,1.181793,125.444931,-0.020828,0.366333,0.955627,1.573915,-0.017352,-0.122721,66.176483,11.459976,-147.430115,,,
729861422.139307,27.961045,1.184529,125.408101,-0.038666,0.398651,0.875504,1.504662,-0.043515,-0.089851,66.176483,11.459976,-147.430115,,,
729861422.142642,27.961045,1.184529,125.408101,-0.038666,0.398651,0.875504,1.504662,-0.043515,-0.089851,66.176483,11.459976,-147.430115,,,
729861422.145965,28.375883,1.18041,125.376053,-0.038666,0.398651,0.875504,1.504662,-0.043515,-0.089851,66.176483,11.459976,-147.430115,,,
729861422.149332,28.774985,1.170162,125.348643,-0.042175,0.450912,0.810974,1.405235,-0.075179,-0.057569,66.176483,11.459976,-147.430115,,,
729861422.152599,28.774985,1.170162,125.348643,-0.042175,0.450912,0.810974,1.405235,-0.075179,-0.057569,66.035141,8.234177,-147.060425,,,
729861422.155931,29.157396,1.15383,125.32581,-0.042175,0.450912,0.810974,1.405235,-0.075179,-0.057569,66.035141,8.234177,-147.060425,,,
729861422.159269,29.525465,1.130359,125.306543,-0.045288,0.488983,0.777603,1.291967,-0.103927,-0.033777,66.035141,8.234177,-147.060425,,,
729861422.162672,29.525465,1.130359,125.306543,-0.045288,0.488983,0.777603,1.291967,-0.103927,-0.033777,66.035141,8.234177,-147.060425,,,
729861422.165967,29.882695,1.099048,125.28988,-0.045288,0.488983,0.777603,1.291967,-0.103927,-0.033777,66.035141,8.234177,-147.060425,,,
729861422.169281,30.232065,1.059904,125.275519,-0.038925,0.507507,0.77211,1.222594,-0.153154,-0.022592,66.035141,8.234177,-147.060425,,,
729861422.172611,30.232065,1.059904,125.275519,-0.038925,0.507507,0.77211,1.222594,-0.153154,-0.022592,66.035141,8.234177,-147.060425,,,
729861422.17597,30.577625,1.014916,125.261044,-0.038925,0.507507,0.77211,1.222594,-0.153154,-0.022592,66.035141,8.234177,-147.060425,,,
729861422.179263,30.925406,0.966753,125.244349,-0.027893,0.511017,0.796356,1.207047,-0.192721,-0.026804,66.035141,8.234177,-147.060425,,,
729861422.182639,30.925406,0.966753,125.244349,-0.027893,0.511017,0.796356,1.207047,-0.192721,-0.026804,66.035141,8.234177,-147.060425,,,
729861422.185925,31.282735,0.918128,125.224618,-0.027893,0.511017,0.796356,1.207047,-0.192721,-0.026804,66.035141,8.234177,-147.060425,,,
729861422.189268,31.658475,0.873658,125.201541,-0.013138,0.492294,0.864105,1.286769,-0.202024,-0.046758,66.035141,8.234177,-147.060425,,,
729861422.192594,31.658475,0.873658,125.201541,-0.013138,0.492294,0.864105,1.286769,-0.202024,-0.046758,65.686569,5.966003,-146.287827,,,
729861422.195931,32.060017,0.839546,125.175038,-0.013138,0.492294,0.864105,1.286769,-0.202024,-0.046758,65.686569,5.966003,-146.287827,,,
729861422.199312,32.491195,0.816819,125.14654,-0.005554,0.457306,0.966736,1.47678,-0.139055,-0.063054,65.686569,5.966003,-146.287827,,,
729861422.202358,32.491195,0.816819,125.14654,-0.005554,0.457306,0.966736,1.47678,-0.139055,-0.063054,65.686569,5.966003,-146.287827,,,
729861422.20598,32.954206,0.804566,125.118353,-0.005554,0.457306,0.966736,1.47678,-0.139055,-0.063054,65.686569,5.966003,-146.287827,,,
729861422.209265,33.447057,0.802811,125.092039,-0.009308,0.421783,1.053726,1.694098,-0.062355,-0.055549,65.686569,5.966003,-146.287827,,,
729861422.212707,33.447057,0.802811,125.092039,-0.009308,0.421783,1.053726,1.694098,-0.062355,-0.055549,65.686569,5.966003,-146.287827,,,
729861422.215998,33.964496,0.809699,125.068243,-0.009308,0.421783,1.053726,1.694098,-0.062355,-0.055549,65.686569,5.966003,-146.287827,,,
729861422.219274,34.500409,0.822666,125.048048,-0.024948,0.417725,1.052261,1.860951,-0.000389,-0.035452,65.686569,5.966003,-146.287827,,,
729861422.222617,34.500409,0.822666,125.048048,-0.024948,0.417725,1.052261,1.860951,-0.000389,-0.035452,65.686569,5.966003,-146.287827,,,
729861422.225942,35.046147,0.838617,125.032281,-0.024948,0.417725,1.052261,1.860951,-0.000389,-0.035452,65.686569,5.966003,-146.287827,,,
729861422.22931,35.591487,0.853072,125.023105,-0.040863,0.444183,0.96875,1.903802,0.034288,-0.004471,65.686569,5.966003,-146.287827,,,
729861422.232682,35.591487,0.853072,125.023105,-0.040863,0.444183,0.96875,1.903802,0.034288,-0.004471,65.686569,5.966003,-146.287827,,,
729861422.235944,36.130168,0.86346,125.022904,-0.040863,0.444183,0.96875,1.903802,0.034288,-0.004471,65.801514,2.273499,-145.000214,,,
729861422.239279,36.657925,0.865547,125.033503,-0.059601,0.483841,0.850388,1.848566,0.039238,0.047852,65.801514,2.273499,-145.000214,,,
729861422.242615,36.657925,0.865547,125.033503,-0.059601,0.483841,0.850388,1.848566,0.039238,0.047852,65.801514,2.273499,-145.000214,,,
729861422.24593,37.172179,0.854583,125.055448,-0.059601,0.483841,0.850388,1.848566,0.039238,0.047852,65.801514,2.273499,-145.000214,,,
729861422.249384,37.671504,0.826757,125.087633,-0.070831,0.533859,0.769089,1.752051,-0.015172,0.110787,65.801514,2.273499,-145.000214,,,
729861422.252646,37.671504,0.826757,125.087633,-0.070831,0.533859,0.769089,1.752051,-0.015172,0.110787,65.801514,2.273499,-145.000214,,,
729861422.255969,38.155505,0.779866,125.127947,-0.070831,0.533859,0.769089,1.752051,-0.015172,0.110787,65.801514,2.273499,-145.000214,,,
729861422.259273,38.623597,0.712463,125.173438,-0.071243,0.583435,0.704086,1.644964,-0.115006,0.14404,65.801514,2.273499,-145.000214,,,
729861422.262717,38.623597,0.712463,125.173438,-0.071243,0.583435,0.704086,1.644964,-0.115006,0.14404,65.801514,2.273499,-145.000214,,,
729861422.266005,39.074379,0.62376,125.221879,-0.071243,0.583435,0.704086,1.644964,-0.115006,0.14404,65.801514,2.273499,-145.000214,,,
729861422.269274,39.510375,0.517878,125.271039,-0.055939,0.624496,0.656342,1.527334,-0.249884,0.148034,65.801514,2.273499,-145.000214,,,
729861422.272604,39.510375,0.517878,125.271039,-0.055939,0.624496,0.656342,1.527334,-0.249884,0.148034,65.801514,2.273499,-145.000214,,,
729861422.275943,39.936389,0.40255,125.318899,-0.055939,0.624496,0.656342,1.527334,-0.249884,0.148034,65.493256,-0.908142,-143.771713,,,
729861422.279272,40.357006,0.283526,125.365906,-0.035492,0.663605,0.65126,1.466127,-0.309867,0.134919,65.493256,-0.908142,-143.771713,,,
729861422.282645,40.357006,0.283526,125.365906,-0.035492,0.663605,0.65126,1.466127,-0.309867,0.134919,65.493256,-0.908142,-143.771713,,,
729861422.285998,40.776993,0.165888,125.413699,-0.035492,0.663605,0.65126,1.466127,-0.309867,0.134919,65.493256,-0.908142,-143.771713,,,
729861422.289267,41.200375,0.054372,125.464399,-0.018341,0.666,0.720871,1.470329,-0.279614,0.132961,65.493256,-0.908142,-143.771713,,,
729861422.29262,41.200375,0.054372,125.464399,-0.018341,0.666,0.720871,1.470329,-0.279614,0.132961,65.493256,-0.908142,-143.771713,,,
729861422.295949,41.630304,-0.046812,125.519368,-0.018341,0.666,0.720871,1.470329,-0.279614,0.132961,65.493256,-0.908142,-143.771713,,,
729861422.299314,42.066813,-0.13713,125.58,-0.01091,0.632828,0.787384,1.514773,-0.183904,0.149106,65.493256,-0.908142,-143.771713,,,
729861422.302603,42.066813,-0.13713,125.58,-0.01091,0.632828,0.787384,1.514773,-0.183904,0.149106,65.493256,-0.908142,-143.771713,,,
729861422.305948,42.511556,-0.21426,125.646221,-0.01091,0.632828,0.787384,1.514773,-0.183904,0.149106,65.493256,-0.908142,-143.771713,,,
729861422.309273,42.963898,-0.277491,125.717662,-0.008362,0.605728,0.825989,1.574007,-0.063117,0.172995,65.493256,-0.908142,-143.771713,,,
729861422.312652,42.963898,-0.277491,125.717662,-0.008362,0.605728,0.825989,1.574007,-0.063117,0.172995,65.493256,-0.908142,-143.771713,,,
729861422.315977,43.419488,-0.329355,125.794647,-0.008362,0.605728,0.825989,1.574007,-0.063117,0.172995,64.957016,-3.575974,-141.985458,,,
729861422.319265,43.874855,-0.37089,125.877302,-0.001617,0.610962,0.824051,1.588025,0.041849,0.197976,64.957016,-3.575974,-141.985458,,,
729861422.322616,43.874855,-0.37089,125.877302,-0.001617,0.610962,0.824051,1.588025,0.041849,0.197976,64.957016,-3.575974,-141.985458,,,
729861422.326013,44.328096,-0.401562,125.965522,-0.001617,0.610962,0.824051,1.588025,0.041849,0.197976,64.957016,-3.575974,-141.985458,,,
729861422.329342,44.779956,-0.420663,126.059823,-0.004044,0.62471,0.776611,1.576087,0.153218,0.219236,64.957016,-3.575974,-141.985458,,,
729861422.332661,44.779956,-0.420663,126.059823,-0.004044,0.62471,0.776611,1.576087,0.153218,0.219236,64.957016,-3.575974,-141.985458,,,
729861422.335954,45.230878,-0.430652,126.162092,-0.004044,0.62471,0.776611,1.576087,0.153218,0.219236,64.957016,-3.575974,-141.985458,,,
729861422.339274,45.679965,-0.436838,126.27532,-0.01358,0.644775,0.759506,1.566081,0.255169,0.256761,64.957016,-3.575974,-141.985458,,,
729861422.342629,45.679965,-0.436838,126.27532,-0.01358,0.644775,0.759506,1.566081,0.255169,0.256761,64.957016,-3.575974,-141.985458,,,
729861422.345943,46.127598,-0.444417,126.400321,-0.01358,0.644775,0.759506,1.566081,0.255169,0.256761,64.957016,-3.575974,-141.985458,,,
729861422.349329,46.574383,-0.457343,126.535951,-0.022095,0.65477,0.733704,1.556962,0.300291,0.308257,64.957016,-3.575974,-141.985458,,,
729861422.352613,46.574383,-0.457343,126.535951,-0.022095,0.65477,0.733704,1.556962,0.300291,0.308257,64.957016,-3.575974,-141.985458,,,
729861422.355951,47.023422,-0.478947,126.680537,-0.022095,0.65477,0.733704,1.556962,0.300291,0.308257,64.957016,-3.575974,-141.985458,,,
729861422.35927,47.477923,-0.515292,126.83252,-0.028183,0.664154,0.715408,1.583031,0.277728,0.340343,64.998566,-6.369614,-140.679901,,,
729861422.362599,47.477923,-0.515292,126.83252,-0.028183,0.664154,0.715408,1.583031,0.277728,0.340343,64.998566,-6.369614,-140.679901,,,
729861422.366016,47.938863,-0.571233,126.989147,-0.028183,0.664154,0.715408,1.583031,0.277728,0.340343,64.998566,-6.369614,-140.679901,,,
729861422.369296,48.406533,-0.648117,127.148194,-0.024139,0.677155,0.698792,1.626522,0.16276,0.352325,64.998566,-6.369614,-140.679901,,,
729861422.372614,48.406533,-0.648117,127.148194,-0.024139,0.677155,0.698792,1.626522,0.16276,0.352325,64.998566,-6.369614,-140.679901,,,
729861422.375957,48.880314,-0.743142,127.307089,-0.024139,0.677155,0.698792,1.626522,0.16276,0.352325,64.998566,-6.369614,-140.679901,,,
729861422.379275,49.356499,-0.85249,127.464238,-0.011871,0.698853,0.66803,1.665741,0.043344,0.333955,64.998566,-6.369614,-140.679901,,,
729861422.382663,49.356499,-0.85249,127.464238,-0.011871,0.698853,0.66803,1.665741,0.043344,0.333955,64.998566,-6.369614,-140.679901,,,
729861422.385932,49.831021,-0.972667,127.619968,-0.011871,0.698853,0.66803,1.665741,0.043344,0.333955,64.998566,-6.369614,-140.679901,,,
729861422.389267,50.300691,-1.100963,127.775356,-0.005005,0.718613,0.639511,1.648186,-0.024685,0.316722,64.998566,-6.369614,-140.679901,,,
729861422.392697,50.300691,-1.100963,127.775356,-0.005005,0.718613,0.639511,1.648186,-0.024685,0.316722,64.998566,-6.369614,-140.679901,,,
729861422.39594,50.763601,-1.237495,127.932393,-0.005005,0.718613,0.639511,1.648186,-0.024685,0.316722,64.998566,-6.369614,-140.679901,,,
729861422.399328,51.219025,-1.38239,128.093672,0.001099,0.739258,0.598969,1.603537,-0.064275,0.31488,64.625259,-9.234985,-138.758514,,,
729861422.4027,51.219025,-1.38239,128.093672,0.001099,0.739258,0.598969,1.603537,-0.064275,0.31488,64.625259,-9.234985,-138.758514,,,
729861422.405954,51.665339,-1.531417,128.260177,0.001099,0.739258,0.598969,1.603537,-0.064275,0.31488,64.625259,-9.234985,-138.758514,,,
729861422.409273,52.101177,-1.680312,128.432933,0.001328,0.75679,0.566544,1.53775,-0.048766,0.325469,64.625259,-9.234985,-138.758514,,,
729861422.412603,52.101177,-1.680312,128.432933,0.001328,0.75679,0.566544,1.53775,-0.048766,0.325469,64.625259,-9.234985,-138.758514,,,
729861422.415983,52.525702,-1.827601,128.613083,0.001328,0.75679,0.566544,1.53775,-0.048766,0.325469,64.625259,-9.234985,-138.758514,,,
729861422.419269,52.936971,-1.974729,128.801661,0.004944,0.768845,0.552078,1.457877,0.008278,0.347414,64.625259,-9.234985,-138.758514,,,
729861422.422618,52.936971,-1.974729,128.801661,0.004944,0.768845,0.552078,1.457877,0.008278,0.347414,64.625259,-9.234985,-138.758514,,,
729861422.425934,53.335097,-2.122889,128.99808,0.004944,0.768845,0.552078,1.457877,0.008278,0.347414,64.625259,-9.234985,-138.758514,,,
729861422.429266,53.335097,-2.122889,129.200838,0.01384,0.781403,0.522171,1.36895,0.049592,0.363678,64.625259,-9.234985,-138.758514,,,
729861422.432642,53.720167,-2.271103,129.200838,0.01384,0.781403,0.522171,1.36895,0.049592,0.363678,64.625259,-9.234985,-138.758514,,,
729861422.435947,54.092249,-2.417921,129.408922,0.01384,0.781403,0.522171,1.36895,0.049592,0.363678,64.625259,-9.234985,-138.758514,,,
729861422.439267,54.092249,-2.563579,129.622682,0.020889,0.797516,0.493393,1.279585,0.094112,0.377037,64.375656,-11.449463,-136.991959,,,
729861422.442693,54.452755,-2.563579,129.622682,0.020889,0.797516,0.493393,1.279585,0.094112,0.377037,64.375656,-11.449463,-136.991959,,,
729861422.445887,54.804601,-2.708897,129.842571,0.020889,0.797516,0.493393,1.279585,0.094112,0.377037,64.375656,-11.449463,-136.991959,,,
729861422.449339,54.804601,-2.708897,130.06804,0.025543,0.801178,0.499969,1.230169,0.136588,0.389108,64.375656,-11.449463,-136.991959,,,
729861422.452596,55.151243,-2.854682,130.06804,0.025543,0.801178,0.499969,1.230169,0.136588,0.389108,64.375656,-11.449463,-136.991959,,,
729861422.455939,55.495329,-3.001956,130.29749,0.025543,0.801178,0.499969,1.230169,0.136588,0.389108,64.375656,-11.449463,-136.991959,,,
729861422.45926,55.495329,-3.001956,130.29749,0.033218,0.787247,0.529526,1.216087,0.150001,0.391613,64.375656,-11.449463,-136.991959,,,
729861422.462605,55.838317,-3.151518,130.530219,0.033218,0.787247,0.529526,1.216087,0.150001,0.391613,64.375656,-11.449463,-136.991959,,,
729861422.465982,56.182237,-3.301002,130.764159,0.033218,0.787247,0.529526,1.216087,0.150001,0.391613,64.375656,-11.449463,-136.991959,,,
729861422.469327,56.182237,-3.301002,130.764159,0.03952,0.77446,0.547836,1.231318,0.16753,0.384322,64.375656,-11.449463,-136.991959,,,
729861422.472606,56.529801,-3.448055,130.99951,0.03952,0.77446,0.547836,1.231318,0.16753,0.384322,64.375656,-11.449463,-136.991959,,,
729861422.475976,56.884124,-3.590919,131.238035,0.03952,0.77446,0.547836,1.231318,0.16753,0.384322,64.375656,-11.449463,-136.991959,,,
729861422.479287,57.245561,-3.730079,131.4808,0.044388,0.764481,0.5784,1.280903,0.222805,0.377164,63.868912,-13.188492,-135.337219,,,
729861422.482669,57.245561,-3.730079,131.4808,0.044388,0.764481,0.5784,1.280903,0.222805,0.377164,63.868912,-13.188492,-135.337219,,,
729861422.485968,57.613361,-3.868678,131.727645,0.044388,0.764481,0.5784,1.280903,0.222805,0.377164,63.868912,-13.188492,-135.337219,,,
729861422.489283,57.613361,-3.868678,131.727645,0.049301,0.763931,0.595169,1.3205,0.245676,0.372066,63.868912,-13.188492,-135.337219,,,
729861422.492623,57.983062,-4.01149,131.976778,0.049301,0.763931,0.595169,1.3205,0.245676,0.372066,63.868912,-13.188492,-135.337219,,,
729861422.495928,58.34768,-4.162908,132.22529,0.049301,0.763931,0.595169,1.3205,0.245676,0.372066,63.868912,-13.188492,-135.337219,,,
729861422.499404,58.34768,-4.324534,132.468638,0.050674,0.786743,0.519379,1.271998,0.179361,0.355298,63.868912,-13.188492,-135.337219,,,
729861422.502631,58.700488,-4.324534,132.468638,0.050674,0.786743,0.519379,1.271998,0.179361,0.355298,63.868912,-13.188492,-135.337219,,,
729861422.505952,59.036143,-4.495015,132.701565,0.050674,0.786743,0.519379,1.271998,0.179361,0.355298,63.868912,-13.188492,-135.337219,,,
729861422.509321,59.036143,-4.495015,132.701565,0.062653,0.82695,0.392395,1.146476,0.054575,0.308276,63.868912,-13.188492,-135.337219,,,
729861422.512635,59.350393,-4.672668,132.920857,0.062653,0.82695,0.392395,1.146476,0.054575,0.308276,63.868912,-13.188492,-135.337219,,,
729861422.516024,59.640103,-4.855105,133.127641,0.062653,0.82695,0.392395,1.146476,0.054575,0.308276,63.868912,-13.188492,-135.337219,,,
729861422.519309,59.640103,-4.855105,133.127641,0.062653,0.82695,0.392395,0.966093,-0.039878,0.266508,63.868912,-13.188492,-135.337219,,,
729861422.522638,59.903483,-5.038545,133.325374,0.066467,0.886475,0.288803,0.966093,-0.039878,0.266508,63.560516,-14.616058,-133.79364,,,
729861422.525935,60.140333,-5.218843,133.517951,0.066467,0.886475,0.288803,0.966093,-0.039878,0.266508,63.560516,-14.616058,-133.79364,,,
729861422.529271,60.140333,-5.218843,133.517951,0.066467,0.886475,0.288803,0.966093,-0.039878,0.266508,63.560516,-14.616058,-133.79364,,,
729861422.532654,60.351404,-5.394018,133.711011,0.06073,0.916733,0.26239,0.785855,-0.033497,0.26285,63.560516,-14.616058,-133.79364,,,
729861422.535948,60.539035,-5.563612,133.90856,0.06073,0.916733,0.26239,0.785855,-0.033497,0.26285,63.560516,-14.616058,-133.79364,,,
729861422.539293,60.539035,-5.563612,133.90856,0.06073,0.916733,0.26239,0.785855,-0.033497,0.26285,63.560516,-14.616058,-133.79364,,,
729861422.54267,60.706385,-5.727349,134.111687,0.059799,0.908081,0.288895,0.629952,0.039217,0.284865,63.560516,-14.616058,-133.79364,,,
729861422.546025,60.856624,-5.885068,134.319324,0.059799,0.908081,0.288895,0.629952,0.039217,0.284865,63.560516,-14.616058,-133.79364,,,
729861422.549368,60.856624,-5.885068,134.319324,0.059799,0.908081,0.288895,0.629952,0.039217,0.284865,63.560516,-14.616058,-133.79364,,,
729861422.552708,60.991677,-6.034538,134.526577,0.064453,0.891708,0.329651,0.517234,0.106728,0.301425,63.560516,-14.616058,-133.79364,,,
729861422.555957,61.114459,-6.170798,134.726064,0.064453,0.891708,0.329651,0.517234,0.106728,0.301425,63.560516,-14.616058,-133.79364,,,
729861422.559326,61.114459,-6.170798,134.726064,0.064453,0.891708,0.329651,0.517234,0.106728,0.301425,63.560516,-14.616058,-133.79364,,,
729861422.56261,61.228663,-6.290677,134.913546,0.082382,0.883408,0.357864,0.434289,0.153664,0.274686,63.297119,-15.580475,-132.91098,,,
729861422.565984,61.3359,-6.392592,135.086057,0.082382,0.883408,0.357864,0.434289,0.153664,0.274686,63.297119,-15.580475,-132.91098,,,
729861422.569333,61.3359,-6.392592,135.086057,0.082382,0.883408,0.357864,0.434289,0.153664,0.274686,63.297119,-15.580475,-132.91098,,,
729861422.572618,61.435954,-6.477016,135.241126,0.098434,0.880875,0.393661,0.383159,0.184148,0.224944,63.297119,-15.580475,-132.91098,,,
729861422.575944,61.528028,-6.547706,135.378678,0.098434,0.880875,0.393661,0.383159,0.184148,0.224944,63.297119,-15.580475,-132.91098,,,
729861422.579369,61.528028,-6.547706,135.378678,0.098434,0.880875,0.393661,0.383159,0.184148,0.224944,63.297119,-15.580475,-132.91098,,,
729861422.582643,61.608808,-6.608334,135.498555,0.102524,0.884003,0.392624,0.31683,0.167704,0.169876,63.297119,-15.580475,-132.91098,,,
729861422.585939,61.674154,-6.660664,135.599902,0.102524,0.884003,0.392624,0.31683,0.167704,0.169876,63.297119,-15.580475,-132.91098,,,
729861422.589322,61.674154,-6.660664,135.599902,0.102524,0.884003,0.392624,0.31683,0.167704,0.169876,63.297119,-15.580475,-132.91098,,,
729861422.592684,61.718461,-6.705357,135.681269,0.103012,0.898239,0.341705,0.193997,0.106385,0.120474,63.297119,-15.580475,-132.91098,,,
729861422.595927,61.735208,-6.742272,135.74101,0.103012,0.898239,0.341705,0.193997,0.106385,0.120474,63.297119,-15.580475,-132.91098,,,
729861422.599356,61.735208,-6.742272,135.74101,0.103012,0.898239,0.341705,-0.013255,0.026857,0.070052,63.297119,-15.580475,-132.91098,,,
729861422.60265,61.720583,-6.771685,135.77871,0.097687,0.920044,0.25441,-0.013255,0.026857,0.070052,63.329224,-15.653275,-132.680664,,,
729861422.606,61.673682,-6.795999,135.7965,0.097687,0.920044,0.25441,-0.013255,0.026857,0.070052,63.329224,-15.653275,-132.680664,,,
729861422.609289,61.673682,-6.795999,135.7965,0.097687,0.920044,0.25441,-0.013255,0.026857,0.070052,63.329224,-15.653275,-132.680664,,,
729861422.612619,61.59566,-6.81919,135.798219,0.09343,0.937866,0.178421,-0.244727,-0.060791,0.03646,63.329224,-15.653275,-132.680664,,,
729861422.615983,61.490161,-6.841964,135.786611,0.09343,0.937866,0.178421,-0.244727,-0.060791,0.03646,63.329224,-15.653275,-132.680664,,,
729861422.619296,61.490161,-6.841964,135.786611,0.09343,0.937866,0.178421,-0.244727,-0.060791,0.03646,63.329224,-15.653275,-132.680664,,,
729861422.62261,61.361659,-6.864061,135.764757,0.092209,0.951126,0.173569,-0.43313,-0.135202,0.017462,63.329224,-15.653275,-132.680664,,,
729861422.625934,61.215176,-6.883193,135.73274,0.092209,0.951126,0.173569,-0.43313,-0.135202,0.017462,63.329224,-15.653275,-132.680664,,,
729861422.62929,61.215176,-6.883193,135.73274,0.092209,0.951126,0.173569,-0.43313,-0.135202,0.017462,63.329224,-15.653275,-132.680664,,,
729861422.632705,61.056793,-6.896922,135.689467,0.094208,0.930038,0.237946,-0.547639,-0.173156,0.000327,63.329224,-15.653275,-132.680664,,,
729861422.63593,60.891331,-6.902464,135.632781,0.094208,0.930038,0.237946,-0.547639,-0.173156,0.000327,63.329224,-15.653275,-132.680664,,,
729861422.639328,60.891331,-6.902464,135.632781,0.094208,0.930038,0.237946,-0.547639,-0.173156,0.000327,63.329224,-15.653275,-132.680664,,,
729861422.642596,60.721851,-6.896791,135.559855,0.107452,0.878998,0.32933,-0.599045,-0.19734,-0.045389,62.961685,-14.941925,-133.487778,,,
729861422.645933,60.548804,-6.877033,135.468616,0.107452,0.878998,0.32933,-0.599045,-0.19734,-0.045389,62.961685,-14.941925,-133.487778,,,
729861422.649377,60.548804,-6.877033,135.468616,0.107452,0.878998,0.32933,-0.599045,-0.19734,-0.045389,62.961685,-14.941925,-133.487778,,,
729861422.652601,60.370206,-6.840316,135.358615,0.118286,0.858551,0.391418,-0.63113,-0.207909,-0.106227,62.961685,-14.941925,-133.487778,,,
729861422.655944,60.182504,-6.784877,135.231414,0.118286,0.858551,0.391418,-0.63113,-0.207909,-0.106227,62.961685,-14.941925,-133.487778,,,
729861422.659397,60.182504,-6.784877,135.231414,0.118286,0.858551,0.391418,-0.63113,-0.207909,-0.106227,62.961685,-14.941925,-133.487778,,,
729861422.662613,59.981085,-6.710671,135.088305,0.120972,0.853455,0.405548,-0.710318,-0.177297,-0.15887,62.961685,-14.941925,-133.487778,,,
729861422.665993,59.758756,-6.619232,134.931183,0.120972,0.853455,0.405548,-0.710318,-0.177297,-0.15887,62.961685,-14.941925,-133.487778,,,
729861422.669303,59.758756,-6.619232,134.931183,0.120972,0.853455,0.405548,-0.710318,-0.177297,-0.15887,62.961685,-14.941925,-133.487778,,,
729861422.672676,59.505069,-6.506742,134.75862,0.116241,0.866119,0.371826,-0.874748,-0.134723,-0.199782,62.961685,-14.941925,-133.487778,,,
729861422.675939,59.211574,-6.364396,134.567898,0.116241,0.866119,0.371826,-0.874748,-0.134723,-0.199782,62.961685,-14.941925,-133.487778,,,
729861422.679365,59.211574,-6.364396,134.567898,0.116241,0.866119,0.371826,-0.874748,-0.134723,-0.199782,62.961685,-14.941925,-133.487778,,,
729861422.682715,58.878789,-6.189856,134.366275,0.112869,0.882507,0.285492,-1.162658,-0.019616,-0.234724,62.961685,-14.941925,-133.487778,,,
729861422.686001,58.515814,-5.98549,134.164902,0.112869,0.882507,0.285492,-1.162658,-0.019616,-0.234724,63.171768,-13.773834,-134.778137,,,
729861422.68929,58.515814,-5.98549,134.164902,0.112869,0.882507,0.285492,-1.162658,-0.019616,-0.234724,63.171768,-13.773834,-134.778137,,,
729861422.692609,58.131137,-5.759224,133.974234,0.091049,0.883713,0.30072,-1.351186,0.202846,-0.215703,63.171768,-13.773834,-134.778137,,,
729861422.695937,57.729603,-5.522737,133.80262,0.091049,0.883713,0.30072,-1.351186,0.202846,-0.215703,63.171768,-13.773834,-134.778137,,,
729861422.699375,57.729603,-5.522737,133.80262,0.091049,0.883713,0.30072,-1.351186,0.202846,-0.215703,63.171768,-13.773834,-134.778137,,,
729861422.702608,57.315892,-5.283358,133.652113,0.06514,0.86557,0.416977,-1.454078,0.378707,-0.153443,63.171768,-13.773834,-134.778137,,,
729861422.706022,56.895154,-5.048405,133.522034,0.06514,0.86557,0.416977,-1.454078,0.378707,-0.153443,63.171768,-13.773834,-134.778137,,,
729861422.709314,56.895154,-5.048405,133.522034,0.06514,0.86557,0.416977,-1.454078,0.378707,-0.153443,63.171768,-13.773834,-134.778137,,,
729861422.712614,56.471478,-4.826103,133.409316,0.047073,0.823059,0.474976,-1.487486,0.455885,-0.092684,63.171768,-13.773834,-134.778137,,,
729861422.715989,56.045507,-4.620598,133.305914,0.047073,0.823059,0.474976,-1.487486,0.455885,-0.092684,63.171768,-13.773834,-134.778137,,,
729861422.719281,56.045507,-4.620598,133.305914,0.047073,0.823059,0.474976,-1.487486,0.455885,-0.092684,63.171768,-13.773834,-134.778137,,,
729861422.722643,55.615611,-4.433126,133.203101,0.040985,0.795715,0.503036,-1.500677,0.379617,-0.077391,63.171768,-13.773834,-134.778137,,,
729861422.725942,55.17801,-4.261738,133.093399,0.040985,0.795715,0.503036,-1.500677,0.379617,-0.077391,63.889572,-11.323639,-136.806961,,,
729861422.729284,55.17801,-4.261738,133.093399,0.040985,0.795715,0.503036,-1.500677,0.379617,-0.077391,63.889572,-11.323639,-136.806961,,,
729861422.732663,54.728992,-4.10172,132.972857,0.048355,0.80484,0.472763,-1.567324,0.226603,-0.120682,63.889572,-11.323639,-136.806961,,,
729861422.735936,54.267982,-3.94621,132.840771,0.048355,0.80484,0.472763,-1.567324,0.226603,-0.120682,63.889572,-11.323639,-136.806961,,,
729861422.739273,54.267982,-3.94621,132.840771,0.048355,0.80484,0.472763,-1.567324,0.226603,-0.120682,63.889572,-11.323639,-136.806961,,,
729861422.742626,53.793888,-3.788681,132.69865,0.051743,0.821686,0.456879,-1.650927,0.150033,-0.174686,63.889572,-11.323639,-136.806961,,,
729861422.745935,53.303624,-3.623147,132.550332,0.051743,0.821686,0.456879,-1.650927,0.150033,-0.174686,63.889572,-11.323639,-136.806961,,,
729861422.74932,53.303624,-3.623147,132.550332,0.051743,0.821686,0.456879,-1.650927,0.150033,-0.174686,63.889572,-11.323639,-136.806961,,,
729861422.752639,52.794615,-3.447457,132.401478,0.052307,0.812988,0.496445,-1.77081,0.18801,-0.206875,63.889572,-11.323639,-136.806961,,,
729861422.755936,52.266605,-3.263963,132.258884,0.052307,0.812988,0.496445,-1.77081,0.18801,-0.206875,63.889572,-11.323639,-136.806961,,,
729861422.759293,52.266605,-3.263963,132.258884,0.052307,0.812988,0.496445,-1.77081,0.18801,-0.206875,63.889572,-11.323639,-136.806961,,,
729861422.762702,51.723529,-3.0795,132.129996,0.035934,0.795944,0.519562,-1.891766,0.284271,-0.180966,63.889572,-11.323639,-136.806961,,,
729861422.765732,51.169454,-2.901329,132.018835,0.035934,0.795944,0.519562,-1.891766,0.284271,-0.180966,64.539017,-8.583389,-139.217621,,,
729861422.769346,51.169454,-2.901329,132.018835,0.035934,0.795944,0.519562,-1.891766,0.284271,-0.180966,64.539017,-8.583389,-139.217621,,,
729861422.772609,50.605228,-2.734147,131.92548,0.005798,0.763489,0.56929,-1.963824,0.332497,-0.115656,64.539017,-8.583389,-139.217621,,,
