Time (sec),Pitch (deg),Roll (deg),Yaw(deg),X-Acceleration (g),Y-Acceleration (g),Z-Acceleration (g),Pitch Rate (deg/sec),Roll Rate (deg/sec),Yaw Rate (deg/sec),Magnetic Field in X direction (uT),Magnetic Field in Y direction (uT),Magnetic Field in Z Direction (uT),Latitude (deg),Longitude (deg),Altitude (m)
729861238.918608,60.467157,0.439333,47.943049,-0.036011,0.827057,0.521912,1.003914,0.310209,0.148448,64.154465,-23.72139,-114.899597,,,
729861238.921884,60.759296,0.452618,48.031981,-0.044708,0.828491,0.520889,1.003914,0.310209,0.148448,64.154465,-23.72139,-114.899597,,,
729861238.925212,61.060077,0.459762,48.134998,-0.044708,0.828491,0.520889,1.063151,0.354568,0.194561,64.154465,-23.72139,-114.899597,,,
729861238.928555,61.060077,0.459762,48.134998,-0.044708,0.828491,0.520889,1.063151,0.354568,0.194561,64.154465,-23.72139,-114.899597,,,
729861238.932004,61.368505,0.45746,48.256486,-0.050751,0.81752,0.55806,1.063151,0.354568,0.194561,64.154465,-23.72139,-114.899597,,,
729861238.935207,61.682432,0.442234,48.396786,-0.050751,0.81752,0.55806,1.100501,0.381745,0.253286,64.154465,-23.72139,-114.899597,,,
729861238.938567,61.682432,0.442234,48.396786,-0.050751,0.81752,0.55806,1.100501,0.381745,0.253286,64.154465,-23.72139,-114.899597,,,
729861238.941926,62.002235,0.410803,48.55335,-0.057739,0.828934,0.542419,1.100501,0.381745,0.253286,64.154465,-23.72139,-114.899597,,,
729861238.945218,62.328538,0.359468,48.724324,-0.057739,0.828934,0.542419,1.145317,0.334615,0.293762,63.863602,-24.389832,-112.79425,,,
729861238.948609,62.328538,0.359468,48.724324,-0.057739,0.828934,0.542419,1.145317,0.334615,0.293762,63.863602,-24.389832,-112.79425,,,
729861238.951894,62.658427,0.284861,48.906285,-0.063492,0.844254,0.511993,1.145317,0.334615,0.293762,63.863602,-24.389832,-112.79425,,,
729861238.95522,62.98876,0.18605,49.091646,-0.063492,0.844254,0.511993,1.148834,0.190422,0.295018,63.863602,-24.389832,-112.79425,,,
729861238.958613,62.98876,0.18605,49.091646,-0.063492,0.844254,0.511993,1.148834,0.190422,0.295018,63.863602,-24.389832,-112.79425,,,
729861238.961893,63.317712,0.066318,49.273047,-0.061508,0.886658,0.448334,1.148834,0.190422,0.295018,63.863602,-24.389832,-112.79425,,,
729861238.965337,63.64618,-0.066756,49.446525,-0.061508,0.886658,0.448334,1.145421,0.051041,0.258979,63.863602,-24.389832,-112.79425,,,
729861238.968625,63.64618,-0.066756,49.446525,-0.061508,0.886658,0.448334,1.145421,0.051041,0.258979,63.863602,-24.389832,-112.79425,,,
729861238.971885,63.975354,-0.203669,49.611966,-0.040695,0.917206,0.446793,1.145421,0.051041,0.258979,63.863602,-24.389832,-112.79425,,,
729861238.975219,64.305079,-0.337095,49.771384,-0.040695,0.917206,0.446793,1.149819,0.040496,0.229616,63.863602,-24.389832,-112.79425,,,
729861238.978551,64.305079,-0.337095,49.771384,-0.040695,0.917206,0.446793,1.149819,0.040496,0.229616,63.863602,-24.389832,-112.79425,,,
729861238.981957,64.633811,-0.468533,49.929126,-0.013107,0.909393,0.479706,1.149819,0.040496,0.229616,63.863602,-24.389832,-112.79425,,,
729861238.985205,64.96283,-0.602115,50.088987,-0.013107,0.909393,0.479706,1.15242,0.041638,0.225181,63.51976,-25.07843,-110.816605,,,
729861238.988561,64.96283,-0.602115,50.088987,-0.013107,0.909393,0.479706,1.15242,0.041638,0.225181,63.51976,-25.07843,-110.816605,,,
729861238.991886,65.292841,-0.73685,50.249361,-0.010559,0.906693,0.472855,1.15242,0.041638,0.225181,63.51976,-25.07843,-110.816605,,,
729861238.995216,65.624015,-0.870223,50.407245,-0.010559,0.906693,0.472855,1.160756,0.037977,0.20689,63.51976,-25.07843,-110.816605,,,
729861238.998566,65.624015,-0.870223,50.407245,-0.010559,0.906693,0.472855,1.160756,0.037977,0.20689,63.51976,-25.07843,-110.816605,,,
729861239.001905,65.958707,-1.006054,50.564432,-0.014984,0.92366,0.465012,1.160756,0.037977,0.20689,63.51976,-25.07843,-110.816605,,,
729861239.005215,66.298042,-1.151437,50.723908,-0.014984,0.92366,0.465012,1.192789,-0.011586,0.201235,63.51976,-25.07843,-110.816605,,,
729861239.008653,66.298042,-1.151437,50.723908,-0.014984,0.92366,0.465012,1.192789,-0.011586,0.201235,63.51976,-25.07843,-110.816605,,,
729861239.011906,66.640913,-1.313861,50.889731,-0.025085,0.925964,0.449738,1.192789,-0.011586,0.201235,63.51976,-25.07843,-110.816605,,,
729861239.015268,66.989251,-1.497158,51.064712,-0.025085,0.925964,0.449738,1.231776,-0.095695,0.212024,63.51976,-25.07843,-110.816605,,,
729861239.01854,66.989251,-1.497158,51.064712,-0.025085,0.925964,0.449738,1.231776,-0.095695,0.212024,63.51976,-25.07843,-110.816605,,,
729861239.021966,67.346813,-1.698472,51.251589,-0.040085,0.891251,0.452148,1.231776,-0.095695,0.212024,63.51976,-25.07843,-110.816605,,,
729861239.025207,67.722297,-1.909163,51.455023,-0.040085,0.891251,0.452148,1.358546,-0.05134,0.235677,63.016693,-25.520294,-108.321503,,,
729861239.028573,67.722297,-1.909163,51.455023,-0.040085,0.891251,0.452148,1.358546,-0.05134,0.235677,63.016693,-25.520294,-108.321503,,,
729861239.031934,68.117336,-2.118049,51.676815,-0.04451,0.843109,0.521927,1.358546,-0.05134,0.235677,63.016693,-25.520294,-108.321503,,,
729861239.035208,68.526481,-2.321313,51.914283,-0.04451,0.843109,0.521927,1.458808,0.093271,0.252419,63.016693,-25.520294,-108.321503,,,
729861239.03857,68.526481,-2.321313,51.914283,-0.04451,0.843109,0.521927,1.458808,0.093271,0.252419,63.016693,-25.520294,-108.321503,,,
729861239.041887,68.943278,-2.52813,52.164451,-0.027008,0.943481,0.515991,1.458808,0.093271,0.252419,63.016693,-25.520294,-108.321503,,,
729861239.045212,69.357264,-2.765797,52.43294,-0.027008,0.943481,0.515991,1.442307,0.001961,0.275827,63.016693,-25.520294,-108.321503,,,
729861239.048694,69.357264,-2.765797,52.43294,-0.027008,0.943481,0.515991,1.442307,0.001961,0.275827,63.016693,-25.520294,-108.321503,,,
729861239.051905,69.766014,-3.072237,52.74022,-0.048676,1.052338,0.344025,1.442307,0.001961,0.275827,63.016693,-25.520294,-108.321503,,,
729861239.055213,70.170811,-3.457158,53.096173,-0.048676,1.052338,0.344025,1.423207,-0.221061,0.361895,63.016693,-25.520294,-108.321503,,,
729861239.058573,70.170811,-3.457158,53.096173,-0.048676,1.052338,0.344025,1.423207,-0.221061,0.361895,63.016693,-25.520294,-108.321503,,,
729861239.061946,70.569303,-3.900903,53.491853,-0.069656,1.001495,0.251007,1.423207,-0.221061,0.361895,63.016693,-25.520294,-108.321503,,,
729861239.065228,70.957605,-4.381667,53.917731,-0.069656,1.001495,0.251007,1.360853,-0.274291,0.39563,63.016693,-25.520294,-108.321503,,,
729861239.068543,70.957605,-4.381667,53.917731,-0.069656,1.001495,0.251007,1.360853,-0.274291,0.39563,62.170532,-25.873093,-105.461594,,,
729861239.071908,71.330978,-4.887831,54.373058,-0.030701,0.984711,0.281601,1.360853,-0.274291,0.39563,62.170532,-25.873093,-105.461594,,,
729861239.07522,71.692614,-5.420199,54.863288,-0.030701,0.984711,0.281601,1.291089,-0.219624,0.436485,62.170532,-25.873093,-105.461594,,,
729861239.078561,71.692614,-5.420199,54.863288,-0.030701,0.984711,0.281601,1.291089,-0.219624,0.436485,62.170532,-25.873093,-105.461594,,,
729861239.081937,72.045816,-5.995209,55.40092,-0.012604,0.954514,0.27832,1.291089,-0.219624,0.436485,62.170532,-25.873093,-105.461594,,,
729861239.085253,72.392051,-6.630473,55.997758,-0.012604,0.954514,0.27832,1.26293,-0.239527,0.518405,62.170532,-25.873093,-105.461594,,,
729861239.088624,72.392051,-6.630473,55.997758,-0.012604,0.954514,0.27832,1.26293,-0.239527,0.518405,62.170532,-25.873093,-105.461594,,,
729861239.091883,72.730291,-7.331279,56.654723,-0.035477,0.965485,0.265366,1.26293,-0.239527,0.518405,62.170532,-25.873093,-105.461594,,,
729861239.095216,73.059082,-8.088627,57.362668,-0.035477,0.965485,0.265366,1.220356,-0.286007,0.573478,62.170532,-25.873093,-105.461594,,,
729861239.098588,73.059082,-8.088627,57.362668,-0.035477,0.965485,0.265366,1.220356,-0.286007,0.573478,62.170532,-25.873093,-105.461594,,,
729861239.101935,73.377069,-8.884049,58.109003,-0.013214,0.960815,0.22937,1.220356,-0.286007,0.573478,62.170532,-25.873093,-105.461594,,,
729861239.10521,73.684544,-9.704034,58.886842,-0.013214,0.960815,0.22937,1.168749,-0.238682,0.585838,62.170532,-25.873093,-105.461594,,,
729861239.108562,73.684544,-9.704034,58.886842,-0.013214,0.960815,0.22937,1.168749,-0.238682,0.585838,60.74971,-25.809692,-102.863129,,,
729861239.111895,73.980036,-10.542868,59.692791,0.040573,0.953262,0.242447,1.168749,-0.238682,0.585838,60.74971,-25.809692,-102.863129,,,
729861239.115252,74.263361,-11.397972,60.5232,0.040573,0.953262,0.242447,1.105358,-0.180402,0.586899,60.74971,-25.809692,-102.863129,,,
729861239.118555,74.263361,-11.397972,60.5232,0.040573,0.953262,0.242447,1.105358,-0.180402,0.586899,60.74971,-25.809692,-102.863129,,,
729861239.12189,74.536239,-12.269012,61.376554,0.067963,0.949677,0.228653,1.105358,-0.180402,0.586899,60.74971,-25.809692,-102.863129,,,
729861239.125214,74.801295,-13.150911,62.247583,0.067963,0.949677,0.228653,1.070164,-0.129909,0.57087,60.74971,-25.809692,-102.863129,,,
729861239.128612,74.801295,-13.150911,62.247583,0.067963,0.949677,0.228653,1.070164,-0.129909,0.57087,60.74971,-25.809692,-102.863129,,,
729861239.13193,75.059854,-14.033687,63.127442,0.098907,0.942703,0.230133,1.070164,-0.129909,0.57087,60.74971,-25.809692,-102.863129,,,
729861239.13521,75.31287,-14.911876,64.010951,0.098907,0.942703,0.230133,1.044031,-0.066241,0.528502,60.74971,-25.809692,-102.863129,,,
729861239.138548,75.31287,-14.911876,64.010951,0.098907,0.942703,0.230133,1.044031,-0.066241,0.528502,60.74971,-25.809692,-102.863129,,,
729861239.141944,75.5598,-15.7831,64.891335,0.130325,0.930908,0.223236,1.044031,-0.066241,0.528502,60.74971,-25.809692,-102.863129,,,
729861239.145204,75.799961,-16.641238,65.757706,0.130325,0.930908,0.223236,0.998746,-0.063311,0.462829,60.74971,-25.809692,-102.863129,,,
729861239.148323,75.799961,-16.641238,65.757706,0.130325,0.930908,0.223236,0.998746,-0.063311,0.462829,59.828354,-25.507965,-100.571945,,,
729861239.151925,76.036113,-17.47685,66.601587,0.154846,0.924927,0.172897,0.998746,-0.063311,0.462829,59.828354,-25.507965,-100.571945,,,
729861239.155211,76.270225,-18.288928,67.425738,0.154846,0.924927,0.172897,0.978832,-0.027419,0.385038,59.828354,-25.507965,-100.571945,,,
729861239.158568,76.270225,-18.288928,67.425738,0.154846,0.924927,0.172897,0.978832,-0.027419,0.385038,59.828354,-25.507965,-100.571945,,,
729861239.161892,76.492243,-19.074903,68.229297,0.161209,0.913361,0.155289,0.978832,-0.027419,0.385038,59.828354,-25.507965,-100.571945,,,
729861239.165258,76.696541,-19.829547,69.011245,0.161209,0.913361,0.155289,0.853119,0.049186,0.348849,59.828354,-25.507965,-100.571945,,,
729861239.168552,76.696541,-19.829547,69.011245,0.161209,0.913361,0.155289,0.853119,0.049186,0.348849,59.828354,-25.507965,-100.571945,,,
729861239.171895,76.888684,-20.55317,69.777702,0.153122,0.938965,0.131454,0.853119,0.049186,0.348849,59.828354,-25.507965,-100.571945,,,
729861239.175225,77.071344,-21.243134,70.525684,0.153122,0.938965,0.131454,0.78188,0.161854,0.308966,59.828354,-25.507965,-100.571945,,,
729861239.178556,77.071344,-21.243134,70.525684,0.153122,0.938965,0.131454,0.78188,0.161854,0.308966,59.828354,-25.507965,-100.571945,,,
729861239.18192,77.240778,-21.89754,71.245928,0.151749,0.92865,0.129135,0.78188,0.161854,0.308966,59.828354,-25.507965,-100.571945,,,
729861239.185218,77.396799,-22.522893,71.935137,0.151749,0.92865,0.129135,0.677984,0.156515,0.270634,59.828354,-25.507965,-100.571945,,,
729861239.188559,77.396799,-22.522893,71.935137,0.151749,0.92865,0.129135,0.677984,0.156515,0.270634,59.318893,-25.472336,-99.196136,,,
729861239.191922,77.541076,-23.127847,72.594201,0.134354,0.932938,0.055756,0.677984,0.156515,0.270634,59.318893,-25.472336,-99.196136,,,
729861239.195215,77.673698,-23.721459,73.225752,0.134354,0.932938,0.055756,0.587506,0.050711,0.24169,59.318893,-25.472336,-99.196136,,,
729861239.198613,77.673698,-23.721459,73.225752,0.134354,0.932938,0.055756,0.587506,0.050711,0.24169,59.318893,-25.472336,-99.196136,,,
729861239.201875,77.791466,-24.306635,73.827222,0.100769,0.918472,0.022705,0.587506,0.050711,0.24169,59.318893,-25.472336,-99.196136,,,
729861239.205216,77.89449,-24.886077,74.401788,0.100769,0.918472,0.022705,0.478613,-0.090827,0.230268,59.318893,-25.472336,-99.196136,,,
729861239.2086,77.89449,-24.886077,74.401788,0.100769,0.918472,0.022705,0.478613,-0.090827,0.230268,59.318893,-25.472336,-99.196136,,,
729861239.211892,77.984448,-25.459084,74.95649,0.072205,0.908783,0.017593,0.478613,-0.090827,0.230268,59.318893,-25.472336,-99.196136,,,
729861239.215262,78.061273,-26.024301,75.49948,0.072205,0.908783,0.017593,0.390331,-0.115267,0.240969,59.318893,-25.472336,-99.196136,,,
729861239.218544,78.061273,-26.024301,75.49948,0.072205,0.908783,0.017593,0.390331,-0.115267,0.240969,59.318893,-25.472336,-99.196136,,,
729861239.221895,78.124365,-26.575521,76.029803,0.083923,0.90062,0.061188,0.390331,-0.115267,0.240969,59.318893,-25.472336,-99.196136,,,
729861239.225214,78.175471,-27.10105,76.53699,0.083923,0.90062,0.061188,0.303227,-0.093293,0.239243,59.318893,-25.472336,-99.196136,,,
729861239.228546,78.175471,-27.10105,76.53699,0.083923,0.90062,0.061188,0.303227,-0.093293,0.239243,59.318893,-25.472336,-99.196136,,,
729861239.231944,78.214831,-27.585564,77.005283,0.121231,0.90657,0.069107,0.303227,-0.093293,0.239243,58.73732,-25.24884,-98.106461,,,
729861239.235209,78.244091,-28.017838,77.420997,0.121231,0.90657,0.069107,0.208753,-0.087294,0.199837,58.73732,-25.24884,-98.106461,,,
729861239.238565,78.244091,-28.017838,77.420997,0.121231,0.90657,0.069107,0.208753,-0.087294,0.199837,58.73732,-25.24884,-98.106461,,,
729861239.241937,78.267515,-28.391586,77.775842,0.148926,0.92012,0.064545,0.208753,-0.087294,0.199837,58.73732,-25.24884,-98.106461,,,
729861239.245208,78.286691,-28.697532,78.062236,0.148926,0.92012,0.064545,0.137968,-0.0816,0.12594,58.73732,-25.24884,-98.106461,,,
729861239.248594,78.286691,-28.697532,78.062236,0.148926,0.92012,0.064545,0.137968,-0.0816,0.12594,58.73732,-25.24884,-98.106461,,,
729861239.251895,78.303285,-28.939814,78.285664,0.163315,0.916641,0.102539,0.137968,-0.0816,0.12594,58.73732,-25.24884,-98.106461,,,
729861239.255216,78.317464,-29.129616,78.456612,0.163315,0.916641,0.102539,0.088124,-0.07366,0.068044,58.73732,-25.24884,-98.106461,,,
729861239.258561,78.317464,-29.129616,78.456612,0.163315,0.916641,0.102539,0.088124,-0.07366,0.068044,58.73732,-25.24884,-98.106461,,,
729861239.261886,78.328193,-29.273277,78.580619,0.157623,0.912354,0.125092,0.088124,-0.07366,0.068044,58.73732,-25.24884,-98.106461,,,
729861239.26526,78.336593,-29.372456,78.660374,0.157623,0.912354,0.125092,0.043038,-0.065729,0.021454,58.73732,-25.24884,-98.106461,,,
729861239.268618,78.336593,-29.372456,78.660374,0.157623,0.912354,0.125092,0.043038,-0.065729,0.021454,58.73732,-25.24884,-98.106461,,,
729861239.271881,78.344893,-29.425173,78.698556,0.151962,0.930298,0.143997,0.043038,-0.065729,0.021454,58.552139,-25.329819,-97.881241,,,
729861239.275238,78.357393,-29.424661,78.695082,0.151962,0.930298,0.143997,0.039232,0.02078,-0.043771,58.552139,-25.329819,-97.881241,,,
729861239.27861,78.357393,-29.424661,78.695082,0.151962,0.930298,0.143997,0.039232,0.02078,-0.043771,58.552139,-25.329819,-97.881241,,,
729861239.282,78.370729,-29.356524,78.634098,0.165802,0.951172,0.194901,0.039232,0.02078,-0.043771,58.552139,-25.329819,-97.881241,,,
729861239.285213,78.384044,-29.228622,78.51904,0.165802,0.951172,0.194901,0.001435,0.067859,-0.109348,58.552139,-25.329819,-97.881241,,,
729861239.288583,78.384044,-29.228622,78.51904,0.165802,0.951172,0.194901,0.001435,0.067859,-0.109348,58.552139,-25.329819,-97.881241,,,
729861239.291888,78.401211,-29.052919,78.363686,0.160965,0.97525,0.199173,0.001435,0.067859,-0.109348,58.552139,-25.329819,-97.881241,,,
729861239.29522,78.42155,-28.823325,78.162845,0.160965,0.97525,0.199173,-0.00943,0.132729,-0.175188,58.552139,-25.329819,-97.881241,,,
729861239.298605,78.42155,-28.823325,78.162845,0.160965,0.97525,0.199173,-0.00943,0.132729,-0.175188,58.552139,-25.329819,-97.881241,,,
729861239.301879,78.44507,-28.540031,77.914875,0.149582,0.98407,0.207245,-0.00943,0.132729,-0.175188,58.552139,-25.329819,-97.881241,,,
729861239.305217,78.470506,-28.207972,77.622304,0.149582,0.98407,0.207245,-0.025223,0.167846,-0.235442,58.552139,-25.329819,-97.881241,,,
729861239.308662,78.470506,-28.207972,77.622304,0.149582,0.98407,0.207245,-0.025223,0.167846,-0.235442,58.552139,-25.329819,-97.881241,,,
729861239.311886,78.495207,-27.82898,77.285425,0.138229,0.99501,0.184189,-0.025223,0.167846,-0.235442,58.676086,-25.394318,-97.762863,,,
729861239.315281,78.517856,-27.409569,76.908831,0.138229,0.99501,0.184189,-0.06006,0.178012,-0.276974,58.676086,-25.394318,-97.762863,,,
729861239.318565,78.517856,-27.409569,76.908831,0.138229,0.99501,0.184189,-0.06006,0.178012,-0.276974,58.676086,-25.394318,-97.762863,,,
729861239.321976,78.537884,-26.962436,76.503566,0.116577,0.984482,0.167831,-0.06006,0.178012,-0.276974,58.676086,-25.394318,-97.762863,,,
729861239.325218,78.556675,-26.507529,76.08995,0.116577,0.984482,0.167831,-0.068607,0.174797,-0.283159,58.676086,-25.394318,-97.762863,,,
729861239.328571,78.556675,-26.507529,76.08995,0.116577,0.984482,0.167831,-0.068607,0.174797,-0.283159,58.676086,-25.394318,-97.762863,,,
729861239.331944,78.573524,-26.068666,75.691701,0.083923,0.96315,0.189117,-0.068607,0.174797,-0.283159,58.676086,-25.394318,-97.762863,,,
729861239.335218,78.587712,-25.665869,75.327945,0.083923,0.96315,0.189117,-0.061149,0.1586,-0.232172,58.676086,-25.394318,-97.762863,,,
729861239.33855,78.587712,-25.665869,75.327945,0.083923,0.96315,0.189117,-0.061149,0.1586,-0.232172,58.676086,-25.394318,-97.762863,,,
729861239.34197,78.598646,-25.323534,75.019827,0.039978,0.943939,0.208054,-0.061149,0.1586,-0.232172,58.676086,-25.394318,-97.762863,,,
729861239.34525,78.60652,-25.056906,74.780245,0.039978,0.943939,0.208054,-0.03834,0.099123,-0.137722,58.676086,-25.394318,-97.762863,,,
729861239.348654,78.60652,-25.056906,74.780245,0.039978,0.943939,0.208054,-0.03834,0.099123,-0.137722,58.676086,-25.394318,-97.762863,,,
729861239.351879,78.610136,-24.869116,74.614755,0.007904,0.940826,0.200653,-0.03834,0.099123,-0.137722,59.202957,-25.500305,-98.220871,,,
729861239.355218,78.606854,-24.76015,74.525057,0.007904,0.940826,0.200653,-0.037943,0.067597,-0.022826,59.202957,-25.500305,-98.220871,,,
729861239.358567,78.606854,-24.76015,74.525057,0.007904,0.940826,0.200653,-0.037943,0.067597,-0.022826,59.202957,-25.500305,-98.220871,,,
729861239.361951,78.593645,-24.741333,74.521772,-0.004227,0.93869,0.187408,-0.037943,0.067597,-0.022826,59.202957,-25.500305,-98.220871,,,
729861239.365256,78.572834,-24.782203,74.572105,-0.004227,0.93869,0.187408,-0.058397,0.013996,0.087625,59.202957,-25.500305,-98.220871,,,
729861239.36856,78.572834,-24.782203,74.572105,-0.004227,0.93869,0.187408,-0.058397,0.013996,0.087625,59.202957,-25.500305,-98.220871,,,
729861239.371892,78.539856,-24.902625,74.690215,0.004974,0.952377,0.142715,-0.058397,0.013996,0.087625,59.202957,-25.500305,-98.220871,,,
729861239.375221,78.499395,-25.060347,74.833179,0.004974,0.952377,0.142715,-0.094047,-0.080271,0.165765,59.202957,-25.500305,-98.220871,,,
729861239.378559,78.499395,-25.060347,74.833179,0.004974,0.952377,0.142715,-0.094047,-0.080271,0.165765,59.202957,-25.500305,-98.220871,,,
729861239.381932,78.448451,-25.262258,75.010473,0.023361,0.965759,0.108688,-0.094047,-0.080271,0.165765,59.202957,-25.500305,-98.220871,,,
729861239.38521,78.391813,-25.473879,75.189718,0.023361,0.965759,0.108688,-0.132216,-0.13738,0.203978,59.202957,-25.500305,-98.220871,,,
729861239.388614,78.391813,-25.473879,75.189718,0.023361,0.965759,0.108688,-0.132216,-0.13738,0.203978,59.202957,-25.500305,-98.220871,,,
729861239.391885,78.328896,-25.702005,75.378909,0.069519,0.959076,0.122101,-0.132216,-0.13738,0.203978,59.202957,-25.500305,-98.220871,,,
729861239.395218,78.263563,-25.911945,75.547849,0.069519,0.959076,0.122101,-0.159217,-0.151648,0.20151,58.681473,-25.225113,-98.412735,,,
729861239.398608,78.263563,-25.911945,75.547849,0.069519,0.959076,0.122101,-0.159217,-0.151648,0.20151,58.681473,-25.225113,-98.412735,,,
729861239.401961,78.196173,-26.09876,75.694453,0.118881,0.951859,0.151337,-0.159217,-0.151648,0.20151,58.681473,-25.225113,-98.412735,,,
729861239.405212,78.129738,-26.234325,75.792892,0.118881,0.951859,0.151337,-0.179403,-0.125184,0.147398,58.681473,-25.225113,-98.412735,,,
729861239.408578,78.129738,-26.234325,75.792892,0.118881,0.951859,0.151337,-0.179403,-0.125184,0.147398,58.681473,-25.225113,-98.412735,,,
729861239.4119,78.068271,-26.30879,75.836657,0.175003,0.975052,0.185577,-0.179403,-0.125184,0.147398,58.681473,-25.225113,-98.412735,,,
729861239.415261,78.014343,-26.303304,75.812006,0.175003,0.975052,0.185577,-0.175439,-0.034877,0.037169,58.681473,-25.225113,-98.412735,,,
729861239.418557,78.014343,-26.303304,75.812006,0.175003,0.975052,0.185577,-0.175439,-0.034877,0.037169,58.681473,-25.225113,-98.412735,,,
729861239.421902,77.970099,-26.209563,75.712967,0.213913,0.993317,0.234344,-0.175439,-0.034877,0.037169,58.681473,-25.225113,-98.412735,,,
729861239.425222,77.937676,-26.049828,75.559565,0.213913,0.993317,0.234344,-0.140998,0.056744,-0.080232,58.681473,-25.225113,-98.412735,,,
729861239.428623,77.937676,-26.049828,75.559565,0.213913,0.993317,0.234344,-0.140998,0.056744,-0.080232,58.681473,-25.225113,-98.412735,,,
729861239.431935,77.916027,-25.814856,75.339768,0.207962,0.991318,0.262741,-0.140998,0.056744,-0.080232,58.681473,-25.225113,-98.412735,,,
729861239.43522,77.900317,-25.52904,75.074798,0.207962,0.991318,0.262741,-0.13427,0.106663,-0.174827,58.671326,-25.23703,-98.55484,,,
729861239.43857,77.900317,-25.52904,75.074798,0.207962,0.991318,0.262741,-0.13427,0.106663,-0.174827,58.671326,-25.23703,-98.55484,,,
729861239.441961,77.88948,-25.174506,74.745351,0.17308,1.000183,0.226959,-0.13427,0.106663,-0.174827,58.671326,-25.23703,-98.55484,,,
729861239.445223,77.880676,-24.792334,74.391074,0.17308,1.000183,0.226959,-0.135616,0.133969,-0.234129,58.671326,-25.23703,-98.55484,,,
729861239.448599,77.880676,-24.792334,74.391074,0.17308,1.000183,0.226959,-0.135616,0.133969,-0.234129,58.671326,-25.23703,-98.55484,,,
729861239.451898,77.875506,-24.372125,74.003245,0.13295,1.002121,0.218063,-0.135616,0.133969,-0.234129,58.671326,-25.23703,-98.55484,,,
729861239.45524,77.870097,-23.93941,73.608412,0.13295,1.002121,0.218063,-0.133201,0.176524,-0.262619,58.671326,-25.23703,-98.55484,,,
729861239.458561,77.870097,-23.93941,73.608412,0.13295,1.002121,0.218063,-0.133201,0.176524,-0.262619,58.671326,-25.23703,-98.55484,,,
729861239.461898,77.868843,-23.488742,73.200598,0.108322,1.000244,0.233841,-0.133201,0.176524,-0.262619,58.671326,-25.23703,-98.55484,,,
729861239.46525,77.866481,-23.04355,72.799869,0.108322,1.000244,0.233841,-0.120445,0.188346,-0.266672,58.671326,-25.23703,-98.55484,,,
729861239.468615,77.866481,-23.04355,72.799869,0.108322,1.000244,0.233841,-0.120445,0.188346,-0.266672,58.671326,-25.23703,-98.55484,,,
729861239.471885,77.866587,-22.60741,72.404767,0.078339,0.994537,0.232132,-0.120445,0.188346,-0.266672,58.671326,-25.23703,-98.55484,,,
729861239.475224,77.867289,-22.186542,72.017232,0.078339,0.994537,0.232132,-0.097024,0.133563,-0.265116,59.315262,-25.855377,-99.09494,,,
729861239.478573,77.867289,-22.186542,72.017232,0.078339,0.994537,0.232132,-0.097024,0.133563,-0.265116,59.315262,-25.855377,-99.09494,,,
729861239.481935,77.871165,-21.791335,71.645832,0.059097,0.992294,0.231018,-0.097024,0.133563,-0.265116,59.315262,-25.855377,-99.09494,,,
729861239.485207,77.874081,-21.414129,71.281928,0.059097,0.992294,0.231018,-0.089008,0.057356,-0.247185,59.315262,-25.855377,-99.09494,,,
729861239.488577,77.874081,-21.414129,71.281928,0.059097,0.992294,0.231018,-0.089008,0.057356,-0.247185,59.315262,-25.855377,-99.09494,,,
729861239.491889,77.874101,-21.074102,70.944135,0.050034,0.998032,0.207336,-0.089008,0.057356,-0.247185,59.315262,-25.855377,-99.09494,,,
729861239.495223,77.871034,-20.752005,70.615878,0.050034,0.998032,0.207336,-0.098987,-0.006206,-0.209956,59.315262,-25.855377,-99.09494,,,
729861239.498618,77.871034,-20.752005,70.615878,0.050034,0.998032,0.207336,-0.098987,-0.006206,-0.209956,59.315262,-25.855377,-99.09494,,,
729861239.501897,77.861669,-20.485791,70.337382,0.028641,0.998917,0.188705,-0.098987,-0.006206,-0.209956,59.315262,-25.855377,-99.09494,,,
729861239.505266,77.849528,-20.250054,70.08727,0.028641,0.998917,0.188705,-0.10483,-0.030257,-0.139283,59.315262,-25.855377,-99.09494,,,
729861239.508622,77.849528,-20.250054,70.08727,0.028641,0.998917,0.188705,-0.10483,-0.030257,-0.139283,59.315262,-25.855377,-99.09494,,,
729861239.511883,77.831065,-20.079289,69.904743,0.005417,0.985947,0.213257,-0.10483,-0.030257,-0.139283,59.315262,-25.855377,-99.09494,,,
729861239.515294,77.831065,-19.947368,69.766905,0.005417,0.985947,0.213257,-0.094215,-0.001045,-0.05024,59.556488,-25.438828,-99.352432,,,
729861239.518547,77.812032,-19.947368,69.766905,0.005417,0.985947,0.213257,-0.094215,-0.001045,-0.05024,59.556488,-25.438828,-99.352432,,,
729861239.521891,77.789112,-19.890125,69.70504,-0.007858,0.968079,0.237762,-0.094215,-0.001045,-0.05024,59.556488,-25.438828,-99.352432,,,
729861239.525272,77.789112,-19.890125,69.70504,-0.007858,0.968079,0.237762,-0.0741,-0.034549,0.037047,59.556488,-25.438828,-99.352432,,,
729861239.528573,77.766378,-19.88399,69.691127,-0.007858,0.968079,0.237762,-0.0741,-0.034549,0.037047,59.556488,-25.438828,-99.352432,,,
729861239.531929,77.741293,-19.942077,69.736043,-0.021713,0.970932,0.216461,-0.0741,-0.034549,0.037047,59.556488,-25.438828,-99.352432,,,
729861239.535217,77.741293,-19.942077,69.736043,-0.021713,0.970932,0.216461,-0.056309,-0.073685,0.100777,59.556488,-25.438828,-99.352432,,,
729861239.538568,77.716344,-20.041383,69.817768,-0.021713,0.970932,0.216461,-0.056309,-0.073685,0.100777,59.556488,-25.438828,-99.352432,,,
729861239.541881,77.690575,-20.185121,69.942182,-0.014893,0.980469,0.225586,-0.056309,-0.073685,0.100777,59.556488,-25.438828,-99.352432,,,
729861239.545284,77.666444,-20.352498,70.091511,-0.014893,0.980469,0.225586,-0.035588,-0.070272,0.139338,59.556488,-25.438828,-99.352432,,,
729861239.548604,77.666444,-20.352498,70.091511,-0.014893,0.980469,0.225586,-0.035588,-0.070272,0.139338,59.556488,-25.438828,-99.352432,,,
729861239.551885,77.642781,-20.532645,70.255055,0.016922,0.981079,0.236145,-0.035588,-0.070272,0.139338,59.556488,-25.438828,-99.352432,,,
729861239.555253,77.642781,-20.532645,70.255055,0.016922,0.981079,0.236145,-0.035588,-0.070272,0.139338,59.556488,-25.438828,-99.352432,,,
729861239.558636,77.620862,-20.711648,70.418951,0.016922,0.981079,0.236145,-0.026727,-0.060222,0.138027,59.510529,-25.623749,-99.262802,,,
729861239.561874,77.599506,-20.874746,70.567609,0.061554,0.995178,0.225983,-0.026727,-0.060222,0.138027,59.510529,-25.623749,-99.262802,,,
729861239.565273,77.599506,-20.874746,70.567609,0.061554,0.995178,0.225983,-0.026727,-0.060222,0.138027,59.510529,-25.623749,-99.262802,,,
729861239.568558,77.579752,-21.013836,70.692113,0.061554,0.995178,0.225983,-0.031153,-0.056469,0.098281,59.510529,-25.623749,-99.262802,,,
729861239.571886,77.562058,-21.119079,70.785303,0.082504,1.009384,0.214111,-0.031153,-0.056469,0.098281,59.510529,-25.623749,-99.262802,,,
729861239.575332,77.562058,-21.119079,70.854673,0.082504,1.009384,0.214111,-0.031153,-0.056469,0.098281,59.510529,-25.623749,-99.262802,,,
729861239.578563,77.546135,-21.192946,70.854673,0.082504,1.009384,0.214111,-0.033938,0.000941,0.056212,59.510529,-25.623749,-99.262802,,,
729861239.582046,77.532608,-21.22656,70.893302,0.09523,1.002243,0.23111,-0.033938,0.000941,0.056212,59.510529,-25.623749,-99.262802,,,
729861239.5852,77.532608,-21.22656,70.893302,0.09523,1.002243,0.23111,-0.033938,0.000941,0.056212,59.510529,-25.623749,-99.262802,,,
729861239.588567,77.518833,-21.236019,70.914231,0.09523,1.002243,0.23111,-0.041747,0.050841,0.021836,59.510529,-25.623749,-99.262802,,,
729861239.591887,77.507094,-21.208382,70.899736,0.097763,0.998688,0.217056,-0.041747,0.050841,0.021836,59.510529,-25.623749,-99.262802,,,
729861239.595285,77.507094,-21.208382,70.899736,0.097763,0.998688,0.217056,-0.041747,0.050841,0.021836,59.510529,-25.623749,-99.262802,,,
729861239.598597,77.495766,-21.175001,70.876417,0.097763,0.998688,0.217056,-0.043495,0.035439,-0.014115,59.372864,-25.573883,-99.500717,,,
729861239.601881,77.487772,-21.094504,70.803627,0.090393,0.997314,0.208771,-0.043495,0.035439,-0.014115,59.372864,-25.573883,-99.500717,,,
729861239.60527,77.487772,-21.094504,70.803627,0.090393,0.997314,0.208771,-0.043495,0.035439,-0.014115,59.372864,-25.573883,-99.500717,,,
729861239.608619,77.483572,-21.029887,70.745142,0.090393,0.997314,0.208771,-0.021919,0.030809,-0.041727,59.372864,-25.573883,-99.500717,,,
729861239.611878,77.485409,-20.924751,70.649562,0.081192,0.982895,0.242523,-0.021919,0.030809,-0.041727,59.372864,-25.573883,-99.500717,,,
729861239.615321,77.485409,-20.924751,70.649562,0.081192,0.982895,0.242523,-0.021919,0.030809,-0.041727,59.372864,-25.573883,-99.500717,,,
729861239.618307,77.488565,-20.864189,70.600259,0.081192,0.982895,0.242523,0.004139,0.047252,-0.035687,59.372864,-25.573883,-99.500717,,,
729861239.621918,77.49587,-20.783046,70.530101,0.070221,0.971161,0.25087,0.004139,0.047252,-0.035687,59.372864,-25.573883,-99.500717,,,
729861239.62525,77.49587,-20.783046,70.530101,0.070221,0.971161,0.25087,0.004139,0.047252,-0.035687,59.372864,-25.573883,-99.500717,,,
729861239.628558,77.501052,-20.765081,70.516135,0.070221,0.971161,0.25087,0.013842,0.002966,-0.014507,59.372864,-25.573883,-99.500717,,,
729861239.631923,77.506543,-20.723025,70.471747,0.063339,0.98053,0.21167,0.013842,0.002966,-0.014507,59.372864,-25.573883,-99.500717,,,
729861239.635304,77.506543,-20.723025,70.471747,0.063339,0.98053,0.21167,0.013842,0.002966,-0.014507,59.372864,-25.573883,-99.500717,,,
729861239.638545,77.511873,-20.720032,70.460722,0.063339,0.98053,0.21167,0.015364,-0.031043,-0.015557,59.417099,-25.682327,-99.716354,,,
729861239.641887,77.515269,-20.706431,70.434718,0.073792,0.989471,0.203613,0.015364,-0.031043,-0.015557,59.417099,-25.682327,-99.716354,,,
729861239.645236,77.515269,-20.706431,70.434718,0.073792,0.989471,0.203613,0.015364,-0.031043,-0.015557,59.417099,-25.682327,-99.716354,,,
729861239.648659,77.516572,-20.710109,70.419698,0.073792,0.989471,0.203613,-0.003964,-0.072299,-0.011938,59.417099,-25.682327,-99.716354,,,
729861239.651873,77.515447,-20.720584,70.407096,0.080765,0.984818,0.191116,-0.003964,-0.072299,-0.011938,59.417099,-25.682327,-99.716354,,,
729861239.655229,77.515447,-20.720584,70.407096,0.080765,0.984818,0.191116,-0.003964,-0.072299,-0.011938,59.417099,-25.682327,-99.716354,,,
729861239.658558,77.513254,-20.734753,70.398895,0.080765,0.984818,0.191116,-0.01096,-0.06793,-0.003194,59.417099,-25.682327,-99.716354,,,
729861239.661883,77.507549,-20.752864,70.399853,0.086502,0.972473,0.211182,-0.01096,-0.06793,-0.003194,59.417099,-25.682327,-99.716354,,,
729861239.665293,77.507549,-20.752864,70.399853,0.086502,0.972473,0.211182,-0.01096,-0.06793,-0.003194,59.417099,-25.682327,-99.716354,,,
729861239.668551,77.502269,-20.774564,70.40959,0.086502,0.972473,0.211182,-0.012403,-0.034383,0.016694,59.417099,-25.682327,-99.716354,,,
729861239.671879,77.495159,-20.811206,70.436626,0.092392,0.957413,0.223679,-0.012403,-0.034383,0.016694,59.417099,-25.682327,-99.716354,,,
729861239.675336,77.495159,-20.811206,70.436626,0.092392,0.957413,0.223679,-0.012403,-0.034383,0.016694,59.417099,-25.682327,-99.716354,,,
729861239.678569,77.489221,-20.847795,70.46319,0.092392,0.957413,0.223679,-0.013175,-0.039495,0.026292,59.417099,-25.682327,-99.716354,,,
729861239.68194,77.480917,-20.89205,70.493802,0.087265,0.952911,0.197235,-0.013175,-0.039495,0.026292,59.468353,-25.593964,-99.430634,,,
729861239.685214,77.480917,-20.89205,70.493802,0.087265,0.952911,0.197235,-0.013175,-0.039495,0.026292,59.468353,-25.593964,-99.430634,,,
729861239.688622,77.470848,-20.918968,70.505492,0.087265,0.952911,0.197235,-0.035023,-0.049592,0.014255,59.468353,-25.593964,-99.430634,,,
729861239.691887,77.45633,-20.921451,70.495537,0.102524,0.956741,0.188568,-0.035023,-0.049592,0.014255,59.468353,-25.593964,-99.430634,,,
729861239.695335,77.45633,-20.921451,70.495537,0.102524,0.956741,0.188568,-0.035023,-0.049592,0.014255,59.468353,-25.593964,-99.430634,,,
729861239.698617,77.444048,-20.902123,70.46699,0.102524,0.956741,0.188568,-0.051051,-0.023533,-0.012507,59.468353,-25.593964,-99.430634,,,
729861239.701661,77.422372,-20.841207,70.397756,0.120361,0.954391,0.215942,-0.051051,-0.023533,-0.012507,59.468353,-25.593964,-99.430634,,,
729861239.705259,77.422372,-20.841207,70.397756,0.120361,0.954391,0.215942,-0.051051,-0.023533,-0.012507,59.468353,-25.593964,-99.430634,,,
729861239.708613,77.413283,-20.789814,70.335765,0.120361,0.954391,0.215942,-0.040035,-0.033619,-0.039911,59.468353,-25.593964,-99.430634,,,
729861239.711898,77.406011,-20.695584,70.22967,0.113327,0.9496,0.230118,-0.040035,-0.033619,-0.039911,59.468353,-25.593964,-99.430634,,,
729861239.715334,77.406011,-20.695584,70.22967,0.113327,0.9496,0.230118,-0.040035,-0.033619,-0.039911,59.468353,-25.593964,-99.430634,,,
729861239.718558,77.405411,-20.615565,70.137288,0.113327,0.9496,0.230118,-0.020786,-0.029149,-0.074726,59.468353,-25.593964,-99.430634,,,
729861239.721886,77.410507,-20.502295,70.014357,0.105133,0.955917,0.249649,-0.020786,-0.029149,-0.074726,59.518921,-25.479309,-99.370911,,,
729861239.725226,77.410507,-20.502295,70.014357,0.105133,0.955917,0.249649,-0.020786,-0.029149,-0.074726,59.518921,-25.479309,-99.370911,,,
729861239.728553,77.416637,-20.376108,69.881223,0.105133,0.955917,0.249649,-0.012885,-0.004671,-0.11232,59.518921,-25.479309,-99.370911,,,
729861239.731927,77.427945,-20.237629,69.738346,0.115417,0.970032,0.248764,-0.012885,-0.004671,-0.11232,59.518921,-25.479309,-99.370911,,,
729861239.735222,77.427945,-20.237629,69.738346,0.115417,0.970032,0.248764,-0.012885,-0.004671,-0.11232,59.518921,-25.479309,-99.370911,,,
729861239.738673,77.439271,-20.065826,69.566398,0.115417,0.970032,0.248764,-0.004712,0.025678,-0.143764,59.518921,-25.479309,-99.370911,,,
729861239.741893,77.451357,-19.89734,69.401695,0.097412,0.977188,0.245468,-0.004712,0.025678,-0.143764,59.518921,-25.479309,-99.370911,,,
729861239.745224,77.451357,-19.89734,69.401695,0.097412,0.977188,0.245468,-0.004712,0.025678,-0.143764,59.518921,-25.479309,-99.370911,,,
729861239.748636,77.465457,-19.705082,69.217181,0.097412,0.977188,0.245468,0.002369,0.050579,-0.149061,59.518921,-25.479309,-99.370911,,,
729861239.751893,77.470266,-19.538898,69.060118,0.069092,0.96994,0.233231,0.002369,0.050579,-0.149061,59.518921,-25.479309,-99.370911,,,
729861239.755264,77.470266,-19.538898,69.060118,0.069092,0.96994,0.233231,0.002369,0.050579,-0.149061,59.518921,-25.479309,-99.370911,,,
729861239.758585,77.482275,-19.358117,68.8881,0.069092,0.96994,0.233231,-0.004066,0.042571,-0.132191,59.518921,-25.479309,-99.370911,,,
729861239.761902,77.488135,-19.22702,68.760827,0.04924,0.959488,0.206024,-0.004066,0.042571,-0.132191,59.799423,-25.722794,-99.602112,,,
729861239.765307,77.488135,-19.22702,68.760827,0.04924,0.959488,0.206024,-0.004066,0.042571,-0.132191,59.799423,-25.722794,-99.602112,,,
729861239.76856,77.494041,-19.094399,68.627219,0.04924,0.959488,0.206024,-0.016975,0.000697,-0.091587,59.799423,-25.722794,-99.602112,,,
729861239.771885,77.4942,-19.029617,68.554721,0.027573,0.954071,0.177032,-0.016975,0.000697,-0.091587,59.799423,-25.722794,-99.602112,,,
729861239.775243,77.4942,-19.029617,68.554721,0.027573,0.954071,0.177032,-0.016975,0.000697,-0.091587,59.799423,-25.722794,-99.602112,,,
729861239.778652,77.486221,-18.943926,68.45676,0.027573,0.954071,0.177032,-0.060597,-0.040026,-0.052348,59.799423,-25.722794,-99.602112,,,
729861239.781949,77.464442,-18.922913,68.417294,0.025787,0.956406,0.15036,-0.060597,-0.040026,-0.052348,59.799423,-25.722794,-99.602112,,,
729861239.785242,77.464442,-18.922913,68.417294,0.025787,0.956406,0.15036,-0.060597,-0.040026,-0.052348,59.799423,-25.722794,-99.602112,,,
729861239.788641,77.438692,-18.876198,68.34841,0.025787,0.956406,0.15036,-0.111675,-0.07558,-0.013208,59.799423,-25.722794,-99.602112,,,
729861239.791888,77.400421,-18.87832,68.32647,0.042053,0.955215,0.157272,-0.111675,-0.07558,-0.013208,59.799423,-25.722794,-99.602112,,,
729861239.795229,77.400421,-18.87832,68.32647,0.042053,0.955215,0.157272,-0.111675,-0.07558,-0.013208,59.799423,-25.722794,-99.602112,,,
729861239.798624,77.363801,-18.860703,68.287347,0.042053,0.955215,0.157272,-0.133574,-0.066571,0.021047,59.799423,-25.722794,-99.602112,,,
729861239.801888,77.31696,-18.881652,68.286403,0.044724,0.951675,0.193237,-0.133574,-0.066571,0.021047,59.902206,-25.514084,-99.466965,,,
729861239.805236,77.31696,-18.881652,68.286403,0.044724,0.951675,0.193237,-0.133574,-0.066571,0.021047,59.902206,-25.514084,-99.466965,,,
729861239.808578,77.275349,-18.901016,68.282862,0.044724,0.951675,0.193237,-0.138446,-0.079803,0.049451,59.902206,-25.514084,-99.466965,,,
729861239.811891,77.225428,-18.953053,68.310036,0.053421,0.950134,0.204605,-0.138446,-0.079803,0.049451,59.902206,-25.514084,-99.466965,,,
729861239.815249,77.225428,-18.953053,68.310036,0.053421,0.950134,0.204605,-0.138446,-0.079803,0.049451,59.902206,-25.514084,-99.466965,,,
729861239.818576,77.18223,-18.980857,68.313241,0.053421,0.950134,0.204605,-0.140606,-0.081412,0.047259,59.902206,-25.514084,-99.466965,,,
729861239.82193,77.133059,-19.017916,68.325226,0.076782,0.956421,0.210434,-0.140606,-0.081412,0.047259,59.902206,-25.514084,-99.466965,,,
729861239.82529,77.133059,-19.017916,68.325226,0.076782,0.956421,0.210434,-0.140606,-0.081412,0.047259,59.902206,-25.514084,-99.466965,,,
729861239.82858,77.088071,-19.025201,68.306662,0.076782,0.956421,0.210434,-0.158074,-0.087395,0.029882,59.902206,-25.514084,-99.466965,,,
729861239.831944,77.039053,-19.008789,68.262652,0.093185,0.96553,0.198822,-0.158074,-0.087395,0.029882,59.902206,-25.514084,-99.466965,,,
729861239.835225,77.039053,-19.008789,68.262652,0.093185,0.96553,0.198822,-0.158074,-0.087395,0.029882,59.902206,-25.514084,-99.466965,,,
729861239.838582,76.99356,-18.97261,68.196982,0.093185,0.96553,0.198822,-0.167243,-0.095624,-0.007038,59.902206,-25.514084,-99.466965,,,
729861239.841884,76.950984,-18.89885,68.093754,0.10231,0.971497,0.209793,-0.167243,-0.095624,-0.007038,59.902206,-25.514084,-99.466965,,,
729861239.845253,76.950984,-18.89885,68.093754,0.10231,0.971497,0.209793,-0.167243,-0.095624,-0.007038,59.794647,-25.724289,-99.917877,,,
729861239.848602,76.911185,-18.805746,67.97415,0.10231,0.971497,0.209793,-0.159105,-0.067564,-0.058271,59.794647,-25.724289,-99.917877,,,
729861239.85189,76.878961,-18.660461,67.809101,0.108978,0.969284,0.24559,-0.159105,-0.067564,-0.058271,59.794647,-25.724289,-99.917877,,,
729861239.855243,76.878961,-18.660461,67.809101,0.108978,0.969284,0.24559,-0.159105,-0.067564,-0.058271,59.794647,-25.724289,-99.917877,,,
729861239.858564,76.845647,-18.510677,67.644721,0.108978,0.969284,0.24559,-0.145553,-0.023845,-0.097908,59.794647,-25.724289,-99.917877,,,
729861239.861896,76.824852,-18.316598,67.440686,0.110214,0.965256,0.253052,-0.145553,-0.023845,-0.097908,59.794647,-25.724289,-99.917877,,,
729861239.865335,76.824852,-18.316598,67.440686,0.110214,0.965256,0.253052,-0.145553,-0.023845,-0.097908,59.794647,-25.724289,-99.917877,,,
729861239.868544,76.797272,-18.127056,67.243034,0.110214,0.965256,0.253052,-0.140789,-0.003635,-0.127979,59.794647,-25.724289,-99.917877,,,
729861239.871889,76.778498,-17.911312,67.020304,0.097961,0.964523,0.239365,-0.140789,-0.003635,-0.127979,59.794647,-25.724289,-99.917877,,,
729861239.875233,76.778498,-17.911312,67.020304,0.097961,0.964523,0.239365,-0.140789,-0.003635,-0.127979,59.794647,-25.724289,-99.917877,,,
729861239.878557,76.752775,-17.694621,66.798428,0.097961,0.964523,0.239365,-0.137037,0.012711,-0.146499,59.794647,-25.724289,-99.917877,,,
729861239.881926,76.732839,-17.457434,66.560843,0.089172,0.972397,0.248444,-0.137037,0.012711,-0.146499,59.794647,-25.724289,-99.917877,,,
729861239.885216,76.732839,-17.457434,66.560843,0.089172,0.972397,0.248444,-0.137037,0.012711,-0.146499,60.159485,-25.761688,-100.387863,,,
729861239.888576,76.711629,-17.226573,66.333227,0.089172,0.972397,0.248444,-0.118097,0.040091,-0.154713,60.159485,-25.761688,-100.387863,,,
729861239.891883,76.695339,-16.992326,66.105108,0.081238,0.970566,0.274918,-0.118097,0.040091,-0.154713,60.159485,-25.761688,-100.387863,,,
729861239.895277,76.695339,-16.992326,66.105108,0.081238,0.970566,0.274918,-0.118097,0.040091,-0.154713,60.159485,-25.761688,-100.387863,,,
729861239.898643,76.679824,-16.771635,65.893526,0.081238,0.970566,0.274918,-0.096277,0.060981,-0.14842,60.159485,-25.761688,-100.387863,,,
729861239.901899,76.667153,-16.559047,65.692575,0.067245,0.970276,0.276886,-0.096277,0.060981,-0.14842,60.159485,-25.761688,-100.387863,,,
729861239.905244,76.667153,-16.559047,65.692575,0.067245,0.970276,0.276886,-0.096277,0.060981,-0.14842,60.159485,-25.761688,-100.387863,,,
729861239.908576,76.655857,-16.35309,65.498746,0.067245,0.970276,0.276886,-0.078652,0.062192,-0.136853,60.159485,-25.761688,-100.387863,,,
729861239.911897,76.645709,-16.168211,65.326826,0.056534,0.979507,0.262894,-0.078652,0.062192,-0.136853,60.159485,-25.761688,-100.387863,,,
729861239.915315,76.645709,-16.168211,65.326826,0.056534,0.979507,0.262894,-0.078652,0.062192,-0.136853,60.159485,-25.761688,-100.387863,,,
729861239.918561,76.635999,-15.972706,65.148696,0.056534,0.979507,0.262894,-0.06933,0.089065,-0.128313,60.159485,-25.761688,-100.387863,,,
729861239.921896,76.626099,-15.796755,64.994279,0.057144,0.988571,0.25975,-0.06933,0.089065,-0.128313,60.159485,-25.761688,-100.387863,,,
729861239.925226,76.626099,-15.796755,64.994279,0.057144,0.988571,0.25975,-0.06933,0.089065,-0.128313,60.31694,-25.896759,-100.35228,,,
729861239.928559,76.612909,-15.606321,64.829841,0.057144,0.988571,0.25975,-0.086338,0.115521,-0.113064,60.31694,-25.896759,-100.35228,,,
729861239.931939,76.592637,-15.434729,64.686103,0.053284,0.996719,0.223267,-0.086338,0.115521,-0.113064,60.31694,-25.896759,-100.35228,,,
729861239.935228,76.592637,-15.434729,64.686103,0.053284,0.996719,0.223267,-0.086338,0.115521,-0.113064,60.31694,-25.896759,-100.35228,,,
729861239.938572,76.569593,-15.240873,64.521651,0.053284,0.996719,0.223267,-0.12169,0.123435,-0.10872,60.31694,-25.896759,-100.35228,,,
729861239.941894,76.535247,-15.058448,64.368929,0.056976,0.999863,0.188248,-0.12169,0.123435,-0.10872,60.31694,-25.896759,-100.35228,,,
729861239.945246,76.535247,-15.058448,64.368929,0.056976,0.999863,0.188248,-0.12169,0.123435,-0.10872,60.31694,-25.896759,-100.35228,,,
729861239.948644,76.496259,-14.83093,64.171789,0.056976,0.999863,0.188248,-0.192149,0.127535,-0.127345,60.31694,-25.896759,-100.35228,,,
729861239.951891,76.44256,-14.600563,63.968531,0.069702,1.002075,0.147537,-0.192149,0.127535,-0.127345,60.31694,-25.896759,-100.35228,,,
729861239.955326,76.44256,-14.600563,63.968531,0.069702,1.002075,0.147537,-0.192149,0.127535,-0.127345,60.31694,-25.896759,-100.35228,,,
729861239.958615,76.380383,-14.323906,63.714916,0.069702,1.002075,0.147537,-0.282711,0.100609,-0.155574,60.31694,-25.896759,-100.35228,,,
729861239.961893,76.305854,-14.035852,63.446494,0.065643,0.998779,0.115417,-0.282711,0.100609,-0.155574,60.31694,-25.896759,-100.35228,,,
729861239.96526,76.305854,-14.035852,63.446494,0.065643,0.998779,0.115417,-0.282711,0.100609,-0.155574,60.603638,-25.847946,-100.820816,,,
729861239.968559,76.224669,-13.724393,63.154672,0.065643,0.998779,0.115417,-0.342718,0.101891,-0.168476,60.603638,-25.847946,-100.820816,,,
729861239.97189,76.13564,-13.424421,62.871088,0.051102,0.970657,0.152298,-0.342718,0.101891,-0.168476,60.603638,-25.847946,-100.820816,,,
729861239.975228,76.13564,-13.424421,62.871088,0.051102,0.970657,0.152298,-0.342718,0.101891,-0.168476,60.603638,-25.847946,-100.820816,,,
729861239.978554,76.045633,-13.138053,62.592336,0.051102,0.970657,0.152298,-0.359813,0.038107,-0.152724,60.603638,-25.847946,-100.820816,,,
729861239.981928,75.952321,-12.875369,62.327318,0.036926,0.933533,0.185791,-0.359813,0.038107,-0.152724,60.603638,-25.847946,-100.820816,,,
729861239.985238,75.952321,-12.875369,62.327318,0.036926,0.933533,0.185791,-0.359813,0.038107,-0.152724,60.603638,-25.847946,-100.820816,,,
729861239.988562,75.861868,-12.629374,62.071653,0.036926,0.933533,0.185791,-0.351597,-0.015413,-0.140169,60.603638,-25.847946,-100.820816,,,
729861239.991894,75.770861,-12.401519,61.828679,0.036102,0.923553,0.221634,-0.351597,-0.015413,-0.140169,60.603638,-25.847946,-100.820816,,,
729861239.995224,75.770861,-12.401519,61.828679,0.036102,0.923553,0.221634,-0.351597,-0.015413,-0.140169,60.603638,-25.847946,-100.820816,,,
729861239.998657,75.678111,-12.184778,61.593967,0.036102,0.923553,0.221634,-0.367956,-0.036319,-0.126676,60.603638,-25.847946,-100.820816,,,
729861240.00191,75.578064,-11.976868,61.365408,0.046173,0.935486,0.220673,-0.367956,-0.036319,-0.126676,60.603638,-25.847946,-100.820816,,,
729861240.005263,75.578064,-11.976868,61.365408,0.046173,0.935486,0.220673,-0.367956,-0.036319,-0.126676,60.603638,-25.847946,-100.820816,,,
729861240.008675,75.473286,-11.775864,61.142225,0.046173,0.935486,0.220673,-0.403566,-0.047775,-0.114529,61.038864,-25.89447,-101.76561,,,
729861240.011939,75.367206,-11.578075,60.927804,0.058914,0.944183,0.218475,-0.403566,-0.047775,-0.114529,61.038864,-25.89447,-101.76561,,,
729861240.015305,75.367206,-11.578075,60.927804,0.058914,0.944183,0.218475,-0.403566,-0.047775,-0.114529,61.038864,-25.89447,-101.76561,,,
729861240.01861,75.260787,-11.37936,60.722296,0.058914,0.944183,0.218475,-0.396501,0.018854,-0.103025,61.038864,-25.89447,-101.76561,,,
729861240.021627,75.153866,-11.18306,60.528029,0.064194,0.940384,0.274292,-0.396501,0.018854,-0.103025,61.038864,-25.89447,-101.76561,,,
729861240.025275,75.153866,-11.18306,60.528029,0.064194,0.940384,0.274292,-0.396501,0.018854,-0.103025,61.038864,-25.89447,-101.76561,,,
729861240.028642,75.042502,-10.989644,60.342404,0.064194,0.940384,0.274292,-0.423724,0.057704,-0.087005,61.038864,-25.89447,-101.76561,,,
729861240.031954,74.925691,-10.798199,60.161326,0.071579,0.945068,0.241379,-0.423724,0.057704,-0.087005,61.038864,-25.89447,-101.76561,,,
729861240.035324,74.925691,-10.798199,60.161326,0.071579,0.945068,0.241379,-0.423724,0.057704,-0.087005,61.038864,-25.89447,-101.76561,,,
729861240.038581,74.80755,-10.60255,59.98028,0.071579,0.945068,0.241379,-0.43259,0.088093,-0.090548,61.038864,-25.89447,-101.76561,,,
729861240.041889,74.690069,-10.392449,59.794375,0.079453,0.949753,0.262955,-0.43259,0.088093,-0.090548,61.038864,-25.89447,-101.76561,,,
729861240.045233,74.690069,-10.392449,59.794375,0.079453,0.949753,0.262955,-0.43259,0.088093,-0.090548,61.038864,-25.89447,-101.76561,,,
729861240.048664,74.570239,-10.162467,59.602172,0.079453,0.949753,0.262955,-0.451022,0.184951,-0.104934,61.075531,-25.882141,-102.486145,,,
729861240.051876,74.443631,-9.906201,59.397284,0.090683,0.959595,0.259598,-0.451022,0.184951,-0.104934,61.075531,-25.882141,-102.486145,,,
729861240.055235,74.443631,-9.906201,59.397284,0.090683,0.959595,0.259598,-0.451022,0.184951,-0.104934,61.075531,-25.882141,-102.486145,,,
729861240.058574,74.307813,-9.620832,59.173213,0.090683,0.959595,0.259598,-0.520302,0.259708,-0.136989,61.075531,-25.882141,-102.486145,,,
729861240.061993,74.161468,-9.30517,58.927277,0.094238,0.981354,0.1987,-0.520302,0.259708,-0.136989,61.075531,-25.882141,-102.486145,,,
729861240.065272,74.161468,-9.30517,58.927277,0.094238,0.981354,0.1987,-0.520302,0.259708,-0.136989,61.075531,-25.882141,-102.486145,,,
729861240.068573,74.002504,-8.953665,58.654661,0.094238,0.981354,0.1987,-0.614615,0.331682,-0.183984,61.075531,-25.882141,-102.486145,,,
729861240.071898,73.825881,-8.563993,58.349257,0.090057,1.002075,0.164368,-0.614615,0.331682,-0.183984,61.075531,-25.882141,-102.486145,,,
729861240.075252,73.825881,-8.563993,58.349257,0.090057,1.002075,0.164368,-0.614615,0.331682,-0.183984,61.075531,-25.882141,-102.486145,,,
729861240.078579,73.628958,-8.14193,58.011596,0.090057,1.002075,0.164368,-0.762077,0.343502,-0.241503,61.075531,-25.882141,-102.486145,,,
729861240.081967,73.414492,-7.696557,57.648365,0.080597,1.007751,0.119278,-0.762077,0.343502,-0.241503,61.075531,-25.882141,-102.486145,,,
729861240.085214,73.414492,-7.696557,57.648365,0.080597,1.007751,0.119278,-0.762077,0.343502,-0.241503,61.075531,-25.882141,-102.486145,,,
729861240.088569,73.187984,-7.236361,57.267898,0.080597,1.007751,0.119278,-0.847506,0.334287,-0.28647,61.438889,-25.886154,-104.222,,,
729861240.09192,72.953159,-6.772055,56.880895,0.054825,0.971054,0.169342,-0.847506,0.334287,-0.28647,61.438889,-25.886154,-104.222,,,
729861240.095224,72.953159,-6.772055,56.880895,0.054825,0.971054,0.169342,-0.847506,0.334287,-0.28647,61.438889,-25.886154,-104.222,,,
729861240.098681,72.712563,-6.320031,56.50059,0.054825,0.971054,0.169342,-0.88241,0.296362,-0.292367,61.438889,-25.886154,-104.222,,,
729861240.101934,72.470725,-5.894721,56.139489,0.013641,0.919083,0.247528,-0.88241,0.296362,-0.292367,61.438889,-25.886154,-104.222,,,
729861240.105241,72.470725,-5.894721,56.139489,0.013641,0.919083,0.247528,-0.88241,0.296362,-0.292367,61.438889,-25.886154,-104.222,,,
729861240.108577,72.233787,-5.501811,55.807884,0.013641,0.919083,0.247528,-0.839263,0.269616,-0.256147,61.438889,-25.886154,-104.222,,,
729861240.11198,72.004525,-5.141163,55.511786,-0.006897,0.875763,0.331421,-0.839263,0.269616,-0.256147,61.438889,-25.886154,-104.222,,,
729861240.115257,72.004525,-5.141163,55.511786,-0.006897,0.875763,0.331421,-0.839263,0.269616,-0.256147,61.438889,-25.886154,-104.222,,,
729861240.118581,71.781019,-4.812722,55.253244,-0.006897,0.875763,0.331421,-0.790348,0.296319,-0.196155,61.438889,-25.886154,-104.222,,,
729861240.121954,71.558516,-4.518852,55.030524,-0.009689,0.871063,0.345978,-0.790348,0.296319,-0.196155,61.438889,-25.886154,-104.222,,,
729861240.125307,71.558516,-4.518852,55.030524,-0.009689,0.871063,0.345978,-0.790348,0.296319,-0.196155,61.438889,-25.886154,-104.222,,,
729861240.128597,71.333581,-4.258052,54.836671,-0.009689,0.871063,0.345978,-0.801227,0.258451,-0.144371,61.438889,-25.886154,-104.222,,,
729861240.132012,71.106451,-4.024401,54.664564,-0.008408,0.902802,0.292755,-0.801227,0.258451,-0.144371,61.860626,-25.969254,-105.824753,,,
729861240.135238,71.106451,-4.024401,54.664564,-0.008408,0.902802,0.292755,-0.801227,0.258451,-0.144371,61.860626,-25.969254,-105.824753,,,
729861240.138642,70.879065,-3.809742,54.508423,-0.008408,0.902802,0.292755,-0.800391,0.232749,-0.118924,61.860626,-25.969254,-105.824753,,,
729861240.14188,70.650816,-3.605496,54.361568,-0.003479,0.924347,0.299316,-0.800391,0.232749,-0.118924,61.860626,-25.969254,-105.824753,,,
729861240.145222,70.650816,-3.605496,54.361568,-0.003479,0.924347,0.299316,-0.800391,0.232749,-0.118924,61.860626,-25.969254,-105.824753,,,
729861240.148592,70.418997,-3.410283,54.220363,-0.003479,0.924347,0.299316,-0.82395,0.208273,-0.113721,61.860626,-25.969254,-105.824753,,,
729861240.151889,70.180814,-3.225464,54.081698,0.005417,0.941742,0.296799,-0.82395,0.208273,-0.113721,61.860626,-25.969254,-105.824753,,,
729861240.155233,70.180814,-3.225464,54.081698,0.005417,0.941742,0.296799,-0.82395,0.208273,-0.113721,61.860626,-25.969254,-105.824753,,,
729861240.158634,69.937039,-3.047829,53.940562,0.005417,0.941742,0.296799,-0.862809,0.143426,-0.126492,61.860626,-25.969254,-105.824753,,,
729861240.161882,69.69047,-2.870732,53.794506,0.02301,0.957031,0.294128,-0.862809,0.143426,-0.126492,61.860626,-25.969254,-105.824753,,,
729861240.165297,69.69047,-2.870732,53.794506,0.02301,0.957031,0.294128,-0.862809,0.143426,-0.126492,61.860626,-25.969254,-105.824753,,,
729861240.168571,69.441471,-2.685233,53.643167,0.02301,0.957031,0.294128,-0.879683,0.169138,-0.147986,61.860626,-25.969254,-105.824753,,,
729861240.171897,69.186398,-2.48821,53.487703,0.032425,0.954315,0.338776,-0.879683,0.169138,-0.147986,62.400543,-25.527756,-107.836456,,,
729861240.175235,69.186398,-2.48821,53.487703,0.032425,0.954315,0.338776,-0.879683,0.169138,-0.147986,62.400543,-25.527756,-107.836456,,,
729861240.178561,68.92101,-2.283638,53.329195,0.032425,0.954315,0.338776,-0.950924,0.203791,-0.163322,62.400543,-25.527756,-107.836456,,,
729861240.181992,68.644172,-2.077482,53.167412,0.032242,0.96402,0.310669,-0.950924,0.203791,-0.163322,62.400543,-25.527756,-107.836456,,,
729861240.185229,68.644172,-2.077482,53.167412,0.032242,0.96402,0.310669,-0.950924,0.203791,-0.163322,62.400543,-25.527756,-107.836456,,,
729861240.188555,68.356564,-1.870279,53.001286,0.032242,0.96402,0.310669,-1.025143,0.184734,-0.183917,62.400543,-25.527756,-107.836456,,,
729861240.191911,68.058277,-1.655631,52.829204,0.025635,0.969391,0.296921,-1.025143,0.184734,-0.183917,62.400543,-25.527756,-107.836456,,,
729861240.195281,68.058277,-1.655631,52.829204,0.025635,0.969391,0.296921,-1.025143,0.184734,-0.183917,62.400543,-25.527756,-107.836456,,,
729861240.198599,67.746984,-1.431021,52.65092,0.025635,0.969391,0.296921,-1.114949,0.216492,-0.211571,62.400543,-25.527756,-107.836456,,,
729861240.201902,67.418527,-1.203585,52.468148,0.016556,0.974716,0.289383,-1.114949,0.216492,-0.211571,62.400543,-25.527756,-107.836456,,,
729861240.205219,67.418527,-1.203585,52.468148,0.016556,0.974716,0.289383,-1.114949,0.216492,-0.211571,62.400543,-25.527756,-107.836456,,,
729861240.208556,67.069343,-0.979884,52.282424,0.016556,0.974716,0.289383,-1.257905,0.174392,-0.2327,62.400543,-25.527756,-107.836456,,,
729861240.211908,66.702813,-0.758516,52.096087,0.002609,0.977921,0.257355,-1.257905,0.174392,-0.2327,62.918015,-25.155273,-109.729294,,,
729861240.215269,66.702813,-0.758516,52.096087,0.002609,0.977921,0.257355,-1.257905,0.174392,-0.2327,62.918015,-25.155273,-109.729294,,,
729861240.218552,66.328174,-0.539856,51.913941,0.002609,0.977921,0.257355,-1.312613,0.185625,-0.237876,62.918015,-25.155273,-109.729294,,,
729861240.221903,65.953868,-0.330562,51.742709,-0.022949,0.935165,0.361572,-1.312613,0.185625,-0.237876,62.918015,-25.155273,-109.729294,,,
729861240.225214,65.953868,-0.330562,51.742709,-0.022949,0.935165,0.361572,-1.312613,0.185625,-0.237876,62.918015,-25.155273,-109.729294,,,
729861240.228556,65.586724,-0.141238,51.591751,-0.022949,0.935165,0.361572,-1.261454,0.178451,-0.196292,62.918015,-25.155273,-109.729294,,,
729861240.231941,65.232408,0.019683,51.468705,-0.065002,0.846664,0.477646,-1.261454,0.178451,-0.196292,62.918015,-25.155273,-109.729294,,,
729861240.235231,65.232408,0.019683,51.468705,-0.065002,0.846664,0.477646,-1.261454,0.178451,-0.196292,62.918015,-25.155273,-109.729294,,,
729861240.238571,64.896919,0.151014,51.373181,-0.065002,0.846664,0.477646,-1.1295,0.148399,-0.126131,62.918015,-25.155273,-109.729294,,,
729861240.241885,64.896919,0.151014,51.373181,-0.081848,0.802979,0.56131,-1.1295,0.148399,-0.126131,62.918015,-25.155273,-109.729294,,,
729861240.245218,64.585587,0.252084,51.304236,-0.081848,0.802979,0.56131,-1.1295,0.148399,-0.126131,62.918015,-25.155273,-109.729294,,,
729861240.248638,64.302608,0.325987,51.259603,-0.081848,0.802979,0.56131,-0.932212,0.112892,-0.057635,62.918015,-25.155273,-109.729294,,,
729861240.251917,64.302608,0.374846,51.236607,-0.080231,0.784607,0.606842,-0.932212,0.112892,-0.057635,63.171646,-24.640335,-112.226059,,,
729861240.255219,64.047844,0.374846,51.236607,-0.080231,0.784607,0.606842,-0.932212,0.112892,-0.057635,63.171646,-24.640335,-112.226059,,,
729861240.258557,63.815722,0.398249,51.23312,-0.080231,0.784607,0.606842,-0.774899,0.057964,0.001469,63.171646,-24.640335,-112.226059,,,
729861240.262036,63.598161,0.400323,51.244407,-0.069778,0.800644,0.570129,-0.774899,0.057964,0.001469,63.171646,-24.640335,-112.226059,,,
729861240.265343,63.598161,0.400323,51.244407,-0.069778,0.800644,0.570129,-0.774899,0.057964,0.001469,63.171646,-24.640335,-112.226059,,,
729861240.268637,63.388233,0.386378,51.267154,-0.069778,0.800644,0.570129,-0.722142,0.017661,0.037906,63.171646,-24.640335,-112.226059,,,
729861240.2719,63.388233,0.386378,51.267154,-0.069778,0.800644,0.570129,-0.722142,0.017661,0.037906,63.171646,-24.640335,-112.226059,,,
729861240.275228,63.1835,0.360606,51.301653,-0.047943,0.840485,0.509964,-0.722142,0.017661,0.037906,63.171646,-24.640335,-112.226059,,,
729861240.278557,62.982584,0.324394,51.35018,-0.047943,0.840485,0.509964,-0.69573,0.031643,0.083822,63.171646,-24.640335,-112.226059,,,
729861240.281967,62.982584,0.324394,51.35018,-0.035416,0.858582,0.491364,-0.69573,0.031643,0.083822,63.171646,-24.640335,-112.226059,,,
729861240.285216,62.782079,0.278746,51.412353,-0.035416,0.858582,0.491364,-0.69573,0.031643,0.083822,63.171646,-24.640335,-112.226059,,,
729861240.288578,62.577825,0.224704,51.484201,-0.035416,0.858582,0.491364,-0.722076,0.032251,0.117144,63.171646,-24.640335,-112.226059,,,
729861240.291937,62.577825,0.224704,51.484201,-0.035416,0.858582,0.491364,-0.722076,0.032251,0.117144,63.171646,-24.640335,-112.226059,,,
729861240.295222,62.368947,0.163329,51.561303,-0.01976,0.892105,0.455215,-0.722076,0.032251,0.117144,63.347809,-23.954269,-113.471146,,,
729861240.298597,62.159588,0.099571,51.638652,-0.01976,0.892105,0.455215,-0.725397,0.01619,0.12119,63.347809,-23.954269,-113.471146,,,
729861240.301894,62.159588,0.099571,51.638652,-0.01976,0.892105,0.455215,-0.725397,0.01619,0.12119,63.347809,-23.954269,-113.471146,,,
729861240.305279,61.953431,0.03938,51.712424,0.000778,0.893997,0.481018,-0.725397,0.01619,0.12119,63.347809,-23.954269,-113.471146,,,
729861240.308577,61.75027,-0.011519,51.77848,0.000778,0.893997,0.481018,-0.704319,0.032765,0.098873,63.347809,-23.954269,-113.471146,,,
729861240.311888,61.75027,-0.011519,51.77848,0.000778,0.893997,0.481018,-0.704319,0.032765,0.098873,63.347809,-23.954269,-113.471146,,,
729861240.315261,61.546381,-0.052197,51.83376,0.015671,0.873245,0.507187,-0.704319,0.032765,0.098873,63.347809,-23.954269,-113.471146,,,
729861240.318563,61.342803,-0.086532,51.879424,0.015671,0.873245,0.507187,-0.702572,0.017454,0.068987,63.347809,-23.954269,-113.471146,,,
729861240.321925,61.342803,-0.086532,51.879424,0.015671,0.873245,0.507187,-0.702572,0.017454,0.068987,63.347809,-23.954269,-113.471146,,,
729861240.325236,61.145745,-0.116063,51.917264,0.015533,0.858521,0.517395,-0.702572,0.017454,0.068987,63.347809,-23.954269,-113.471146,,,
729861240.328611,60.959169,-0.140832,51.950512,0.015533,0.858521,0.517395,-0.62951,0.022412,0.05488,63.347809,-23.954269,-113.471146,,,
729861240.332086,60.959169,-0.140832,51.950512,0.013107,0.834549,0.568848,-0.62951,0.022412,0.05488,63.347809,-23.954269,-113.471146,,,
729861240.33524,60.782318,-0.160529,51.981619,0.013107,0.834549,0.568848,-0.62951,0.022412,0.05488,62.87056,-23.666107,-114.70993,,,
729861240.338565,60.611144,-0.175593,52.010201,0.013107,0.834549,0.568848,-0.590147,0.039057,0.047105,62.87056,-23.666107,-114.70993,,,
729861240.341953,60.611144,-0.175593,52.010201,0.013107,0.834549,0.568848,-0.590147,0.039057,0.047105,62.87056,-23.666107,-114.70993,,,
729861240.34522,60.443164,-0.187558,52.035042,0.020737,0.834747,0.537552,-0.590147,0.039057,0.047105,62.87056,-23.666107,-114.70993,,,
729861240.348598,60.278666,-0.195225,52.054478,0.020737,0.834747,0.537552,-0.566217,0.03597,0.029011,62.87056,-23.666107,-114.70993,,,
729861240.351919,60.278666,-0.195225,52.054478,0.020737,0.834747,0.537552,-0.566217,0.03597,0.029011,62.87056,-23.666107,-114.70993,,,
729861240.355221,60.116032,-0.195339,52.068325,0.02626,0.855392,0.522598,-0.566217,0.03597,0.029011,62.87056,-23.666107,-114.70993,,,
729861240.358662,59.950977,-0.184112,52.075073,0.02626,0.855392,0.522598,-0.583323,0.072051,0.004523,62.87056,-23.666107,-114.70993,,,
729861240.361908,59.950977,-0.184112,52.075073,0.02626,0.855392,0.522598,-0.583323,0.072051,0.004523,62.87056,-23.666107,-114.70993,,,
