Time (sec),Pitch (deg),Roll (deg),Yaw(deg),X-Acceleration (g),Y-Acceleration (g),Z-Acceleration (g),Pitch Rate (deg/sec),Roll Rate (deg/sec),Yaw Rate (deg/sec),Magnetic Field in X direction (uT),Magnetic Field in Y direction (uT),Magnetic Field in Z Direction (uT),Latitude (deg),Longitude (deg),Altitude (m)
729862849.978392,-1.697165,-2.996816,-160.284972,0.057068,-0.031601,0.994644,0.0391,0.000862,-0.027939,55.376953,31.974335,-143.277588,,,
729862849.981737,-1.697165,-2.996816,-160.284972,0.057068,-0.031601,0.994644,0.0391,0.000862,-0.027939,55.376953,31.974335,-143.277588,,,
729862849.985071,-1.685989,-2.996841,-160.29281,0.048935,-0.038696,0.995132,0.0391,0.000862,-0.027939,55.376953,31.974335,-143.277588,,,
729862849.988391,-1.677764,-2.999273,-160.299641,0.048935,-0.038696,0.995132,0.04509,-0.02081,-0.024646,55.376953,31.974335,-143.277588,,,
729862849.99172,-1.677764,-2.999273,-160.299641,0.048935,-0.038696,0.995132,0.04509,-0.02081,-0.024646,55.376953,31.974335,-143.277588,,,
729862849.995084,-1.665628,-3.005063,-160.306044,0.043808,-0.039673,0.993805,0.04509,-0.02081,-0.024646,55.180801,31.841354,-142.880203,,,
729862849.99839,-1.654221,-3.012566,-160.312465,0.043808,-0.039673,0.993805,0.045544,-0.027495,-0.026744,55.180801,31.841354,-142.880203,,,
729862850.001795,-1.654221,-3.012566,-160.312465,0.043808,-0.039673,0.993805,0.045544,-0.027495,-0.026744,55.180801,31.841354,-142.880203,,,
729862850.005069,-1.640924,-3.020798,-160.318789,0.047516,-0.037903,0.994583,0.045544,-0.027495,-0.026744,55.180801,31.841354,-142.880203,,,
729862850.008394,-1.627523,-3.029647,-160.324998,0.047516,-0.037903,0.994583,0.045345,-0.012589,-0.024961,55.180801,31.841354,-142.880203,,,
729862850.011735,-1.627523,-3.029647,-160.324998,0.047516,-0.037903,0.994583,0.045345,-0.012589,-0.024961,55.180801,31.841354,-142.880203,,,
729862850.015118,-1.614413,-3.034293,-160.331256,0.054855,-0.034729,0.995956,0.045345,-0.012589,-0.024961,55.180801,31.841354,-142.880203,,,
729862850.018387,-1.602731,-3.035395,-160.336357,0.054855,-0.034729,0.995956,0.03246,0.021115,-0.015266,55.180801,31.841354,-142.880203,,,
729862850.021743,-1.602731,-3.035395,-160.336357,0.054855,-0.034729,0.995956,0.03246,0.021115,-0.015266,55.180801,31.841354,-142.880203,,,
729862850.025063,-1.592951,-3.031443,-160.339624,0.053024,-0.03392,0.991714,0.03246,0.021115,-0.015266,55.180801,31.841354,-142.880203,,,
729862850.028395,-1.586096,-3.022718,-160.342324,0.053024,-0.03392,0.991714,0.01992,0.043562,-0.009949,55.180801,31.841354,-142.880203,,,
729862850.031739,-1.586096,-3.022718,-160.342324,0.053024,-0.03392,0.991714,0.01992,0.043562,-0.009949,55.180801,31.841354,-142.880203,,,
729862850.035061,-1.57976,-3.011581,-160.345127,0.050354,-0.032104,0.986938,0.01992,0.043562,-0.009949,55.129044,31.659042,-142.674698,,,
729862850.038391,-1.573487,-3.001268,-160.348377,0.050354,-0.032104,0.986938,0.019419,0.03983,-0.01657,55.129044,31.659042,-142.674698,,,
729862850.041776,-1.573487,-3.001268,-160.348377,0.050354,-0.032104,0.986938,0.019419,0.03983,-0.01657,55.129044,31.659042,-142.674698,,,
729862850.045052,-1.567109,-2.990026,-160.352385,0.053604,-0.028763,0.98317,0.019419,0.03983,-0.01657,55.129044,31.659042,-142.674698,,,
729862850.048393,-1.560577,-2.982706,-160.357153,0.053604,-0.028763,0.98317,0.021123,0.026426,-0.024344,55.129044,31.659042,-142.674698,,,
729862850.051808,-1.560577,-2.982706,-160.357153,0.053604,-0.028763,0.98317,0.021123,0.026426,-0.024344,55.129044,31.659042,-142.674698,,,
729862850.055061,-1.554936,-2.975047,-160.362317,0.05719,-0.028366,0.982269,0.021123,0.026426,-0.024344,55.129044,31.659042,-142.674698,,,
729862850.0584,-1.550754,-2.97063,-160.368182,0.05719,-0.028366,0.982269,0.024887,0.006654,-0.027271,55.129044,31.659042,-142.674698,,,
729862850.061782,-1.550754,-2.97063,-160.368182,0.05719,-0.028366,0.982269,0.024887,0.006654,-0.027271,55.129044,31.659042,-142.674698,,,
729862850.06506,-1.544054,-2.968524,-160.374784,0.057236,-0.028351,0.978714,0.024887,0.006654,-0.027271,55.129044,31.659042,-142.674698,,,
729862850.068412,-1.540251,-2.968939,-160.382265,0.057236,-0.028351,0.978714,0.016706,-0.021925,-0.03537,55.129044,31.659042,-142.674698,,,
729862850.071757,-1.540251,-2.968939,-160.382265,0.057236,-0.028351,0.978714,0.016706,-0.021925,-0.03537,55.129044,31.659042,-142.674698,,,
729862850.075054,-1.535588,-2.975022,-160.391305,0.055359,-0.026901,0.964554,0.016706,-0.021925,-0.03537,55.129044,31.659042,-142.674698,,,
729862850.078397,-1.536416,-2.982426,-160.400785,0.055359,-0.026901,0.964554,-0.004726,-0.032505,-0.030739,55.073074,31.597778,-142.900467,,,
729862850.081722,-1.536416,-2.982426,-160.400785,0.055359,-0.026901,0.964554,-0.004726,-0.032505,-0.030739,55.073074,31.597778,-142.900467,,,
729862850.08505,-1.536819,-2.992352,-160.409122,0.05307,-0.025879,0.963882,-0.004726,-0.032505,-0.030739,55.073074,31.597778,-142.900467,,,
729862850.088386,-1.539808,-3.00003,-160.415012,0.05307,-0.025879,0.963882,0.007102,-0.013653,-0.006477,55.073074,31.597778,-142.900467,,,
729862850.091735,-1.539808,-3.00003,-160.415012,0.05307,-0.025879,0.963882,0.007102,-0.013653,-0.006477,55.073074,31.597778,-142.900467,,,
729862850.095077,-1.538253,-3.006194,-160.417554,0.047195,-0.039078,0.994064,0.007102,-0.013653,-0.006477,55.073074,31.597778,-142.900467,,,
729862850.098387,-1.53477,-3.010859,-160.418374,0.047195,-0.039078,0.994064,0.036445,0.001849,-0.006674,55.073074,31.597778,-142.900467,,,
729862850.101717,-1.53477,-3.010859,-160.418374,0.047195,-0.039078,0.994064,0.036445,0.001849,-0.006674,55.073074,31.597778,-142.900467,,,
729862850.105054,-1.52502,-3.012433,-160.419104,0.056366,-0.040756,1.016953,0.036445,0.001849,-0.006674,55.073074,31.597778,-142.900467,,,
729862850.108513,-1.512992,-3.011128,-160.420946,0.056366,-0.040756,1.016953,0.05903,0.019551,-0.022655,55.073074,31.597778,-142.900467,,,
729862850.111724,-1.512992,-3.011128,-160.420946,0.056366,-0.040756,1.016953,0.05903,0.019551,-0.022655,55.073074,31.597778,-142.900467,,,
729862850.11515,-1.496057,-3.006802,-160.42537,0.068283,-0.028046,1.019592,0.05903,0.019551,-0.022655,55.073074,31.597778,-142.900467,,,
729862850.118382,-1.479349,-3.000117,-160.431985,0.068283,-0.028046,1.019592,0.058228,0.036235,-0.027658,55.05899,31.595016,-143.137161,,,
729862850.121727,-1.479349,-3.000117,-160.431985,0.068283,-0.028046,1.019592,0.058228,0.036235,-0.027658,55.05899,31.595016,-143.137161,,,
729862850.125089,-1.462125,-2.991368,-160.43903,0.065735,-0.021194,1.00621,0.058228,0.036235,-0.027658,55.05899,31.595016,-143.137161,,,
729862850.128404,-1.448734,-2.979942,-160.445082,0.065735,-0.021194,1.00621,0.028782,0.06456,-0.017568,55.05899,31.595016,-143.137161,,,
729862850.131769,-1.448734,-2.979942,-160.445082,0.065735,-0.021194,1.00621,0.028782,0.06456,-0.017568,55.05899,31.595016,-143.137161,,,
729862850.135081,-1.439468,-2.96353,-160.449285,0.050842,-0.017853,0.987534,0.028782,0.06456,-0.017568,55.05899,31.595016,-143.137161,,,
729862850.138392,-1.436574,-2.946894,-160.452145,0.050842,-0.017853,0.987534,-0.009988,0.062503,-0.01228,55.05899,31.595016,-143.137161,,,
729862850.14175,-1.436574,-2.946894,-160.452145,0.050842,-0.017853,0.987534,-0.009988,0.062503,-0.01228,55.05899,31.595016,-143.137161,,,
729862850.145054,-1.437922,-2.929763,-160.455084,0.039948,-0.011536,0.970367,-0.009988,0.062503,-0.01228,55.05899,31.595016,-143.137161,,,
729862850.14839,-1.444948,-2.918404,-160.458945,0.039948,-0.011536,0.970367,-0.034732,0.025591,-0.02236,55.05899,31.595016,-143.137161,,,
729862850.151786,-1.444948,-2.918404,-160.458945,0.039948,-0.011536,0.970367,-0.034732,0.025591,-0.02236,55.05899,31.595016,-143.137161,,,
729862850.155065,-1.454211,-2.910472,-160.464945,0.041214,-0.00618,0.965576,-0.034732,0.025591,-0.02236,55.05899,31.595016,-143.137161,,,
729862850.158414,-1.464526,-2.909396,-160.472729,0.041214,-0.00618,0.965576,-0.029593,-0.006742,-0.026788,54.965012,31.540146,-143.058502,,,
729862850.161716,-1.464526,-2.909396,-160.472729,0.041214,-0.00618,0.965576,-0.029593,-0.006742,-0.026788,54.965012,31.540146,-143.058502,,,
729862850.165098,-1.473486,-2.91148,-160.480171,0.041306,-0.016373,0.987701,-0.029593,-0.006742,-0.026788,54.965012,31.540146,-143.058502,,,
729862850.168385,-1.480107,-2.91764,-160.486955,0.041306,-0.016373,0.987701,-0.003662,-0.029162,-0.020701,54.965012,31.540146,-143.058502,,,
729862850.171727,-1.480107,-2.91764,-160.486955,0.041306,-0.016373,0.987701,-0.003662,-0.029162,-0.020701,54.965012,31.540146,-143.058502,,,
729862850.175062,-1.48156,-2.92586,-160.49277,0.042053,-0.026871,1.014359,-0.003662,-0.029162,-0.020701,54.965012,31.540146,-143.058502,,,
729862850.178394,-1.481095,-2.934556,-160.497492,0.042053,-0.026871,1.014359,0.037684,-0.032953,-0.013936,54.965012,31.540146,-143.058502,,,
729862850.181723,-1.481095,-2.934556,-160.497492,0.042053,-0.026871,1.014359,0.037684,-0.032953,-0.013936,54.965012,31.540146,-143.058502,,,
729862850.185054,-1.47174,-2.944115,-160.500936,0.039215,-0.031021,1.032425,0.037684,-0.032953,-0.013936,54.965012,31.540146,-143.058502,,,
729862850.188435,-1.460004,-2.955961,-160.502776,0.039215,-0.031021,1.032425,0.070518,-0.034053,-0.00738,54.965012,31.540146,-143.058502,,,
729862850.191746,-1.460004,-2.955961,-160.502776,0.039215,-0.031021,1.032425,0.070518,-0.034053,-0.00738,54.965012,31.540146,-143.058502,,,
729862850.195116,-1.441741,-2.966263,-160.503562,0.040939,-0.034607,1.029846,0.070518,-0.034053,-0.00738,54.965012,31.540146,-143.058502,,,
729862850.19839,-1.420896,-2.979356,-160.503555,0.040939,-0.034607,1.029846,0.071842,-0.020621,-0.006618,54.870193,31.556854,-143.27182,,,
729862850.201728,-1.420896,-2.979356,-160.503555,0.040939,-0.034607,1.029846,0.071842,-0.020621,-0.006618,54.870193,31.556854,-143.27182,,,
729862850.205071,-1.399849,-2.986856,-160.503552,0.051636,-0.0233,1.015656,0.071842,-0.020621,-0.006618,54.870193,31.556854,-143.27182,,,
729862850.208394,-1.379143,-2.99339,-160.504868,0.051636,-0.0233,1.015656,0.06493,-0.004798,-0.011202,54.870193,31.556854,-143.27182,,,
729862850.211724,-1.379143,-2.99339,-160.504868,0.051636,-0.0233,1.015656,0.06493,-0.004798,-0.011202,54.870193,31.556854,-143.27182,,,
729862850.215062,-1.360705,-2.995805,-160.506681,0.059357,-0.016571,1.004089,0.06493,-0.004798,-0.011202,54.870193,31.556854,-143.27182,,,
729862850.218388,-1.342091,-2.996088,-160.508592,0.059357,-0.016571,1.004089,0.058418,0.002085,-0.013023,54.870193,31.556854,-143.27182,,,
729862850.221722,-1.342091,-2.996088,-160.508592,0.059357,-0.016571,1.004089,0.058418,0.002085,-0.013023,54.870193,31.556854,-143.27182,,,
729862850.225059,-1.325024,-2.996547,-160.510996,0.060501,-0.016434,0.997711,0.058418,0.002085,-0.013023,54.870193,31.556854,-143.27182,,,
729862850.228388,-1.304747,-2.994186,-160.514127,0.060501,-0.016434,0.997711,0.06468,0.006502,-0.014905,54.870193,31.556854,-143.27182,,,
729862850.231729,-1.304747,-2.994186,-160.514127,0.060501,-0.016434,0.997711,0.06468,0.006502,-0.014905,54.870193,31.556854,-143.27182,,,
729862850.235069,-1.28658,-2.993162,-160.517262,0.058945,-0.015076,1.000046,0.06468,0.006502,-0.014905,54.870193,31.556854,-143.27182,,,
729862850.238387,-1.264981,-2.98656,-160.518401,0.058945,-0.015076,1.000046,0.056082,0.029247,0.005531,54.870193,31.556854,-143.27182,,,
729862850.241722,-1.264981,-2.98656,-160.518401,0.058945,-0.015076,1.000046,0.056082,0.029247,0.005531,54.868195,31.078018,-142.973511,,,
729862850.245078,-1.248864,-2.979396,-160.516582,0.048676,-0.018448,0.997421,0.056082,0.029247,0.005531,54.868195,31.078018,-142.973511,,,
729862850.24839,-1.235546,-2.968423,-160.512794,0.048676,-0.018448,0.997421,0.032037,0.021613,0.009985,54.868195,31.078018,-142.973511,,,
729862850.251778,-1.235546,-2.968423,-160.512794,0.048676,-0.018448,0.997421,0.032037,0.021613,0.009985,54.868195,31.078018,-142.973511,,,
729862850.255064,-1.225421,-2.962018,-160.50922,0.045975,-0.013931,0.975525,0.032037,0.021613,0.009985,54.868195,31.078018,-142.973511,,,
729862850.25839,-1.219329,-2.956047,-160.507381,0.045975,-0.013931,0.975525,0.012546,-0.002676,-0.004948,54.868195,31.078018,-142.973511,,,
729862850.261748,-1.219329,-2.956047,-160.507381,0.045975,-0.013931,0.975525,0.012546,-0.002676,-0.004948,54.868195,31.078018,-142.973511,,,
729862850.265113,-1.215283,-2.95599,-160.5081,0.049362,-0.001328,0.965256,0.012546,-0.002676,-0.004948,54.868195,31.078018,-142.973511,,,
729862850.268381,-1.216257,-2.95495,-160.510771,0.049362,-0.001328,0.965256,-0.008582,-0.009144,-0.014816,54.868195,31.078018,-142.973511,,,
729862850.271733,-1.216257,-2.95495,-160.510771,0.049362,-0.001328,0.965256,-0.008582,-0.009144,-0.014816,54.868195,31.078018,-142.973511,,,
729862850.275055,-1.217061,-2.9582,-160.514546,0.056702,-0.004532,0.969238,-0.008582,-0.009144,-0.014816,54.868195,31.078018,-142.973511,,,
729862850.278387,-1.222187,-2.958622,-160.518251,0.056702,-0.004532,0.969238,-0.013329,-0.000357,-0.011261,54.868195,31.078018,-142.973511,,,
729862850.281771,-1.222187,-2.958622,-160.518251,0.056702,-0.004532,0.969238,-0.013329,-0.000357,-0.011261,54.875671,31.236679,-143.231033,,,
729862850.285047,-1.225923,-2.959647,-160.521167,0.054016,-0.012314,0.98642,-0.013329,-0.000357,-0.011261,54.875671,31.236679,-143.231033,,,
729862850.288391,-1.229424,-2.958511,-160.522527,0.054016,-0.012314,0.98642,-0.004473,0.018429,0.003871,54.875671,31.236679,-143.231033,,,
729862850.291723,-1.229424,-2.958511,-160.522527,0.054016,-0.012314,0.98642,-0.004473,0.018429,0.003871,54.875671,31.236679,-143.231033,,,
729862850.295053,-1.231442,-2.954677,-160.521435,0.040024,-0.022156,1.000519,-0.004473,0.018429,0.003871,54.875671,31.236679,-143.231033,,,
729862850.29839,-1.229775,-2.950981,-160.518371,0.040024,-0.022156,1.000519,0.020519,0.02863,0.016205,54.875671,31.236679,-143.231033,,,
729862850.30178,-1.229775,-2.950981,-160.518371,0.040024,-0.022156,1.000519,0.020519,0.02863,0.016205,54.875671,31.236679,-143.231033,,,
729862850.305063,-1.226533,-2.943955,-160.514089,0.044525,-0.027679,1.01091,0.020519,0.02863,0.016205,54.875671,31.236679,-143.231033,,,
729862850.308389,-1.219294,-2.938808,-160.509514,0.044525,-0.027679,1.01091,0.034216,0.020687,0.00758,54.875671,31.236679,-143.231033,,,
729862850.311744,-1.219294,-2.938808,-160.509514,0.044525,-0.027679,1.01091,0.034216,0.020687,0.00758,54.875671,31.236679,-143.231033,,,
729862850.315105,-1.210292,-2.932511,-160.505879,0.057541,-0.024048,1.008881,0.034216,0.020687,0.00758,54.875671,31.236679,-143.231033,,,
729862850.318382,-1.198232,-2.929279,-160.504106,0.057541,-0.024048,1.008881,0.036883,0.021181,-0.00184,54.875671,31.236679,-143.231033,,,
729862850.321719,-1.198232,-2.929279,-160.504106,0.057541,-0.024048,1.008881,0.036883,0.021181,-0.00184,54.690979,31.367691,-143.167908,,,
729862850.325076,-1.187948,-2.92405,-160.503714,0.062119,-0.012787,0.997604,0.036883,0.021181,-0.00184,54.690979,31.367691,-143.167908,,,
729862850.328386,-1.178721,-2.917243,-160.503066,0.062119,-0.012787,0.997604,0.029745,0.021428,0.010783,54.690979,31.367691,-143.167908,,,
729862850.331735,-1.178721,-2.917243,-160.503066,0.062119,-0.012787,0.997604,0.029745,0.021428,0.010783,54.690979,31.367691,-143.167908,,,
729862850.335063,-1.170721,-2.912254,-160.50013,0.042252,-0.02182,0.995178,0.029745,0.021428,0.010783,54.690979,31.367691,-143.167908,,,
729862850.338388,-1.161149,-2.907317,-160.494033,0.042252,-0.02182,0.995178,0.021405,0.005142,0.023629,54.690979,31.367691,-143.167908,,,
729862850.341763,-1.161149,-2.907317,-160.494033,0.042252,-0.02182,0.995178,0.021405,0.005142,0.023629,54.690979,31.367691,-143.167908,,,
729862850.345089,-1.155308,-2.905317,-160.486631,0.03511,-0.026306,0.990082,0.021405,0.005142,0.023629,54.690979,31.367691,-143.167908,,,
729862850.348408,-1.14669,-2.906981,-160.478765,0.03511,-0.026306,0.990082,0.011256,-0.012173,0.026556,54.690979,31.367691,-143.167908,,,
729862850.351792,-1.14669,-2.906981,-160.478765,0.03511,-0.026306,0.990082,0.011256,-0.012173,0.026556,54.690979,31.367691,-143.167908,,,
729862850.35507,-1.143534,-2.910907,-160.47063,0.040741,-0.016693,0.984772,0.011256,-0.012173,0.026556,54.690979,31.367691,-143.167908,,,
729862850.358422,-1.137299,-2.919349,-160.462261,0.040741,-0.016693,0.984772,0.015567,-0.029789,0.029498,54.690979,31.367691,-143.167908,,,
729862850.361419,-1.137299,-2.919349,-160.462261,0.040741,-0.016693,0.984772,0.015567,-0.029789,0.029498,54.690979,31.367691,-143.167908,,,
729862850.365171,-1.133457,-2.927441,-160.453331,0.051926,-0.021255,0.996674,0.015567,-0.029789,0.029498,54.900208,31.033463,-143.176437,,,
729862850.368386,-1.128623,-2.936569,-160.444325,0.051926,-0.021255,0.996674,0.014924,-0.034348,0.030557,54.900208,31.033463,-143.176437,,,
729862850.371745,-1.128623,-2.936569,-160.444325,0.051926,-0.021255,0.996674,0.014924,-0.034348,0.030557,54.900208,31.033463,-143.176437,,,
729862850.375104,-1.125216,-2.946717,-160.435223,0.054596,-0.018692,1.000931,0.014924,-0.034348,0.030557,54.900208,31.033463,-143.176437,,,
729862850.378398,-1.123014,-2.953605,-160.425538,0.054596,-0.018692,1.000931,0.001148,-0.024647,0.031538,54.900208,31.033463,-143.176437,,,
729862850.381754,-1.123014,-2.953605,-160.425538,0.054596,-0.018692,1.000931,0.001148,-0.024647,0.031538,54.900208,31.033463,-143.176437,,,
729862850.385074,-1.121648,-2.962185,-160.415718,0.054459,-0.016296,0.993118,0.001148,-0.024647,0.031538,54.900208,31.033463,-143.176437,,,
729862850.388393,-1.12542,-2.967028,-160.406656,0.054459,-0.016296,0.993118,-0.020095,-0.006455,0.026062,54.900208,31.033463,-143.176437,,,
729862850.391749,-1.12542,-2.967028,-160.406656,0.054459,-0.016296,0.993118,-0.020095,-0.006455,0.026062,54.900208,31.033463,-143.176437,,,
729862850.395083,-1.130665,-2.970045,-160.398731,0.062561,-0.010681,0.984299,-0.020095,-0.006455,0.026062,54.900208,31.033463,-143.176437,,,
729862850.398387,-1.138693,-2.97288,-160.392924,0.062561,-0.010681,0.984299,-0.032692,0.007938,0.004709,54.900208,31.033463,-143.176437,,,
729862850.401724,-1.138693,-2.97288,-160.392924,0.062561,-0.010681,0.984299,-0.032692,0.007938,0.004709,54.900208,31.033463,-143.176437,,,
729862850.405064,-1.148376,-2.971491,-160.39032,0.072723,-0.005478,0.980927,-0.032692,0.007938,0.004709,55.012283,30.904877,-143.311386,,,
729862850.408398,-1.157712,-2.970064,-160.390443,0.072723,-0.005478,0.980927,-0.039277,0.022724,-0.003355,55.012283,30.904877,-143.311386,,,
729862850.411723,-1.157712,-2.970064,-160.390443,0.072723,-0.005478,0.980927,-0.039277,0.022724,-0.003355,55.012283,30.904877,-143.311386,,,
729862850.415133,-1.169156,-2.965393,-160.391856,0.071609,-0.012192,0.995224,-0.039277,0.022724,-0.003355,55.012283,30.904877,-143.311386,,,
729862850.418381,-1.181465,-2.95666,-160.393036,0.071609,-0.012192,0.995224,-0.034072,0.01564,0.003075,55.012283,30.904877,-143.311386,,,
729862850.421723,-1.181465,-2.95666,-160.393036,0.071609,-0.012192,0.995224,-0.034072,0.01564,0.003075,55.012283,30.904877,-143.311386,,,
729862850.425057,-1.191798,-2.953017,-160.392899,0.054047,-0.023849,1.006241,-0.034072,0.01564,0.003075,55.012283,30.904877,-143.311386,,,
729862850.42839,-1.201337,-2.947766,-160.39085,0.054047,-0.023849,1.006241,-0.018784,-0.008029,0.012861,55.012283,30.904877,-143.311386,,,
729862850.431738,-1.201337,-2.947766,-160.39085,0.054047,-0.023849,1.006241,-0.018784,-0.008029,0.012861,55.012283,30.904877,-143.311386,,,
729862850.435077,-1.20755,-2.949964,-160.387372,0.040909,-0.030853,1.009628,-0.018784,-0.008029,0.012861,55.012283,30.904877,-143.311386,,,
729862850.438387,-1.208922,-2.953844,-160.38292,0.040909,-0.030853,1.009628,0.010372,-0.029137,0.013784,55.012283,30.904877,-143.311386,,,
729862850.441724,-1.208922,-2.953844,-160.38292,0.040909,-0.030853,1.009628,0.010372,-0.029137,0.013784,55.012283,30.904877,-143.311386,,,
729862850.44506,-1.207106,-2.96282,-160.377811,0.045609,-0.030685,1.019073,0.010372,-0.029137,0.013784,54.893433,31.163727,-143.03624,,,
729862850.448389,-1.201752,-2.975845,-160.372688,0.045609,-0.030685,1.019073,0.030391,-0.050745,0.010087,54.893433,31.163727,-143.03624,,,
729862850.451796,-1.201752,-2.975845,-160.372688,0.045609,-0.030685,1.019073,0.030391,-0.050745,0.010087,54.893433,31.163727,-143.03624,,,
729862850.455057,-1.194324,-2.990683,-160.368885,0.061386,-0.027557,1.016907,0.030391,-0.050745,0.010087,54.893433,31.163727,-143.03624,,,
729862850.458391,-1.186137,-3.005869,-160.366616,0.061386,-0.027557,1.016907,0.019287,-0.038294,0.002831,54.893433,31.163727,-143.03624,,,
729862850.461736,-1.186137,-3.005869,-160.366616,0.061386,-0.027557,1.016907,0.019287,-0.038294,0.002831,54.893433,31.163727,-143.03624,,,
729862850.465122,-1.180534,-3.018031,-160.365074,0.066406,-0.018448,1.006958,0.019287,-0.038294,0.002831,54.893433,31.163727,-143.03624,,,
729862850.468382,-1.176212,-3.027321,-160.363718,0.066406,-0.018448,1.006958,0.003209,-0.007102,0.004524,54.893433,31.163727,-143.03624,,,
729862850.471737,-1.176212,-3.027321,-160.363718,0.066406,-0.018448,1.006958,0.003209,-0.007102,0.004524,54.893433,31.163727,-143.03624,,,
729862850.47508,-1.175344,-3.031667,-160.361968,0.062988,-0.017838,1.002655,0.003209,-0.007102,0.004524,54.893433,31.163727,-143.03624,,,
729862850.478381,-1.174451,-3.035359,-160.359961,0.062988,-0.017838,1.002655,-0.014618,0.021503,0.005962,54.893433,31.163727,-143.03624,,,
729862850.48178,-1.174451,-3.035359,-160.359961,0.062988,-0.017838,1.002655,-0.014618,0.021503,0.005962,54.893433,31.163727,-143.03624,,,
729862850.485054,-1.178188,-3.031783,-160.358147,0.065277,-0.019135,1.001816,-0.014618,0.021503,0.005962,54.768799,31.1763,-143.287125,,,
729862850.488391,-1.180293,-3.030198,-160.35691,0.065277,-0.019135,1.001816,-0.015052,0.043475,0.0056,54.768799,31.1763,-143.287125,,,
729862850.491722,-1.180293,-3.030198,-160.35691,0.065277,-0.019135,1.001816,-0.015052,0.043475,0.0056,54.768799,31.1763,-143.287125,,,
729862850.494777,-1.185678,-3.01943,-160.355447,0.06488,-0.020752,1.006149,-0.015052,0.043475,0.0056,54.768799,31.1763,-143.287125,,,
729862850.498429,-1.185678,-3.01943,-160.355447,0.06488,-0.020752,1.006149,-0.002072,0.039812,0.011512,54.768799,31.1763,-143.287125,,,
729862850.501809,-1.188184,-3.011011,-160.353366,0.06488,-0.020752,1.006149,-0.002072,0.039812,0.011512,54.768799,31.1763,-143.287125,,,
729862850.505075,-1.189436,-2.999831,-160.350349,0.056137,-0.028442,1.015106,-0.002072,0.039812,0.011512,54.768799,31.1763,-143.287125,,,
729862850.508389,-1.18925,-2.991543,-160.34744,0.056137,-0.028442,1.015106,0.017185,0.008036,-0.000272,54.768799,31.1763,-143.287125,,,
729862850.511746,-1.18925,-2.991543,-160.34744,0.056137,-0.028442,1.015106,0.017185,0.008036,-0.000272,54.768799,31.1763,-143.287125,,,
729862850.515102,-1.18519,-2.988543,-160.34595,0.055023,-0.024857,1.00531,0.017185,0.008036,-0.000272,54.768799,31.1763,-143.287125,,,
729862850.518421,-1.18519,-2.988543,-160.34595,0.055023,-0.024857,1.00531,0.029898,-0.01769,-0.009653,54.768799,31.1763,-143.287125,,,
729862850.521729,-1.18098,-2.987011,-160.346348,0.055023,-0.024857,1.00531,0.029898,-0.01769,-0.009653,54.768799,31.1763,-143.287125,,,
729862850.525064,-1.173085,-2.992045,-160.34807,0.053299,-0.017929,0.998413,0.029898,-0.01769,-0.009653,54.768799,31.1763,-143.287125,,,
729862850.528399,-1.173085,-2.992045,-160.349922,0.053299,-0.017929,0.998413,0.029898,-0.01769,-0.00947,54.98204,31.064148,-143.121353,,,
729862850.531745,-1.166313,-2.997745,-160.349922,0.053299,-0.017929,0.998413,0.02871,-0.022563,-0.00947,54.98204,31.064148,-143.121353,,,
729862850.535072,-1.157572,-3.004547,-160.351475,0.054245,-0.023926,1.00116,0.02871,-0.022563,-0.00947,54.98204,31.064148,-143.121353,,,
729862850.53839,-1.157572,-3.004547,-160.351475,0.054245,-0.023926,1.00116,0.02871,-0.022563,-0.00947,54.98204,31.064148,-143.121353,,,
729862850.541735,-1.149943,-3.013186,-160.3525,0.054245,-0.023926,1.00116,0.031816,-0.010498,-0.005278,54.98204,31.064148,-143.121353,,,
729862850.545064,-1.140527,-3.018053,-160.353198,0.05632,-0.025558,1.004883,0.031816,-0.010498,-0.005278,54.98204,31.064148,-143.121353,,,
729862850.548419,-1.140527,-3.018053,-160.353198,0.05632,-0.025558,1.004883,0.031816,-0.010498,-0.005278,54.98204,31.064148,-143.121353,,,
729862850.551791,-1.130257,-3.025098,-160.354925,0.05632,-0.025558,1.004883,0.030312,-0.007465,-0.016474,54.98204,31.064148,-143.121353,,,
729862850.555049,-1.121507,-3.028188,-160.358397,0.061279,-0.015961,0.99736,0.030312,-0.007465,-0.016474,54.98204,31.064148,-143.121353,,,
729862850.558469,-1.121507,-3.028188,-160.358397,0.061279,-0.015961,0.99736,0.027574,0.002765,-0.026791,54.98204,31.064148,-143.121353,,,
729862850.56173,-1.113068,-3.033022,-160.363538,0.061279,-0.015961,0.99736,0.027574,0.002765,-0.026791,54.98204,31.064148,-143.121353,,,
729862850.5651,-1.105087,-3.033265,-160.369807,0.063538,-0.017029,0.993057,0.027574,0.002765,-0.026791,54.98204,31.064148,-143.121353,,,
729862850.568453,-1.105087,-3.033265,-160.369807,0.063538,-0.017029,0.993057,0.026621,0.016401,-0.024762,54.837234,31.219467,-143.130295,,,
729862850.571731,-1.097361,-3.035199,-160.376708,0.063538,-0.017029,0.993057,0.026621,0.016401,-0.024762,54.837234,31.219467,-143.130295,,,
729862850.575058,-1.089306,-3.031349,-160.383356,0.055817,-0.020676,0.994217,0.026621,0.016401,-0.024762,54.837234,31.219467,-143.130295,,,
729862850.578452,-1.089306,-3.031349,-160.383356,0.055817,-0.020676,0.994217,0.026621,0.016401,-0.024762,54.837234,31.219467,-143.130295,,,
729862850.58174,-1.081937,-3.026859,-160.389049,0.055817,-0.020676,0.994217,0.026,0.039698,-0.017483,54.837234,31.219467,-143.130295,,,
729862850.585054,-1.074391,-3.016917,-160.393664,0.046814,-0.027267,0.998566,0.026,0.039698,-0.017483,54.837234,31.219467,-143.130295,,,
729862850.58846,-1.074391,-3.016917,-160.393664,0.046814,-0.027267,0.998566,0.026,0.039698,-0.017483,54.837234,31.219467,-143.130295,,,
729862850.591729,-1.068507,-3.006015,-160.397363,0.046814,-0.027267,0.998566,0.028174,0.040983,-0.012428,54.837234,31.219467,-143.130295,,,
729862850.595058,-1.06047,-2.995087,-160.400017,0.047256,-0.029037,0.998138,0.028174,0.040983,-0.012428,54.837234,31.219467,-143.130295,,,
729862850.598409,-1.06047,-2.995087,-160.400017,0.047256,-0.029037,0.998138,0.028174,0.040983,-0.012428,54.837234,31.219467,-143.130295,,,
729862850.601722,-1.054329,-2.986328,-160.40218,0.047256,-0.029037,0.998138,0.020992,0.030638,-0.009529,54.837234,31.219467,-143.130295,,,
729862850.605057,-1.047748,-2.977789,-160.4038,0.045746,-0.023376,0.988174,0.020992,0.030638,-0.009529,54.837234,31.219467,-143.130295,,,
729862850.608391,-1.047748,-2.977789,-160.4038,0.045746,-0.023376,0.988174,0.020992,0.030638,-0.009529,54.747559,31.161789,-142.914337,,,
729862850.611733,-1.043147,-2.970625,-160.405018,0.045746,-0.023376,0.988174,0.003269,0.020561,-0.005473,54.747559,31.161789,-142.914337,,,
729862850.615053,-1.041923,-2.965206,-160.406451,0.045975,-0.01976,0.978165,0.003269,0.020561,-0.005473,54.747559,31.161789,-142.914337,,,
729862850.618469,-1.041923,-2.965206,-160.406451,0.045975,-0.01976,0.978165,0.003269,0.020561,-0.005473,54.747559,31.161789,-142.914337,,,
729862850.621787,-1.045356,-2.963098,-160.408165,0.045975,-0.01976,0.978165,-0.017157,-0.000754,-0.008329,54.747559,31.161789,-142.914337,,,
729862850.625065,-1.049878,-2.963193,-160.41021,0.047745,-0.016922,0.967239,-0.017157,-0.000754,-0.008329,54.747559,31.161789,-142.914337,,,
729862850.628443,-1.049878,-2.963193,-160.41021,0.047745,-0.016922,0.967239,-0.017157,-0.000754,-0.008329,54.747559,31.161789,-142.914337,,,
729862850.631806,-1.05816,-2.967813,-160.413408,0.047745,-0.016922,0.967239,-0.035937,-0.016139,-0.015662,54.747559,31.161789,-142.914337,,,
729862850.635058,-1.067333,-2.972834,-160.417485,0.053513,-0.014999,0.973022,-0.035937,-0.016139,-0.015662,54.747559,31.161789,-142.914337,,,
729862850.638445,-1.067333,-2.972834,-160.417485,0.053513,-0.014999,0.973022,-0.035937,-0.016139,-0.015662,54.747559,31.161789,-142.914337,,,
729862850.641721,-1.07675,-2.981104,-160.421937,0.053513,-0.014999,0.973022,-0.038047,-0.010348,-0.017187,54.747559,31.161789,-142.914337,,,
729862850.645073,-1.087064,-2.985921,-160.426781,0.060318,-0.019073,0.98587,-0.038047,-0.010348,-0.017187,54.747559,31.161789,-142.914337,,,
729862850.648439,-1.087064,-2.985921,-160.426781,0.060318,-0.019073,0.98587,-0.038047,-0.010348,-0.017187,54.739944,31.089767,-143.233017,,,
729862850.651721,-1.09719,-2.992731,-160.432021,0.060318,-0.019073,0.98587,-0.029946,-0.007592,-0.020715,54.739944,31.089767,-143.233017,,,
729862850.655074,-1.106811,-2.995886,-160.437557,0.058517,-0.020645,0.995331,-0.029946,-0.007592,-0.020715,54.739944,31.089767,-143.233017,,,
729862850.65843,-1.106811,-2.995886,-160.437557,0.058517,-0.020645,0.995331,-0.029946,-0.007592,-0.020715,54.739944,31.089767,-143.233017,,,
729862850.66173,-1.115503,-2.999154,-160.443476,0.058517,-0.020645,0.995331,-0.019404,-0.008727,-0.017744,54.739944,31.089767,-143.233017,,,
729862850.665067,-1.121633,-3.001606,-160.449072,0.055679,-0.021103,0.997864,-0.019404,-0.008727,-0.017744,54.739944,31.089767,-143.233017,,,
729862850.668512,-1.121633,-3.001606,-160.449072,0.055679,-0.021103,0.997864,-0.019404,-0.008727,-0.017744,54.739944,31.089767,-143.233017,,,
729862850.671727,-1.127168,-3.00161,-160.453531,0.055679,-0.021103,0.997864,-0.002249,-0.00226,-0.015542,54.739944,31.089767,-143.233017,,,
729862850.675064,-1.127929,-3.002744,-160.45725,0.051712,-0.02713,1.004456,-0.002249,-0.00226,-0.015542,54.739944,31.089767,-143.233017,,,
729862850.678407,-1.127929,-3.002744,-160.45725,0.051712,-0.02713,1.004456,-0.002249,-0.00226,-0.015542,54.739944,31.089767,-143.233017,,,
729862850.681794,-1.128496,-3.001464,-160.460697,0.051712,-0.02713,1.004456,0.011946,0.004288,-0.015109,54.739944,31.089767,-143.233017,,,
729862850.685049,-1.125142,-3.001231,-160.463958,0.052551,-0.024475,1.00531,0.011946,0.004288,-0.015109,54.739944,31.089767,-143.233017,,,
729862850.688407,-1.125142,-3.001231,-160.463958,0.052551,-0.024475,1.00531,0.011946,0.004288,-0.015109,54.739944,31.089767,-143.233017,,,
729862850.691722,-1.121344,-3.00011,-160.466986,0.052551,-0.024475,1.00531,0.014337,-0.00605,-0.013975,54.682968,31.27063,-143.121872,,,
729862850.695052,-1.116951,-3.001942,-160.469972,0.051422,-0.020554,0.992722,0.014337,-0.00605,-0.013975,54.682968,31.27063,-143.121872,,,
729862850.698406,-1.116951,-3.001942,-160.469972,0.051422,-0.020554,0.992722,0.014337,-0.00605,-0.013975,54.682968,31.27063,-143.121872,,,
729862850.701731,-1.112666,-3.003096,-160.4731,0.051422,-0.020554,0.992722,0.010774,-0.001611,-0.01203,54.682968,31.27063,-143.121872,,,
729862850.705059,-1.10961,-3.004517,-160.476309,0.04892,-0.022491,0.989182,0.010774,-0.001611,-0.01203,54.682968,31.27063,-143.121872,,,
729862850.708388,-1.10961,-3.004517,-160.476309,0.04892,-0.022491,0.989182,0.010774,-0.001611,-0.01203,54.682968,31.27063,-143.121872,,,
729862850.711536,-1.107464,-3.002285,-160.478589,0.04892,-0.022491,0.989182,0.001101,0.029487,-0.003752,54.682968,31.27063,-143.121872,,,
729862850.715085,-1.107317,-2.996002,-160.479324,0.04599,-0.024384,0.997696,0.001101,0.029487,-0.003752,54.682968,31.27063,-143.121872,,,
729862850.718453,-1.107317,-2.996002,-160.479324,0.04599,-0.024384,0.997696,0.001101,0.029487,-0.003752,54.682968,31.27063,-143.121872,,,
729862850.72172,-1.107497,-2.986501,-160.479289,0.04599,-0.024384,0.997696,-0.003252,0.050089,0.002198,54.682968,31.27063,-143.121872,,,
729862850.725137,-1.1087,-2.973369,-160.478828,0.04631,-0.024368,1.00145,-0.003252,0.050089,0.002198,54.682968,31.27063,-143.121872,,,
729862850.728392,-1.1087,-2.973369,-160.478828,0.04631,-0.024368,1.00145,-0.003252,0.050089,0.002198,54.682968,31.27063,-143.121872,,,
729862850.731796,-1.110129,-2.962718,-160.478476,0.04631,-0.024368,1.00145,-0.006397,0.041647,-0.001982,55.026733,31.076416,-143.471985,,,
729862850.735051,-1.112017,-2.951037,-160.478885,0.050293,-0.019226,0.988525,-0.006397,0.041647,-0.001982,55.026733,31.076416,-143.471985,,,
729862850.738402,-1.112017,-2.951037,-160.478885,0.050293,-0.019226,0.988525,-0.006397,0.041647,-0.001982,55.026733,31.076416,-143.471985,,,
729862850.741775,-1.115096,-2.941954,-160.480518,0.050293,-0.019226,0.988525,-0.011796,0.036295,-0.007802,55.026733,31.076416,-143.471985,,,
729862850.745051,-1.118529,-2.931862,-160.483145,0.050934,-0.015411,0.984207,-0.011796,0.036295,-0.007802,55.026733,31.076416,-143.471985,,,
729862850.748401,-1.118529,-2.931862,-160.483145,0.050934,-0.015411,0.984207,-0.011796,0.036295,-0.007802,55.026733,31.076416,-143.471985,,,
729862850.751732,-1.12309,-2.925204,-160.48616,0.050934,-0.015411,0.984207,-0.014131,0.015792,-0.013194,55.026733,31.076416,-143.471985,,,
729862850.755065,-1.12688,-2.920753,-160.489573,0.047668,-0.015579,0.983002,-0.014131,0.015792,-0.013194,55.026733,31.076416,-143.471985,,,
729862850.758393,-1.12688,-2.920753,-160.489573,0.047668,-0.015579,0.983002,-0.014131,0.015792,-0.013194,55.026733,31.076416,-143.471985,,,
729862850.761743,-1.132097,-2.920292,-160.494196,0.047668,-0.015579,0.983002,-0.016621,-0.013537,-0.024891,55.026733,31.076416,-143.471985,,,
729862850.765058,-1.136284,-2.923703,-160.500499,0.046738,-0.010895,0.974808,-0.016621,-0.013537,-0.024891,55.026733,31.076416,-143.471985,,,
729862850.768452,-1.136284,-2.923703,-160.500499,0.046738,-0.010895,0.974808,-0.016621,-0.013537,-0.024891,55.026733,31.076416,-143.471985,,,
729862850.771719,-1.142056,-2.931539,-160.507257,0.046738,-0.010895,0.974808,-0.021422,-0.039331,-0.023787,55.039917,31.172699,-143.530991,,,
729862850.775057,-1.148095,-2.942461,-160.514008,0.044754,-0.011383,0.968811,-0.021422,-0.039331,-0.023787,55.039917,31.172699,-143.530991,,,
729862850.778397,-1.148095,-2.942461,-160.514008,0.044754,-0.011383,0.968811,-0.021422,-0.039331,-0.023787,55.039917,31.172699,-143.530991,,,
729862850.781793,-1.155078,-2.95442,-160.520221,0.044754,-0.011383,0.968811,-0.02309,-0.036288,-0.017235,55.039917,31.172699,-143.530991,,,
729862850.785049,-1.161614,-2.965859,-160.524477,0.039612,-0.018326,0.979324,-0.02309,-0.036288,-0.017235,55.039917,31.172699,-143.530991,,,
729862850.788409,-1.161614,-2.965859,-160.524477,0.039612,-0.018326,0.979324,-0.02309,-0.036288,-0.017235,55.039917,31.172699,-143.530991,,,
729862850.791733,-1.167954,-2.974587,-160.526316,0.039612,-0.018326,0.979324,-0.013479,-0.016311,-0.001164,55.039917,31.172699,-143.530991,,,
729862850.795066,-1.1722,-2.981202,-160.526186,0.035309,-0.025772,0.99707,-0.013479,-0.016311,-0.001164,55.039917,31.172699,-143.530991,,,
729862850.79839,-1.1722,-2.981202,-160.526186,0.035309,-0.025772,0.99707,-0.013479,-0.016311,-0.001164,55.039917,31.172699,-143.530991,,,
729862850.801733,-1.175626,-2.980777,-160.523731,0.035309,-0.025772,0.99707,0.006634,0.023692,0.016101,55.039917,31.172699,-143.530991,,,
729862850.805057,-1.175003,-2.975977,-160.519285,0.039566,-0.028427,1.017502,0.006634,0.023692,0.016101,55.039917,31.172699,-143.530991,,,
729862850.808389,-1.175003,-2.975977,-160.519285,0.039566,-0.028427,1.017502,0.006634,0.023692,0.016101,55.039917,31.172699,-143.530991,,,
729862850.811728,-1.171237,-2.96422,-160.513777,0.039566,-0.028427,1.017502,0.033303,0.059529,0.016728,54.804733,31.110703,-143.48436,,,
729862850.815056,-1.16279,-2.94924,-160.507755,0.049026,-0.027222,1.026093,0.033303,0.059529,0.016728,54.804733,31.110703,-143.48436,,,
729862850.81849,-1.16279,-2.94924,-160.507755,0.049026,-0.027222,1.026093,0.033303,0.059529,0.016728,54.804733,31.110703,-143.48436,,,
729862850.821735,-1.151983,-2.930465,-160.502107,0.049026,-0.027222,1.026093,0.03746,0.081837,0.013814,54.804733,31.110703,-143.48436,,,
729862850.82507,-1.141892,-2.908669,-160.497354,0.05571,-0.017441,1.009003,0.03746,0.081837,0.013814,54.804733,31.110703,-143.48436,,,
729862850.828424,-1.141892,-2.908669,-160.497354,0.05571,-0.017441,1.009003,0.03746,0.081837,0.013814,54.804733,31.110703,-143.48436,,,
729862850.831796,-1.132916,-2.886249,-160.493626,0.05571,-0.017441,1.009003,0.012595,0.074845,0.00736,54.804733,31.110703,-143.48436,,,
729862850.835055,-1.128071,-2.865386,-160.491097,0.048752,-0.008682,0.981064,0.012595,0.074845,0.00736,54.804733,31.110703,-143.48436,,,
729862850.838405,-1.128071,-2.865386,-160.491097,0.048752,-0.008682,0.981064,0.012595,0.074845,0.00736,54.804733,31.110703,-143.48436,,,
729862850.841729,-1.126731,-2.847351,-160.489848,0.048752,-0.008682,0.981064,-0.021367,0.041712,0.003006,54.804733,31.110703,-143.48436,,,
729862850.845062,-1.131702,-2.83415,-160.488897,0.039658,-0.005112,0.959351,-0.021367,0.041712,0.003006,54.804733,31.110703,-143.48436,,,
729862850.848425,-1.131702,-2.83415,-160.488897,0.039658,-0.005112,0.959351,-0.021367,0.041712,0.003006,54.804733,31.110703,-143.48436,,,
729862850.851742,-1.140291,-2.825345,-160.487648,0.039658,-0.005112,0.959351,-0.05595,0.012798,0.009409,54.804733,31.110703,-143.48436,,,
729862850.855065,-1.155861,-2.82125,-160.485788,0.030533,-0.008423,0.956848,-0.05595,0.012798,0.009409,54.812454,31.299408,-143.62384,,,
729862850.858398,-1.155861,-2.82125,-160.485788,0.030533,-0.008423,0.956848,-0.05595,0.012798,0.009409,54.812454,31.299408,-143.62384,,,
729862850.861743,-1.173293,-2.819592,-160.482702,0.030533,-0.008423,0.956848,-0.072516,-0.008427,0.013068,54.812454,31.299408,-143.62384,,,
729862850.865057,-1.194418,-2.82217,-160.479254,0.032059,-0.012787,0.970627,-0.072516,-0.008427,0.013068,54.812454,31.299408,-143.62384,,,
729862850.868459,-1.194418,-2.82217,-160.479254,0.032059,-0.012787,0.970627,-0.072516,-0.008427,0.013068,54.812454,31.299408,-143.62384,,,
729862850.871731,-1.216389,-2.825744,-160.476313,0.032059,-0.012787,0.970627,-0.068315,-0.02702,0.007938,54.812454,31.299408,-143.62384,,,
729862850.875085,-1.237418,-2.833973,-160.474316,0.044144,-0.013092,0.988266,-0.068315,-0.02702,0.007938,54.812454,31.299408,-143.62384,,,
729862850.878411,-1.237418,-2.833973,-160.474316,0.044144,-0.013092,0.988266,-0.068315,-0.02702,0.007938,54.812454,31.299408,-143.62384,,,
729862850.881828,-1.256878,-2.839566,-160.473114,0.044144,-0.013092,0.988266,-0.046425,-0.02177,0.0045,54.812454,31.299408,-143.62384,,,
729862850.885062,-1.271483,-2.846702,-160.471674,0.049179,-0.018555,1.009399,-0.046425,-0.02177,0.0045,54.812454,31.299408,-143.62384,,,
729862850.888417,-1.271483,-2.846702,-160.471674,0.049179,-0.018555,1.009399,-0.046425,-0.02177,0.0045,54.812454,31.299408,-143.62384,,,
729862850.891801,-1.28315,-2.850896,-160.468481,0.049179,-0.018555,1.009399,-0.01834,-0.010704,0.019842,54.812454,31.299408,-143.62384,,,
729862850.895159,-1.289405,-2.855977,-160.463122,0.046188,-0.032593,1.027374,-0.01834,-0.010704,0.019842,55.222687,31.137207,-143.609756,,,
729862850.898242,-1.289405,-2.855977,-160.463122,0.046188,-0.032593,1.027374,-0.01834,-0.010704,0.019842,55.222687,31.137207,-143.609756,,,
729862850.901794,-1.291795,-2.859334,-160.455933,0.046188,-0.032593,1.027374,0.016848,-0.006049,0.029735,55.222687,31.137207,-143.609756,,,
729862850.905116,-1.289068,-2.861272,-160.447589,0.045868,-0.034882,1.036758,0.016848,-0.006049,0.029735,55.222687,31.137207,-143.609756,,,
729862850.908505,-1.289068,-2.861272,-160.447589,0.045868,-0.034882,1.036758,0.016848,-0.006049,0.029735,55.222687,31.137207,-143.609756,,,
729862850.911749,-1.280144,-2.863885,-160.43836,0.045868,-0.034882,1.036758,0.040712,-0.001817,0.033173,55.222687,31.137207,-143.609756,,,
729862850.915067,-1.269279,-2.865486,-160.428547,0.047943,-0.031708,1.03331,0.040712,-0.001817,0.033173,55.222687,31.137207,-143.609756,,,
729862850.91848,-1.269279,-2.865486,-160.428547,0.047943,-0.031708,1.03331,0.040712,-0.001817,0.033173,55.222687,31.137207,-143.609756,,,
729862850.921748,-1.255593,-2.86524,-160.418793,0.047943,-0.031708,1.03331,0.039315,0.00507,0.023929,55.222687,31.137207,-143.609756,,,
729862850.92507,-1.244633,-2.864255,-160.410299,0.060303,-0.020905,1.019669,0.039315,0.00507,0.023929,55.222687,31.137207,-143.609756,,,
729862850.928414,-1.244633,-2.864255,-160.410299,0.060303,-0.020905,1.019669,0.039315,0.00507,0.023929,55.222687,31.137207,-143.609756,,,
729862850.931833,-1.233505,-2.860722,-160.403516,0.060303,-0.020905,1.019669,0.016311,0.01109,0.015456,55.222687,31.137207,-143.609756,,,
729862850.935056,-1.227938,-2.85786,-160.397942,0.066025,-0.013153,1.000473,0.016311,0.01109,0.015456,55.27005,31.304077,-143.687225,,,
729862850.938392,-1.227938,-2.85786,-160.397942,0.066025,-0.013153,1.000473,0.016311,0.01109,0.015456,55.27005,31.304077,-143.687225,,,
729862850.94182,-1.225125,-2.851059,-160.392668,0.066025,-0.013153,1.000473,-0.009268,0.019955,0.017639,55.27005,31.304077,-143.687225,,,
729862850.945065,-1.227742,-2.846263,-160.387346,0.058914,-0.01265,0.993271,-0.009268,0.019955,0.017639,55.27005,31.304077,-143.687225,,,
729862850.948411,-1.227742,-2.846263,-160.387346,0.058914,-0.01265,0.993271,-0.009268,0.019955,0.017639,55.27005,31.304077,-143.687225,,,
729862850.951762,-1.233292,-2.836685,-160.381223,0.058914,-0.01265,0.993271,-0.033402,0.030956,0.023764,55.27005,31.304077,-143.687225,,,
729862850.955064,-1.243097,-2.828478,-160.374412,0.055527,-0.018005,0.996185,-0.033402,0.030956,0.023764,55.27005,31.304077,-143.687225,,,
729862850.958398,-1.243097,-2.828478,-160.374412,0.055527,-0.018005,0.996185,-0.033402,0.030956,0.023764,55.27005,31.304077,-143.687225,,,
729862850.961744,-1.252888,-2.821106,-160.36793,0.055527,-0.018005,0.996185,-0.039846,0.008642,0.02073,55.27005,31.304077,-143.687225,,,
729862850.965066,-1.264903,-2.817952,-160.36216,0.058594,-0.015884,0.993698,-0.039846,0.008642,0.02073,55.27005,31.304077,-143.687225,,,
729862850.968461,-1.264903,-2.817952,-160.36216,0.058594,-0.015884,0.993698,-0.039846,0.008642,0.02073,55.27005,31.304077,-143.687225,,,
729862850.971733,-1.276054,-2.819322,-160.357634,0.058594,-0.015884,0.993698,-0.025049,-0.021025,0.013234,55.27005,31.304077,-143.687225,,,
729862850.975087,-1.285161,-2.825091,-160.354266,0.062332,-0.019775,0.999939,-0.025049,-0.021025,0.013234,55.27005,31.304077,-143.687225,,,
729862850.978388,-1.285161,-2.825091,-160.354266,0.062332,-0.019775,0.999939,-0.025049,-0.021025,0.013234,55.42955,31.307693,-143.749298,,,
729862850.981735,-1.292574,-2.83341,-160.350787,0.062332,-0.019775,0.999939,-0.000552,-0.046119,0.014698,55.42955,31.307693,-143.749298,,,
729862850.985066,-1.293402,-2.846061,-160.346737,0.061615,-0.031219,1.016724,-0.000552,-0.046119,0.014698,55.42955,31.307693,-143.749298,,,
729862850.988406,-1.293402,-2.846061,-160.346737,0.061615,-0.031219,1.016724,-0.000552,-0.046119,0.014698,55.42955,31.307693,-143.749298,,,
729862850.991765,-1.291622,-2.860908,-160.342756,0.061615,-0.031219,1.016724,0.031036,-0.062343,0.010564,55.42955,31.307693,-143.749298,,,
729862850.995065,-1.284615,-2.878597,-160.339517,0.061432,-0.029953,1.018372,0.031036,-0.062343,0.010564,55.42955,31.307693,-143.749298,,,
729862850.998405,-1.284615,-2.878597,-160.339517,0.061432,-0.029953,1.018372,0.031036,-0.062343,0.010564,55.42955,31.307693,-143.749298,,,
729862851.00175,-1.276291,-2.895578,-160.336922,0.061432,-0.029953,1.018372,0.038148,-0.048435,0.006641,55.42955,31.307693,-143.749298,,,
729862851.005065,-1.266047,-2.910894,-160.334346,0.060776,-0.023468,1.013306,0.038148,-0.048435,0.006641,55.42955,31.307693,-143.749298,,,
729862851.008424,-1.266047,-2.910894,-160.334346,0.060776,-0.023468,1.013306,0.038148,-0.048435,0.006641,55.42955,31.307693,-143.749298,,,
729862851.011746,-1.255455,-2.925672,-160.331191,0.060776,-0.023468,1.013306,0.025137,-0.014275,0.012135,55.42955,31.307693,-143.749298,,,
729862851.01506,-1.247456,-2.932429,-160.327218,0.06105,-0.02121,1.005859,0.025137,-0.014275,0.012135,55.42955,31.307693,-143.749298,,,
729862851.018472,-1.247456,-2.932429,-160.327218,0.06105,-0.02121,1.005859,0.025137,-0.014275,0.012135,55.175522,31.321533,-143.613968,,,
729862851.021735,-1.239101,-2.936778,-160.322971,0.06105,-0.02121,1.005859,0.012588,0.020522,0.009926,55.175522,31.321533,-143.613968,,,
729862851.025067,-1.235097,-2.932826,-160.319721,0.067657,-0.018738,1.003052,0.012588,0.020522,0.009926,55.175522,31.321533,-143.613968,,,
729862851.028391,-1.235097,-2.932826,-160.319721,0.067657,-0.018738,1.003052,0.012588,0.020522,0.009926,55.175522,31.321533,-143.613968,,,
729862851.031738,-1.232171,-2.928297,-160.318192,0.067657,-0.018738,1.003052,-0.004216,0.019759,-0.000318,55.175522,31.321533,-143.613968,,,
729862851.035061,-1.233587,-2.923528,-160.317752,0.064774,-0.01329,0.989517,-0.004216,0.019759,-0.000318,55.175522,31.321533,-143.613968,,,
729862851.038394,-1.233587,-2.923528,-160.317752,0.064774,-0.01329,0.989517,-0.004216,0.019759,-0.000318,55.175522,31.321533,-143.613968,,,
729862851.041732,-1.236229,-2.922816,-160.318315,0.064774,-0.01329,0.989517,-0.017647,-0.005007,-0.003038,55.175522,31.321533,-143.613968,,,
729862851.04507,-1.240844,-2.923916,-160.319287,0.053085,-0.016937,0.978821,-0.017647,-0.005007,-0.003038,55.175522,31.321533,-143.613968,,,
729862851.048402,-1.240844,-2.923916,-160.319287,0.053085,-0.016937,0.978821,-0.017647,-0.005007,-0.003038,55.175522,31.321533,-143.613968,,,
729862851.051739,-1.24571,-2.929087,-160.320467,0.053085,-0.016937,0.978821,-0.025285,-0.010379,-0.000533,55.175522,31.321533,-143.613968,,,
729862851.055067,-1.253002,-2.932271,-160.321358,0.047836,-0.018768,0.985458,-0.025285,-0.010379,-0.000533,55.175522,31.321533,-143.613968,,,
729862851.058395,-1.253002,-2.932271,-160.321358,0.047836,-0.018768,0.985458,-0.025285,-0.010379,-0.000533,55.215286,31.307434,-143.507904,,,
729862851.061743,-1.261122,-2.938826,-160.321247,0.047836,-0.018768,0.985458,-0.029952,-0.015237,0.001589,55.215286,31.307434,-143.507904,,,
729862851.065065,-1.269775,-2.943623,-160.320432,0.05191,-0.019241,0.987427,-0.029952,-0.015237,0.001589,55.215286,31.307434,-143.507904,,,
729862851.068478,-1.269775,-2.943623,-160.320432,0.05191,-0.019241,0.987427,-0.029952,-0.015237,0.001589,55.215286,31.307434,-143.507904,,,
729862851.071732,-1.280922,-2.952611,-160.320155,0.05191,-0.019241,0.987427,-0.033366,-0.02805,-0.003319,55.215286,31.307434,-143.507904,,,
729862851.07506,-1.290245,-2.961081,-160.320776,0.050766,-0.019897,0.980667,-0.033366,-0.02805,-0.003319,55.215286,31.307434,-143.507904,,,
729862851.078403,-1.290245,-2.961081,-160.320776,0.050766,-0.019897,0.980667,-0.033366,-0.02805,-0.003319,55.215286,31.307434,-143.507904,,,
729862851.081803,-1.301196,-2.972663,-160.321583,0.050766,-0.019897,0.980667,-0.031014,-0.025094,0.004273,55.215286,31.307434,-143.507904,,,
729862851.085051,-1.311375,-2.981506,-160.320776,0.044876,-0.020767,0.981918,-0.031014,-0.025094,0.004273,55.215286,31.307434,-143.507904,,,
729862851.088393,-1.311375,-2.981506,-160.320776,0.044876,-0.020767,0.981918,-0.031014,-0.025094,0.004273,55.215286,31.307434,-143.507904,,,
729862851.091742,-1.320445,-2.991587,-160.317393,0.044876,-0.020767,0.981918,-0.023254,-0.025129,0.019103,55.215286,31.307434,-143.507904,,,
729862851.095056,-1.327987,-2.999605,-160.312169,0.037933,-0.032425,0.990173,-0.023254,-0.025129,0.019103,55.215286,31.307434,-143.507904,,,
729862851.09839,-1.327987,-2.999605,-160.312169,0.037933,-0.032425,0.990173,-0.023254,-0.025129,0.019103,55.195831,31.261261,-143.893753,,,
729862851.10174,-1.333211,-3.011042,-160.306234,0.037933,-0.032425,0.990173,-0.01072,-0.034597,0.017986,55.195831,31.261261,-143.893753,,,
729862851.105061,-1.33707,-3.021191,-160.299995,0.044724,-0.029587,0.992706,-0.01072,-0.034597,0.017986,55.195831,31.261261,-143.893753,,,
729862851.108459,-1.33707,-3.021191,-160.299995,0.044724,-0.029587,0.992706,-0.01072,-0.034597,0.017986,55.195831,31.261261,-143.893753,,,
729862851.111744,-1.338266,-3.036791,-160.294136,0.044724,-0.029587,0.992706,-4.6e-05,-0.040395,0.01872,55.195831,31.261261,-143.893753,,,
729862851.115061,-1.33916,-3.049186,-160.288288,0.047195,-0.02803,0.996002,-4.6e-05,-0.040395,0.01872,55.195831,31.261261,-143.893753,,,
729862851.118402,-1.33916,-3.049186,-160.288288,0.047195,-0.02803,0.996002,-4.6e-05,-0.040395,0.01872,55.195831,31.261261,-143.893753,,,
729862851.121751,-1.336502,-3.062688,-160.282308,0.047195,-0.02803,0.996002,0.003802,-0.026597,0.021501,55.195831,31.261261,-143.893753,,,
729862851.125122,-1.336047,-3.071432,-160.275734,0.052017,-0.029953,1.001419,0.003802,-0.026597,0.021501,55.195831,31.261261,-143.893753,,,
729862851.128464,-1.336047,-3.071432,-160.275734,0.052017,-0.029953,1.001419,0.003802,-0.026597,0.021501,55.195831,31.261261,-143.893753,,,
729862851.131834,-1.334534,-3.075585,-160.268906,0.052017,-0.029953,1.001419,0.004164,-0.00019,0.020668,55.195831,31.261261,-143.893753,,,
729862851.135064,-1.334223,-3.076411,-160.262453,0.054047,-0.025009,1.002777,0.004164,-0.00019,0.020668,55.195831,31.261261,-143.893753,,,
729862851.13842,-1.334223,-3.076411,-160.262453,0.054047,-0.025009,1.002777,0.004164,-0.00019,0.020668,55.195831,31.261261,-143.893753,,,
729862851.141741,-1.333479,-3.073525,-160.256225,0.054047,-0.025009,1.002777,-0.001119,0.015083,0.019222,55.391983,31.319412,-143.498871,,,
729862851.145058,-1.33431,-3.069787,-160.250001,0.051544,-0.023514,1.001663,-0.001119,0.015083,0.019222,55.391983,31.319412,-143.498871,,,
729862851.148415,-1.33431,-3.069787,-160.250001,0.051544,-0.023514,1.001663,-0.001119,0.015083,0.019222,55.391983,31.319412,-143.498871,,,
729862851.15174,-1.33429,-3.065164,-160.243523,0.051544,-0.023514,1.001663,0.000712,0.01698,0.020881,55.391983,31.319412,-143.498871,,,
729862851.155061,-1.334299,-3.061002,-160.236801,0.047256,-0.026047,1.000214,0.000712,0.01698,0.020881,55.391983,31.319412,-143.498871,,,
729862851.15845,-1.334299,-3.061002,-160.236801,0.047256,-0.026047,1.000214,0.000712,0.01698,0.020881,55.391983,31.319412,-143.498871,,,
729862851.161753,-1.333373,-3.056391,-160.229797,0.047256,-0.026047,1.000214,0.004022,0.011374,0.024805,55.391983,31.319412,-143.498871,,,
729862851.165059,-1.333125,-3.052683,-160.222789,0.049332,-0.023438,0.996338,0.004022,0.011374,0.024805,55.391983,31.319412,-143.498871,,,
729862851.168445,-1.333125,-3.052683,-160.222789,0.049332,-0.023438,0.996338,0.004022,0.011374,0.024805,55.391983,31.319412,-143.498871,,,
729862851.171743,-1.333751,-3.046436,-160.215865,0.049332,-0.023438,0.996338,-0.007405,0.010446,0.022368,55.391983,31.319412,-143.498871,,,
729862851.175056,-1.335676,-3.043501,-160.208968,0.049438,-0.019684,0.986862,-0.007405,0.010446,0.022368,55.391983,31.319412,-143.498871,,,
729862851.178406,-1.335676,-3.043501,-160.208968,0.049438,-0.019684,0.986862,-0.007405,0.010446,0.022368,55.391983,31.319412,-143.498871,,,
729862851.181822,-1.341322,-3.03746,-160.201542,0.049438,-0.019684,0.986862,-0.01898,0.004777,0.02626,55.241867,31.257751,-143.417084,,,
729862851.185058,-1.346378,-3.03588,-160.193988,0.048325,-0.02037,0.977966,-0.01898,0.004777,0.02626,55.241867,31.257751,-143.417084,,,
729862851.188416,-1.346378,-3.03588,-160.193988,0.048325,-0.02037,0.977966,-0.01898,0.004777,0.02626,55.241867,31.257751,-143.417084,,,
729862851.191748,-1.353825,-3.034944,-160.186917,0.048325,-0.02037,0.977966,-0.02518,-0.009115,0.020531,55.241867,31.257751,-143.417084,,,
729862851.195093,-1.361071,-3.038421,-160.180558,0.046005,-0.016373,0.973465,-0.02518,-0.009115,0.020531,55.241867,31.257751,-143.417084,,,
729862851.198412,-1.361071,-3.038421,-160.180558,0.046005,-0.016373,0.973465,-0.02518,-0.009115,0.020531,55.241867,31.257751,-143.417084,,,
729862851.201748,-1.370601,-3.042414,-160.174506,0.046005,-0.016373,0.973465,-0.030027,-0.022779,0.021212,55.241867,31.257751,-143.417084,,,
729862851.205058,-1.379342,-3.04873,-160.16819,0.048111,-0.017151,0.976761,-0.030027,-0.022779,0.021212,55.241867,31.257751,-143.417084,,,
729862851.208401,-1.379342,-3.04873,-160.16819,0.048111,-0.017151,0.976761,-0.030027,-0.022779,0.021212,55.241867,31.257751,-143.417084,,,
729862851.211732,-1.389222,-3.055525,-160.16167,0.048111,-0.017151,0.976761,-0.028862,-0.026371,0.020435,55.241867,31.257751,-143.417084,,,
729862851.215146,-1.397699,-3.063181,-160.155429,0.052841,-0.024506,0.985092,-0.028862,-0.026371,0.020435,55.241867,31.257751,-143.417084,,,
729862851.218446,-1.397699,-3.063181,-160.155429,0.052841,-0.024506,0.985092,-0.028862,-0.026371,0.020435,55.241867,31.257751,-143.417084,,,
729862851.221721,-1.405139,-3.072878,-160.149694,0.052841,-0.024506,0.985092,-0.0168,-0.036249,0.012722,55.441772,31.178101,-143.360184,,,
729862851.225079,-1.41055,-3.083402,-160.145199,0.059296,-0.021805,0.991821,-0.0168,-0.036249,0.012722,55.441772,31.178101,-143.360184,,,
729862851.228401,-1.41055,-3.083402,-160.145199,0.059296,-0.021805,0.991821,-0.0168,-0.036249,0.012722,55.441772,31.178101,-143.360184,,,
729862851.231733,-1.413432,-3.093162,-160.141351,0.059296,-0.021805,0.991821,-0.003143,-0.027111,0.01665,55.441772,31.178101,-143.360184,,,
729862851.235146,-1.414776,-3.102317,-160.136856,0.061264,-0.024933,0.998047,-0.003143,-0.027111,0.01665,55.441772,31.178101,-143.360184,,,
729862851.238405,-1.414776,-3.102317,-160.136856,0.061264,-0.024933,0.998047,-0.003143,-0.027111,0.01665,55.441772,31.178101,-143.360184,,,
729862851.241733,-1.415322,-3.105018,-160.13049,0.061264,-0.024933,0.998047,0.005761,0.007584,0.029677,55.441772,31.178101,-143.360184,,,
729862851.245131,-1.415105,-3.104326,-160.122182,0.054962,-0.032654,1.004272,0.005761,0.007584,0.029677,55.441772,31.178101,-143.360184,,,
729862851.248449,-1.415105,-3.104326,-160.122182,0.054962,-0.032654,1.004272,0.005761,0.007584,0.029677,55.441772,31.178101,-143.360184,,,
729862851.251743,-1.415307,-3.098907,-160.11229,0.054962,-0.032654,1.004272,-0.00222,0.01806,0.031257,55.441772,31.178101,-143.360184,,,
729862851.255068,-1.416886,-3.093991,-160.102576,0.056885,-0.029663,0.996017,-0.00222,0.01806,0.031257,55.441772,31.178101,-143.360184,,,
729862851.258395,-1.416886,-3.093991,-160.102576,0.056885,-0.029663,0.996017,-0.00222,0.01806,0.031257,55.441772,31.178101,-143.360184,,,
729862851.261732,-1.418132,-3.089585,-160.095407,0.056885,-0.029663,0.996017,-0.00897,0.006361,0.01357,55.49733,31.279404,-143.775772,,,
729862851.265063,-1.421159,-3.087963,-160.090808,0.067093,-0.015305,0.985519,-0.00897,0.006361,0.01357,55.49733,31.279404,-143.775772,,,
729862851.268406,-1.421159,-3.087963,-160.090808,0.067093,-0.015305,0.985519,-0.00897,0.006361,0.01357,55.49733,31.279404,-143.775772,,,
729862851.271813,-1.423118,-3.085643,-160.087768,0.067093,-0.015305,0.985519,-0.012561,0.007787,0.006611,55.49733,31.279404,-143.775772,,,
729862851.275046,-1.426828,-3.084468,-160.08558,0.069794,-0.018143,0.988831,-0.012561,0.007787,0.006611,55.49733,31.279404,-143.775772,,,
729862851.278398,-1.426828,-3.084468,-160.08558,0.069794,-0.018143,0.988831,-0.012561,0.007787,0.006611,55.49733,31.279404,-143.775772,,,
729862851.28175,-1.430044,-3.079062,-160.083525,0.069794,-0.018143,0.988831,-0.023911,0.025259,0.006862,55.49733,31.279404,-143.775772,,,
729862851.285082,-1.436881,-3.0728,-160.081384,0.069153,-0.020325,0.992569,-0.023911,0.025259,0.006862,55.49733,31.279404,-143.775772,,,
729862851.28841,-1.436881,-3.0728,-160.081384,0.069153,-0.020325,0.992569,-0.023911,0.025259,0.006862,55.49733,31.279404,-143.775772,,,
729862851.291728,-1.444508,-3.064618,-160.079618,0.069153,-0.020325,0.992569,-0.033101,0.027375,0.000692,55.49733,31.279404,-143.775772,,,
729862851.29506,-1.454418,-3.057321,-160.078655,0.068512,-0.017532,0.985626,-0.033101,0.027375,0.000692,55.49733,31.279404,-143.775772,,,
729862851.298446,-1.454418,-3.057321,-160.078655,0.068512,-0.017532,0.985626,-0.033101,0.027375,0.000692,55.49733,31.279404,-143.775772,,,
729862851.301738,-1.463747,-3.051033,-160.079219,0.068512,-0.017532,0.985626,-0.028746,0.024777,-0.009718,55.49733,31.279404,-143.775772,,,
729862851.305081,-1.472644,-3.044418,-160.081736,0.066086,-0.017914,0.990204,-0.028746,0.024777,-0.009718,55.537384,31.480164,-143.905594,,,
729862851.308392,-1.472644,-3.044418,-160.081736,0.066086,-0.017914,0.990204,-0.028746,0.024777,-0.009718,55.537384,31.480164,-143.905594,,,
729862851.311726,-1.480619,-3.03863,-160.085507,0.066086,-0.017914,0.990204,-0.028149,0.03919,-0.011356,55.537384,31.480164,-143.905594,,,
729862851.315081,-1.488562,-3.028084,-160.088998,0.062592,-0.022675,1.003876,-0.028149,0.03919,-0.011356,55.537384,31.480164,-143.905594,,,
729862851.318401,-1.488562,-3.028084,-160.088998,0.062592,-0.022675,1.003876,-0.028149,0.03919,-0.011356,55.537384,31.480164,-143.905594,,,
729862851.321811,-1.495473,-3.016697,-160.090483,0.062592,-0.022675,1.003876,-0.016577,0.054515,0.006283,55.537384,31.480164,-143.905594,,,
729862851.325075,-1.501242,-3.002143,-160.089229,0.04953,-0.033569,1.014023,-0.016577,0.054515,0.006283,55.537384,31.480164,-143.905594,,,
729862851.32841,-1.501242,-3.002143,-160.089229,0.04953,-0.033569,1.014023,-0.016577,0.054515,0.006283,55.537384,31.480164,-143.905594,,,
729862851.331737,-1.50816,-2.987688,-160.086025,0.04953,-0.033569,1.014023,-0.015262,0.05008,0.01608,55.537384,31.480164,-143.905594,,,
729862851.335116,-1.512889,-2.97364,-160.081693,0.041916,-0.036575,1.007629,-0.015262,0.05008,0.01608,55.537384,31.480164,-143.905594,,,
729862851.338398,-1.512889,-2.97364,-160.081693,0.041916,-0.036575,1.007629,-0.015262,0.05008,0.01608,55.537384,31.480164,-143.905594,,,
729862851.341738,-1.516579,-2.963126,-160.076627,0.041916,-0.036575,1.007629,-0.006179,0.035728,0.022794,55.537384,31.480164,-143.905594,,,
729862851.345057,-1.516579,-2.963126,-160.076627,0.041916,-0.036575,1.007629,-0.006179,0.035728,0.022794,55.540833,31.490128,-143.940292,,,
729862851.348476,-1.519353,-2.952412,-160.07013,0.037994,-0.03479,1.014618,-0.006179,0.035728,0.022794,55.540833,31.490128,-143.940292,,,
729862851.351744,-1.517775,-2.948798,-160.063151,0.037994,-0.03479,1.014618,0.011192,0.0122,0.020849,55.540833,31.490128,-143.940292,,,
729862851.355082,-1.517775,-2.944319,-160.056647,0.046875,-0.038376,1.021408,0.011192,0.0122,0.020849,55.540833,31.490128,-143.940292,,,
729862851.358399,-1.516566,-2.944319,-160.056647,0.046875,-0.038376,1.021408,0.011192,0.0122,0.020849,55.540833,31.490128,-143.940292,,,
729862851.361792,-1.510413,-2.948688,-160.050528,0.046875,-0.038376,1.021408,0.028657,-0.014023,0.016979,55.540833,31.490128,-143.940292,,,
729862851.365095,-1.510413,-2.951767,-160.044916,0.056091,-0.033875,1.024811,0.028657,-0.014023,0.016979,55.540833,31.490128,-143.940292,,,
729862851.368417,-1.50294,-2.951767,-160.044916,0.056091,-0.033875,1.024811,0.028657,-0.014023,0.016979,55.540833,31.490128,-143.940292,,,
729862851.371741,-1.491376,-2.963083,-160.040195,0.056091,-0.033875,1.024811,0.044631,-0.034276,0.008044,55.540833,31.490128,-143.940292,,,
729862851.375183,-1.491376,-2.972674,-160.036077,0.056091,-0.033875,1.024811,0.044631,-0.034276,0.008044,55.540833,31.490128,-143.940292,,,
729862851.378409,-1.479329,-2.972674,-160.036077,0.058182,-0.029861,1.021667,0.044631,-0.034276,0.008044,55.540833,31.490128,-143.940292,,,
729862851.381727,-1.465394,-2.98792,-160.032439,0.058182,-0.029861,1.021667,0.036412,-0.027888,0.014358,55.540833,31.490128,-143.940292,,,
729862851.385197,-1.454654,-2.997266,-160.028068,0.058182,-0.029861,1.021667,0.036412,-0.027888,0.014358,55.491135,31.442093,-143.73999,,,
729862851.388488,-1.454654,-2.997266,-160.028068,0.06192,-0.025879,1.012451,0.036412,-0.027888,0.014358,55.491135,31.442093,-143.73999,,,
729862851.391732,-1.444048,-3.006643,-160.02287,0.06192,-0.025879,1.012451,0.02384,-0.002537,0.018282,55.491135,31.442093,-143.73999,,,
729862851.395088,-1.444048,-3.006643,-160.02287,0.06192,-0.025879,1.012451,0.02384,-0.002537,0.018282,55.491135,31.442093,-143.73999,,,
729862851.398406,-1.437575,-3.00858,-160.017316,0.065811,-0.023758,1.006119,0.02384,-0.002537,0.018282,55.491135,31.442093,-143.73999,,,
729862851.4018,-1.433993,-3.008421,-160.01217,0.065811,-0.023758,1.006119,-0.001263,0.019191,0.007265,55.491135,31.442093,-143.73999,,,
729862851.405057,-1.433993,-3.008421,-160.01217,0.065811,-0.023758,1.006119,-0.001263,0.019191,0.007265,55.491135,31.442093,-143.73999,,,
