Time (sec),Pitch (deg),Roll (deg),Yaw(deg),X-Acceleration (g),Y-Acceleration (g),Z-Acceleration (g),Pitch Rate (deg/sec),Roll Rate (deg/sec),Yaw Rate (deg/sec),Magnetic Field in X direction (uT),Magnetic Field in Y direction (uT),Magnetic Field in Z Direction (uT),Latitude (deg),Longitude (deg),Altitude (m)
729861326.185824,0.11732,2.412275,43.033345,-0.034775,0.001892,1.015945,0.00132,0.036578,-0.024263,70.478638,9.174866,-154.947784,,,
729861326.188917,0.11732,2.412275,43.033345,-0.034775,0.001892,1.015945,0.00132,0.036578,-0.024263,70.478638,9.174866,-154.947784,,,
729861326.192563,0.116417,2.423718,43.026828,-0.038727,-0.00235,1.013565,0.00132,0.036578,-0.024263,70.478638,9.174866,-154.947784,,,
729861326.195829,0.118974,2.427656,43.020292,-0.038727,-0.00235,1.013565,0.015451,0.008932,-0.023867,70.480667,9.114243,-154.467331,,,
729861326.199185,0.118974,2.427656,43.020292,-0.038727,-0.00235,1.013565,0.015451,0.008932,-0.023867,70.480667,9.114243,-154.467331,,,
729861326.202503,0.122314,2.431358,43.013373,-0.04805,-0.002365,1.008316,0.015451,0.008932,-0.023867,70.480667,9.114243,-154.467331,,,
729861326.205546,0.127026,2.427776,43.006709,-0.04805,-0.002365,1.008316,0.018162,-0.016367,-0.021948,70.480667,9.114243,-154.467331,,,
729861326.209304,0.127026,2.427776,43.006709,-0.04805,-0.002365,1.008316,0.018162,-0.016367,-0.021948,70.480667,9.114243,-154.467331,,,
729861326.212501,0.133161,2.421676,43.000316,-0.05101,-0.000763,1.005661,0.018162,-0.016367,-0.021948,70.480667,9.114243,-154.467331,,,
729861326.215831,0.139887,2.412674,42.994064,-0.05101,-0.000763,1.005661,0.027056,-0.031495,-0.020596,70.480667,9.114243,-154.467331,,,
729861326.21923,0.139887,2.412674,42.994064,-0.05101,-0.000763,1.005661,0.027056,-0.031495,-0.020596,70.480667,9.114243,-154.467331,,,
729861326.222248,0.147566,2.403098,42.988262,-0.049942,-0.000916,1.005905,0.027056,-0.031495,-0.020596,70.480667,9.114243,-154.467331,,,
729861326.225878,0.15351,2.394533,42.983008,-0.049942,-0.000916,1.005905,0.020916,-0.024158,-0.017076,70.480667,9.114243,-154.467331,,,
729861326.229171,0.15351,2.394533,42.983008,-0.049942,-0.000916,1.005905,0.020916,-0.024158,-0.017076,70.480667,9.114243,-154.467331,,,
729861326.232522,0.159621,2.387055,42.978717,-0.047729,-0.00061,1.003326,0.020916,-0.024158,-0.017076,70.480667,9.114243,-154.467331,,,
729861326.23583,0.163987,2.380776,42.974636,-0.047729,-0.00061,1.003326,0.015487,-0.020482,-0.015793,70.323074,9.01564,-154.37149,,,
729861326.238904,0.163987,2.380776,42.974636,-0.047729,-0.00061,1.003326,0.015487,-0.020482,-0.015793,70.323074,9.01564,-154.37149,,,
729861326.242575,0.168085,2.372597,42.970912,-0.044983,0.002502,0.995773,0.015487,-0.020482,-0.015793,70.323074,9.01564,-154.37149,,,
729861326.245815,0.170327,2.366456,42.967879,-0.044983,0.002502,0.995773,0.006108,-0.017076,-0.011329,70.323074,9.01564,-154.37149,,,
729861326.249174,0.170327,2.366456,42.967879,-0.044983,0.002502,0.995773,0.006108,-0.017076,-0.011329,70.323074,9.01564,-154.37149,,,
729861326.252524,0.172265,2.357826,42.965683,-0.050507,0.001114,0.993515,0.006108,-0.017076,-0.011329,70.323074,9.01564,-154.37149,,,
729861326.255626,0.17475,2.350836,42.9646,-0.050507,0.001114,0.993515,0.010135,-0.022526,-0.003343,70.323074,9.01564,-154.37149,,,
729861326.259191,0.17475,2.350836,42.9646,-0.050507,0.001114,0.993515,0.010135,-0.022526,-0.003343,70.323074,9.01564,-154.37149,,,
729861326.262505,0.176993,2.341353,42.96391,-0.047073,0.001724,0.993332,0.010135,-0.022526,-0.003343,70.323074,9.01564,-154.37149,,,
729861326.265841,0.180144,2.334175,42.963227,-0.047073,0.001724,0.993332,0.01405,-0.022565,-0.003076,70.323074,9.01564,-154.37149,,,
729861326.269159,0.180144,2.334175,42.963227,-0.047073,0.001724,0.993332,0.01405,-0.022565,-0.003076,70.323074,9.01564,-154.37149,,,
729861326.272292,0.183164,2.325981,42.962564,-0.040024,0.002457,0.994171,0.01405,-0.022565,-0.003076,70.323074,9.01564,-154.37149,,,
729861326.27588,0.188085,2.320653,42.961833,-0.040024,0.002457,0.994171,0.0195,-0.013435,-0.003289,70.248428,9.033829,-154.724991,,,
729861326.279171,0.188085,2.320653,42.961833,-0.040024,0.002457,0.994171,0.0195,-0.013435,-0.003289,70.248428,9.033829,-154.724991,,,
729861326.282506,0.191467,2.318337,42.960736,-0.035782,0.000748,0.995453,0.0195,-0.013435,-0.003289,70.248428,9.033829,-154.724991,,,
729861326.28583,0.19554,2.315774,42.959576,-0.035782,0.000748,0.995453,0.01429,-0.003837,-0.003948,70.248428,9.033829,-154.724991,,,
729861326.288959,0.19554,2.315774,42.959576,-0.035782,0.000748,0.995453,0.01429,-0.003837,-0.003948,70.248428,9.033829,-154.724991,,,
729861326.29257,0.197944,2.317313,42.958396,-0.033661,0.002747,0.988052,0.01429,-0.003837,-0.003948,70.248428,9.033829,-154.724991,,,
729861326.295872,0.20237,2.316019,42.957323,-0.033661,0.002747,0.988052,0.020436,-0.001511,-0.003042,70.248428,9.033829,-154.724991,,,
729861326.299185,0.20237,2.316019,42.957323,-0.033661,0.002747,0.988052,0.020436,-0.001511,-0.003042,70.248428,9.033829,-154.724991,,,
729861326.30249,0.206939,2.318013,42.955851,-0.033447,0.00293,0.991257,0.020436,-0.001511,-0.003042,70.248428,9.033829,-154.724991,,,
729861326.305617,0.211904,2.318208,42.95258,-0.033447,0.00293,0.991257,0.017009,0.006937,-0.015741,70.248428,9.033829,-154.724991,,,
729861326.309234,0.211904,2.318208,42.95258,-0.033447,0.00293,0.991257,0.017009,0.006937,-0.015741,70.248428,9.033829,-154.724991,,,
729861326.31249,0.214317,2.322682,42.947694,-0.029404,0.003403,0.988434,0.017009,0.006937,-0.015741,70.248428,9.033829,-154.724991,,,
729861326.315825,0.216163,2.32682,42.941548,-0.029404,0.003403,0.988434,0.004621,0.021647,-0.025111,70.280487,9.130707,-154.698013,,,
729861326.319248,0.216163,2.32682,42.941548,-0.029404,0.003403,0.988434,0.004621,0.021647,-0.025111,70.280487,9.130707,-154.698013,,,
729861326.322251,0.215356,2.334753,42.935272,-0.035553,0.005692,0.982773,0.004621,0.021647,-0.025111,70.280487,9.130707,-154.698013,,,
729861326.32586,0.213101,2.343191,42.930491,-0.035553,0.005692,0.982773,-0.009068,0.034175,-0.015215,70.280487,9.130707,-154.698013,,,
729861326.329173,0.213101,2.343191,42.930491,-0.035553,0.005692,0.982773,-0.009068,0.034175,-0.015215,70.280487,9.130707,-154.698013,,,
729861326.332572,0.209276,2.354813,42.928014,-0.048203,0.003967,0.983841,-0.009068,0.034175,-0.015215,70.280487,9.130707,-154.698013,,,
729861326.335894,0.205684,2.362858,42.928129,-0.048203,0.003967,0.983841,-0.01136,0.028885,0.002648,70.280487,9.130707,-154.698013,,,
729861326.338934,0.205684,2.362858,42.928129,-0.048203,0.003967,0.983841,-0.01136,0.028885,0.002648,70.280487,9.130707,-154.698013,,,
729861326.342561,0.201954,2.371999,42.930413,-0.053146,0.002655,0.987915,-0.01136,0.028885,0.002648,70.280487,9.130707,-154.698013,,,
729861326.345822,0.198409,2.375479,42.933341,-0.053146,0.002655,0.987915,-0.014728,0.008575,0.006915,70.280487,9.130707,-154.698013,,,
729861326.350406,0.192669,2.375484,42.934815,-0.04689,0.003571,0.983856,-0.014728,0.008575,0.006915,70.280487,9.130707,-154.698013,,,
729861326.352367,0.192669,2.375484,42.934815,-0.04689,0.003571,0.983856,-0.014728,0.008575,0.006915,70.280487,9.130707,-154.698013,,,
729861326.355944,0.184884,2.372554,42.934503,-0.04689,0.003571,0.983856,-0.030697,-0.011749,-0.006191,70.280487,9.130707,-154.698013,,,
729861326.359149,0.184884,2.372554,42.934503,-0.04689,0.003571,0.983856,-0.030697,-0.011749,-0.006191,70.370895,8.916183,-154.564331,,,
729861326.362557,0.174986,2.365744,42.932446,-0.038162,0.004242,0.98587,-0.030697,-0.011749,-0.006191,70.370895,8.916183,-154.564331,,,
729861326.365857,0.164612,2.358999,42.928566,-0.038162,0.004242,0.98587,-0.037003,-0.02094,-0.019192,70.370895,8.916183,-154.564331,,,
729861326.369264,0.164612,2.358999,42.928566,-0.038162,0.004242,0.98587,-0.037003,-0.02094,-0.019192,70.370895,8.916183,-154.564331,,,
729861326.372278,0.155119,2.350461,42.923186,-0.037628,-0.002167,1.003754,-0.037003,-0.02094,-0.019192,70.370895,8.916183,-154.564331,,,
729861326.375902,0.148515,2.345959,42.917473,-0.037628,-0.002167,1.003754,-0.016999,-0.009074,-0.020637,70.370895,8.916183,-154.564331,,,
729861326.379173,0.148515,2.345959,42.917473,-0.037628,-0.002167,1.003754,-0.016999,-0.009074,-0.020637,70.370895,8.916183,-154.564331,,,
729861326.382581,0.146277,2.341491,42.912756,-0.046631,-0.010483,1.033447,-0.016999,-0.009074,-0.020637,70.370895,8.916183,-154.564331,,,
729861326.385824,0.148834,2.341836,42.909251,-0.046631,-0.010483,1.033447,0.01741,0.009638,-0.010689,70.370895,8.916183,-154.564331,,,
729861326.388909,0.148834,2.341836,42.909251,-0.046631,-0.010483,1.033447,0.01741,0.009638,-0.010689,70.370895,8.916183,-154.564331,,,
729861326.392549,0.156582,2.341684,42.90764,-0.054398,-0.013138,1.043716,0.01741,0.009638,-0.010689,70.370895,8.916183,-154.564331,,,
729861326.395826,0.167865,2.346579,42.908031,-0.054398,-0.013138,1.043716,0.042486,0.021472,0.004466,70.370895,8.916183,-154.564331,,,
729861326.399179,0.167865,2.346579,42.908031,-0.054398,-0.013138,1.043716,0.042486,0.021472,0.004466,70.582886,9.00235,-154.735641,,,
729861326.402533,0.180784,2.349123,42.909526,-0.051361,-0.008041,1.025375,0.042486,0.021472,0.004466,70.582886,9.00235,-154.735641,,,
729861326.405574,0.192925,2.353385,42.911496,-0.051361,-0.008041,1.025375,0.041617,0.015339,0.007813,70.582886,9.00235,-154.735641,,,
729861326.409295,0.192925,2.353385,42.911496,-0.051361,-0.008041,1.025375,0.041617,0.015339,0.007813,70.582886,9.00235,-154.735641,,,
729861326.41251,0.204099,2.357706,42.913317,-0.045242,0.000748,0.999786,0.041617,0.015339,0.007813,70.582886,9.00235,-154.735641,,,
729861326.415881,0.213334,2.35912,42.914547,-0.045242,0.000748,0.999786,0.029398,0.005466,0.003238,70.582886,9.00235,-154.735641,,,
729861326.419214,0.213334,2.35912,42.914547,-0.045242,0.000748,0.999786,0.029398,0.005466,0.003238,70.582886,9.00235,-154.735641,,,
729861326.422267,0.220487,2.363046,42.914825,-0.046875,0.005417,0.991501,0.029398,0.005466,0.003238,70.582886,9.00235,-154.735641,,,
729861326.425868,0.226674,2.362592,42.914363,-0.046875,0.005417,0.991501,0.020993,0.002185,-0.002401,70.582886,9.00235,-154.735641,,,
729861326.429166,0.226674,2.362592,42.914363,-0.046875,0.005417,0.991501,0.020993,0.002185,-0.002401,70.582886,9.00235,-154.735641,,,
729861326.432508,0.231607,2.36541,42.914529,-0.043747,0.003616,0.99115,0.020993,0.002185,-0.002401,70.582886,9.00235,-154.735641,,,
729861326.435847,0.235064,2.365253,42.916123,-0.043747,0.003616,0.99115,0.008917,0.001068,0.007013,70.582886,9.00235,-154.735641,,,
729861326.438893,0.235064,2.365253,42.916123,-0.043747,0.003616,0.99115,0.008917,0.001068,0.007013,70.235916,8.730026,-154.741745,,,
729861326.44256,0.23659,2.364371,42.919393,-0.044922,0.001511,0.984009,0.008917,0.001068,0.007013,70.235916,8.730026,-154.741745,,,
729861326.445823,0.236915,2.363393,42.924255,-0.044922,0.001511,0.984009,0.000278,-0.001928,0.017807,70.235916,8.730026,-154.741745,,,
729861326.449234,0.236915,2.363393,42.924255,-0.044922,0.001511,0.984009,0.000278,-0.001928,0.017807,70.235916,8.730026,-154.741745,,,
729861326.452503,0.235573,2.360327,42.930093,-0.044312,0.004471,0.980453,0.000278,-0.001928,0.017807,70.235916,8.730026,-154.741745,,,
729861326.455627,0.233905,2.357516,42.935888,-0.044312,0.004471,0.980453,-0.009037,-0.008848,0.017214,70.235916,8.730026,-154.741745,,,
729861326.459194,0.233905,2.357516,42.935888,-0.044312,0.004471,0.980453,-0.009037,-0.008848,0.017214,70.235916,8.730026,-154.741745,,,
729861326.462492,0.227919,2.354704,42.940874,-0.037354,0.001724,0.978455,-0.009037,-0.008848,0.017214,70.235916,8.730026,-154.741745,,,
729861326.465824,0.223327,2.352011,42.944691,-0.037354,0.001724,0.978455,-0.019755,-0.004899,0.008611,70.235916,8.730026,-154.741745,,,
729861326.469186,0.223327,2.352011,42.944691,-0.037354,0.001724,0.978455,-0.019755,-0.004899,0.008611,70.235916,8.730026,-154.741745,,,
729861326.4723,0.212966,2.353734,42.946662,-0.031342,0.00119,0.976151,-0.019755,-0.004899,0.008611,70.235916,8.730026,-154.741745,,,
729861326.475865,0.206813,2.352816,42.946869,-0.031342,0.00119,0.976151,-0.020287,-0.000268,-0.003761,70.235916,8.730026,-154.741745,,,
729861326.479164,0.206813,2.352816,42.946869,-0.031342,0.00119,0.976151,-0.020287,-0.000268,-0.003761,70.533905,8.845352,-154.693024,,,
729861326.482519,0.197117,2.355517,42.946069,-0.032974,0.003311,0.980988,-0.020287,-0.000268,-0.003761,70.533905,8.845352,-154.693024,,,
729861326.485832,0.190392,2.353766,42.9448,-0.032974,0.003311,0.980988,-0.023363,-0.006961,-0.00722,70.533905,8.845352,-154.693024,,,
729861326.489206,0.190392,2.353766,42.9448,-0.032974,0.003311,0.980988,-0.023363,-0.006961,-0.00722,70.533905,8.845352,-154.693024,,,
729861326.492495,0.181882,2.351582,42.943566,-0.040344,0.003204,0.975403,-0.023363,-0.006961,-0.00722,70.533905,8.845352,-154.693024,,,
729861326.495882,0.174322,2.346883,42.9429,-0.040344,0.003204,0.975403,-0.02434,-0.01466,-0.003334,70.533905,8.845352,-154.693024,,,
729861326.499224,0.174322,2.346883,42.9429,-0.040344,0.003204,0.975403,-0.02434,-0.01466,-0.003334,70.533905,8.845352,-154.693024,,,
729861326.502512,0.167892,2.343798,42.942267,-0.043518,-1.5e-05,0.980881,-0.02434,-0.01466,-0.003334,70.533905,8.845352,-154.693024,,,
729861326.505852,0.161553,2.340044,42.942035,-0.043518,-1.5e-05,0.980881,-0.020446,-0.006896,-0.000421,70.533905,8.845352,-154.693024,,,
729861326.509161,0.161553,2.340044,42.942035,-0.043518,-1.5e-05,0.980881,-0.020446,-0.006896,-0.000421,70.533905,8.845352,-154.693024,,,
729861326.512575,0.157968,2.338652,42.942971,-0.045334,-0.005875,0.99324,-0.020446,-0.006896,-0.000421,70.533905,8.845352,-154.693024,,,
729861326.515824,0.157447,2.337329,42.944642,-0.045334,-0.005875,0.99324,0.005523,0.001314,0.005722,70.533905,8.845352,-154.693024,,,
729861326.519182,0.157447,2.337329,42.944642,-0.045334,-0.005875,0.99324,0.005523,0.001314,0.005722,70.533905,8.845352,-154.693024,,,
729861326.522565,0.160603,2.339636,42.946181,-0.040131,-0.011078,1.015335,0.005523,0.001314,0.005722,70.563904,8.923264,-155.053009,,,
729861326.525881,0.168476,2.3432,42.94693,-0.040131,-0.011078,1.015335,0.036095,0.019646,0.001397,70.563904,8.923264,-155.053009,,,
729861326.529208,0.168476,2.3432,42.94693,-0.040131,-0.011078,1.015335,0.036095,0.019646,0.001397,70.563904,8.923264,-155.053009,,,
729861326.53251,0.180141,2.351211,42.946938,-0.037613,-0.013153,1.023514,0.036095,0.019646,0.001397,70.563904,8.923264,-155.053009,,,
729861326.535838,0.193271,2.359913,42.946293,-0.037613,-0.013153,1.023514,0.048096,0.033932,-0.002595,70.563904,8.923264,-155.053009,,,
729861326.539165,0.193271,2.359913,42.946293,-0.037613,-0.013153,1.023514,0.048096,0.033932,-0.002595,70.563904,8.923264,-155.053009,,,
729861326.54249,0.205955,2.36789,42.945611,-0.044052,-0.000519,1.001938,0.048096,0.033932,-0.002595,70.563904,8.923264,-155.053009,,,
729861326.545828,0.215636,2.373543,42.945054,-0.044052,-0.000519,1.001938,0.025987,0.01649,-0.002676,70.563904,8.923264,-155.053009,,,
729861326.549165,0.215636,2.373543,42.945054,-0.044052,-0.000519,1.001938,0.025987,0.01649,-0.002676,70.563904,8.923264,-155.053009,,,
729861326.55249,0.21938,2.373216,42.945142,-0.051117,0.012146,0.972488,0.025987,0.01649,-0.002676,70.563904,8.923264,-155.053009,,,
729861326.55587,0.217678,2.37312,42.947017,-0.051117,0.012146,0.972488,-0.017643,-0.001578,0.008035,70.563904,8.923264,-155.053009,,,
729861326.559163,0.217678,2.37312,42.947017,-0.051117,0.012146,0.972488,-0.017643,-0.001578,0.008035,70.563904,8.923264,-155.053009,,,
729861326.562491,0.209164,2.367774,42.951193,-0.058472,0.014008,0.959625,-0.017643,-0.001578,0.008035,70.529922,8.817398,-154.793701,,,
729861326.565821,0.194923,2.362556,42.957785,-0.058472,0.014008,0.959625,-0.059286,-0.020509,0.023208,70.529922,8.817398,-154.793701,,,
729861326.569169,0.194923,2.362556,42.957785,-0.058472,0.014008,0.959625,-0.059286,-0.020509,0.023208,70.529922,8.817398,-154.793701,,,
729861326.572491,0.176124,2.352662,42.966402,-0.058701,0.013977,0.962265,-0.059286,-0.020509,0.023208,70.529922,8.817398,-154.793701,,,
729861326.575822,0.155104,2.338067,42.976407,-0.058701,0.013977,0.962265,-0.075476,-0.056133,0.032345,70.529922,8.817398,-154.793701,,,
729861326.579227,0.155104,2.338067,42.976407,-0.058701,0.013977,0.962265,-0.075476,-0.056133,0.032345,70.529922,8.817398,-154.793701,,,
729861326.582483,0.133621,2.320497,42.986891,-0.050507,0.009293,0.976532,-0.075476,-0.056133,0.032345,70.529922,8.817398,-154.793701,,,
729861326.585835,0.113797,2.300691,42.996355,-0.050507,0.009293,0.976532,-0.066321,-0.067442,0.025623,70.529922,8.817398,-154.793701,,,
729861326.589209,0.113797,2.300691,42.996355,-0.050507,0.009293,0.976532,-0.066321,-0.067442,0.025623,70.529922,8.817398,-154.793701,,,
729861326.592491,0.096626,2.281919,43.00351,-0.03653,0.003265,1.009186,-0.066321,-0.067442,0.025623,70.529922,8.817398,-154.793701,,,
729861326.595825,0.086436,2.261844,43.008122,-0.03653,0.003265,1.009186,-0.023723,-0.066917,0.009625,70.529922,8.817398,-154.793701,,,
729861326.599178,0.086436,2.261844,43.008122,-0.03653,0.003265,1.009186,-0.023723,-0.066917,0.009625,70.529922,8.817398,-154.793701,,,
729861326.602488,0.079324,2.243976,43.010101,-0.021667,-0.005722,1.031204,-0.023723,-0.066917,0.009625,70.366943,8.787003,-155.021896,,,
729861326.605827,0.079673,2.229391,43.010013,-0.021667,-0.005722,1.031204,0.010549,-0.040168,-0.003495,70.366943,8.787003,-155.021896,,,
729861326.609168,0.079673,2.229391,43.010013,-0.021667,-0.005722,1.031204,0.010549,-0.040168,-0.003495,70.366943,8.787003,-155.021896,,,
729861326.612489,0.082025,2.219345,43.008174,-0.014389,-0.013458,1.035019,0.010549,-0.040168,-0.003495,70.366943,8.787003,-155.021896,,,
729861326.615822,0.09076,2.215213,43.005053,-0.014389,-0.013458,1.035019,0.035266,-0.00313,-0.011486,70.366943,8.787003,-155.021896,,,
729861326.619255,0.09076,2.215213,43.005053,-0.014389,-0.013458,1.035019,0.035266,-0.00313,-0.011486,70.366943,8.787003,-155.021896,,,
729861326.62254,0.101179,2.215341,43.001005,-0.019302,-0.008057,1.030518,0.035266,-0.00313,-0.011486,70.366943,8.787003,-155.021896,,,
729861326.625819,0.114086,2.21789,42.996116,-0.019302,-0.008057,1.030518,0.04565,0.018564,-0.016966,70.366943,8.787003,-155.021896,,,
729861326.629183,0.114086,2.21789,42.996116,-0.019302,-0.008057,1.030518,0.04565,0.018564,-0.016966,70.366943,8.787003,-155.021896,,,
729861326.6325,0.128036,2.226459,42.991551,-0.023972,-0.001724,1.014801,0.04565,0.018564,-0.016966,70.366943,8.787003,-155.021896,,,
729861326.635822,0.138286,2.235146,42.987409,-0.023972,-0.001724,1.014801,0.030399,0.037034,-0.014616,70.366943,8.787003,-155.021896,,,
729861326.639163,0.138286,2.235146,42.987409,-0.023972,-0.001724,1.014801,0.030399,0.037034,-0.014616,70.366943,8.787003,-155.021896,,,
729861326.642595,0.14589,2.24965,42.982985,-0.027863,0.004898,0.990082,0.030399,0.037034,-0.014616,70.274277,9.016342,-154.974274,,,
729861326.645831,0.146263,2.258793,42.978358,-0.027863,0.004898,0.990082,-0.006132,0.030589,-0.017461,70.274277,9.016342,-154.974274,,,
729861326.649179,0.146263,2.258793,42.978358,-0.027863,0.004898,0.990082,-0.006132,0.030589,-0.017461,70.274277,9.016342,-154.974274,,,
729861326.652494,0.143843,2.269628,42.973631,-0.03952,0.012177,0.973053,-0.006132,0.030589,-0.017461,70.274277,9.016342,-154.974274,,,
729861326.655857,0.135195,2.271271,42.969448,-0.03952,0.012177,0.973053,-0.035174,0.001984,-0.014883,70.274277,9.016342,-154.974274,,,
729861326.659226,0.135195,2.271271,42.969448,-0.03952,0.012177,0.973053,-0.035174,0.001984,-0.014883,70.274277,9.016342,-154.974274,,,
729861326.662487,0.125053,2.272816,42.965828,-0.052414,0.013077,0.975052,-0.035174,0.001984,-0.014883,70.274277,9.016342,-154.974274,,,
729861326.665828,0.125053,2.272816,42.963028,-0.052414,0.013077,0.975052,-0.044837,-0.012386,-0.0096,70.274277,9.016342,-154.974274,,,
729861326.66918,0.11216,2.269079,42.963028,-0.052414,0.013077,0.975052,-0.044837,-0.012386,-0.0096,70.274277,9.016342,-154.974274,,,
729861326.672493,0.099106,2.265562,42.961854,-0.05661,0.006119,0.986877,-0.044837,-0.012386,-0.0096,70.274277,9.016342,-154.974274,,,
729861326.675826,0.099106,2.265562,42.963072,-0.05661,0.006119,0.986877,-0.04515,-0.00714,0.00707,70.274277,9.016342,-154.974274,,,
729861326.679166,0.085627,2.262569,42.963072,-0.05661,0.006119,0.986877,-0.04515,-0.00714,0.00707,70.274277,9.016342,-154.974274,,,
729861326.6825,0.07179,2.256859,42.966885,-0.05722,0.005463,0.995926,-0.04515,-0.00714,0.00707,70.274277,9.016342,-154.974274,,,
729861326.685906,0.059726,2.255715,42.971984,-0.05722,0.005463,0.995926,-0.038515,0.000768,0.016339,70.133392,9.021835,-155.203735,,,
729861326.689213,0.059726,2.255715,42.971984,-0.05722,0.005463,0.995926,-0.038515,0.000768,0.016339,70.133392,9.021835,-155.203735,,,
729861326.69249,0.047069,2.250171,42.976532,-0.04422,0.004898,1.002243,-0.038515,0.000768,0.016339,70.133392,9.021835,-155.203735,,,
729861326.695852,0.047069,2.250171,42.976532,-0.04422,0.004898,1.002243,-0.038515,0.000768,0.016339,70.133392,9.021835,-155.203735,,,
729861326.699174,0.039154,2.252808,42.978975,-0.04422,0.004898,1.002243,-0.021645,0.015235,0.002415,70.133392,9.021835,-155.203735,,,
729861326.702495,0.032656,2.252892,42.978856,-0.034637,-0.000214,1.017624,-0.021645,0.015235,0.002415,70.133392,9.021835,-155.203735,,,
729861326.705831,0.032656,2.252892,42.978856,-0.034637,-0.000214,1.017624,-0.021645,0.015235,0.002415,70.133392,9.021835,-155.203735,,,
729861326.70925,0.032416,2.261032,42.976307,-0.034637,-0.000214,1.017624,0.009521,0.036184,-0.013371,70.133392,9.021835,-155.203735,,,
729861326.712485,0.0365,2.268092,42.971831,-0.029968,-0.013077,1.026764,0.009521,0.036184,-0.013371,70.133392,9.021835,-155.203735,,,
729861326.715847,0.0365,2.268092,42.971831,-0.029968,-0.013077,1.026764,0.009521,0.036184,-0.013371,70.133392,9.021835,-155.203735,,,
729861326.71916,0.046091,2.281071,42.966215,-0.029968,-0.013077,1.026764,0.044644,0.051286,-0.019905,70.133392,9.021835,-155.203735,,,
729861326.722535,0.062135,2.29224,42.960688,-0.040543,-0.018784,1.039337,0.044644,0.051286,-0.019905,70.133392,9.021835,-155.203735,,,
729861326.725824,0.062135,2.29224,42.960688,-0.040543,-0.018784,1.039337,0.044644,0.051286,-0.019905,70.401672,8.999664,-154.981934,,,
729861326.729177,0.083393,2.305015,42.956569,-0.040543,-0.018784,1.039337,0.082537,0.041615,-0.008533,70.401672,8.999664,-154.981934,,,
729861326.732495,0.109258,2.312689,42.954883,-0.056778,-0.016495,1.025406,0.082537,0.041615,-0.008533,70.401672,8.999664,-154.981934,,,
729861326.735887,0.109258,2.312689,42.954883,-0.056778,-0.016495,1.025406,0.082537,0.041615,-0.008533,70.401672,8.999664,-154.981934,,,
729861326.739153,0.132836,2.31582,42.956159,-0.056778,-0.016495,1.025406,0.079227,0.002867,0.012065,70.401672,8.999664,-154.981934,,,
729861326.742488,0.155942,2.315694,42.959807,-0.05986,-0.000473,0.986847,0.079227,0.002867,0.012065,70.401672,8.999664,-154.981934,,,
729861326.745832,0.155942,2.315694,42.959807,-0.05986,-0.000473,0.986847,0.079227,0.002867,0.012065,70.401672,8.999664,-154.981934,,,
729861326.749224,0.169313,2.306445,42.964025,-0.05986,-0.000473,0.986847,0.031924,-0.038233,0.014062,70.401672,8.999664,-154.981934,,,
729861326.752484,0.175464,2.295342,42.968349,-0.049149,0.014633,0.954071,0.031924,-0.038233,0.014062,70.401672,8.999664,-154.981934,,,
729861326.755979,0.175464,2.295342,42.968349,-0.049149,0.014633,0.954071,0.031924,-0.038233,0.014062,70.401672,8.999664,-154.981934,,,
729861326.759199,0.172775,2.275656,42.972659,-0.049149,0.014633,0.954071,-0.023674,-0.071091,0.011653,70.401672,8.999664,-154.981934,,,
729861326.762508,0.163439,2.256592,42.976415,-0.044022,0.017609,0.947235,-0.023674,-0.071091,0.011653,70.401672,8.999664,-154.981934,,,
729861326.765876,0.163439,2.256592,42.976415,-0.044022,0.017609,0.947235,-0.023674,-0.071091,0.011653,70.233459,9.020813,-154.776382,,,
729861326.769159,0.147898,2.23252,42.980322,-0.044022,0.017609,0.947235,-0.064065,-0.082698,0.011101,70.233459,9.020813,-154.776382,,,
729861326.772504,0.128556,2.210617,42.985018,-0.042404,0.013016,0.963211,-0.064065,-0.082698,0.011101,70.233459,9.020813,-154.776382,,,
729861326.775919,0.128556,2.210617,42.985018,-0.042404,0.013016,0.963211,-0.064065,-0.082698,0.011101,70.233459,9.020813,-154.776382,,,
729861326.779167,0.10723,2.191601,42.990157,-0.042404,0.013016,0.963211,-0.076277,-0.052041,0.013816,70.233459,9.020813,-154.776382,,,
729861326.782492,0.086007,2.179389,42.995872,-0.037399,0.004257,0.993515,-0.076277,-0.052041,0.013816,70.233459,9.020813,-154.776382,,,
729861326.78588,0.086007,2.179389,42.995872,-0.037399,0.004257,0.993515,-0.076277,-0.052041,0.013816,70.233459,9.020813,-154.776382,,,
729861326.789265,0.067299,2.176623,43.002859,-0.037399,0.004257,0.993515,-0.058678,0.010809,0.023404,70.233459,9.020813,-154.776382,,,
729861326.79248,0.052365,2.181788,43.010209,-0.031143,-0.009552,1.027969,-0.058678,0.010809,0.023404,70.233459,9.020813,-154.776382,,,
729861326.795843,0.052365,2.181788,43.010209,-0.031143,-0.009552,1.027969,-0.058678,0.010809,0.023404,70.233459,9.020813,-154.776382,,,
729861326.799168,0.046849,2.197017,43.017235,-0.031143,-0.009552,1.027969,-0.00454,0.067573,0.023184,70.233459,9.020813,-154.776382,,,
729861326.80258,0.048867,2.216841,43.023746,-0.026062,-0.016739,1.053452,-0.00454,0.067573,0.023184,70.233459,9.020813,-154.776382,,,
729861326.805823,0.048867,2.216841,43.023746,-0.026062,-0.016739,1.053452,-0.00454,0.067573,0.023184,70.233459,9.020813,-154.776382,,,
729861326.809189,0.062398,2.239648,43.027698,-0.026062,-0.016739,1.053452,0.061183,0.085114,0.007951,70.143005,9.087463,-155.219986,,,
729861326.812489,0.081409,2.26368,43.028101,-0.033371,-0.01767,1.044815,0.061183,0.085114,0.007951,70.143005,9.087463,-155.219986,,,
729861326.815829,0.081409,2.26368,43.028101,-0.033371,-0.01767,1.044815,0.061183,0.085114,0.007951,70.143005,9.087463,-155.219986,,,
729861326.819172,0.107139,2.28272,43.025693,-0.033371,-0.01767,1.044815,0.095115,0.061426,-0.010337,70.143005,9.087463,-155.219986,,,
729861326.822536,0.133678,2.299561,43.021847,-0.042419,-0.013351,1.012253,0.095115,0.061426,-0.010337,70.143005,9.087463,-155.219986,,,
729861326.825896,0.133678,2.299561,43.021847,-0.042419,-0.013351,1.012253,0.095115,0.061426,-0.010337,70.143005,9.087463,-155.219986,,,
729861326.829151,0.159916,2.306669,43.017933,-0.042419,-0.013351,1.012253,0.088317,0.014517,-0.011119,70.143005,9.087463,-155.219986,,,
729861326.83249,0.182685,2.307793,43.014896,-0.051758,0.005142,0.978973,0.088317,0.014517,-0.011119,70.143005,9.087463,-155.219986,,,
729861326.835826,0.182685,2.307793,43.014896,-0.051758,0.005142,0.978973,0.088317,0.014517,-0.011119,70.143005,9.087463,-155.219986,,,
729861326.839166,0.197587,2.2991,43.014173,-0.051758,0.005142,0.978973,0.039262,-0.040155,0.003018,70.143005,9.087463,-155.219986,,,
729861326.842489,0.206124,2.284317,43.016088,-0.056381,0.019196,0.953964,0.039262,-0.040155,0.003018,70.143005,9.087463,-155.219986,,,
729861326.845862,0.206124,2.284317,43.016088,-0.056381,0.019196,0.953964,0.039262,-0.040155,0.003018,70.143005,9.087463,-155.219986,,,
729861326.849278,0.205284,2.263309,43.02039,-0.056381,0.019196,0.953964,-0.016733,-0.077101,0.017358,70.356461,9.180527,-155.198013,,,
729861326.852494,0.198604,2.239415,43.027351,-0.050293,0.020355,0.955978,-0.016733,-0.077101,0.017358,70.356461,9.180527,-155.198013,,,
729861326.855952,0.198604,2.239415,43.027351,-0.050293,0.020355,0.955978,-0.016733,-0.077101,0.017358,70.356461,9.180527,-155.198013,,,
729861326.859166,0.18671,2.213346,43.036408,-0.050293,0.020355,0.955978,-0.047023,-0.088339,0.03086,70.356461,9.180527,-155.198013,,,
729861326.86249,0.173537,2.187894,43.045956,-0.032471,0.013229,0.976486,-0.047023,-0.088339,0.03086,70.356461,9.180527,-155.198013,,,
729861326.865935,0.173537,2.187894,43.045956,-0.032471,0.013229,0.976486,-0.047023,-0.088339,0.03086,70.356461,9.180527,-155.198013,,,
729861326.869177,0.161105,2.164397,43.054391,-0.032471,0.013229,0.976486,-0.038887,-0.073742,0.023405,70.356461,9.180527,-155.198013,,,
729861326.872503,0.151159,2.144855,43.060854,-0.014709,0.005753,1.001465,-0.038887,-0.073742,0.023405,70.356461,9.180527,-155.198013,,,
729861326.875841,0.151159,2.144855,43.060854,-0.014709,0.005753,1.001465,-0.038887,-0.073742,0.023405,70.356461,9.180527,-155.198013,,,
729861326.879241,0.145451,2.132336,43.064572,-0.014709,0.005753,1.001465,-0.013828,-0.028802,0.005197,70.356461,9.180527,-155.198013,,,
729861326.882504,0.140908,2.126262,43.065419,0.004639,0.001343,1.012817,-0.013828,-0.028802,0.005197,70.356461,9.180527,-155.198013,,,
729861326.885851,0.140908,2.126262,43.065419,0.004639,0.001343,1.012817,-0.013828,-0.028802,0.005197,70.356461,9.180527,-155.198013,,,
729861326.889255,0.140243,2.130096,43.063104,0.004639,0.001343,1.012817,0.002378,0.030449,-0.016126,70.530853,8.83902,-155.070343,,,
729861326.892492,0.139975,2.140793,43.057615,0.012863,0.000549,1.010315,0.002378,0.030449,-0.016126,70.530853,8.83902,-155.070343,,,
729861326.895841,0.139975,2.140793,43.057615,0.012863,0.000549,1.010315,0.002378,0.030449,-0.016126,70.530853,8.83902,-155.070343,,,
729861326.899176,0.143895,2.157784,43.049557,0.012863,0.000549,1.010315,0.019459,0.067467,-0.033367,70.530853,8.83902,-155.070343,,,
729861326.902501,0.147439,2.177983,43.038535,0.005997,0.002075,1.005417,0.019459,0.067467,-0.033367,70.530853,8.83902,-155.070343,,,
729861326.905829,0.147439,2.177983,43.038535,0.005997,0.002075,1.005417,0.019459,0.067467,-0.033367,70.530853,8.83902,-155.070343,,,
729861326.909175,0.153633,2.198834,43.024808,0.005997,0.002075,1.005417,0.026284,0.074228,-0.051913,70.530853,8.83902,-155.070343,,,
729861326.912502,0.160014,2.220367,43.009442,-0.007935,9.2e-05,0.983658,0.026284,0.074228,-0.051913,70.530853,8.83902,-155.070343,,,
729861326.91585,0.160014,2.220367,43.009442,-0.007935,9.2e-05,0.983658,0.026284,0.074228,-0.051913,70.530853,8.83902,-155.070343,,,
729861326.919265,0.16475,2.238246,42.992616,-0.007935,9.2e-05,0.983658,0.013773,0.059404,-0.062563,70.530853,8.83902,-155.070343,,,
729861326.922534,0.168499,2.255127,42.974797,-0.025101,0.000565,0.972336,0.013773,0.059404,-0.062563,70.530853,8.83902,-155.070343,,,
729861326.925845,0.168499,2.255127,42.974797,-0.025101,0.000565,0.972336,0.013773,0.059404,-0.062563,70.530853,8.83902,-155.070343,,,
729861326.929161,0.167331,2.264001,42.95722,-0.025101,0.000565,0.972336,-0.007198,0.02458,-0.061732,70.312744,9.046082,-155.135452,,,
729861326.932502,0.164219,2.269246,42.940785,-0.045135,0.005951,0.959793,-0.007198,0.02458,-0.061732,70.312744,9.046082,-155.135452,,,
729861326.93585,0.164219,2.269246,42.940785,-0.045135,0.005951,0.959793,-0.007198,0.02458,-0.061732,70.312744,9.046082,-155.135452,,,
729861326.939161,0.153178,2.266346,42.925744,-0.045135,0.005951,0.959793,-0.046503,-0.014135,-0.053644,70.312744,9.046082,-155.135452,,,
729861326.942533,0.138553,2.259854,42.912086,-0.054092,0.007202,0.957809,-0.046503,-0.014135,-0.053644,70.312744,9.046082,-155.135452,,,
729861326.945842,0.138553,2.259854,42.912086,-0.054092,0.007202,0.957809,-0.046503,-0.014135,-0.053644,70.312744,9.046082,-155.135452,,,
729861326.949171,0.118396,2.251756,42.900726,-0.054092,0.007202,0.957809,-0.075097,-0.026454,-0.038719,70.312744,9.046082,-155.135452,,,
729861326.952486,0.095456,2.240696,42.892207,-0.058563,0.000809,0.979767,-0.075097,-0.026454,-0.038719,70.312744,9.046082,-155.135452,,,
729861326.955954,0.095456,2.240696,42.892207,-0.058563,0.000809,0.979767,-0.075097,-0.026454,-0.038719,70.312744,9.046082,-155.135452,,,
729861326.958861,0.071622,2.233432,42.886289,-0.058563,0.000809,0.979767,-0.07787,-0.02115,-0.020578,70.312744,9.046082,-155.135452,,,
729861326.962608,0.050442,2.219493,42.882746,-0.058411,-0.004883,1.00882,-0.07787,-0.02115,-0.020578,70.312744,9.046082,-155.135452,,,
729861326.965855,0.050442,2.219493,42.882746,-0.058411,-0.004883,1.00882,-0.07787,-0.02115,-0.020578,70.312744,9.046082,-155.135452,,,
729861326.969271,0.033114,2.214926,42.880933,-0.058411,-0.004883,1.00882,-0.049364,-0.008337,-0.00727,70.312744,9.046082,-155.135452,,,
729861326.972492,0.021124,2.202063,42.880003,-0.060471,-0.009689,1.028122,-0.049364,-0.008337,-0.00727,70.31398,9.104752,-155.287109,,,
729861326.975852,0.021124,2.202063,42.880003,-0.060471,-0.009689,1.028122,-0.049364,-0.008337,-0.00727,70.31398,9.104752,-155.287109,,,
729861326.979172,0.014658,2.203649,42.879407,-0.060471,-0.009689,1.028122,-0.011394,0.011097,-0.003481,70.31398,9.104752,-155.287109,,,
729861326.982496,0.01446,2.197522,42.87885,-0.057526,-0.013718,1.034546,-0.011394,0.011097,-0.003481,70.31398,9.104752,-155.287109,,,
729861326.98583,0.01446,2.197522,42.87885,-0.057526,-0.013718,1.034546,-0.011394,0.011097,-0.003481,70.31398,9.104752,-155.287109,,,
729861326.989277,0.019123,2.202958,42.877962,-0.057526,-0.013718,1.034546,0.024427,0.021671,-0.004431,70.31398,9.104752,-155.287109,,,
729861326.992493,0.028407,2.200255,42.876875,-0.054276,-0.006149,1.026962,0.024427,0.021671,-0.004431,70.31398,9.104752,-155.287109,,,
729861326.995902,0.028407,2.200255,42.876875,-0.054276,-0.006149,1.026962,0.024427,0.021671,-0.004431,70.31398,9.104752,-155.287109,,,
729861326.999182,0.042083,2.20189,42.875259,-0.054276,-0.006149,1.026962,0.055664,0.004759,-0.006897,70.31398,9.104752,-155.287109,,,
729861327.002499,0.059008,2.197758,42.871925,-0.050629,-0.005432,1.01384,0.055664,0.004759,-0.006897,70.31398,9.104752,-155.287109,,,
729861327.005925,0.059008,2.197758,42.871925,-0.050629,-0.005432,1.01384,0.055664,0.004759,-0.006897,70.31398,9.104752,-155.287109,,,
729861327.009247,0.07875,2.195344,42.866817,-0.050629,-0.005432,1.01384,0.074486,-0.007721,-0.018456,70.31398,9.104752,-155.287109,,,
729861327.012497,0.100543,2.19298,42.861037,-0.056076,-0.002029,1.01239,0.074486,-0.007721,-0.018456,70.312408,9.265228,-155.008575,,,
729861327.015849,0.100543,2.19298,42.861037,-0.056076,-0.002029,1.01239,0.074486,-0.007721,-0.018456,70.312408,9.265228,-155.008575,,,
729861327.019174,0.12079,2.189017,42.855947,-0.056076,-0.002029,1.01239,0.068046,-0.012479,-0.013892,70.312408,9.265228,-155.008575,,,
729861327.022555,0.139184,2.186951,42.852711,-0.059418,0.003723,0.994263,0.068046,-0.012479,-0.013892,70.312408,9.265228,-155.008575,,,
729861327.025856,0.139184,2.186951,42.852711,-0.059418,0.003723,0.994263,0.068046,-0.012479,-0.013892,70.312408,9.265228,-155.008575,,,
729861327.029186,0.152082,2.179258,42.852007,-0.059418,0.003723,0.994263,0.035871,-0.026586,0.00248,70.312408,9.265228,-155.008575,,,
729861327.0325,0.1599,2.173658,42.85431,-0.05748,0.010788,0.977448,0.035871,-0.026586,0.00248,70.312408,9.265228,-155.008575,,,
729861327.035927,0.1599,2.173658,42.85431,-0.05748,0.010788,0.977448,0.035871,-0.026586,0.00248,70.312408,9.265228,-155.008575,,,
729861327.039157,0.16253,2.162212,42.859012,-0.05748,0.010788,0.977448,-0.000259,-0.038975,0.017748,70.312408,9.265228,-155.008575,,,
729861327.042502,0.159331,2.154663,42.864962,-0.048325,0.016357,0.979019,-0.000259,-0.038975,0.017748,70.312408,9.265228,-155.008575,,,
729861327.045839,0.159331,2.154663,42.864962,-0.048325,0.016357,0.979019,-0.000259,-0.038975,0.017748,70.312408,9.265228,-155.008575,,,
729861327.04924,0.153328,2.141938,42.871458,-0.048325,0.016357,0.979019,-0.028453,-0.041933,0.020366,70.312408,9.265228,-155.008575,,,
729861327.052495,0.142717,2.134311,42.877668,-0.035995,0.011826,0.985748,-0.028453,-0.041933,0.020366,70.269989,8.860947,-155.240707,,,
729861327.055903,0.142717,2.134311,42.877668,-0.035995,0.011826,0.985748,-0.028453,-0.041933,0.020366,70.269989,8.860947,-155.240707,,,
729861327.059176,0.132732,2.122103,42.882816,-0.035995,0.011826,0.985748,-0.037432,-0.037686,0.012506,70.269989,8.860947,-155.240707,,,
729861327.0625,0.119142,2.116187,42.886479,-0.026031,0.008392,0.995987,-0.037432,-0.037686,0.012506,70.269989,8.860947,-155.240707,,,
729861327.06584,0.119142,2.116187,42.886479,-0.026031,0.008392,0.995987,-0.037432,-0.037686,0.012506,70.269989,8.860947,-155.240707,,,
729861327.069174,0.109231,2.107906,42.888688,-0.026031,0.008392,0.995987,-0.033133,-0.019018,0.002438,70.269989,8.860947,-155.240707,,,
729861327.07257,0.09863,2.107921,42.8889,-0.025238,0.004196,1.004944,-0.033133,-0.019018,0.002438,70.269989,8.860947,-155.240707,,,
729861327.075889,0.09863,2.107921,42.8889,-0.025238,0.004196,1.004944,-0.033133,-0.019018,0.002438,70.269989,8.860947,-155.240707,,,
729861327.079169,0.091649,2.108348,42.887038,-0.025238,0.004196,1.004944,-0.020965,0.014723,-0.011646,70.269989,8.860947,-155.240707,,,
729861327.082503,0.085306,2.118547,42.884001,-0.018478,0.002365,1.013733,-0.020965,0.014723,-0.011646,70.269989,8.860947,-155.240707,,,
729861327.085828,0.085306,2.118547,42.884001,-0.018478,0.002365,1.013733,-0.020965,0.014723,-0.011646,70.269989,8.860947,-155.240707,,,
729861327.089274,0.083452,2.13209,42.880903,-0.018478,0.002365,1.013733,0.001211,0.062687,-0.011292,70.269989,8.860947,-155.240707,,,
729861327.092497,0.08427,2.156541,42.8779,-0.024399,-0.005035,1.023483,0.001211,0.062687,-0.011292,70.417542,8.748398,-154.673752,,,
729861327.095848,0.08427,2.156541,42.8779,-0.024399,-0.005035,1.023483,0.001211,0.062687,-0.011292,70.417542,8.748398,-154.673752,,,
729861327.099172,0.089024,2.180402,42.874237,-0.024399,-0.005035,1.023483,0.021714,0.092134,-0.015138,70.417542,8.748398,-154.673752,,,
729861327.102499,0.09568,2.213747,42.869522,-0.033691,-0.002594,1.019669,0.021714,0.092134,-0.015138,70.417542,8.748398,-154.673752,,,
729861327.105828,0.09568,2.213747,42.869522,-0.033691,-0.002594,1.019669,0.021714,0.092134,-0.015138,70.417542,8.748398,-154.673752,,,
729861327.109171,0.104278,2.240082,42.864273,-0.033691,-0.002594,1.019669,0.036409,0.092766,-0.018302,70.417542,8.748398,-154.673752,,,
729861327.112507,0.116062,2.271639,42.858904,-0.046417,-0.003799,1.013412,0.036409,0.092766,-0.018302,70.417542,8.748398,-154.673752,,,
729861327.115891,0.116062,2.271639,42.858904,-0.046417,-0.003799,1.013412,0.036409,0.092766,-0.018302,70.417542,8.748398,-154.673752,,,
729861327.119168,0.126268,2.292143,42.854442,-0.046417,-0.003799,1.013412,0.038142,0.064993,-0.011923,70.417542,8.748398,-154.673752,,,
729861327.122543,0.140378,2.311331,42.851846,-0.059875,-0.004135,1.005173,0.038142,0.064993,-0.011923,70.417542,8.748398,-154.673752,,,
729861327.125839,0.140378,2.311331,42.851846,-0.059875,-0.004135,1.005173,0.038142,0.064993,-0.011923,70.417542,8.748398,-154.673752,,,
729861327.129231,0.149409,2.319322,42.851803,-0.059875,-0.004135,1.005173,0.028934,0.016956,0.00546,70.417542,8.748398,-154.673752,,,
729861327.13252,0.159053,2.320382,42.854872,-0.06636,0.001282,0.993378,0.028934,0.016956,0.00546,70.417542,8.748398,-154.673752,,,
729861327.135846,0.159053,2.320382,42.854872,-0.06636,0.001282,0.993378,0.028934,0.016956,0.00546,70.672791,9.172104,-155.063263,,,
729861327.139165,0.163296,2.315454,42.860915,-0.06636,0.001282,0.993378,0.009334,-0.026378,0.025422,70.672791,9.172104,-155.063263,,,
729861327.14234,0.167015,2.300675,42.868384,-0.066391,0.006149,0.989334,0.009334,-0.026378,0.025422,70.672791,9.172104,-155.063263,,,
729861327.145882,0.167015,2.300675,42.868384,-0.066391,0.006149,0.989334,0.009334,-0.026378,0.025422,70.672791,9.172104,-155.063263,,,
729861327.149177,0.167221,2.288473,42.876164,-0.066391,0.006149,0.989334,-0.002717,-0.041322,0.027145,70.672791,9.172104,-155.063263,,,
729861327.152493,0.167886,2.271216,42.884948,-0.05426,0.004333,0.997955,-0.002717,-0.041322,0.027145,70.672791,9.172104,-155.063263,,,
729861327.155939,0.167886,2.271216,42.884948,-0.05426,0.004333,0.997955,-0.002717,-0.041322,0.027145,70.672791,9.172104,-155.063263,,,
729861327.159165,0.168841,2.260297,42.894414,-0.05426,0.004333,0.997955,0.003267,-0.029631,0.032268,70.672791,9.172104,-155.063263,,,
729861327.162501,0.170708,2.246444,42.904276,-0.046692,0.00061,1.011368,0.003267,-0.029631,0.032268,70.672791,9.172104,-155.063263,,,
729861327.165838,0.170708,2.246444,42.904276,-0.046692,0.00061,1.011368,0.003267,-0.029631,0.032268,70.672791,9.172104,-155.063263,,,
729861327.169215,0.174409,2.243435,42.91396,-0.046692,0.00061,1.011368,0.017117,-0.001206,0.031731,70.672791,9.172104,-155.063263,,,
729861327.172493,0.17912,2.237381,42.92244,-0.03569,0.001175,1.018631,0.017117,-0.001206,0.031731,70.672791,9.172104,-155.063263,,,
729861327.175829,0.17912,2.237381,42.92244,-0.03569,0.001175,1.018631,0.017117,-0.001206,0.031731,70.368484,8.926636,-155.038559,,,
729861327.179187,0.188288,2.238538,42.929228,-0.03569,0.001175,1.018631,0.037325,0.00885,0.020863,70.368484,8.926636,-155.038559,,,
729861327.182492,0.199241,2.237263,42.934001,-0.02536,-0.000977,1.014954,0.037325,0.00885,0.020863,70.368484,8.926636,-155.038559,,,
729861327.185835,0.199241,2.237263,42.934001,-0.02536,-0.000977,1.014954,0.037325,0.00885,0.020863,70.368484,8.926636,-155.038559,,,
729861327.189205,0.215416,2.23923,42.936028,-0.02536,-0.000977,1.014954,0.061928,0.011534,0.002774,70.368484,8.926636,-155.038559,,,
729861327.19249,0.233003,2.242879,42.935423,-0.026428,-0.006729,1.018845,0.061928,0.011534,0.002774,70.368484,8.926636,-155.038559,,,
729861327.195894,0.233003,2.242879,42.935423,-0.026428,-0.006729,1.018845,0.061928,0.011534,0.002774,70.368484,8.926636,-155.038559,,,
729861327.199165,0.25498,2.247341,42.932727,-0.026428,-0.006729,1.018845,0.082259,0.022334,-0.010962,70.368484,8.926636,-155.038559,,,
729861327.202489,0.276266,2.259146,42.929266,-0.032776,-0.005463,1.019302,0.082259,0.022334,-0.010962,70.368484,8.926636,-155.038559,,,
729861327.20583,0.276266,2.259146,42.929266,-0.032776,-0.005463,1.019302,0.082259,0.022334,-0.010962,70.368484,8.926636,-155.038559,,,
729861327.209175,0.300259,2.265316,42.927093,-0.032776,-0.005463,1.019302,0.083842,0.024808,-0.002124,70.368484,8.926636,-155.038559,,,
729861327.212497,0.321195,2.279997,42.926986,-0.038849,0.001923,1.002258,0.083842,0.024808,-0.002124,70.368484,8.926636,-155.038559,,,
729861327.215826,0.321195,2.279997,42.926986,-0.038849,0.001923,1.002258,0.083842,0.024808,-0.002124,70.420441,8.800735,-154.607147,,,
729861327.219236,0.33912,2.284472,42.929456,-0.038849,0.001923,1.002258,0.054047,0.013505,0.014424,70.420441,8.800735,-154.607147,,,
729861327.222518,0.352315,2.296384,42.933584,-0.043137,0.01033,0.981201,0.054047,0.013505,0.014424,70.420441,8.800735,-154.607147,,,
729861327.22583,0.352315,2.296384,42.933584,-0.043137,0.01033,0.981201,0.054047,0.013505,0.014424,70.420441,8.800735,-154.607147,,,
729861327.229182,0.360698,2.29771,42.938261,-0.043137,0.01033,0.981201,0.019091,0.006688,0.016358,70.420441,8.800735,-154.607147,,,
729861327.232526,0.363921,2.303535,42.942669,-0.041641,0.012665,0.974991,0.019091,0.006688,0.016358,70.420441,8.800735,-154.607147,,,
729861327.235824,0.363921,2.303535,42.942669,-0.041641,0.012665,0.974991,0.019091,0.006688,0.016358,70.420441,8.800735,-154.607147,,,
729861327.239161,0.364949,2.301816,42.946148,-0.041641,0.012665,0.974991,0.001158,-0.006063,0.008876,70.420441,8.800735,-154.607147,,,
729861327.242519,0.363304,2.300736,42.949509,-0.039673,0.008881,0.978699,0.001158,-0.006063,0.008876,70.420441,8.800735,-154.607147,,,
729861327.2459,0.363304,2.300736,42.949509,-0.039673,0.008881,0.978699,0.001158,-0.006063,0.008876,70.420441,8.800735,-154.607147,,,
729861327.249159,0.362672,2.296086,42.953339,-0.039673,0.008881,0.978699,-0.000697,-0.014664,0.011886,70.420441,8.800735,-154.607147,,,
729861327.252562,0.362639,2.290575,42.957444,-0.041519,0.001846,0.983917,-0.000697,-0.014664,0.011886,70.420441,8.800735,-154.607147,,,
729861327.255944,0.362639,2.290575,42.957444,-0.041519,0.001846,0.983917,-0.000697,-0.014664,0.011886,70.420441,8.800735,-154.607147,,,
729861327.259209,0.366022,2.286825,42.961682,-0.041519,0.001846,0.983917,0.0145,-0.00604,0.013467,70.501266,8.914337,-154.70459,,,
729861327.262578,0.37024,2.280758,42.966208,-0.035873,0.002075,0.996338,0.0145,-0.00604,0.013467,70.501266,8.914337,-154.70459,,,
729861327.265837,0.37024,2.280758,42.966208,-0.035873,0.002075,0.996338,0.0145,-0.00604,0.013467,70.501266,8.914337,-154.70459,,,
729861327.26918,0.379449,2.281193,42.970837,-0.035873,0.002075,0.996338,0.038507,0.007952,0.015336,70.501266,8.914337,-154.70459,,,
729861327.272498,0.388443,2.278791,42.974597,-0.027603,-0.000473,0.999359,0.038507,0.007952,0.015336,70.501266,8.914337,-154.70459,,,
729861327.275845,0.388443,2.278791,42.974597,-0.027603,-0.000473,0.999359,0.038507,0.007952,0.015336,70.501266,8.914337,-154.70459,,,
729861327.279167,0.402877,2.283326,42.976507,-0.027603,-0.000473,0.999359,0.054487,0.02293,0.003312,70.501266,8.914337,-154.70459,,,
729861327.282493,0.414615,2.286848,42.975188,-0.021988,0.005768,0.989594,0.054487,0.02293,0.003312,70.501266,8.914337,-154.70459,,,
729861327.285913,0.414615,2.286848,42.975188,-0.021988,0.005768,0.989594,0.054487,0.02293,0.003312,70.501266,8.914337,-154.70459,,,
729861327.289213,0.426993,2.29572,42.970156,-0.021988,0.005768,0.989594,0.036646,0.038035,-0.023085,70.501266,8.914337,-154.70459,,,
729861327.29258,0.432125,2.306304,42.962772,-0.021164,0.014069,0.970306,0.036646,0.038035,-0.023085,70.501266,8.914337,-154.70459,,,
729861327.29584,0.432125,2.306304,42.962772,-0.021164,0.014069,0.970306,0.036646,0.038035,-0.023085,70.501266,8.914337,-154.70459,,,
729861327.299179,0.433024,2.318768,42.954004,-0.021164,0.014069,0.970306,-0.00642,0.04694,-0.034401,70.29155,8.584015,-154.541031,,,
729861327.302574,0.428443,2.332728,42.944807,-0.030869,0.013489,0.954971,-0.00642,0.04694,-0.034401,70.29155,8.584015,-154.541031,,,
729861327.305827,0.428443,2.332728,42.944807,-0.030869,0.013489,0.954971,-0.00642,0.04694,-0.034401,70.29155,8.584015,-154.541031,,,
729861327.309177,0.41984,2.346885,42.93643,-0.030869,0.013489,0.954971,-0.03437,0.055256,-0.029961,70.29155,8.584015,-154.541031,,,
729861327.312575,0.410212,2.362255,42.930039,-0.044113,0.016678,0.968613,-0.03437,0.055256,-0.029961,70.29155,8.584015,-154.541031,,,
729861327.315831,0.410212,2.362255,42.930039,-0.044113,0.016678,0.968613,-0.03437,0.055256,-0.029961,70.29155,8.584015,-154.541031,,,
729861327.319166,0.397978,2.373673,42.926192,-0.044113,0.016678,0.968613,-0.042485,0.034719,-0.01252,70.29155,8.584015,-154.541031,,,
729861327.322581,0.386007,2.384741,42.924866,-0.056381,0.008041,0.975449,-0.042485,0.034719,-0.01252,70.29155,8.584015,-154.541031,,,
729861327.32582,0.386007,2.384741,42.924866,-0.056381,0.008041,0.975449,-0.042485,0.034719,-0.01252,70.29155,8.584015,-154.541031,,,
729861327.329169,0.37248,2.397213,42.925238,-0.056381,0.008041,0.975449,-0.046382,0.044108,-0.00074,70.29155,8.584015,-154.541031,,,
729861327.332506,0.359129,2.406331,42.925491,-0.048401,0.003281,0.972839,-0.046382,0.044108,-0.00074,70.29155,8.584015,-154.541031,,,
729861327.335829,0.359129,2.406331,42.925491,-0.048401,0.003281,0.972839,-0.046382,0.044108,-0.00074,70.29155,8.584015,-154.541031,,,
729861327.339169,0.348427,2.411214,42.924609,-0.048401,0.003281,0.972839,-0.032248,0.015471,-0.008019,70.419968,8.834213,-154.488815,,,
729861327.342521,0.339976,2.411713,42.922779,-0.043991,0.004333,0.986572,-0.032248,0.015471,-0.008019,70.419968,8.834213,-154.488815,,,
729861327.345907,0.339976,2.411713,42.922779,-0.043991,0.004333,0.986572,-0.032248,0.015471,-0.008019,70.419968,8.834213,-154.488815,,,
729861327.349179,0.334923,2.408371,42.919288,-0.043991,0.004333,0.986572,-0.013178,-0.017246,-0.018754,70.419968,8.834213,-154.488815,,,
729861327.352529,0.330692,2.398546,42.913088,-0.034134,0.00386,0.993744,-0.013178,-0.017246,-0.018754,70.419968,8.834213,-154.488815,,,
729861327.355898,0.330692,2.398546,42.913088,-0.034134,0.00386,0.993744,-0.013178,-0.017246,-0.018754,70.419968,8.834213,-154.488815,,,
729861327.359239,0.328995,2.390165,42.904047,-0.034134,0.00386,0.993744,-0.001827,-0.027534,-0.038027,70.419968,8.834213,-154.488815,,,
729861327.362564,0.328328,2.378957,42.892258,-0.019882,-0.000778,1.001144,-0.001827,-0.027534,-0.038027,70.419968,8.834213,-154.488815,,,
729861327.36582,0.328328,2.378957,42.892258,-0.019882,-0.000778,1.001144,-0.001827,-0.027534,-0.038027,70.419968,8.834213,-154.488815,,,
729861327.369172,0.330294,2.373628,42.878815,-0.019882,-0.000778,1.001144,0.014908,-0.011379,-0.048736,70.419968,8.834213,-154.488815,,,
729861327.372501,0.330294,2.373628,42.878815,-0.02182,-0.007965,1.019196,0.014908,-0.011379,-0.048736,70.419968,8.834213,-154.488815,,,
729861327.375835,0.335431,2.367839,42.864156,-0.02182,-0.007965,1.019196,0.014908,-0.011379,-0.048736,70.419968,8.834213,-154.488815,,,
729861327.379168,0.338594,2.37117,42.848863,-0.02182,-0.007965,1.019196,0.010257,0.02334,-0.053175,70.614517,8.956238,-154.445084,,,
729861327.382536,0.338594,2.37117,42.848863,-0.029739,-0.001602,1.016876,0.010257,0.02334,-0.053175,70.614517,8.956238,-154.445084,,,
729861327.385895,0.340851,2.375847,42.834638,-0.029739,-0.001602,1.016876,0.010257,0.02334,-0.053175,70.614517,8.956238,-154.445084,,,
729861327.389226,0.338222,2.385868,42.822359,-0.029739,-0.001602,1.016876,-0.013833,0.040193,-0.040541,70.614517,8.956238,-154.445084,,,
729861327.392494,0.338222,2.385868,42.822359,-0.029739,-0.001602,1.000992,-0.013833,0.040193,-0.040541,70.614517,8.956238,-154.445084,,,
729861327.395847,0.334415,2.396861,42.813222,-0.039597,0.001419,1.000992,-0.013833,0.040193,-0.040541,70.614517,8.956238,-154.445084,,,
729861327.399249,0.325826,2.406843,42.807793,-0.039597,0.001419,1.000992,-0.032188,0.033244,-0.015518,70.614517,8.956238,-154.445084,,,
729861327.402489,0.325826,2.406843,42.807793,-0.039597,0.001419,1.000992,-0.032188,0.033244,-0.015518,70.614517,8.956238,-154.445084,,,
729861327.405691,0.317091,2.417684,42.805626,-0.056686,0.00148,0.993561,-0.032188,0.033244,-0.015518,70.614517,8.956238,-154.445084,,,
729861327.40919,0.305937,2.418664,42.80609,-0.056686,0.00148,0.993561,-0.040344,-0.005155,0.00225,70.614517,8.956238,-154.445084,,,
729861327.412509,0.305937,2.418664,42.80609,-0.056686,0.00148,0.993561,-0.040344,-0.005155,0.00225,70.614517,8.956238,-154.445084,,,
729861327.415875,0.294279,2.416443,42.808049,-0.056732,0.005493,0.985123,-0.040344,-0.005155,0.00225,70.614517,8.956238,-154.445084,,,
729861327.419177,0.283412,2.405637,42.810716,-0.056732,0.005493,0.985123,-0.039466,-0.041948,0.007105,70.614517,8.956238,-154.445084,,,
729861327.422326,0.283412,2.405637,42.810716,-0.056732,0.005493,0.985123,-0.039466,-0.041948,0.007105,70.368362,8.941849,-154.363266,,,
729861327.425873,0.271901,2.392628,42.814058,-0.054367,0.000916,0.983337,-0.039466,-0.041948,0.007105,70.368362,8.941849,-154.363266,,,
729861327.429162,0.260848,2.376492,42.817717,-0.054367,0.000916,0.983337,-0.037678,-0.056322,0.009369,70.368362,8.941849,-154.363266,,,
729861327.432575,0.260848,2.376492,42.817717,-0.054367,0.000916,0.983337,-0.037678,-0.056322,0.009369,70.368362,8.941849,-154.363266,,,
729861327.435892,0.250064,2.35956,42.821,-0.040604,0.008179,0.985825,-0.037678,-0.056322,0.009369,70.368362,8.941849,-154.363266,,,
729861327.43898,0.241035,2.345725,42.823595,-0.040604,0.008179,0.985825,-0.026711,-0.040913,0.005099,70.368362,8.941849,-154.363266,,,
729861327.442526,0.241035,2.345725,42.823595,-0.040604,0.008179,0.985825,-0.026711,-0.040913,0.005099,70.368362,8.941849,-154.363266,,,
729861327.445853,0.234265,2.330578,42.825169,-0.029129,0.000595,1.002975,-0.026711,-0.040913,0.005099,70.368362,8.941849,-154.363266,,,
729861327.449175,0.232444,2.326581,42.824792,-0.029129,0.000595,1.002975,0.00426,-6.8e-05,-0.007115,70.368362,8.941849,-154.363266,,,
729861327.452555,0.232444,2.326581,42.824792,-0.029129,0.000595,1.002975,0.00426,-6.8e-05,-0.007115,70.368362,8.941849,-154.363266,,,
729861327.455702,0.232596,2.322357,42.822851,-0.02533,-0.007446,1.027969,0.00426,-6.8e-05,-0.007115,70.368362,8.941849,-154.363266,,,
729861327.459194,0.239322,2.331301,42.819826,-0.02533,-0.007446,1.027969,0.030633,0.044555,-0.013447,70.368362,8.941849,-154.363266,,,
729861327.462518,0.239322,2.331301,42.819826,-0.02533,-0.007446,1.027969,0.030633,0.044555,-0.013447,70.396912,8.908249,-154.322571,,,
729861327.465842,0.247316,2.341249,42.816213,-0.030502,-0.008652,1.029236,0.030633,0.044555,-0.013447,70.396912,8.908249,-154.322571,,,
729861327.46917,0.260265,2.35765,42.813302,-0.030502,-0.008652,1.029236,0.050519,0.061598,-0.007669,70.396912,8.908249,-154.322571,,,
729861327.4723,0.260265,2.35765,42.813302,-0.030502,-0.008652,1.029236,0.050519,0.061598,-0.007669,70.396912,8.908249,-154.322571,,,
729861327.475876,0.273972,2.371578,42.811436,-0.045166,-0.002914,1.015488,0.050519,0.061598,-0.007669,70.396912,8.908249,-154.322571,,,
729861327.479179,0.288297,2.384123,42.810971,-0.045166,-0.002914,1.015488,0.048937,0.039375,0.002153,70.396912,8.908249,-154.322571,,,
729861327.482534,0.288297,2.384123,42.810971,-0.045166,-0.002914,1.015488,0.048937,0.039375,0.002153,70.396912,8.908249,-154.322571,,,
729861327.485886,0.299939,2.394938,42.811726,-0.055817,0.004227,0.982498,0.048937,0.039375,0.002153,70.396912,8.908249,-154.322571,,,
729861327.489036,0.309728,2.394192,42.812947,-0.055817,0.004227,0.982498,0.028796,-0.015205,0.004376,70.396912,8.908249,-154.322571,,,
729861327.492551,0.309728,2.394192,42.812947,-0.055817,0.004227,0.982498,0.028796,-0.015205,0.004376,70.396912,8.908249,-154.322571,,,
729861327.495892,0.316915,2.391919,42.8142,-0.057037,0.014069,0.966339,0.028796,-0.015205,0.004376,70.396912,8.908249,-154.322571,,,
729861327.499227,0.321496,2.3785,42.816073,-0.057037,0.014069,0.966339,0.009091,-0.053971,0.00766,70.396912,8.908249,-154.322571,,,
729861327.502519,0.321496,2.3785,42.816073,-0.057037,0.014069,0.966339,0.009091,-0.053971,0.00766,70.485748,8.950714,-154.448761,,,
729861327.505696,0.321443,2.36393,42.819131,-0.055527,0.013031,0.960953,0.009091,-0.053971,0.00766,70.485748,8.950714,-154.448761,,,
729861327.509213,0.318444,2.339664,42.822957,-0.055527,0.013031,0.960953,-0.017508,-0.089765,0.011761,70.485748,8.950714,-154.448761,,,
729861327.512609,0.318444,2.339664,42.822957,-0.055527,0.013031,0.960953,-0.017508,-0.089765,0.011761,70.485748,8.950714,-154.448761,,,
729861327.515832,0.311775,2.315227,42.826875,-0.045975,0.017624,0.95636,-0.017508,-0.089765,0.011761,70.485748,8.950714,-154.448761,,,
729861327.519188,0.301757,2.290722,42.831069,-0.045975,0.017624,0.95636,-0.0388,-0.078543,0.012765,70.485748,8.950714,-154.448761,,,
729861327.522558,0.301757,2.290722,42.831069,-0.045975,0.017624,0.95636,-0.0388,-0.078543,0.012765,70.485748,8.950714,-154.448761,,,
729861327.525869,0.289416,2.268175,42.835405,-0.028168,0.019501,0.975174,-0.0388,-0.078543,0.012765,70.485748,8.950714,-154.448761,,,
729861327.529157,0.276975,2.255067,42.839266,-0.028168,0.019501,0.975174,-0.042109,-0.028901,0.009381,70.485748,8.950714,-154.448761,,,
729861327.532504,0.276975,2.255067,42.839266,-0.028168,0.019501,0.975174,-0.042109,-0.028901,0.009381,70.485748,8.950714,-154.448761,,,
729861327.535829,0.262697,2.246769,42.84272,-0.014206,0.008698,1.000015,-0.042109,-0.028901,0.009381,70.485748,8.950714,-154.448761,,,
729861327.539246,0.250739,2.250766,42.844834,-0.014206,0.008698,1.000015,-0.041384,0.030419,0.000151,70.485748,8.950714,-154.448761,,,
729861327.542495,0.250739,2.250766,42.844834,-0.014206,0.008698,1.000015,-0.041384,0.030419,0.000151,70.2854,9.005127,-154.288574,,,
729861327.545841,0.235665,2.257943,42.844741,-0.005112,0.008041,1.00824,-0.041384,0.030419,0.000151,70.2854,9.005127,-154.288574,,,
729861327.549166,0.223719,2.274528,42.841693,-0.005112,0.008041,1.00824,-0.040231,0.069111,-0.020274,70.2854,9.005127,-154.288574,,,
729861327.552553,0.223719,2.274528,42.841693,-0.005112,0.008041,1.00824,-0.040231,0.069111,-0.020274,70.2854,9.005127,-154.288574,,,
729861327.555871,0.211615,2.294717,42.834985,-0.005035,0.004929,1.010269,-0.040231,0.069111,-0.020274,70.2854,9.005127,-154.288574,,,
729861327.559161,0.20344,2.316153,42.825488,-0.005035,0.004929,1.010269,-0.024605,0.079355,-0.039211,70.2854,9.005127,-154.288574,,,
729861327.562531,0.20344,2.316153,42.825488,-0.005035,0.004929,1.010269,-0.024605,0.079355,-0.039211,70.2854,9.005127,-154.288574,,,
729861327.565906,0.195867,2.34165,42.81399,-0.018768,-0.00235,1.013123,-0.024605,0.079355,-0.039211,70.2854,9.005127,-154.288574,,,
729861327.569183,0.189369,2.362805,42.801321,-0.018768,-0.00235,1.013123,-0.018989,0.075989,-0.047165,70.2854,9.005127,-154.288574,,,
729861327.572569,0.189369,2.362805,42.801321,-0.018768,-0.00235,1.013123,-0.018989,0.075989,-0.047165,70.2854,9.005127,-154.288574,,,
729861327.575838,0.185313,2.38667,42.788308,-0.037888,-0.002991,1.007416,-0.018989,0.075989,-0.047165,70.2854,9.005127,-154.288574,,,
729861327.579168,0.179516,2.401597,42.775499,-0.037888,-0.002991,1.007416,-0.017519,0.048132,-0.045758,70.2854,9.005127,-154.288574,,,
729861327.58251,0.179516,2.401597,42.775499,-0.037888,-0.002991,1.007416,-0.017519,0.048132,-0.045758,70.2854,9.005127,-154.288574,,,
729861327.585842,0.176979,2.417355,42.764129,-0.052704,0.000702,1.002243,-0.017519,0.048132,-0.045758,70.477585,8.907867,-154.751602,,,
729861327.58921,0.172718,2.424665,42.754411,-0.052704,0.000702,1.002243,-0.013556,0.021188,-0.034208,70.477585,8.907867,-154.751602,,,
729861327.592548,0.172718,2.424665,42.754411,-0.052704,0.000702,1.002243,-0.013556,0.021188,-0.034208,70.477585,8.907867,-154.751602,,,
729861327.595844,0.171517,2.430571,42.745244,-0.058228,-0.003281,1.004623,-0.013556,0.021188,-0.034208,70.477585,8.907867,-154.751602,,,
729861327.599168,0.168737,2.428253,42.736661,-0.058228,-0.003281,1.004623,-0.004305,-0.016384,-0.029776,70.477585,8.907867,-154.751602,,,
729861327.602508,0.168737,2.428253,42.736661,-0.058228,-0.003281,1.004623,-0.004305,-0.016384,-0.029776,70.477585,8.907867,-154.751602,,,
729861327.605944,0.171991,2.419101,42.728789,-0.061035,-0.004211,1.006622,-0.004305,-0.016384,-0.029776,70.477585,8.907867,-154.751602,,,
729861327.609158,0.173341,2.410941,42.721413,-0.061035,-0.004211,1.006622,0.009554,-0.02696,-0.025689,70.477585,8.907867,-154.751602,,,
729861327.612523,0.173341,2.410941,42.721413,-0.061035,-0.004211,1.006622,0.009554,-0.02696,-0.025689,70.477585,8.907867,-154.751602,,,
729861327.615849,0.177364,2.395192,42.714728,-0.060852,-0.003769,1.007599,0.009554,-0.02696,-0.025689,70.477585,8.907867,-154.751602,,,
729861327.619168,0.178634,2.387761,42.708409,-0.060852,-0.003769,1.007599,0.001574,-0.020507,-0.023313,70.477585,8.907867,-154.751602,,,
729861327.622557,0.178634,2.387761,42.708409,-0.060852,-0.003769,1.007599,0.001574,-0.020507,-0.023313,70.477585,8.907867,-154.751602,,,
729861327.625844,0.177935,2.371507,42.702248,-0.052628,0.003769,0.992935,0.001574,-0.020507,-0.023313,70.543381,8.944641,-154.716568,,,
729861327.629168,0.172486,2.37091,42.696666,-0.052628,0.003769,0.992935,-0.023912,0.008731,-0.02008,70.543381,8.944641,-154.716568,,,
729861327.632574,0.172486,2.37091,42.696666,-0.052628,0.003769,0.992935,-0.023912,0.008731,-0.02008,70.543381,8.944641,-154.716568,,,
729861327.635835,0.164056,2.363113,42.691926,-0.0513,0.007614,0.982468,-0.023912,0.008731,-0.02008,70.543381,8.944641,-154.716568,,,
729861327.639203,0.151001,2.373318,42.688568,-0.0513,0.007614,0.982468,-0.05178,0.048021,-0.011288,70.543381,8.944641,-154.716568,,,
729861327.642518,0.151001,2.373318,42.688568,-0.0513,0.007614,0.982468,-0.05178,0.048021,-0.011288,70.543381,8.944641,-154.716568,,,
729861327.645909,0.133265,2.380542,42.687001,-0.050568,0.009949,0.980255,-0.05178,0.048021,-0.011288,70.543381,8.944641,-154.716568,,,
729861327.649159,0.114184,2.401602,42.686038,-0.050568,0.009949,0.980255,-0.067464,0.08366,-0.007603,70.543381,8.944641,-154.716568,,,
729861327.652498,0.114184,2.401602,42.686038,-0.050568,0.009949,0.980255,-0.067464,0.08366,-0.007603,70.543381,8.944641,-154.716568,,,
729861327.655889,0.094029,2.423522,42.685676,-0.056198,0.00386,0.996262,-0.067464,0.08366,-0.007603,70.543381,8.944641,-154.716568,,,
729861327.659161,0.077998,2.450431,42.685777,-0.056198,0.00386,0.996262,-0.04875,0.097558,-0.003515,70.543381,8.944641,-154.716568,,,
