Time (sec),Pitch (deg),Roll (deg),Yaw(deg),X-Acceleration (g),Y-Acceleration (g),Z-Acceleration (g),Pitch Rate (deg/sec),Roll Rate (deg/sec),Yaw Rate (deg/sec),Magnetic Field in X direction (uT),Magnetic Field in Y direction (uT),Magnetic Field in Z Direction (uT),Latitude (deg),Longitude (deg),Altitude (m)
729862537.984041,0.742422,4.290721,41.023397,-0.108475,-0.002121,1.011429,0.048301,-0.009711,0.004545,54.862762,-6.095078,-147.172531,,,
729862537.98743,0.742422,4.290721,41.023397,-0.108475,-0.002121,1.011429,0.048301,-0.009711,0.004545,54.862762,-6.095078,-147.172531,,,
729862537.99071,0.757189,4.279253,41.024679,-0.098801,0.008835,0.984482,0.051943,-0.052175,0.00764,54.862762,-6.095078,-147.172531,,,
729862537.994039,0.770651,4.261103,41.026579,-0.098801,0.008835,0.984482,0.051943,-0.052175,0.00764,54.862762,-6.095078,-147.172531,,,
729862537.997383,0.770651,4.261103,41.026579,-0.098801,0.008835,0.984482,0.051943,-0.052175,0.00764,54.862762,-6.095078,-147.172531,,,
729862538.000777,0.781416,4.24051,41.02916,-0.089828,0.017609,0.960846,0.032764,-0.077422,0.011077,54.862762,-6.095078,-147.172531,,,
729862538.004034,0.789812,4.217399,41.032344,-0.089828,0.017609,0.960846,0.032764,-0.077422,0.011077,54.909393,-6.203339,-146.892883,,,
729862538.007385,0.789812,4.217399,41.032344,-0.089828,0.017609,0.960846,0.032764,-0.077422,0.011077,54.909393,-6.203339,-146.892883,,,
729862538.010722,0.795975,4.195507,41.036091,-0.077438,0.024033,0.962891,0.015517,-0.072055,0.013792,54.909393,-6.203339,-146.892883,,,
729862538.014041,0.799225,4.175795,41.040505,-0.077438,0.024033,0.962891,0.015517,-0.072055,0.013792,54.909393,-6.203339,-146.892883,,,
729862538.017399,0.799225,4.175795,41.040505,-0.077438,0.024033,0.962891,0.015517,-0.072055,0.013792,54.909393,-6.203339,-146.892883,,,
729862538.020708,0.800043,4.159891,41.045111,-0.068436,0.022781,0.970749,-0.000493,-0.045143,0.014027,54.909393,-6.203339,-146.892883,,,
729862538.024039,0.798122,4.148976,41.049527,-0.068436,0.022781,0.970749,-0.000493,-0.045143,0.014027,54.909393,-6.203339,-146.892883,,,
729862538.027438,0.798122,4.148976,41.049527,-0.068436,0.022781,0.970749,-0.000493,-0.045143,0.014027,54.909393,-6.203339,-146.892883,,,
729862538.030711,0.79186,4.144562,41.053485,-0.06308,0.025177,0.973358,-0.024442,-0.006475,0.00916,54.909393,-6.203339,-146.892883,,,
729862538.033914,0.783486,4.143378,41.05689,-0.06308,0.025177,0.973358,-0.024442,-0.006475,0.00916,54.909393,-6.203339,-146.892883,,,
729862538.037401,0.783486,4.143378,41.05689,-0.06308,0.025177,0.973358,-0.024442,-0.006475,0.00916,54.909393,-6.203339,-146.892883,,,
729862538.040771,0.770709,4.147192,41.059819,-0.062775,0.027405,0.974716,-0.045784,0.011349,0.004552,54.909393,-6.203339,-146.892883,,,
729862538.044043,0.756385,4.150715,41.061573,-0.062775,0.027405,0.974716,-0.045784,0.011349,0.004552,54.89119,-6.057755,-147.3685,,,
729862538.047384,0.756385,4.150715,41.061573,-0.062775,0.027405,0.974716,-0.045784,0.011349,0.004552,54.89119,-6.057755,-147.3685,,,
729862538.05072,0.738344,4.159336,41.061865,-0.067169,0.023911,0.980179,-0.059532,0.02078,-0.006268,54.89119,-6.057755,-147.3685,,,
729862538.05405,0.721045,4.164447,41.062235,-0.067169,0.023911,0.980179,-0.059532,0.02078,-0.006268,54.89119,-6.057755,-147.3685,,,
729862538.057382,0.721045,4.164447,41.062235,-0.067169,0.023911,0.980179,-0.059532,0.02078,-0.006268,54.89119,-6.057755,-147.3685,,,
729862538.060708,0.70215,4.173115,41.063288,-0.077789,0.023727,0.988754,-0.06111,0.016968,-0.001263,54.89119,-6.057755,-147.3685,,,
729862538.064081,0.68461,4.177034,41.065659,-0.077789,0.023727,0.988754,-0.06111,0.016968,-0.001263,54.89119,-6.057755,-147.3685,,,
729862538.067452,0.68461,4.177034,41.065659,-0.077789,0.023727,0.988754,-0.06111,0.016968,-0.001263,54.89119,-6.057755,-147.3685,,,
729862538.070721,0.667259,4.183335,41.069625,-0.082596,0.01619,0.993393,-0.057009,0.008062,0.010471,54.89119,-6.057755,-147.3685,,,
729862538.074043,0.652552,4.183816,41.074748,-0.082596,0.01619,0.993393,-0.057009,0.008062,0.010471,54.89119,-6.057755,-147.3685,,,
729862538.077393,0.652552,4.183816,41.074748,-0.082596,0.01619,0.993393,-0.057009,0.008062,0.010471,54.89119,-6.057755,-147.3685,,,
729862538.080799,0.64085,4.185429,41.080759,-0.081146,0.014084,1.001251,-0.039586,-0.009535,0.018318,54.89119,-6.057755,-147.3685,,,
729862538.084039,0.63074,4.180925,41.087148,-0.081146,0.014084,1.001251,-0.039586,-0.009535,0.018318,54.735245,-6.101593,-147.506592,,,
729862538.087386,0.63074,4.180925,41.087148,-0.081146,0.014084,1.001251,-0.039586,-0.009535,0.018318,54.735245,-6.101593,-147.506592,,,
729862538.090706,0.623921,4.176278,41.093075,-0.07486,0.016663,1.001114,-0.028069,-0.023788,0.016092,54.735245,-6.101593,-147.506592,,,
729862538.094036,0.617071,4.168232,41.098352,-0.07486,0.016663,1.001114,-0.028069,-0.023788,0.016092,54.735245,-6.101593,-147.506592,,,
729862538.097393,0.617071,4.168232,41.098352,-0.07486,0.016663,1.001114,-0.028069,-0.023788,0.016092,54.735245,-6.101593,-147.506592,,,
729862538.10071,0.613469,4.15899,41.103069,-0.066574,0.01973,1.002716,-0.015282,-0.031863,0.013088,54.735245,-6.101593,-147.506592,,,
729862538.104043,0.610368,4.149753,41.106849,-0.066574,0.01973,1.002716,-0.015282,-0.031863,0.013088,54.735245,-6.101593,-147.506592,,,
729862538.107438,0.610368,4.149753,41.106849,-0.066574,0.01973,1.002716,-0.015282,-0.031863,0.013088,54.735245,-6.101593,-147.506592,,,
729862538.110718,0.611046,4.140306,41.109,-0.059326,0.017319,1.012833,-0.000845,-0.024522,0.002629,54.735245,-6.101593,-147.506592,,,
729862538.114036,0.610419,4.133027,41.109223,-0.059326,0.017319,1.012833,-0.000845,-0.024522,0.002629,54.735245,-6.101593,-147.506592,,,
729862538.117392,0.610419,4.133027,41.109223,-0.059326,0.017319,1.012833,-0.000845,-0.024522,0.002629,54.735245,-6.101593,-147.506592,,,
729862538.120764,0.611089,4.125617,41.10736,-0.053818,0.018082,1.013016,-0.005596,-0.015167,-0.012412,54.735245,-6.101593,-147.506592,,,
729862538.124036,0.607614,4.122044,41.103391,-0.053818,0.018082,1.013016,-0.005596,-0.015167,-0.012412,54.735245,-6.101593,-147.506592,,,
729862538.127464,0.607614,4.122044,41.103391,-0.053818,0.018082,1.013016,-0.005596,-0.015167,-0.012412,54.717133,-6.002747,-147.578339,,,
729862538.130725,0.603054,4.121216,41.097357,-0.054733,0.026154,1.013687,-0.024372,0.010836,-0.028276,54.717133,-6.002747,-147.578339,,,
729862538.134054,0.593962,4.125218,41.090229,-0.054733,0.026154,1.013687,-0.024372,0.010836,-0.028276,54.717133,-6.002747,-147.578339,,,
729862538.137377,0.593962,4.125218,41.090229,-0.054733,0.026154,1.013687,-0.024372,0.010836,-0.028276,54.717133,-6.002747,-147.578339,,,
729862538.140724,0.584897,4.131778,41.083985,-0.067444,0.021973,1.015457,-0.036828,0.023494,-0.022926,54.717133,-6.002747,-147.578339,,,
729862538.144045,0.573825,4.136417,41.0794,-0.067444,0.021973,1.015457,-0.036828,0.023494,-0.022926,54.717133,-6.002747,-147.578339,,,
729862538.147463,0.573825,4.136417,41.0794,-0.067444,0.021973,1.015457,-0.036828,0.023494,-0.022926,54.717133,-6.002747,-147.578339,,,
729862538.150755,0.564663,4.139811,41.076706,-0.084839,0.015488,1.011139,-0.03166,0.001347,-0.009241,54.717133,-6.002747,-147.578339,,,
729862538.154035,0.555901,4.138088,41.075456,-0.084839,0.015488,1.011139,-0.03166,0.001347,-0.009241,54.717133,-6.002747,-147.578339,,,
729862538.157386,0.555901,4.138088,41.075456,-0.084839,0.015488,1.011139,-0.03166,0.001347,-0.009241,54.717133,-6.002747,-147.578339,,,
729862538.160762,0.549926,4.135357,41.07457,-0.083511,0.015442,1.013611,-0.016635,-0.018079,-0.005524,54.717133,-6.002747,-147.578339,,,
729862538.164039,0.545037,4.128607,41.073633,-0.083511,0.015442,1.013611,-0.016635,-0.018079,-0.005524,54.717133,-6.002747,-147.578339,,,
729862538.167371,0.545037,4.128607,41.073633,-0.083511,0.015442,1.013611,-0.016635,-0.018079,-0.005524,54.781143,-6.152405,-147.778671,,,
729862538.170719,0.541979,4.120905,41.072661,-0.073929,0.013123,1.012451,-0.00846,-0.030602,-0.005172,54.781143,-6.152405,-147.778671,,,
729862538.174036,0.539743,4.110338,41.07145,-0.073929,0.013123,1.012451,-0.00846,-0.030602,-0.005172,54.781143,-6.152405,-147.778671,,,
729862538.177386,0.539743,4.110338,41.07145,-0.073929,0.013123,1.012451,-0.00846,-0.030602,-0.005172,54.781143,-6.152405,-147.778671,,,
729862538.180722,0.539984,4.097497,41.069792,-0.069061,0.015671,1.003906,0.000545,-0.041454,-0.007714,54.781143,-6.152405,-147.778671,,,
729862538.184037,0.540179,4.085205,41.067732,-0.069061,0.015671,1.003906,0.000545,-0.041454,-0.007714,54.781143,-6.152405,-147.778671,,,
729862538.187445,0.540179,4.085205,41.067732,-0.069061,0.015671,1.003906,0.000545,-0.041454,-0.007714,54.781143,-6.152405,-147.778671,,,
729862538.190704,0.543646,4.071921,41.064742,-0.060471,0.018127,1.006241,0.016454,-0.035631,-0.013304,54.781143,-6.152405,-147.778671,,,
729862538.194038,0.548891,4.061714,41.060821,-0.060471,0.018127,1.006241,0.016454,-0.035631,-0.013304,54.781143,-6.152405,-147.778671,,,
729862538.197387,0.548891,4.061714,41.060821,-0.060471,0.018127,1.006241,0.016454,-0.035631,-0.013304,54.781143,-6.152405,-147.778671,,,
729862538.200788,0.557441,4.050749,41.056044,-0.057831,0.012772,1.011978,0.033642,-0.020197,-0.018239,54.781143,-6.152405,-147.778671,,,
729862538.204042,0.567618,4.046014,41.050405,-0.057831,0.012772,1.011978,0.033642,-0.020197,-0.018239,54.781143,-6.152405,-147.778671,,,
729862538.207375,0.567618,4.046014,41.050405,-0.057831,0.012772,1.011978,0.033642,-0.020197,-0.018239,54.632477,-6.493652,-147.634613,,,
729862538.210707,0.581256,4.041941,41.044432,-0.051819,0.014343,1.008484,0.045556,0.006352,-0.019917,54.632477,-6.493652,-147.634613,,,
729862538.214051,0.594253,4.045345,41.03741,-0.051819,0.014343,1.008484,0.045556,0.006352,-0.019917,54.632477,-6.493652,-147.634613,,,
729862538.217381,0.594253,4.045345,41.03741,-0.051819,0.014343,1.008484,0.045556,0.006352,-0.019917,54.632477,-6.493652,-147.634613,,,
729862538.220725,0.609119,4.052233,41.028536,-0.046814,0.012329,1.008041,0.048344,0.040042,-0.032784,54.632477,-6.493652,-147.634613,,,
729862538.224034,0.620888,4.065996,41.017318,-0.046814,0.012329,1.008041,0.048344,0.040042,-0.032784,54.632477,-6.493652,-147.634613,,,
729862538.227449,0.620888,4.065996,41.017318,-0.046814,0.012329,1.008041,0.048344,0.040042,-0.032784,54.632477,-6.493652,-147.634613,,,
729862538.230735,0.630157,4.086311,41.003347,-0.052475,0.016937,0.996262,0.027472,0.074571,-0.053293,54.632477,-6.493652,-147.634613,,,
729862538.234047,0.634217,4.108498,40.987827,-0.052475,0.016937,0.996262,0.027472,0.074571,-0.053293,54.632477,-6.493652,-147.634613,,,
729862538.2374,0.634217,4.108498,40.987827,-0.052475,0.016937,0.996262,0.027472,0.074571,-0.053293,54.632477,-6.493652,-147.634613,,,
729862538.240779,0.633829,4.134749,40.972529,-0.066833,0.018692,0.979599,-0.006976,0.086501,-0.054015,54.632477,-6.493652,-147.634613,,,
729862538.244038,0.628562,4.15866,40.95816,-0.066833,0.018692,0.979599,-0.006976,0.086501,-0.054015,54.632477,-6.493652,-147.634613,,,
729862538.24742,0.628562,4.15866,40.95816,-0.066833,0.018692,0.979599,-0.006976,0.086501,-0.054015,54.632477,-6.493652,-147.634613,,,
729862538.250715,0.620374,4.181434,40.945352,-0.084244,0.016129,0.973236,-0.030423,0.077024,-0.04492,54.935883,-6.495911,-147.633224,,,
729862538.254043,0.609962,4.200702,40.934676,-0.084244,0.016129,0.973236,-0.030423,0.077024,-0.04492,54.935883,-6.495911,-147.633224,,,
729862538.257371,0.609962,4.200702,40.934676,-0.084244,0.016129,0.973236,-0.030423,0.077024,-0.04492,54.935883,-6.495911,-147.633224,,,
729862538.260725,0.599847,4.21332,40.927024,-0.101654,0.00943,0.97583,-0.033083,0.03599,-0.024127,54.935883,-6.495911,-147.633224,,,
729862538.264032,0.59075,4.219442,40.922972,-0.101654,0.00943,0.97583,-0.033083,0.03599,-0.024127,54.935883,-6.495911,-147.633224,,,
729862538.267415,0.59075,4.219442,40.922972,-0.101654,0.00943,0.97583,-0.033083,0.03599,-0.024127,54.935883,-6.495911,-147.633224,,,
729862538.270707,0.585329,4.216241,40.922362,-0.103363,0.002899,0.9776,-0.016188,-0.013347,0.000975,54.935883,-6.495911,-147.633224,,,
729862538.27404,0.583141,4.209821,40.924429,-0.103363,0.002899,0.9776,-0.016188,-0.013347,0.000975,54.935883,-6.495911,-147.633224,,,
729862538.277377,0.583141,4.209821,40.924429,-0.103363,0.002899,0.9776,-0.016188,-0.013347,0.000975,54.935883,-6.495911,-147.633224,,,
729862538.280761,0.585132,4.197806,40.927781,-0.090698,-0.001526,0.994446,0.009548,-0.032336,0.011688,54.935883,-6.495911,-147.633224,,,
729862538.284039,0.589052,4.188181,40.930704,-0.090698,-0.001526,0.994446,0.009548,-0.032336,0.011688,54.935883,-6.495911,-147.633224,,,
729862538.287401,0.589052,4.188181,40.930704,-0.090698,-0.001526,0.994446,0.009548,-0.032336,0.011688,54.935883,-6.495911,-147.633224,,,
729862538.290711,0.594588,4.177318,40.932295,-0.071518,0.000824,1.005035,0.017845,-0.01519,0.002734,54.834015,-6.370117,-147.659531,,,
729862538.294138,0.599601,4.175455,40.932295,-0.071518,0.000824,1.005035,0.017845,-0.01519,0.002734,54.834015,-6.370117,-147.659531,,,
729862538.297371,0.599601,4.175455,40.932295,-0.071518,0.000824,1.005035,0.017845,-0.01519,0.002734,54.834015,-6.370117,-147.659531,,,
729862538.300714,0.603987,4.17474,40.931345,-0.059357,0.001663,1.004059,0.012571,0.026131,-0.004668,54.834015,-6.370117,-147.659531,,,
729862538.304039,0.606568,4.184128,40.929924,-0.059357,0.001663,1.004059,0.012571,0.026131,-0.004668,54.834015,-6.370117,-147.659531,,,
729862538.307458,0.606568,4.184128,40.929924,-0.059357,0.001663,1.004059,0.012571,0.026131,-0.004668,54.834015,-6.370117,-147.659531,,,
729862538.310721,0.609089,4.193354,40.927602,-0.06311,0.002365,1.003845,0.008767,0.053935,-0.011541,54.834015,-6.370117,-147.659531,,,
729862538.31411,0.611135,4.208643,40.924291,-0.06311,0.002365,1.003845,0.008767,0.053935,-0.011541,54.834015,-6.370117,-147.659531,,,
729862538.317394,0.611135,4.208643,40.924291,-0.06311,0.002365,1.003845,0.008767,0.053935,-0.011541,54.834015,-6.370117,-147.659531,,,
729862538.320776,0.614769,4.221811,40.920906,-0.072876,0.001282,1.004669,0.01281,0.050227,-0.011928,54.834015,-6.370117,-147.659531,,,
729862538.324079,0.619154,4.233061,40.918386,-0.072876,0.001282,1.004669,0.01281,0.050227,-0.011928,54.834015,-6.370117,-147.659531,,,
729862538.327385,0.619154,4.233061,40.918386,-0.072876,0.001282,1.004669,0.01281,0.050227,-0.011928,54.834015,-6.370117,-147.659531,,,
729862538.330709,0.626666,4.239211,40.917883,-0.084656,-0.002609,1.000793,0.027406,0.005499,0.003382,55.01387,-7.010864,-147.839401,,,
729862538.334079,0.634817,4.235696,40.920032,-0.084656,-0.002609,1.000793,0.027406,0.005499,0.003382,55.01387,-7.010864,-147.839401,,,
729862538.337381,0.634817,4.235696,40.920032,-0.084656,-0.002609,1.000793,0.027406,0.005499,0.003382,55.01387,-7.010864,-147.839401,,,
729862538.340734,0.642856,4.229198,40.923738,-0.083191,-0.001846,0.98114,0.025314,-0.04943,0.014452,55.01387,-7.010864,-147.839401,,,
729862538.34407,0.649475,4.211664,40.927843,-0.083191,-0.001846,0.98114,0.025314,-0.04943,0.014452,55.01387,-7.010864,-147.839401,,,
729862538.347426,0.649475,4.211664,40.927843,-0.083191,-0.001846,0.98114,0.025314,-0.04943,0.014452,55.01387,-7.010864,-147.839401,,,
729862538.350718,0.652898,4.196724,40.932249,-0.070374,0.005188,0.974899,0.00902,-0.073704,0.015798,55.01387,-7.010864,-147.839401,,,
729862538.354146,0.654192,4.17545,40.936563,-0.070374,0.005188,0.974899,0.00902,-0.073704,0.015798,55.01387,-7.010864,-147.839401,,,
729862538.357379,0.654192,4.17545,40.936563,-0.070374,0.005188,0.974899,0.00902,-0.073704,0.015798,55.01387,-7.010864,-147.839401,,,
729862538.360738,0.650185,4.161073,40.940245,-0.056992,0.006439,0.978241,-0.016756,-0.054813,0.009799,55.01387,-7.010864,-147.839401,,,
729862538.36408,0.643488,4.147212,40.944147,-0.056992,0.006439,0.978241,-0.016756,-0.054813,0.009799,55.01387,-7.010864,-147.839401,,,
729862538.367389,0.643488,4.147212,40.944147,-0.056992,0.006439,0.978241,-0.016756,-0.054813,0.009799,55.01387,-7.010864,-147.839401,,,
729862538.37071,0.632589,4.139148,40.948574,-0.053497,0.009064,0.985016,-0.036616,-0.018937,0.012106,54.782913,-6.651688,-147.792084,,,
729862538.374087,0.62151,4.135221,40.953589,-0.053497,0.009064,0.985016,-0.036616,-0.018937,0.012106,54.782913,-6.651688,-147.792084,,,
729862538.377375,0.62151,4.135221,40.953589,-0.053497,0.009064,0.985016,-0.036616,-0.018937,0.012106,54.782913,-6.651688,-147.792084,,,
729862538.380713,0.608756,4.132974,40.959039,-0.061951,0.00705,0.990173,-0.041301,0.007377,0.014654,54.782913,-6.651688,-147.792084,,,
729862538.384088,0.598447,4.134941,40.964561,-0.061951,0.00705,0.990173,-0.041301,0.007377,0.014654,54.782913,-6.651688,-147.792084,,,
729862538.387475,0.598447,4.134941,40.964561,-0.061951,0.00705,0.990173,-0.041301,0.007377,0.014654,54.782913,-6.651688,-147.792084,,,
729862538.390721,0.590922,4.136013,40.970264,-0.070282,0.002518,1.004654,-0.014586,0.014537,0.017733,54.782913,-6.651688,-147.792084,,,
729862538.394094,0.589236,4.138424,40.976536,-0.070282,0.002518,1.004654,-0.014586,0.014537,0.017733,54.782913,-6.651688,-147.792084,,,
729862538.397366,0.589236,4.138424,40.976536,-0.070282,0.002518,1.004654,-0.014586,0.014537,0.017733,54.782913,-6.651688,-147.792084,,,
729862538.400713,0.591817,4.13853,40.983154,-0.078156,-0.002365,1.015717,0.022217,0.001958,0.022802,54.782913,-6.651688,-147.792084,,,
729862538.404076,0.601106,4.136702,40.989407,-0.078156,-0.002365,1.015717,0.022217,0.001958,0.022802,54.782913,-6.651688,-147.792084,,,
729862538.407377,0.601106,4.136702,40.989407,-0.078156,-0.002365,1.015717,0.022217,0.001958,0.022802,54.782913,-6.651688,-147.792084,,,
729862538.410782,0.613587,4.133668,40.994541,-0.074448,-0.003555,1.018295,0.05498,-0.018938,0.017488,54.782913,-6.651688,-147.792084,,,
729862538.414065,0.630066,4.126994,40.997644,-0.074448,-0.003555,1.018295,0.05498,-0.018938,0.017488,54.924393,-6.93808,-147.755569,,,
729862538.41738,0.630066,4.126994,40.997644,-0.074448,-0.003555,1.018295,0.05498,-0.018938,0.017488,54.924393,-6.93808,-147.755569,,,
729862538.420704,0.645842,4.122092,40.998426,-0.064224,0.001541,1.012741,0.063947,-0.024976,0.0021,54.924393,-6.93808,-147.755569,,,
729862538.424117,0.662661,4.115279,40.997111,-0.064224,0.001541,1.012741,0.063947,-0.024976,0.0021,54.924393,-6.93808,-147.755569,,,
729862538.427368,0.662661,4.115279,40.997111,-0.064224,0.001541,1.012741,0.063947,-0.024976,0.0021,54.924393,-6.93808,-147.755569,,,
729862538.430719,0.67472,4.111811,40.994091,-0.059311,0.0103,0.998184,0.03805,-0.006161,-0.011545,54.924393,-6.93808,-147.755569,,,
729862538.434065,0.67472,4.111109,40.990184,-0.059311,0.0103,0.998184,0.03805,-0.006161,-0.011545,54.924393,-6.93808,-147.755569,,,
729862538.437434,0.682782,4.111109,40.990184,-0.059311,0.0103,0.998184,0.03805,-0.006161,-0.011545,54.924393,-6.93808,-147.755569,,,
729862538.440706,0.686011,4.112399,40.986738,-0.066971,0.014511,0.991577,0.008654,0.022014,-0.01054,54.924393,-6.93808,-147.755569,,,
729862538.444049,0.686011,4.112399,40.986738,-0.066971,0.014511,0.991577,0.008654,0.022014,-0.01054,54.924393,-6.93808,-147.755569,,,
729862538.447365,0.686416,4.119945,40.984178,-0.066971,0.014511,0.991577,0.008654,0.022014,-0.01054,54.924393,-6.93808,-147.755569,,,
729862538.450704,0.683848,4.126786,40.983682,-0.083496,0.01387,0.99614,-0.010638,0.040374,0.002204,54.924393,-6.93808,-147.755569,,,
729862538.45404,0.683848,4.126786,40.983682,-0.083496,0.01387,0.99614,-0.010638,0.040374,0.002204,54.829391,-6.85939,-147.564545,,,
729862538.457376,0.680494,4.137744,40.986224,-0.083496,0.01387,0.99614,-0.010638,0.040374,0.002204,54.829391,-6.85939,-147.564545,,,
729862538.460703,0.676395,4.145461,40.99149,-0.094147,0.009949,0.99826,-0.013619,0.03293,0.020871,54.829391,-6.85939,-147.564545,,,
729862538.464057,0.676395,4.145461,40.99149,-0.094147,0.009949,0.99826,-0.013619,0.03293,0.020871,54.829391,-6.85939,-147.564545,,,
729862538.46737,0.672661,4.15236,40.999146,-0.094147,0.009949,0.99826,-0.013619,0.03293,0.020871,54.829391,-6.85939,-147.564545,,,
729862538.470704,0.668091,4.15439,41.008227,-0.092743,0.011642,0.989563,-0.013793,0.005299,0.030764,54.829391,-6.85939,-147.564545,,,
729862538.474093,0.668091,4.15439,41.008227,-0.092743,0.011642,0.989563,-0.013793,0.005299,0.030764,54.829391,-6.85939,-147.564545,,,
729862538.477369,0.665207,4.153205,41.017536,-0.092743,0.011642,0.989563,-0.013793,0.005299,0.030764,54.829391,-6.85939,-147.564545,,,
729862538.480718,0.661626,4.148774,41.026386,-0.082962,0.011993,0.987198,-0.007213,-0.020719,0.028107,54.829391,-6.85939,-147.564545,,,
729862538.484036,0.661626,4.148774,41.026386,-0.082962,0.011993,0.987198,-0.007213,-0.020719,0.028107,54.829391,-6.85939,-147.564545,,,
729862538.48741,0.661694,4.141396,41.034748,-0.082962,0.011993,0.987198,-0.007213,-0.020719,0.028107,54.829391,-6.85939,-147.564545,,,
729862538.4907,0.66396,4.134064,41.042289,-0.07663,0.007401,1.005661,0.020924,-0.024013,0.024473,54.829391,-6.85939,-147.564545,,,
729862538.494041,0.66396,4.134064,41.042289,-0.07663,0.007401,1.005661,0.020924,-0.024013,0.024473,54.831482,-6.810471,-147.652206,,,
729862538.497392,0.671781,4.128213,41.049041,-0.07663,0.007401,1.005661,0.020924,-0.024013,0.024473,54.831482,-6.810471,-147.652206,,,
729862538.500705,0.681597,4.12439,41.055293,-0.074585,0.005539,1.025986,0.045205,-0.002163,0.022637,54.831482,-6.810471,-147.652206,,,
729862538.504057,0.681597,4.12439,41.055293,-0.074585,0.005539,1.025986,0.045205,-0.002163,0.022637,54.831482,-6.810471,-147.652206,,,
729862538.507369,0.694906,4.12537,41.060372,-0.074585,0.005539,1.025986,0.045205,-0.002163,0.022637,54.831482,-6.810471,-147.652206,,,
729862538.510699,0.708027,4.127588,41.063975,-0.068619,0.007843,1.023911,0.047771,0.022551,0.012342,54.831482,-6.810471,-147.652206,,,
729862538.514112,0.708027,4.127588,41.063975,-0.068619,0.007843,1.023911,0.047771,0.022551,0.012342,54.831482,-6.810471,-147.652206,,,
729862538.517447,0.720784,4.134053,41.066689,-0.068619,0.007843,1.023911,0.047771,0.022551,0.012342,54.831482,-6.810471,-147.652206,,,
729862538.520724,0.732405,4.140291,41.068627,-0.070587,0.013,1.011429,0.038851,0.030404,0.006092,54.831482,-6.810471,-147.652206,,,
729862538.524072,0.732405,4.140291,41.068627,-0.070587,0.013,1.011429,0.038851,0.030404,0.006092,54.831482,-6.810471,-147.652206,,,
729862538.527421,0.742592,4.148786,41.070371,-0.070587,0.013,1.011429,0.038851,0.030404,0.006092,54.831482,-6.810471,-147.652206,,,
729862538.530714,0.751085,4.15841,41.072808,-0.078964,0.012665,1.003494,0.02512,0.029555,0.01007,54.831482,-6.810471,-147.652206,,,
729862538.534048,0.751085,4.15841,41.072808,-0.078964,0.012665,1.003494,0.02512,0.029555,0.01007,54.753937,-6.473038,-147.534378,,,
729862538.537399,0.756727,4.164176,41.076097,-0.078964,0.012665,1.003494,0.02512,0.029555,0.01007,54.753937,-6.473038,-147.534378,,,
729862538.54071,0.759248,4.169425,41.080227,-0.085831,0.018127,0.985031,0.004648,0.000926,0.014834,54.753937,-6.473038,-147.534378,,,
729862538.544053,0.759248,4.169425,41.080227,-0.085831,0.018127,0.985031,0.004648,0.000926,0.014834,54.753937,-6.473038,-147.534378,,,
729862538.547388,0.759385,4.167348,41.085743,-0.085831,0.018127,0.985031,0.004648,0.000926,0.014834,54.753937,-6.473038,-147.534378,,,
729862538.550708,0.755902,4.166206,41.092957,-0.085983,0.020004,0.973038,-0.018796,-0.019378,0.025284,54.753937,-6.473038,-147.534378,,,
729862538.554134,0.755902,4.166206,41.092957,-0.085983,0.020004,0.973038,-0.018796,-0.019378,0.025284,54.753937,-6.473038,-147.534378,,,
729862538.557387,0.749508,4.159752,41.101492,-0.085983,0.020004,0.973038,-0.018796,-0.019378,0.025284,54.753937,-6.473038,-147.534378,,,
729862538.560709,0.740735,4.15608,41.110676,-0.076416,0.023117,0.974335,-0.035273,-0.017212,0.028891,54.753937,-6.473038,-147.534378,,,
729862538.564036,0.740735,4.15608,41.110676,-0.076416,0.023117,0.974335,-0.035273,-0.017212,0.028891,54.753937,-6.473038,-147.534378,,,
729862538.567452,0.730314,4.151083,41.119867,-0.076416,0.023117,0.974335,-0.035273,-0.017212,0.028891,54.753937,-6.473038,-147.534378,,,
729862538.570704,0.718471,4.149183,41.12866,-0.070541,0.021072,0.984131,-0.041268,-0.002107,0.025768,54.753937,-6.473038,-147.534378,,,
729862538.574059,0.718471,4.149183,41.12866,-0.070541,0.021072,0.984131,-0.041268,-0.002107,0.025768,54.753937,-6.473038,-147.534378,,,
729862538.577401,0.709239,4.149004,41.137124,-0.070541,0.021072,0.984131,-0.041268,-0.002107,0.025768,54.481064,-6.255951,-147.26593,,,
729862538.580705,0.703762,4.151749,41.145399,-0.070007,0.012711,1.010086,-0.009452,0.016739,0.026726,54.481064,-6.255951,-147.26593,,,
729862538.584054,0.703762,4.151749,41.145399,-0.070007,0.012711,1.010086,-0.009452,0.016739,0.026726,54.481064,-6.255951,-147.26593,,,
729862538.587397,0.704006,4.157869,41.153394,-0.070007,0.012711,1.010086,-0.009452,0.016739,0.026726,54.481064,-6.255951,-147.26593,,,
729862538.59071,0.708385,4.166616,41.161407,-0.071304,0.006836,1.028946,0.024731,0.04109,0.029242,54.481064,-6.255951,-147.26593,,,
729862538.59411,0.708385,4.166616,41.161407,-0.071304,0.006836,1.028946,0.024731,0.04109,0.029242,54.481064,-6.255951,-147.26593,,,
729862538.597384,0.718581,4.178188,41.169346,-0.071304,0.006836,1.028946,0.024731,0.04109,0.029242,54.481064,-6.255951,-147.26593,,,
729862538.600599,0.733312,4.188894,41.176301,-0.068863,0.008331,1.02594,0.056718,0.040894,0.024649,54.481064,-6.255951,-147.26593,,,
729862538.604061,0.733312,4.188894,41.176301,-0.068863,0.008331,1.02594,0.056718,0.040894,0.024649,54.481064,-6.255951,-147.26593,,,
729862538.607383,0.750389,4.198655,41.182107,-0.068863,0.008331,1.02594,0.056718,0.040894,0.024649,54.481064,-6.255951,-147.26593,,,
729862538.610712,0.768229,4.206524,41.186942,-0.068436,0.013138,1.00351,0.063712,0.024623,0.018493,54.481064,-6.255951,-147.26593,,,
729862538.614056,0.768229,4.206524,41.186942,-0.068436,0.013138,1.00351,0.063712,0.024623,0.018493,54.481064,-6.255951,-147.26593,,,
729862538.617451,0.786229,4.211185,41.191014,-0.068436,0.013138,1.00351,0.063712,0.024623,0.018493,54.538895,-6.318573,-147.406555,,,
729862538.6207,0.802079,4.215354,41.194316,-0.065323,0.021454,0.982697,0.045745,0.0074,0.012006,54.538895,-6.318573,-147.406555,,,
729862538.624055,0.802079,4.215354,41.194316,-0.065323,0.021454,0.982697,0.045745,0.0074,0.012006,54.538895,-6.318573,-147.406555,,,
729862538.627392,0.812697,4.215556,41.197229,-0.065323,0.021454,0.982697,0.045745,0.0074,0.012006,54.538895,-6.318573,-147.406555,,,
729862538.630709,0.818943,4.217372,41.199781,-0.06073,0.02449,0.961914,0.010848,-0.001457,0.007143,54.538895,-6.318573,-147.406555,,,
729862538.634108,0.818943,4.217372,41.199781,-0.06073,0.02449,0.961914,0.010848,-0.001457,0.007143,54.538895,-6.318573,-147.406555,,,
729862538.637393,0.818673,4.216699,41.202849,-0.06073,0.02449,0.961914,0.010848,-0.001457,0.007143,54.538895,-6.318573,-147.406555,,,
729862538.640707,0.814175,4.217575,41.206655,-0.055939,0.026031,0.95755,-0.025345,0.001827,0.009751,54.538895,-6.318573,-147.406555,,,
729862538.644134,0.814175,4.217575,41.206655,-0.055939,0.026031,0.95755,-0.025345,0.001827,0.009751,54.538895,-6.318573,-147.406555,,,
729862538.647382,0.804867,4.217562,41.209756,-0.055939,0.026031,0.95755,-0.025345,0.001827,0.009751,54.538895,-6.318573,-147.406555,,,
729862538.650751,0.79384,4.218185,41.211393,-0.050018,0.022934,0.973602,-0.042432,0.007137,-0.001816,54.538895,-6.318573,-147.406555,,,
729862538.654049,0.79384,4.218185,41.211393,-0.050018,0.022934,0.973602,-0.042432,0.007137,-0.001816,54.538895,-6.318573,-147.406555,,,
729862538.657381,0.781364,4.220518,41.211087,-0.050018,0.022934,0.973602,-0.042432,0.007137,-0.001816,54.52652,-6.202133,-147.161972,,,
729862538.66071,0.769675,4.223962,41.208286,-0.048248,0.016678,0.995438,-0.036651,0.018809,-0.018864,54.52652,-6.202133,-147.161972,,,
729862538.664035,0.769675,4.223962,41.208286,-0.048248,0.016678,0.995438,-0.036651,0.018809,-0.018864,54.52652,-6.202133,-147.161972,,,
729862538.667398,0.759873,4.229131,41.202938,-0.048248,0.016678,0.995438,-0.036651,0.018809,-0.018864,54.52652,-6.202133,-147.161972,,,
729862538.670707,0.750707,4.233863,41.196038,-0.050034,0.013809,1.003555,-0.026506,0.020782,-0.028962,54.52652,-6.202133,-147.161972,,,
729862538.67405,0.750707,4.233863,41.196038,-0.050034,0.013809,1.003555,-0.026506,0.020782,-0.028962,54.52652,-6.202133,-147.161972,,,
729862538.677472,0.743087,4.239093,41.188462,-0.050034,0.013809,1.003555,-0.026506,0.020782,-0.028962,54.52652,-6.202133,-147.161972,,,
729862538.680695,0.736254,4.2438,41.181117,-0.056717,0.012619,0.999939,-0.016398,0.024884,-0.026595,54.52652,-6.202133,-147.161972,,,
729862538.684109,0.736254,4.2438,41.181117,-0.056717,0.012619,0.999939,-0.016398,0.024884,-0.026595,54.52652,-6.202133,-147.161972,,,
729862538.687374,0.730764,4.251594,41.174192,-0.056717,0.012619,0.999939,-0.016398,0.024884,-0.026595,54.52652,-6.202133,-147.161972,,,
729862538.69071,0.725879,4.260988,41.167333,-0.06665,0.012634,1.003113,-0.011612,0.043977,-0.025835,54.52652,-6.202133,-147.161972,,,
729862538.694053,0.725879,4.260988,41.167333,-0.06665,0.012634,1.003113,-0.011612,0.043977,-0.025835,54.52652,-6.202133,-147.161972,,,
729862538.697394,0.722969,4.272976,41.161666,-0.06665,0.012634,1.003113,-0.011612,0.043977,-0.025835,54.616226,-6.178665,-147.215042,,,
729862538.700719,0.723521,4.28365,41.157536,-0.080154,0.009201,1.005569,0.005888,0.044659,-0.01386,54.616226,-6.178665,-147.215042,,,
729862538.704034,0.723521,4.28365,41.157536,-0.080154,0.009201,1.005569,0.005888,0.044659,-0.01386,54.616226,-6.178665,-147.215042,,,
729862538.707397,0.725789,4.294911,41.154571,-0.080154,0.009201,1.005569,0.005888,0.044659,-0.01386,54.616226,-6.178665,-147.215042,,,
729862538.710706,0.731147,4.301802,41.151751,-0.07962,0.010864,1.00322,0.016476,0.02823,-0.01219,54.616226,-6.178665,-147.215042,,,
729862538.714054,0.731147,4.301802,41.151751,-0.07962,0.010864,1.00322,0.016476,0.02823,-0.01219,54.616226,-6.178665,-147.215042,,,
729862538.717384,0.736297,4.307322,41.147745,-0.07962,0.010864,1.00322,0.016476,0.02823,-0.01219,54.616226,-6.178665,-147.215042,,,
729862538.720711,0.744593,4.306858,41.142392,-0.07402,0.011429,0.995255,0.028127,0.005605,-0.020973,54.616226,-6.178665,-147.215042,,,
729862538.724115,0.744593,4.306858,41.142392,-0.07402,0.011429,0.995255,0.028127,0.005605,-0.020973,54.616226,-6.178665,-147.215042,,,
729862538.72739,0.752361,4.3065,41.135443,-0.07402,0.011429,0.995255,0.028127,0.005605,-0.020973,54.616226,-6.178665,-147.215042,,,
729862538.730703,0.762356,4.300838,41.127541,-0.07309,0.013123,0.991943,0.033315,-0.003377,-0.027576,54.616226,-6.178665,-147.215042,,,
729862538.734048,0.762356,4.300838,41.127541,-0.07309,0.013123,0.991943,0.033315,-0.003377,-0.027576,54.616226,-6.178665,-147.215042,,,
729862538.737431,0.769957,4.299844,41.119562,-0.07309,0.013123,0.991943,0.033315,-0.003377,-0.027576,54.616226,-6.178665,-147.215042,,,
729862538.740705,0.77587,4.295326,41.112402,-0.076416,0.016296,0.985641,0.016878,0.005274,-0.023563,54.783142,-6.100266,-147.11528,,,
729862538.744049,0.77587,4.295326,41.112402,-0.076416,0.016296,0.985641,0.016878,0.005274,-0.023563,54.783142,-6.100266,-147.11528,,,
729862538.747376,0.778256,4.295898,41.106551,-0.076416,0.016296,0.985641,0.016878,0.005274,-0.023563,54.783142,-6.100266,-147.11528,,,
729862538.750704,0.777394,4.291241,41.102252,-0.080383,0.020905,0.970169,-0.007862,0.001363,-0.014943,54.783142,-6.100266,-147.11528,,,
729862538.754056,0.777394,4.291241,41.102252,-0.080383,0.020905,0.970169,-0.007862,0.001363,-0.014943,54.783142,-6.100266,-147.11528,,,
729862538.757382,0.77254,4.290731,41.099101,-0.080383,0.020905,0.970169,-0.007862,0.001363,-0.014943,54.783142,-6.100266,-147.11528,,,
729862538.760799,0.763947,4.285751,41.096555,-0.080963,0.023926,0.965378,-0.033916,-0.00468,-0.013058,54.783142,-6.100266,-147.11528,,,
729862538.764092,0.763947,4.285751,41.096555,-0.080963,0.023926,0.965378,-0.033916,-0.00468,-0.013058,54.783142,-6.100266,-147.11528,,,
729862538.767396,0.752481,4.283812,41.094295,-0.080963,0.023926,0.965378,-0.033916,-0.00468,-0.013058,54.783142,-6.100266,-147.11528,,,
729862538.770706,0.738091,4.280413,41.091953,-0.078201,0.023544,0.970612,-0.054409,-0.003465,-0.015298,54.783142,-6.100266,-147.11528,,,
729862538.774053,0.738091,4.280413,41.091953,-0.078201,0.023544,0.970612,-0.054409,-0.003465,-0.015298,54.783142,-6.100266,-147.11528,,,
729862538.777448,0.720684,4.279312,41.088901,-0.078201,0.023544,0.970612,-0.054409,-0.003465,-0.015298,54.783142,-6.100266,-147.11528,,,
729862538.780696,0.701741,4.279576,41.086218,-0.0802,0.021851,0.979233,-0.063394,0.003334,-0.013391,55.055862,-6.071152,-147.459106,,,
729862538.784032,0.701741,4.279576,41.086218,-0.0802,0.021851,0.979233,-0.063394,0.003334,-0.013391,55.055862,-6.071152,-147.459106,,,
729862538.787383,0.682908,4.280719,41.085009,-0.0802,0.021851,0.979233,-0.063394,0.003334,-0.013391,55.055862,-6.071152,-147.459106,,,
729862538.79076,0.665187,4.284279,41.085847,-0.088089,0.014404,0.992752,-0.0548,0.01312,0.001581,55.055862,-6.071152,-147.459106,,,
729862538.794047,0.665187,4.284279,41.085847,-0.088089,0.014404,0.992752,-0.0548,0.01312,0.001581,55.055862,-6.071152,-147.459106,,,
729862538.797386,0.651233,4.287703,41.089507,-0.088089,0.014404,0.992752,-0.0548,0.01312,0.001581,55.055862,-6.071152,-147.459106,,,
729862538.800707,0.64137,4.291523,41.09535,-0.089081,0.010086,1.007401,-0.028169,0.015312,0.018867,55.055862,-6.071152,-147.459106,,,
729862538.804098,0.64137,4.291523,41.09535,-0.089081,0.010086,1.007401,-0.028169,0.015312,0.018867,55.055862,-6.071152,-147.459106,,,
729862538.807377,0.635599,4.294952,41.101807,-0.089081,0.010086,1.007401,-0.028169,0.015312,0.018867,55.055862,-6.071152,-147.459106,,,
729862538.810763,0.634825,4.297668,41.107335,-0.078537,0.00766,1.01181,0.005708,0.012671,0.014935,55.055862,-6.071152,-147.459106,,,
729862538.814041,0.634825,4.297668,41.107335,-0.078537,0.00766,1.01181,0.005708,0.012671,0.014935,55.055862,-6.071152,-147.459106,,,
729862538.817436,0.638634,4.300394,41.110537,-0.078537,0.00766,1.01181,0.005708,0.012671,0.014935,55.055862,-6.071152,-147.459106,,,
729862538.82075,0.645566,4.302718,41.110894,-0.066437,0.008286,1.010193,0.025445,0.007979,-0.003439,54.85437,-5.930832,-147.542526,,,
729862538.824053,0.645566,4.302718,41.110894,-0.066437,0.008286,1.010193,0.025445,0.007979,-0.003439,54.85437,-5.930832,-147.542526,,,
729862538.82738,0.652184,4.303971,41.109517,-0.066437,0.008286,1.010193,0.025445,0.007979,-0.003439,54.85437,-5.930832,-147.542526,,,
729862538.830705,0.658932,4.30605,41.107696,-0.065659,0.011383,0.992081,0.019616,0.004946,-0.006834,54.85437,-5.930832,-147.542526,,,
729862538.834049,0.658932,4.30605,41.107696,-0.065659,0.011383,0.992081,0.019616,0.004946,-0.006834,54.85437,-5.930832,-147.542526,,,
729862538.83738,0.662642,4.30665,41.106292,-0.065659,0.011383,0.992081,0.019616,0.004946,-0.006834,54.85437,-5.930832,-147.542526,,,
729862538.84071,0.66559,4.308449,41.106076,-0.069565,0.013855,0.985107,0.002161,0.002662,0.000213,54.85437,-5.930832,-147.542526,,,
729862538.844127,0.66559,4.308449,41.106076,-0.069565,0.013855,0.985107,0.002161,0.002662,0.000213,54.85437,-5.930832,-147.542526,,,
729862538.847372,0.664301,4.309154,41.106354,-0.069565,0.013855,0.985107,0.002161,0.002662,0.000213,54.85437,-5.930832,-147.542526,,,
729862538.850713,0.661481,4.311597,41.106344,-0.067459,0.013504,0.990662,-0.018935,0.007042,-0.003312,54.85437,-5.930832,-147.542526,,,
729862538.854062,0.661481,4.311597,41.106344,-0.067459,0.013504,0.990662,-0.018935,0.007042,-0.003312,54.85437,-5.930832,-147.542526,,,
729862538.85738,0.655006,4.312671,41.105638,-0.067459,0.013504,0.990662,-0.018935,0.007042,-0.003312,54.85437,-5.930832,-147.542526,,,
729862538.860757,0.648972,4.312993,41.104326,-0.069229,0.014572,0.996201,-0.025492,-0.005722,-0.00794,54.85437,-5.930832,-147.542526,,,
729862538.864036,0.648972,4.312993,41.104326,-0.069229,0.014572,0.996201,-0.025492,-0.005722,-0.00794,54.688721,-6.120209,-147.279602,,,
729862538.867375,0.641117,4.309599,41.103172,-0.069229,0.014572,0.996201,-0.025492,-0.005722,-0.00794,54.688721,-6.120209,-147.279602,,,
729862538.870713,0.633664,4.306679,41.101942,-0.072952,0.014496,0.994141,-0.026779,-0.01623,-0.008429,54.688721,-6.120209,-147.279602,,,
729862538.874055,0.633664,4.306679,41.101942,-0.072952,0.014496,0.994141,-0.026779,-0.01623,-0.008429,54.688721,-6.120209,-147.279602,,,
729862538.877395,0.625336,4.300325,41.101323,-0.072952,0.014496,0.994141,-0.026779,-0.01623,-0.008429,54.688721,-6.120209,-147.279602,,,
729862538.880711,0.616907,4.295785,41.101276,-0.075333,0.013382,0.995728,-0.027221,-0.02186,-0.00426,54.688721,-6.120209,-147.279602,,,
729862538.884065,0.616907,4.295785,41.101276,-0.075333,0.013382,0.995728,-0.027221,-0.02186,-0.00426,54.688721,-6.120209,-147.279602,,,
729862538.887404,0.608775,4.288734,41.10142,-0.075333,0.013382,0.995728,-0.027221,-0.02186,-0.00426,54.688721,-6.120209,-147.279602,,,
729862538.890711,0.599897,4.284174,41.102413,-0.070862,0.011353,0.995224,-0.03097,-0.011841,0.001451,54.688721,-6.120209,-147.279602,,,
729862538.894056,0.599897,4.284174,41.102413,-0.070862,0.011353,0.995224,-0.03097,-0.011841,0.001451,54.688721,-6.120209,-147.279602,,,
729862538.897456,0.590693,4.281967,41.103645,-0.070862,0.011353,0.995224,-0.03097,-0.011841,0.001451,54.688721,-6.120209,-147.279602,,,
729862538.900703,0.580992,4.282014,41.104563,-0.065338,0.013718,0.997604,-0.032417,0.012005,-0.000852,54.688721,-6.120209,-147.279602,,,
729862538.904059,0.580992,4.282014,41.104563,-0.065338,0.013718,0.997604,-0.032417,0.012005,-0.000852,54.883743,-6.198486,-147.354034,,,
729862538.907388,0.572267,4.286287,41.104592,-0.065338,0.013718,0.997604,-0.032417,0.012005,-0.000852,54.883743,-6.198486,-147.354034,,,
729862538.91071,0.564905,4.291817,41.103515,-0.062241,0.012451,1.002258,-0.022469,0.033755,-0.007962,54.883743,-6.198486,-147.354034,,,
729862538.914047,0.564905,4.291817,41.103515,-0.062241,0.012451,1.002258,-0.022469,0.033755,-0.007962,54.883743,-6.198486,-147.354034,,,
729862538.917398,0.559463,4.301743,41.101729,-0.062241,0.012451,1.002258,-0.022469,0.033755,-0.007962,54.883743,-6.198486,-147.354034,,,
729862538.920709,0.55792,4.312207,41.099007,-0.064667,0.004608,1.011444,0.001303,0.043478,-0.012792,54.883743,-6.198486,-147.354034,,,
729862538.924131,0.55792,4.312207,41.099007,-0.064667,0.004608,1.011444,0.001303,0.043478,-0.012792,54.883743,-6.198486,-147.354034,,,
729862538.927381,0.559383,4.323974,41.095242,-0.064667,0.004608,1.011444,0.001303,0.043478,-0.012792,54.883743,-6.198486,-147.354034,,,
729862538.930719,0.563704,4.334868,41.091303,-0.077469,0.000977,1.014999,0.018563,0.045155,-0.012792,54.883743,-6.198486,-147.354034,,,
729862538.934054,0.563704,4.334868,41.091303,-0.077469,0.000977,1.014999,0.018563,0.045155,-0.012792,54.883743,-6.198486,-147.354034,,,
729862538.937451,0.568294,4.347138,41.087702,-0.077469,0.000977,1.014999,0.018563,0.045155,-0.012792,54.883743,-6.198486,-147.354034,,,
729862538.9407,0.572161,4.35773,41.084827,-0.085602,0.005142,1.004898,0.009514,0.04302,-0.008503,54.883743,-6.198486,-147.354034,,,
729862538.944044,0.572161,4.35773,41.084827,-0.085602,0.005142,1.004898,0.009514,0.04302,-0.008503,55.049484,-6.157303,-147.178391,,,
729862538.947378,0.57435,4.36846,41.0834,-0.085602,0.005142,1.004898,0.009514,0.04302,-0.008503,55.049484,-6.157303,-147.178391,,,
729862538.95071,0.576321,4.375474,41.083164,-0.092209,0.004303,0.996033,0.003669,0.022252,-0.000663,55.049484,-6.157303,-147.178391,,,
729862538.954039,0.576321,4.375474,41.083164,-0.092209,0.004303,0.996033,0.003669,0.022252,-0.000663,55.049484,-6.157303,-147.178391,,,
729862538.957379,0.576668,4.378145,41.083755,-0.092209,0.004303,0.996033,0.003669,0.022252,-0.000663,55.049484,-6.157303,-147.178391,,,
729862538.960709,0.577167,4.375643,41.083957,-0.096725,0.008972,0.990387,0.001603,-0.012546,-0.003604,55.049484,-6.157303,-147.178391,,,
729862538.964103,0.577167,4.375643,41.083957,-0.096725,0.008972,0.990387,0.001603,-0.012546,-0.003604,55.049484,-6.157303,-147.178391,,,
729862538.967406,0.577777,4.370517,41.083306,-0.096725,0.008972,0.990387,0.001603,-0.012546,-0.003604,55.049484,-6.157303,-147.178391,,,
729862538.970708,0.579283,4.363036,41.083732,-0.096939,0.007141,0.996933,0.005927,-0.023941,0.004234,55.049484,-6.157303,-147.178391,,,
729862538.974077,0.579283,4.363036,41.083732,-0.096939,0.007141,0.996933,0.005927,-0.023941,0.004234,55.049484,-6.157303,-147.178391,,,
729862538.977446,0.580837,4.355222,41.085799,-0.096939,0.007141,0.996933,0.005927,-0.023941,0.004234,55.049484,-6.157303,-147.178391,,,
729862538.980701,0.582725,4.34535,41.089778,-0.091812,0.007019,0.998947,0.005039,-0.026467,0.017389,55.049484,-6.157303,-147.178391,,,
729862538.98404,0.582725,4.34535,41.089778,-0.091812,0.007019,0.998947,0.005039,-0.026467,0.017389,54.853119,-6.054688,-147.297607,,,
729862538.987382,0.585062,4.337974,41.095746,-0.091812,0.007019,0.998947,0.005039,-0.026467,0.017389,54.853119,-6.054688,-147.297607,,,
729862538.990705,0.588603,4.330966,41.103221,-0.085587,0.01004,0.999207,0.009808,-0.007708,0.028075,54.853119,-6.054688,-147.297607,,,
729862538.994068,0.588603,4.330966,41.103221,-0.085587,0.01004,0.999207,0.009808,-0.007708,0.028075,54.853119,-6.054688,-147.297607,,,
729862538.997384,0.591609,4.329596,41.111395,-0.085587,0.01004,0.999207,0.009808,-0.007708,0.028075,54.853119,-6.054688,-147.297607,,,
729862539.000708,0.592914,4.327981,41.119947,-0.074646,0.011459,0.994186,0.000925,0.007233,0.029849,54.853119,-6.054688,-147.297607,,,
729862539.004125,0.592914,4.327981,41.119947,-0.074646,0.011459,0.994186,0.000925,0.007233,0.029849,54.853119,-6.054688,-147.297607,,,
729862539.007383,0.593367,4.329873,41.12815,-0.074646,0.011459,0.994186,0.000925,0.007233,0.029849,54.853119,-6.054688,-147.297607,,,
729862539.010712,0.592566,4.331373,41.13536,-0.064468,0.016266,0.981262,0.000366,0.008421,0.022806,54.853119,-6.054688,-147.297607,,,
729862539.014053,0.592566,4.331373,41.13536,-0.064468,0.016266,0.981262,0.000366,0.008421,0.022806,54.853119,-6.054688,-147.297607,,,
729862539.017444,0.592714,4.33231,41.141272,-0.064468,0.016266,0.981262,0.000366,0.008421,0.022806,54.853119,-6.054688,-147.297607,,,
729862539.02069,0.591461,4.33229,41.145245,-0.059448,0.017715,0.977692,-0.003292,-0.007837,0.009029,54.853119,-6.054688,-147.297607,,,
729862539.024051,0.591461,4.33229,41.145245,-0.059448,0.017715,0.977692,-0.003292,-0.007837,0.009029,54.853119,-6.054688,-147.297607,,,
729862539.027379,0.589714,4.328624,41.147001,-0.059448,0.017715,0.977692,-0.003292,-0.007837,0.009029,54.687103,-5.980301,-147.116119,,,
729862539.030702,0.585755,4.326413,41.146444,-0.055206,0.016998,0.972763,-0.012543,-0.016153,-0.007658,54.687103,-5.980301,-147.116119,,,
729862539.034038,0.585755,4.326413,41.146444,-0.055206,0.016998,0.972763,-0.012543,-0.016153,-0.007658,54.687103,-5.980301,-147.116119,,,
729862539.037368,0.580958,4.321681,41.1444,-0.055206,0.016998,0.972763,-0.012543,-0.016153,-0.007658,54.687103,-5.980301,-147.116119,,,
729862539.0407,0.580958,4.322307,41.141258,-0.050751,0.013641,0.979523,-0.022408,-0.005331,-0.015786,54.687103,-5.980301,-147.116119,,,
729862539.044114,0.574419,4.322307,41.141258,-0.050751,0.013641,0.979523,-0.022408,-0.005331,-0.015786,54.687103,-5.980301,-147.116119,,,
729862539.04737,0.566701,4.322121,41.137825,-0.050751,0.013641,0.979523,-0.022408,-0.005331,-0.015786,54.687103,-5.980301,-147.116119,,,
729862539.050704,0.557227,4.329617,41.134383,-0.05632,0.011932,0.990845,-0.032968,0.020598,-0.016321,54.687103,-5.980301,-147.116119,,,
729862539.054046,0.557227,4.329617,41.134383,-0.05632,0.011932,0.990845,-0.032968,0.020598,-0.016321,54.687103,-5.980301,-147.116119,,,
729862539.057519,0.548125,4.336586,41.13088,-0.05632,0.011932,0.990845,-0.032968,0.020598,-0.016321,54.687103,-5.980301,-147.116119,,,
729862539.060733,0.540835,4.349947,41.12742,-0.06308,0.006653,1.009659,-0.017633,0.044093,-0.014677,54.687103,-5.980301,-147.116119,,,
729862539.064053,0.540835,4.349947,41.12742,-0.06308,0.006653,1.009659,-0.017633,0.044093,-0.014677,54.687103,-5.980301,-147.116119,,,
729862539.067394,0.536125,4.363699,41.123953,-0.06308,0.006653,1.009659,-0.017633,0.044093,-0.014677,54.854721,-6.192184,-147.420578,,,
729862539.070702,0.533599,4.382533,41.120252,-0.070023,0.003586,1.018387,-0.002192,0.065239,-0.015056,54.854721,-6.192184,-147.420578,,,
729862539.074046,0.533599,4.382533,41.120252,-0.070023,0.003586,1.018387,-0.002192,0.065239,-0.015056,54.854721,-6.192184,-147.420578,,,
729862539.077383,0.53368,4.400241,41.116431,-0.070023,0.003586,1.018387,-0.002192,0.065239,-0.015056,54.854721,-6.192184,-147.420578,,,
729862539.080781,0.537031,4.415588,41.112305,-0.075623,0.004166,1.015518,0.018886,0.048087,-0.015587,54.854721,-6.192184,-147.420578,,,
729862539.084042,0.537031,4.415588,41.112305,-0.075623,0.004166,1.015518,0.018886,0.048087,-0.015587,54.854721,-6.192184,-147.420578,,,
729862539.087426,0.542734,4.42623,41.1075,-0.075623,0.004166,1.015518,0.018886,0.048087,-0.015587,54.854721,-6.192184,-147.420578,,,
729862539.090773,0.550272,4.429749,41.102354,-0.08345,0.006317,1.002594,0.026777,0.010178,-0.017453,54.854721,-6.192184,-147.420578,,,
729862539.094104,0.550272,4.429749,41.102354,-0.08345,0.006317,1.002594,0.026777,0.010178,-0.017453,54.854721,-6.192184,-147.420578,,,
729862539.097396,0.557214,4.429617,41.097045,-0.08345,0.006317,1.002594,0.026777,0.010178,-0.017453,54.854721,-6.192184,-147.420578,,,
729862539.10071,0.557214,4.429617,41.097045,-0.089783,0.007553,0.991806,0.017043,-0.018294,-0.013483,54.854721,-6.192184,-147.420578,,,
729862539.104046,0.563842,4.422675,41.092436,-0.089783,0.007553,0.991806,0.017043,-0.018294,-0.013483,54.854721,-6.192184,-147.420578,,,
729862539.107385,0.567059,4.415616,41.089196,-0.089783,0.007553,0.991806,0.017043,-0.018294,-0.013483,54.571579,-5.944946,-147.578064,,,
729862539.110706,0.567059,4.415616,41.0878,-0.084366,0.012283,0.976212,-0.005686,-0.034313,-0.002604,54.571579,-5.944946,-147.578064,,,
729862539.114049,0.568124,4.402758,41.0878,-0.084366,0.012283,0.976212,-0.005686,-0.034313,-0.002604,54.571579,-5.944946,-147.578064,,,
729862539.117378,0.565444,4.392211,41.087478,-0.084366,0.012283,0.976212,-0.005686,-0.034313,-0.002604,54.571579,-5.944946,-147.578064,,,
729862539.120746,0.565444,4.392211,41.087478,-0.073685,0.015198,0.985352,-0.014908,-0.029693,-0.007589,54.571579,-5.944946,-147.578064,,,
729862539.124046,0.562001,4.377892,41.086589,-0.073685,0.015198,0.985352,-0.014908,-0.029693,-0.007589,54.571579,-5.944946,-147.578064,,,
729862539.127374,0.55664,4.370731,41.083949,-0.073685,0.015198,0.985352,-0.014908,-0.029693,-0.007589,54.571579,-5.944946,-147.578064,,,
729862539.130713,0.55664,4.370731,41.083949,-0.063797,0.012695,1.002243,-0.023922,-0.000173,-0.020069,54.571579,-5.944946,-147.578064,,,
729862539.134121,0.550305,4.3639,41.079658,-0.063797,0.012695,1.002243,-0.023922,-0.000173,-0.020069,54.571579,-5.944946,-147.578064,,,
729862539.137369,0.542794,4.365307,41.074694,-0.063797,0.012695,1.002243,-0.023922,-0.000173,-0.020069,54.571579,-5.944946,-147.578064,,,
729862539.140707,0.542794,4.365307,41.074694,-0.063797,0.012695,1.002243,-0.028822,0.027453,-0.019636,54.571579,-5.944946,-147.578064,,,
729862539.144128,0.534404,4.367968,41.069871,-0.069107,0.011642,1.005219,-0.028822,0.027453,-0.019636,54.571579,-5.944946,-147.578064,,,
729862539.147361,0.525118,4.376713,41.066506,-0.069107,0.011642,1.005219,-0.028822,0.027453,-0.019636,55.141205,-6.100708,-147.126923,,,
729862539.150809,0.525118,4.376713,41.066506,-0.069107,0.011642,1.005219,-0.030835,0.04609,-0.005454,55.141205,-6.100708,-147.126923,,,
729862539.154055,0.515046,4.386525,41.065209,-0.082031,0.011063,1.001358,-0.030835,0.04609,-0.005454,55.141205,-6.100708,-147.126923,,,
729862539.157455,0.505984,4.399471,41.065268,-0.082031,0.011063,1.001358,-0.030835,0.04609,-0.005454,55.141205,-6.100708,-147.126923,,,
729862539.160712,0.505984,4.399471,41.065268,-0.082031,0.011063,1.001358,-0.026251,0.042725,0.003396,55.141205,-6.100708,-147.126923,,,
729862539.164049,0.497077,4.411078,41.066556,-0.091949,0.007339,1.002716,-0.026251,0.042725,0.003396,55.141205,-6.100708,-147.126923,,,
729862539.167381,0.490639,4.421489,41.068451,-0.091949,0.007339,1.002716,-0.026251,0.042725,0.003396,55.141205,-6.100708,-147.126923,,,
729862539.170727,0.490639,4.421489,41.068451,-0.091949,0.007339,1.002716,-0.011334,0.021776,0.008929,55.141205,-6.100708,-147.126923,,,
729862539.174045,0.486126,4.429658,41.070959,-0.09343,0.004578,0.998062,-0.011334,0.021776,0.008929,55.141205,-6.100708,-147.126923,,,
729862539.177371,0.48382,4.434048,41.074036,-0.09343,0.004578,0.998062,-0.011334,0.021776,0.008929,55.141205,-6.100708,-147.126923,,,
729862539.180724,0.48382,4.434048,41.074036,-0.09343,0.004578,0.998062,-0.011334,0.021776,0.008929,55.141205,-6.100708,-147.126923,,,
729862539.184102,0.483762,4.436825,41.076926,-0.094208,0.004135,1.000229,0.005257,-0.00329,0.009048,55.141205,-6.100708,-147.126923,,,
729862539.187375,0.486808,4.432812,41.079385,-0.094208,0.004135,1.000229,0.005257,-0.00329,0.009048,55.141205,-6.100708,-147.126923,,,
729862539.190724,0.486808,4.432812,41.079385,-0.094208,0.004135,1.000229,0.005257,-0.032608,0.005802,54.966354,-5.942703,-147.468704,,,
729862539.194042,0.493132,4.426662,41.081136,-0.090057,0.002121,1.001602,0.025882,-0.032608,0.005802,54.966354,-5.942703,-147.468704,,,
729862539.197372,0.502173,4.416141,41.082282,-0.090057,0.002121,1.001602,0.025882,-0.032608,0.005802,54.966354,-5.942703,-147.468704,,,
729862539.200747,0.502173,4.416141,41.082282,-0.090057,0.002121,1.001602,0.025882,-0.032608,0.005802,54.966354,-5.942703,-147.468704,,,
729862539.204868,0.514611,4.405412,41.083274,-0.081558,0.002487,1.009796,0.043692,-0.035487,0.006083,54.966354,-5.942703,-147.468704,,,
729862539.207282,0.52715,4.39586,41.084946,-0.081558,0.002487,1.009796,0.043692,-0.035487,0.006083,54.966354,-5.942703,-147.468704,,,
729862539.210833,0.52715,4.39586,41.084946,-0.081558,0.002487,1.009796,0.043692,-0.035487,0.006083,54.966354,-5.942703,-147.468704,,,
729862539.214045,0.540358,4.386779,41.087374,-0.071976,0.006119,1.006302,0.043704,-0.017699,0.011231,54.966354,-5.942703,-147.468704,,,
729862539.217382,0.551866,4.381973,41.090159,-0.071976,0.006119,1.006302,0.043704,-0.017699,0.011231,54.966354,-5.942703,-147.468704,,,
729862539.220708,0.551866,4.381973,41.090159,-0.071976,0.006119,1.006302,0.043704,-0.017699,0.011231,54.966354,-5.942703,-147.468704,,,
729862539.224117,0.561298,4.377463,41.093116,-0.06282,0.012253,0.993362,0.027901,-0.003303,0.011074,54.966354,-5.942703,-147.468704,,,
729862539.227363,0.567713,4.376388,41.095618,-0.06282,0.012253,0.993362,0.027901,-0.003303,0.011074,54.966354,-5.942703,-147.468704,,,
729862539.230824,0.567713,4.376388,41.095618,-0.06282,0.012253,0.993362,0.027901,-0.003303,0.011074,54.950806,-6.015488,-147.252914,,,
729862539.234065,0.571234,4.376949,41.096629,-0.055862,0.016113,0.980911,0.00765,0.006044,-0.000819,54.950806,-6.015488,-147.252914,,,
729862539.237385,0.571589,4.378012,41.096064,-0.055862,0.016113,0.980911,0.00765,0.006044,-0.000819,54.950806,-6.015488,-147.252914,,,
729862539.240739,0.571589,4.378012,41.096064,-0.055862,0.016113,0.980911,0.00765,0.006044,-0.000819,54.950806,-6.015488,-147.252914,,,
729862539.244043,0.5686,4.381634,41.09453,-0.055725,0.016541,0.973389,-0.013554,0.006156,-0.009074,54.950806,-6.015488,-147.252914,,,
729862539.24738,0.56256,4.382266,41.09281,-0.055725,0.016541,0.973389,-0.013554,0.006156,-0.009074,54.950806,-6.015488,-147.252914,,,
729862539.250748,0.56256,4.382266,41.09281,-0.055725,0.016541,0.973389,-0.013554,0.006156,-0.009074,54.950806,-6.015488,-147.252914,,,
729862539.254042,0.552921,4.384361,41.090719,-0.061737,0.020096,0.968536,-0.034448,-0.002943,-0.01305,54.950806,-6.015488,-147.252914,,,
729862539.257409,0.542301,4.382138,41.088353,-0.061737,0.020096,0.968536,-0.034448,-0.002943,-0.01305,54.950806,-6.015488,-147.252914,,,
729862539.260731,0.542301,4.382138,41.088353,-0.061737,0.020096,0.968536,-0.034448,-0.002943,-0.01305,54.950806,-6.015488,-147.252914,,,
729862539.264042,0.530204,4.382344,41.08579,-0.059875,0.017914,0.974487,-0.040084,-0.008717,-0.014698,54.950806,-6.015488,-147.252914,,,
729862539.267374,0.518192,4.378852,41.081765,-0.059875,0.017914,0.974487,-0.040084,-0.008717,-0.014698,54.950806,-6.015488,-147.252914,,,
729862539.270739,0.518192,4.378852,41.081765,-0.059875,0.017914,0.974487,-0.040084,-0.008717,-0.014698,54.810913,-6.102829,-147.4133,,,
729862539.274042,0.50581,4.378108,41.076676,-0.06041,0.01358,0.981705,-0.037011,-0.008093,-0.021683,54.810913,-6.102829,-147.4133,,,
729862539.277378,0.494286,4.37601,41.071265,-0.06041,0.01358,0.981705,-0.037011,-0.008093,-0.021683,54.810913,-6.102829,-147.4133,,,
729862539.280735,0.494286,4.37601,41.071265,-0.06041,0.01358,0.981705,-0.037011,-0.008093,-0.021683,54.810913,-6.102829,-147.4133,,,
729862539.284038,0.481726,4.377473,41.065217,-0.063385,0.013779,0.990646,-0.037985,0.008203,-0.026107,54.810913,-6.102829,-147.4133,,,
729862539.287379,0.47113,4.380648,41.058761,-0.063385,0.013779,0.990646,-0.037985,0.008203,-0.026107,54.810913,-6.102829,-147.4133,,,
729862539.290721,0.47113,4.380648,41.058761,-0.063385,0.013779,0.990646,-0.037985,0.008203,-0.026107,54.810913,-6.102829,-147.4133,,,
729862539.294047,0.463402,4.386478,41.051974,-0.065475,0.007278,1.007736,-0.015021,0.030197,-0.026729,54.810913,-6.102829,-147.4133,,,
729862539.297371,0.460294,4.396022,41.044194,-0.065475,0.007278,1.007736,-0.015021,0.030197,-0.026729,54.810913,-6.102829,-147.4133,,,
729862539.300842,0.460294,4.396022,41.044194,-0.065475,0.007278,1.007736,-0.015021,0.030197,-0.026729,54.810913,-6.102829,-147.4133,,,
729862539.304045,0.461655,4.407325,41.03579,-0.078323,-0.001389,1.032669,0.014153,0.055411,-0.02895,54.810913,-6.102829,-147.4133,,,
729862539.307377,0.466538,4.423576,41.028114,-0.078323,-0.001389,1.032669,0.014153,0.055411,-0.02895,54.810913,-6.102829,-147.4133,,,
729862539.310781,0.466538,4.423576,41.028114,-0.078323,-0.001389,1.032669,0.014153,0.055411,-0.02895,54.810913,-6.102829,-147.4133,,,
729862539.314092,0.474588,4.437189,41.02186,-0.093079,-0.001434,1.030853,0.028708,0.061294,-0.018076,54.873138,-5.967972,-147.583221,,,
729862539.317371,0.482073,4.453467,41.017627,-0.093079,-0.001434,1.030853,0.028708,0.061294,-0.018076,54.873138,-5.967972,-147.583221,,,
729862539.320724,0.482073,4.453467,41.017627,-0.093079,-0.001434,1.030853,0.028708,0.061294,-0.018076,54.873138,-5.967972,-147.583221,,,
729862539.324049,0.489775,4.463401,41.015562,-0.102768,0.004425,1.00621,0.022503,0.043249,-0.003592,54.873138,-5.967972,-147.583221,,,
729862539.327376,0.494603,4.47214,41.014983,-0.102768,0.004425,1.00621,0.022503,0.043249,-0.003592,54.873138,-5.967972,-147.583221,,,
729862539.330716,0.494603,4.47214,41.014983,-0.102768,0.004425,1.00621,0.022503,0.043249,-0.003592,54.873138,-5.967972,-147.583221,,,
729862539.334048,0.499037,4.471638,41.015593,-0.103668,0.011246,0.983795,0.009605,-0.00127,0.003571,54.873138,-5.967972,-147.583221,,,
729862539.337376,0.500727,4.468044,41.017199,-0.103668,0.011246,0.983795,0.009605,-0.00127,0.003571,54.873138,-5.967972,-147.583221,,,
729862539.340742,0.500727,4.468044,41.017199,-0.103668,0.011246,0.983795,0.009605,-0.00127,0.003571,54.873138,-5.967972,-147.583221,,,
729862539.344041,0.502597,4.457236,41.019735,-0.105026,0.011414,0.978256,0.001288,-0.031716,0.009294,54.873138,-5.967972,-147.583221,,,
729862539.347376,0.5029,4.445481,41.023586,-0.105026,0.011414,0.978256,0.001288,-0.031716,0.009294,54.873138,-5.967972,-147.583221,,,
729862539.350719,0.5029,4.445481,41.023586,-0.105026,0.011414,0.978256,0.001288,-0.031716,0.009294,54.873138,-5.967972,-147.583221,,,
729862539.354121,0.504529,4.428185,41.028934,-0.103012,0.009521,0.990143,0.00478,-0.050215,0.019812,54.710434,-6.052933,-147.104126,,,
729862539.357373,0.506498,4.412692,41.035285,-0.103012,0.009521,0.990143,0.00478,-0.050215,0.019812,54.710434,-6.052933,-147.104126,,,
729862539.360779,0.506498,4.412692,41.035285,-0.103012,0.009521,0.990143,0.00478,-0.050215,0.019812,54.710434,-6.052933,-147.104126,,,
729862539.364054,0.511215,4.394941,41.042343,-0.091599,0.006714,0.999741,0.019082,-0.04973,0.025764,54.710434,-6.052933,-147.104126,,,
729862539.36738,0.51759,4.380825,41.050062,-0.091599,0.006714,0.999741,0.019082,-0.04973,0.025764,54.710434,-6.052933,-147.104126,,,
729862539.370725,0.51759,4.380825,41.050062,-0.091599,0.006714,0.999741,0.019082,-0.04973,0.025764,54.710434,-6.052933,-147.104126,,,
729862539.374063,0.524944,4.368189,41.058367,-0.077606,0.004684,1.009201,0.025528,-0.024808,0.030183,54.710434,-6.052933,-147.104126,,,
729862539.37737,0.533808,4.363209,41.06649,-0.077606,0.004684,1.009201,0.025528,-0.024808,0.030183,54.710434,-6.052933,-147.104126,,,
729862539.380704,0.533808,4.363209,41.06649,-0.077606,0.004684,1.009201,0.025528,-0.024808,0.030183,54.710434,-6.052933,-147.104126,,,
729862539.384092,0.543534,4.362963,41.073474,-0.064651,0.006378,1.016281,0.039376,0.012966,0.023196,54.710434,-6.052933,-147.104126,,,
729862539.387381,0.556189,4.368087,41.078765,-0.064651,0.006378,1.016281,0.039376,0.012966,0.023196,54.710434,-6.052933,-147.104126,,,
729862539.390797,0.556189,4.368087,41.078765,-0.064651,0.006378,1.016281,0.039376,0.012966,0.023196,54.710434,-6.052933,-147.104126,,,
729862539.394036,0.56844,4.378952,41.083097,-0.062653,0.007904,1.013123,0.046586,0.039066,0.01721,54.4897,-5.942978,-147.093338,,,
729862539.397372,0.581004,4.390192,41.087215,-0.062653,0.007904,1.013123,0.046586,0.039066,0.01721,54.4897,-5.942978,-147.093338,,,
729862539.400732,0.581004,4.390192,41.087215,-0.062653,0.007904,1.013123,0.046586,0.039066,0.01721,54.4897,-5.942978,-147.093338,,,
729862539.404099,0.590495,4.404962,41.09056,-0.066422,0.013336,0.989914,0.031798,0.03585,0.010962,54.4897,-5.942978,-147.093338,,,
729862539.407371,0.598229,4.412923,41.0933,-0.066422,0.013336,0.989914,0.031798,0.03585,0.010962,54.4897,-5.942978,-147.093338,,,
729862539.410703,0.598229,4.412923,41.0933,-0.066422,0.013336,0.989914,0.031798,0.03585,0.010962,54.4897,-5.942978,-147.093338,,,
729862539.41406,0.603137,4.421858,41.095137,-0.068939,0.016357,0.970062,0.01302,0.007738,0.003549,54.4897,-5.942978,-147.093338,,,
729862539.41737,0.606438,4.420292,41.095431,-0.068939,0.016357,0.970062,0.01302,0.007738,0.003549,54.4897,-5.942978,-147.093338,,,
729862539.420728,0.606438,4.420292,41.095431,-0.068939,0.016357,0.970062,0.01302,0.007738,0.003549,54.4897,-5.942978,-147.093338,,,
729862539.424052,0.610342,4.418895,41.093851,-0.066193,0.014587,0.979523,0.017489,-0.027115,-0.008783,54.4897,-5.942978,-147.093338,,,
729862539.427376,0.615358,4.408932,41.0908,-0.066193,0.014587,0.979523,0.017489,-0.027115,-0.008783,54.4897,-5.942978,-147.093338,,,
729862539.430778,0.615358,4.408932,41.0908,-0.066193,0.014587,0.979523,0.017489,-0.027115,-0.008783,54.4897,-5.942978,-147.093338,,,
729862539.434039,0.620684,4.403253,41.087005,-0.066422,0.012787,0.995087,0.020175,-0.033027,-0.013352,54.645233,-6.242569,-146.658554,,,
729862539.437377,0.625167,4.393648,41.083082,-0.066422,0.012787,0.995087,0.020175,-0.033027,-0.013352,54.645233,-6.242569,-146.658554,,,
729862539.440726,0.625167,4.393648,41.083082,-0.066422,0.012787,0.995087,0.020175,-0.033027,-0.013352,54.645233,-6.242569,-146.658554,,,
729862539.444114,0.62659,4.389659,41.079794,-0.067581,0.013138,0.995026,0.001057,-0.016736,-0.010128,54.645233,-6.242569,-146.658554,,,
729862539.447368,0.624548,4.38554,41.077665,-0.067581,0.013138,0.995026,0.001057,-0.016736,-0.010128,54.645233,-6.242569,-146.658554,,,
729862539.450722,0.624548,4.38554,41.077665,-0.067581,0.013138,0.995026,0.001057,-0.016736,-0.010128,54.645233,-6.242569,-146.658554,,,
729862539.45407,0.618367,4.383993,41.076044,-0.068985,0.019684,0.984283,-0.023336,-0.003855,-0.008405,54.645233,-6.242569,-146.658554,,,
