Time (sec),Pitch (deg),Roll (deg),Yaw(deg),X-Acceleration (g),Y-Acceleration (g),Z-Acceleration (g),Pitch Rate (deg/sec),Roll Rate (deg/sec),Yaw Rate (deg/sec),Magnetic Field in X direction (uT),Magnetic Field in Y direction (uT),Magnetic Field in Z Direction (uT),Latitude (deg),Longitude (deg),Altitude (m)
729861530.530049,1.325164,3.100581,127.710057,-0.043228,0.024017,1.022186,0.057048,0.006724,0.012729,68.08223,33.174698,-146.847275,,,
729861530.533274,1.325164,3.100581,127.710057,-0.043228,0.024017,1.022186,0.057048,0.006724,0.012729,68.08223,33.174698,-146.847275,,,
729861530.536618,1.33882,3.105122,127.711432,-0.041336,0.025894,1.012741,0.053465,-0.000939,0.008851,68.08223,33.174698,-146.847275,,,
729861530.54002,1.352508,3.103011,127.712612,-0.041336,0.025894,1.012741,0.053465,-0.000939,0.008851,68.08223,33.174698,-146.847275,,,
729861530.543259,1.352508,3.103011,127.712612,-0.041336,0.025894,1.012741,0.053465,-0.000939,0.008851,68.08223,33.174698,-146.847275,,,
729861530.546604,1.362463,3.105714,127.713258,-0.041229,0.026962,1.002197,0.039333,-0.004503,0.003058,68.08223,33.174698,-146.847275,,,
729861530.549979,1.371217,3.104603,127.713241,-0.041229,0.026962,1.002197,0.039333,-0.004503,0.003058,68.217178,33.128601,-146.879974,,,
729861530.553325,1.371217,3.104603,127.713241,-0.041229,0.026962,1.002197,0.039333,-0.004503,0.003058,68.217178,33.128601,-146.879974,,,
729861530.556617,1.377444,3.108087,127.712808,-0.037048,0.031937,0.992218,0.027229,0.002483,-0.003023,68.217178,33.128601,-146.879974,,,
729861530.559968,1.384289,3.111225,127.71197,-0.037048,0.031937,0.992218,0.027229,0.002483,-0.003023,68.217178,33.128601,-146.879974,,,
729861530.563298,1.384289,3.111225,127.71197,-0.037048,0.031937,0.992218,0.027229,0.002483,-0.003023,68.217178,33.128601,-146.879974,,,
729861530.56667,1.389635,3.118921,127.71069,-0.03653,0.031036,0.995316,0.025142,0.023478,-0.002474,68.217178,33.128601,-146.879974,,,
729861530.569984,1.396483,3.128386,127.709608,-0.03653,0.031036,0.995316,0.025142,0.023478,-0.002474,68.217178,33.128601,-146.879974,,,
729861530.573274,1.396483,3.128386,127.709608,-0.03653,0.031036,0.995316,0.025142,0.023478,-0.002474,68.217178,33.128601,-146.879974,,,
729861530.57661,1.401016,3.140345,127.709011,-0.042297,0.031021,1.000183,0.024738,0.042731,-0.003054,68.217178,33.128601,-146.879974,,,
729861530.580007,1.407555,3.155431,127.709241,-0.042297,0.031021,1.000183,0.024738,0.042731,-0.003054,68.217178,33.128601,-146.879974,,,
729861530.583264,1.407555,3.155431,127.709241,-0.042297,0.031021,1.000183,0.024738,0.042731,-0.003054,68.217178,33.128601,-146.879974,,,
729861530.586602,1.413455,3.170318,127.710499,-0.047897,0.028107,0.999222,0.026041,0.059351,0.005021,68.217178,33.128601,-146.879974,,,
729861530.589986,1.420386,3.186663,127.71258,-0.047897,0.028107,0.999222,0.026041,0.059351,0.005021,68.402969,33.192734,-146.921722,,,
729861530.593261,1.420386,3.186663,127.71258,-0.047897,0.028107,0.999222,0.026041,0.059351,0.005021,68.402969,33.192734,-146.921722,,,
729861530.596603,1.425981,3.197653,127.715253,-0.053619,0.02626,0.99678,0.021861,0.058033,0.008601,68.402969,33.192734,-146.921722,,,
729861530.599961,1.431957,3.21007,127.717711,-0.053619,0.02626,0.99678,0.021861,0.058033,0.008601,68.402969,33.192734,-146.921722,,,
729861530.603321,1.431957,3.21007,127.717711,-0.053619,0.02626,0.99678,0.021861,0.058033,0.008601,68.402969,33.192734,-146.921722,,,
729861530.606609,1.436685,3.214852,127.720192,-0.059143,0.026398,0.990906,0.019474,0.039151,0.009074,68.402969,33.192734,-146.921722,,,
729861530.609936,1.436685,3.220282,127.722657,-0.059143,0.026398,0.990906,0.019474,0.039151,0.009074,68.402969,33.192734,-146.921722,,,
729861530.613278,1.440055,3.220282,127.722657,-0.059143,0.026398,0.990906,0.019474,0.039151,0.009074,68.402969,33.192734,-146.921722,,,
729861530.616665,1.44323,3.215821,127.725302,-0.060272,0.026321,0.98317,0.009464,0.00986,0.008984,68.402969,33.192734,-146.921722,,,
729861530.61995,1.44323,3.215821,127.728075,-0.060272,0.026321,0.98317,0.009464,0.00986,0.008984,68.402969,33.192734,-146.921722,,,
729861530.623275,1.445229,3.211228,127.728075,-0.060272,0.026321,0.98317,0.009464,0.00986,0.008984,68.402969,33.192734,-146.921722,,,
729861530.626606,1.447551,3.197003,127.731048,-0.064774,0.024918,0.981216,0.005007,-0.025575,0.009139,68.402969,33.192734,-146.921722,,,
729861530.629937,1.447551,3.197003,127.731048,-0.064774,0.024918,0.981216,0.005007,-0.025575,0.009139,68.492401,33.011932,-147.108322,,,
729861530.633277,1.449683,3.184195,127.733753,-0.064774,0.024918,0.981216,0.005007,-0.025575,0.009139,68.492401,33.011932,-147.108322,,,
729861530.636614,1.454118,3.163266,127.736507,-0.06366,0.023392,0.982971,0.010255,-0.050064,0.009281,68.492401,33.011932,-147.108322,,,
729861530.639995,1.454118,3.147669,127.73897,-0.06366,0.023392,0.982971,0.010255,-0.050064,0.009281,68.492401,33.011932,-147.108322,,,
729861530.643254,1.456343,3.147669,127.73897,-0.06366,0.023392,0.982971,0.010255,-0.050064,0.009281,68.492401,33.011932,-147.108322,,,
729861530.646606,1.459196,3.12569,127.741264,-0.05925,0.025421,0.985916,0.007557,-0.054096,0.006594,68.492401,33.011932,-147.108322,,,
729861530.649946,1.459196,3.12569,127.741264,-0.05925,0.025421,0.985916,0.007557,-0.054096,0.006594,68.492401,33.011932,-147.108322,,,
729861530.653331,1.459555,3.109679,127.743685,-0.05925,0.025421,0.985916,0.007557,-0.054096,0.006594,68.492401,33.011932,-147.108322,,,
729861530.656618,1.459677,3.091172,127.74683,-0.058853,0.027725,0.984421,-0.000398,-0.05606,0.010816,68.492401,33.011932,-147.108322,,,
729861530.659932,1.459677,3.091172,127.74683,-0.058853,0.027725,0.984421,-0.000398,-0.05606,0.010816,68.492401,33.011932,-147.108322,,,
729861530.663281,1.456883,3.076955,127.750435,-0.058853,0.027725,0.984421,-0.000398,-0.05606,0.010816,68.492401,33.011932,-147.108322,,,
729861530.666608,1.453037,3.064003,127.754389,-0.054504,0.026764,0.98645,-0.012149,-0.04118,0.011737,68.492401,33.011932,-147.108322,,,
729861530.669937,1.453037,3.064003,127.754389,-0.054504,0.026764,0.98645,-0.012149,-0.04118,0.011737,68.569229,32.718994,-146.875793,,,
729861530.673295,1.446437,3.05586,127.757895,-0.054504,0.026764,0.98645,-0.012149,-0.04118,0.011737,68.569229,32.718994,-146.875793,,,
729861530.676605,1.437566,3.052229,127.761028,-0.050385,0.02652,0.990417,-0.032042,-0.015252,0.00938,68.569229,32.718994,-146.875793,,,
729861530.679929,1.437566,3.052229,127.761028,-0.050385,0.02652,0.990417,-0.032042,-0.015252,0.00938,68.569229,32.718994,-146.875793,,,
729861530.683292,1.426166,3.050318,127.763871,-0.050385,0.02652,0.990417,-0.032042,-0.015252,0.00938,68.569229,32.718994,-146.875793,,,
729861530.686603,1.413725,3.052117,127.76635,-0.046906,0.027649,0.992828,-0.046601,0.001317,0.005635,68.569229,32.718994,-146.875793,,,
729861530.690004,1.413725,3.052117,127.76635,-0.046906,0.027649,0.992828,-0.046601,0.001317,0.005635,68.569229,32.718994,-146.875793,,,
729861530.693267,1.400951,3.052332,127.768937,-0.046906,0.027649,0.992828,-0.046601,0.001317,0.005635,68.569229,32.718994,-146.875793,,,
729861530.696603,1.389697,3.056666,127.771489,-0.048492,0.023346,0.994141,-0.041475,0.005356,0.00524,68.569229,32.718994,-146.875793,,,
729861530.699946,1.389697,3.056666,127.771489,-0.048492,0.023346,0.994141,-0.041475,0.005356,0.00524,68.569229,32.718994,-146.875793,,,
729861530.703348,1.379702,3.059416,127.774718,-0.048492,0.023346,0.994141,-0.041475,0.005356,0.00524,68.569229,32.718994,-146.875793,,,
729861530.706598,1.372175,3.06744,127.77894,-0.051178,0.016479,1.002548,-0.029154,0.015242,0.009991,68.569229,32.718994,-146.875793,,,
729861530.709933,1.372175,3.06744,127.77894,-0.051178,0.016479,1.002548,-0.029154,0.015242,0.009991,68.569229,32.718994,-146.875793,,,
729861530.713292,1.367516,3.072204,127.784405,-0.051178,0.016479,1.002548,-0.029154,0.015242,0.009991,68.320572,33.289871,-146.805634,,,
729861530.716633,1.366669,3.080699,127.790495,-0.055954,0.012222,1.007477,-0.006971,0.022042,0.019079,68.320572,33.289871,-146.805634,,,
729861530.719961,1.366669,3.080699,127.790495,-0.055954,0.012222,1.007477,-0.006971,0.022042,0.019079,68.320572,33.289871,-146.805634,,,
729861530.723281,1.36908,3.086781,127.79741,-0.055954,0.012222,1.007477,-0.006971,0.022042,0.019079,68.320572,33.289871,-146.805634,,,
729861530.72661,1.375876,3.094599,127.804898,-0.057236,0.012451,1.007492,0.016636,0.024505,0.023945,68.320572,33.289871,-146.805634,,,
729861530.730017,1.375876,3.094599,127.804898,-0.057236,0.012451,1.007492,0.016636,0.024505,0.023945,68.320572,33.289871,-146.805634,,,
729861530.733286,1.38454,3.099356,127.812277,-0.057236,0.012451,1.007492,0.016636,0.024505,0.023945,68.320572,33.289871,-146.805634,,,
729861530.736605,1.395151,3.104152,127.819155,-0.054779,0.014877,1.002167,0.030194,0.016571,0.026651,68.320572,33.289871,-146.805634,,,
729861530.739946,1.395151,3.104152,127.819155,-0.054779,0.014877,1.002167,0.030194,0.016571,0.026651,68.320572,33.289871,-146.805634,,,
729861530.743273,1.404298,3.106046,127.825355,-0.054779,0.014877,1.002167,0.030194,0.016571,0.026651,68.320572,33.289871,-146.805634,,,
729861530.746604,1.413053,3.107068,127.830138,-0.051697,0.021118,0.987366,0.030184,0.006565,0.014505,68.320572,33.289871,-146.805634,,,
729861530.749969,1.413053,3.107068,127.830138,-0.051697,0.021118,0.987366,0.030184,0.006565,0.014505,68.320572,33.289871,-146.805634,,,
729861530.753346,1.419742,3.107418,127.83321,-0.051697,0.021118,0.987366,0.030184,0.006565,0.014505,68.33429,33.114273,-147.049377,,,
729861530.75659,1.424147,3.105178,127.835338,-0.045334,0.02594,0.975723,0.016168,0.000894,0.008514,68.33429,33.114273,-147.049377,,,
729861530.759938,1.424147,3.105178,127.835338,-0.045334,0.02594,0.975723,0.016168,0.000894,0.008514,68.33429,33.114273,-147.049377,,,
729861530.763282,1.42476,3.104211,127.836071,-0.045334,0.02594,0.975723,0.016168,0.000894,0.008514,68.33429,33.114273,-147.049377,,,
729861530.766604,1.422712,3.10127,127.835685,-0.043289,0.029297,0.968918,-0.003104,0.00216,-0.001681,68.33429,33.114273,-147.049377,,,
729861530.769944,1.422712,3.10127,127.835685,-0.043289,0.029297,0.968918,-0.003104,0.00216,-0.001681,68.33429,33.114273,-147.049377,,,
729861530.773279,1.417219,3.101475,127.834501,-0.043289,0.029297,0.968918,-0.003104,0.00216,-0.001681,68.33429,33.114273,-147.049377,,,
729861530.776607,1.408128,3.101562,127.832961,-0.043243,0.028992,0.971466,-0.024809,0.006939,-0.00771,68.33429,33.114273,-147.049377,,,
729861530.780019,1.408128,3.101562,127.832961,-0.043243,0.028992,0.971466,-0.024809,0.006939,-0.00771,68.33429,33.114273,-147.049377,,,
729861530.783279,1.39871,3.104331,127.831926,-0.043243,0.028992,0.971466,-0.024809,0.006939,-0.00771,68.33429,33.114273,-147.049377,,,
729861530.78661,1.386384,3.107496,127.830961,-0.044998,0.028549,0.980942,-0.033901,0.015362,-0.007765,68.33429,33.114273,-147.049377,,,
729861530.789946,1.386384,3.107496,127.830961,-0.044998,0.028549,0.980942,-0.033901,0.015362,-0.007765,68.33429,33.114273,-147.049377,,,
729861530.793322,1.376278,3.111366,127.829253,-0.044998,0.028549,0.980942,-0.033901,0.015362,-0.007765,68.470337,32.799133,-147.085449,,,
729861530.796601,1.362221,3.115947,127.826881,-0.046555,0.025543,0.990204,-0.036896,0.016335,-0.010906,68.470337,32.799133,-147.085449,,,
729861530.800027,1.362221,3.115947,127.826881,-0.046555,0.025543,0.990204,-0.036896,0.016335,-0.010906,68.470337,32.799133,-147.085449,,,
729861530.803328,1.35174,3.119741,127.824179,-0.046555,0.025543,0.990204,-0.036896,0.016335,-0.010906,68.470337,32.799133,-147.085449,,,
729861530.806595,1.339837,3.123756,127.820991,-0.044815,0.02211,0.992996,-0.027758,0.014096,-0.012882,68.470337,32.799133,-147.085449,,,
729861530.810021,1.339837,3.123756,127.820991,-0.044815,0.02211,0.992996,-0.027758,0.014096,-0.012882,68.470337,32.799133,-147.085449,,,
729861530.813293,1.332477,3.127288,127.818037,-0.044815,0.02211,0.992996,-0.027758,0.014096,-0.012882,68.470337,32.799133,-147.085449,,,
729861530.816703,1.32616,3.130932,127.81553,-0.048691,0.017715,1.00119,-0.015662,0.015018,-0.009986,68.470337,32.799133,-147.085449,,,
729861530.819951,1.32616,3.130932,127.81553,-0.048691,0.017715,1.00119,-0.015662,0.015018,-0.009986,68.470337,32.799133,-147.085449,,,
729861530.823301,1.325734,3.135536,127.813204,-0.048691,0.017715,1.00119,-0.015662,0.015018,-0.009986,68.470337,32.799133,-147.085449,,,
729861530.826614,1.329255,3.140419,127.811132,-0.053787,0.013474,1.012756,0.006499,0.021837,-0.006082,68.470337,32.799133,-147.085449,,,
729861530.830043,1.329255,3.140419,127.811132,-0.053787,0.013474,1.012756,0.006499,0.021837,-0.006082,68.470337,32.799133,-147.085449,,,
729861530.83327,1.335833,3.149203,127.808993,-0.053787,0.013474,1.012756,0.006499,0.021837,-0.006082,68.442871,32.996338,-146.999359,,,
729861530.836607,1.346254,3.157075,127.806546,-0.050385,0.016113,1.019562,0.030017,0.040441,-0.008322,68.442871,32.996338,-146.999359,,,
729861530.839944,1.346254,3.157075,127.806546,-0.050385,0.016113,1.019562,0.030017,0.040441,-0.008322,68.442871,32.996338,-146.999359,,,
729861530.843277,1.357112,3.169897,127.803917,-0.050385,0.016113,1.019562,0.030017,0.040441,-0.008322,68.442871,32.996338,-146.999359,,,
729861530.846603,1.371383,3.179818,127.801492,-0.05394,0.020691,1.014877,0.043685,0.050409,-0.006553,68.442871,32.996338,-146.999359,,,
729861530.849956,1.371383,3.179818,127.801492,-0.05394,0.020691,1.014877,0.043685,0.050409,-0.006553,68.442871,32.996338,-146.999359,,,
729861530.853376,1.382627,3.193322,127.798738,-0.05394,0.020691,1.014877,0.043685,0.050409,-0.006553,68.442871,32.996338,-146.999359,,,
729861530.8566,1.392038,3.202437,127.795814,-0.060989,0.023331,1.000809,0.03418,0.046708,-0.009626,68.442871,32.996338,-146.999359,,,
729861530.860029,1.392038,3.202437,127.795814,-0.060989,0.023331,1.000809,0.03418,0.046708,-0.009626,68.442871,32.996338,-146.999359,,,
729861530.863277,1.397334,3.212179,127.792459,-0.060989,0.023331,1.000809,0.03418,0.046708,-0.009626,68.442871,32.996338,-146.999359,,,
729861530.866613,1.400958,3.216267,127.788954,-0.064484,0.027252,0.98941,0.012507,0.028732,-0.012177,68.442871,32.996338,-146.999359,,,
729861530.869941,1.400958,3.216267,127.788954,-0.064484,0.027252,0.98941,0.012507,0.028732,-0.012177,68.442871,32.996338,-146.999359,,,
729861530.8733,1.399835,3.220681,127.785533,-0.064484,0.027252,0.98941,0.012507,0.028732,-0.012177,68.442871,32.996338,-146.999359,,,
729861530.876608,1.394785,3.218456,127.781972,-0.067764,0.030334,0.98288,-0.010463,0.006852,-0.011325,68.317413,33.021927,-146.802322,,,
729861530.880026,1.394785,3.218456,127.781972,-0.067764,0.030334,0.98288,-0.010463,0.006852,-0.011325,68.317413,33.021927,-146.802322,,,
729861530.883284,1.387417,3.216261,127.7785,-0.067764,0.030334,0.98288,-0.010463,0.006852,-0.011325,68.317413,33.021927,-146.802322,,,
729861530.886604,1.376935,3.20872,127.775653,-0.068497,0.028671,0.982941,-0.031522,-0.008981,-0.014568,68.317413,33.021927,-146.802322,,,
729861530.889943,1.376935,3.20872,127.775653,-0.068497,0.028671,0.982941,-0.031522,-0.008981,-0.014568,68.317413,33.021927,-146.802322,,,
729861530.893296,1.366222,3.203936,127.772604,-0.068497,0.028671,0.982941,-0.031522,-0.008981,-0.014568,68.317413,33.021927,-146.802322,,,
729861530.896605,1.353407,3.197354,127.76997,-0.07019,0.025787,0.991913,-0.035834,-0.017227,-0.011517,68.317413,33.021927,-146.802322,,,
729861530.899942,1.353407,3.197354,127.76997,-0.07019,0.025787,0.991913,-0.035834,-0.017227,-0.011517,68.317413,33.021927,-146.802322,,,
729861530.90335,1.344074,3.192596,127.768365,-0.07019,0.025787,0.991913,-0.035834,-0.017227,-0.011517,68.317413,33.021927,-146.802322,,,
729861530.9066,1.334355,3.187288,127.768432,-0.068283,0.021454,1.001236,-0.024862,-0.01217,-0.002784,68.317413,33.021927,-146.802322,,,
729861530.909936,1.334355,3.187288,127.768432,-0.068283,0.021454,1.001236,-0.024862,-0.01217,-0.002784,68.317413,33.021927,-146.802322,,,
729861530.913291,1.329538,3.18345,127.769919,-0.068283,0.021454,1.001236,-0.024862,-0.01217,-0.002784,68.317413,33.021927,-146.802322,,,
729861530.916642,1.325287,3.177496,127.772818,-0.069107,0.01738,1.009308,-0.01167,-0.0119,0.003861,68.334946,32.959198,-146.877121,,,
729861530.919955,1.325287,3.177496,127.772818,-0.069107,0.01738,1.009308,-0.01167,-0.0119,0.003861,68.334946,32.959198,-146.877121,,,
729861530.923278,1.324246,3.173535,127.776879,-0.069107,0.01738,1.009308,-0.01167,-0.0119,0.003861,68.334946,32.959198,-146.877121,,,
729861530.926605,1.325183,3.170667,127.78209,-0.068954,0.015808,1.008743,0.002774,-0.00958,0.015633,68.334946,32.959198,-146.877121,,,
729861530.930014,1.325183,3.170667,127.78209,-0.068954,0.015808,1.008743,0.002774,-0.00958,0.015633,68.334946,32.959198,-146.877121,,,
729861530.933275,1.329383,3.168976,127.788639,-0.068954,0.015808,1.008743,0.002774,-0.00958,0.015633,68.334946,32.959198,-146.877121,,,
729861530.936603,1.336811,3.170966,127.795782,-0.066986,0.013718,1.010071,0.022072,0.001095,0.02612,68.334946,32.959198,-146.877121,,,
729861530.93994,1.336811,3.170966,127.795782,-0.066986,0.013718,1.010071,0.022072,0.001095,0.02612,68.334946,32.959198,-146.877121,,,
729861530.943268,1.346033,3.171295,127.803198,-0.066986,0.013718,1.010071,0.022072,0.001095,0.02612,68.334946,32.959198,-146.877121,,,
729861530.946603,1.35861,3.175618,127.810786,-0.064529,0.013626,1.011993,0.036595,0.004653,0.026117,68.334946,32.959198,-146.877121,,,
729861530.949945,1.35861,3.175618,127.810786,-0.064529,0.013626,1.011993,0.036595,0.004653,0.026117,68.334946,32.959198,-146.877121,,,
729861530.953321,1.370438,3.175601,127.818388,-0.064529,0.013626,1.011993,0.036595,0.004653,0.026117,68.334946,32.959198,-146.877121,,,
729861530.956605,1.384553,3.179825,127.824775,-0.057861,0.017303,1.005432,0.042483,0.004119,0.02371,68.306473,32.993805,-146.860016,,,
729861530.960029,1.384553,3.179825,127.824775,-0.057861,0.017303,1.005432,0.042483,0.004119,0.02371,68.306473,32.993805,-146.860016,,,
729861530.963278,1.396653,3.179559,127.829759,-0.057861,0.017303,1.005432,0.042483,0.004119,0.02371,68.306473,32.993805,-146.860016,,,
729861530.966609,1.40849,3.184758,127.832963,-0.051437,0.025421,0.994904,0.039809,0.005283,0.016417,68.306473,32.993805,-146.860016,,,
729861530.969966,1.40849,3.184758,127.832963,-0.051437,0.025421,0.994904,0.039809,0.005283,0.016417,68.306473,32.993805,-146.860016,,,
729861530.97328,1.417737,3.18629,127.835345,-0.051437,0.025421,0.994904,0.039809,0.005283,0.016417,68.306473,32.993805,-146.860016,,,
729861530.976605,1.424819,3.193087,127.837092,-0.049652,0.031006,0.984894,0.027945,0.009837,0.006856,68.306473,32.993805,-146.860016,,,
729861530.979974,1.424819,3.193087,127.837092,-0.049652,0.031006,0.984894,0.027945,0.009837,0.006856,68.306473,32.993805,-146.860016,,,
729861530.983289,1.429622,3.19549,127.838725,-0.049652,0.031006,0.984894,0.027945,0.009837,0.006856,68.306473,32.993805,-146.860016,,,
729861530.986604,1.430285,3.201883,127.840583,-0.049957,0.03154,0.975327,0.008432,0.011121,0.004447,68.306473,32.993805,-146.860016,,,
729861530.989938,1.430285,3.201883,127.840583,-0.049957,0.03154,0.975327,0.008432,0.011121,0.004447,68.306473,32.993805,-146.860016,,,
729861530.993278,1.428924,3.204499,127.843154,-0.049957,0.03154,0.975327,0.008432,0.011121,0.004447,68.306473,32.993805,-146.860016,,,
729861530.996609,1.421975,3.211833,127.846563,-0.053818,0.031448,0.967911,-0.014923,0.012369,0.009628,68.525726,33.090302,-146.750076,,,
729861530.999953,1.421975,3.211833,127.846563,-0.053818,0.031448,0.967911,-0.014923,0.012369,0.009628,68.525726,33.090302,-146.750076,,,
729861531.003334,1.414185,3.215619,127.850941,-0.053818,0.031448,0.967911,-0.014923,0.012369,0.009628,68.525726,33.090302,-146.750076,,,
729861531.006598,1.401471,3.223625,127.856038,-0.058411,0.028748,0.968658,-0.035508,0.02014,0.014942,68.525726,33.090302,-146.750076,,,
729861531.009955,1.401471,3.223625,127.856038,-0.058411,0.028748,0.968658,-0.035508,0.02014,0.014942,68.525726,33.090302,-146.750076,,,
729861531.013286,1.389358,3.227948,127.861859,-0.058411,0.028748,0.968658,-0.035508,0.02014,0.014942,68.525726,33.090302,-146.750076,,,
729861531.016608,1.373072,3.234899,127.868067,-0.059845,0.026169,0.975677,-0.047409,0.01774,0.018238,68.525726,33.090302,-146.750076,,,
729861531.019952,1.373072,3.234899,127.868067,-0.059845,0.026169,0.975677,-0.047409,0.01774,0.018238,68.525726,33.090302,-146.750076,,,
729861531.02329,1.358445,3.237582,127.874558,-0.059845,0.026169,0.975677,-0.047409,0.01774,0.018238,68.525726,33.090302,-146.750076,,,
729861531.026686,1.340642,3.24056,127.88076,-0.059006,0.024887,0.978699,-0.053205,0.008855,0.017846,68.525726,33.090302,-146.750076,,,
729861531.029999,1.340642,3.24056,127.88076,-0.059006,0.024887,0.978699,-0.053205,0.008855,0.017846,68.525726,33.090302,-146.750076,,,
729861531.033274,1.32625,3.240653,127.886411,-0.059006,0.024887,0.978699,-0.053205,0.008855,0.017846,68.525726,33.090302,-146.750076,,,
729861531.036605,1.312581,3.239331,127.891523,-0.057175,0.021637,0.985031,-0.045175,0.001823,0.015795,68.525726,33.090302,-146.750076,,,
729861531.039956,1.312581,3.239331,127.891523,-0.057175,0.021637,0.985031,-0.045175,0.001823,0.015795,68.567947,32.717957,-146.630463,,,
729861531.043268,1.301797,3.237647,127.895989,-0.057175,0.021637,0.985031,-0.045175,0.001823,0.015795,68.567947,32.717957,-146.630463,,,
729861531.046603,1.294381,3.233605,127.899559,-0.054611,0.019608,0.992615,-0.032279,-0.003882,0.009057,68.567947,32.717957,-146.630463,,,
729861531.049942,1.294381,3.233605,127.899559,-0.054611,0.019608,0.992615,-0.032279,-0.003882,0.009057,68.567947,32.717957,-146.630463,,,
729861531.053345,1.287086,3.231639,127.902014,-0.054611,0.019608,0.992615,-0.032279,-0.003882,0.009057,68.567947,32.717957,-146.630463,,,
729861531.056601,1.283851,3.228737,127.904559,-0.05452,0.0177,0.997025,-0.020889,-0.002436,0.00787,68.567947,32.717957,-146.630463,,,
729861531.059936,1.283851,3.228737,127.904559,-0.05452,0.0177,0.997025,-0.020889,-0.002436,0.00787,68.567947,32.717957,-146.630463,,,
729861531.06329,1.279524,3.229172,127.908368,-0.05452,0.0177,0.997025,-0.020889,-0.002436,0.00787,68.567947,32.717957,-146.630463,,,
729861531.066607,1.278824,3.230173,127.913662,-0.058014,0.016953,1.000534,-0.012561,0.010638,0.013514,68.567947,32.717957,-146.630463,,,
729861531.069951,1.278824,3.230173,127.913662,-0.058014,0.016953,1.000534,-0.012561,0.010638,0.013514,68.567947,32.717957,-146.630463,,,
729861531.073288,1.276325,3.234159,127.920595,-0.058014,0.016953,1.000534,-0.012561,0.010638,0.013514,68.567947,32.717957,-146.630463,,,
729861531.076646,1.275717,3.239625,127.928367,-0.060883,0.016617,1.001205,-0.00835,0.020345,0.023081,68.567947,32.717957,-146.630463,,,
729861531.079935,1.275717,3.239625,127.928367,-0.060883,0.016617,1.001205,-0.00835,0.020345,0.023081,68.56456,32.982986,-147.025726,,,
729861531.083291,1.271266,3.246582,127.935998,-0.060883,0.016617,1.001205,-0.00835,0.020345,0.023081,68.56456,32.982986,-147.025726,,,
729861531.086607,1.266125,3.256781,127.943724,-0.058395,0.020432,0.995087,-0.024528,0.034034,0.022133,68.56456,32.982986,-147.025726,,,
729861531.090006,1.266125,3.256781,127.943724,-0.058395,0.020432,0.995087,-0.024528,0.034034,0.022133,68.56456,32.982986,-147.025726,,,
729861531.093268,1.255968,3.265338,127.951634,-0.058395,0.020432,0.995087,-0.024528,0.034034,0.022133,68.56456,32.982986,-147.025726,,,
729861531.09661,1.242574,3.272919,127.959358,-0.05835,0.02063,0.987274,-0.048743,0.028326,0.024032,68.56456,32.982986,-147.025726,,,
729861531.099947,1.242574,3.272919,127.959358,-0.05835,0.02063,0.987274,-0.048743,0.028326,0.024032,68.56456,32.982986,-147.025726,,,
729861531.103338,1.224244,3.276104,127.966973,-0.05835,0.02063,0.987274,-0.048743,0.028326,0.024032,68.56456,32.982986,-147.025726,,,
729861531.106598,1.203513,3.277008,127.974319,-0.057846,0.025314,0.979324,-0.070895,0.005898,0.021519,68.56456,32.982986,-147.025726,,,
729861531.109933,1.203513,3.277008,127.974319,-0.057846,0.025314,0.979324,-0.070895,0.005898,0.021519,68.56456,32.982986,-147.025726,,,
729861531.11329,1.180153,3.275495,127.980207,-0.057846,0.025314,0.979324,-0.070895,0.005898,0.021519,68.56456,32.982986,-147.025726,,,
729861531.116627,1.15616,3.272609,127.984469,-0.052902,0.027802,0.987061,-0.082393,-0.008131,0.009537,68.56456,32.982986,-147.025726,,,
729861531.119937,1.15616,3.272609,127.984469,-0.052902,0.027802,0.987061,-0.082393,-0.008131,0.009537,68.445679,33.224762,-146.508423,,,
729861531.123275,1.133324,3.268555,127.987582,-0.052902,0.027802,0.987061,-0.082393,-0.008131,0.009537,68.445679,33.224762,-146.508423,,,
729861531.12661,1.11258,3.263844,127.989441,-0.047806,0.026703,1.003082,-0.073299,-0.01048,0.001087,68.445679,33.224762,-146.508423,,,
729861531.12997,1.11258,3.263844,127.989441,-0.047806,0.026703,1.003082,-0.073299,-0.01048,0.001087,68.445679,33.224762,-146.508423,,,
729861531.133357,1.095132,3.260394,127.990823,-0.047806,0.026703,1.003082,-0.073299,-0.01048,0.001087,68.445679,33.224762,-146.508423,,,
729861531.136628,1.081403,3.257258,127.992135,-0.047195,0.018799,1.016098,-0.047382,-0.009672,-0.000438,68.445679,33.224762,-146.508423,,,
729861531.140042,1.081403,3.257258,127.992135,-0.047195,0.018799,1.016098,-0.047382,-0.009672,-0.000438,68.445679,33.224762,-146.508423,,,
729861531.14327,1.072639,3.256245,127.993594,-0.047195,0.018799,1.016098,-0.047382,-0.009672,-0.000438,68.445679,33.224762,-146.508423,,,
729861531.146609,1.067459,3.258388,127.995609,-0.048172,0.010468,1.026352,-0.016893,0.005216,0.003184,68.445679,33.224762,-146.508423,,,
729861531.149951,1.067459,3.258388,127.995609,-0.048172,0.010468,1.026352,-0.016893,0.005216,0.003184,68.445679,33.224762,-146.508423,,,
729861531.153336,1.066072,3.26261,127.998198,-0.048172,0.010468,1.026352,-0.016893,0.005216,0.003184,68.445679,33.224762,-146.508423,,,
729861531.156598,1.06784,3.270157,128.00225,-0.052063,0.007553,1.030228,0.005646,0.021741,0.011116,68.445679,33.224762,-146.508423,,,
729861531.159979,1.06784,3.270157,128.00225,-0.052063,0.007553,1.030228,0.005646,0.021741,0.011116,68.445679,33.224762,-146.508423,,,
729861531.163272,1.073228,3.278437,128.0078,-0.052063,0.007553,1.030228,0.005646,0.021741,0.011116,68.483109,33.188416,-146.820206,,,
729861531.166601,1.081036,3.288729,128.014064,-0.056107,0.005234,1.02919,0.02282,0.038997,0.023626,68.483109,33.188416,-146.820206,,,
729861531.169948,1.081036,3.288729,128.014064,-0.056107,0.005234,1.02919,0.02282,0.038997,0.023626,68.483109,33.188416,-146.820206,,,
729861531.173277,1.089292,3.29904,128.020751,-0.056107,0.005234,1.02919,0.02282,0.038997,0.023626,68.483109,33.188416,-146.820206,,,
729861531.176604,1.097661,3.308137,128.026862,-0.054031,0.011124,1.016891,0.024832,0.037451,0.0214,68.483109,33.188416,-146.820206,,,
729861531.179934,1.097661,3.308137,128.026862,-0.054031,0.011124,1.016891,0.024832,0.037451,0.0214,68.483109,33.188416,-146.820206,,,
729861531.183269,1.102113,3.313771,128.031301,-0.054031,0.011124,1.016891,0.024832,0.037451,0.0214,68.483109,33.188416,-146.820206,,,
729861531.186605,1.105048,3.316506,128.033374,-0.050308,0.018951,0.998123,0.005718,0.015674,0.010375,68.483109,33.188416,-146.820206,,,
729861531.190002,1.105048,3.316506,128.033374,-0.050308,0.018951,0.998123,0.005718,0.015674,0.010375,68.483109,33.188416,-146.820206,,,
729861531.193259,1.103069,3.31639,128.033382,-0.050308,0.018951,0.998123,0.005718,0.015674,0.010375,68.483109,33.188416,-146.820206,,,
729861531.196628,1.100665,3.311896,128.031358,-0.044113,0.026642,0.982147,-0.014848,-0.00186,-0.007092,68.483109,33.188416,-146.820206,,,
729861531.199956,1.100665,3.311896,128.031358,-0.044113,0.026642,0.982147,-0.014848,-0.00186,-0.007092,68.483109,33.188416,-146.820206,,,
729861531.203361,1.093799,3.308452,128.026687,-0.044113,0.026642,0.982147,-0.014848,-0.00186,-0.007092,68.641769,33.075333,-146.792725,,,
729861531.206674,1.087241,3.300403,128.020537,-0.044342,0.029419,0.988708,-0.023575,-0.010543,-0.021344,68.641769,33.075333,-146.792725,,,
729861531.209943,1.087241,3.300403,128.020537,-0.044342,0.029419,0.988708,-0.023575,-0.010543,-0.021344,68.641769,33.075333,-146.792725,,,
729861531.21328,1.080403,3.295883,128.013501,-0.044342,0.029419,0.988708,-0.023575,-0.010543,-0.021344,68.641769,33.075333,-146.792725,,,
729861531.216611,1.074117,3.288119,128.005403,-0.044998,0.023193,1.000458,-0.016866,-0.011849,-0.030118,68.641769,33.075333,-146.792725,,,
729861531.219963,1.074117,3.288119,128.005403,-0.044998,0.023193,1.000458,-0.016866,-0.011849,-0.030118,68.641769,33.075333,-146.792725,,,
729861531.223284,1.070763,3.285311,127.996203,-0.044998,0.023193,1.000458,-0.016866,-0.011849,-0.030118,68.641769,33.075333,-146.792725,,,
729861531.226614,1.06757,3.280412,127.985791,-0.045319,0.019333,1.008545,-0.000479,-0.003992,-0.036776,68.641769,33.075333,-146.792725,,,
729861531.229938,1.06757,3.280412,127.985791,-0.045319,0.019333,1.008545,-0.000479,-0.003992,-0.036776,68.641769,33.075333,-146.792725,,,
729861531.233295,1.069592,3.279657,127.97448,-0.045319,0.019333,1.008545,-0.000479,-0.003992,-0.036776,68.641769,33.075333,-146.792725,,,
729861531.236608,1.070244,3.278771,127.963085,-0.048355,0.01973,1.007599,0.013396,0.003252,-0.041045,68.641769,33.075333,-146.792725,,,
729861531.239948,1.070244,3.278771,127.963085,-0.048355,0.01973,1.007599,0.013396,0.003252,-0.041045,68.641769,33.075333,-146.792725,,,
729861531.243275,1.075902,3.281545,127.951936,-0.048355,0.01973,1.007599,0.013396,0.003252,-0.041045,68.829193,33.133636,-146.533325,,,
729861531.246595,1.075902,3.281545,127.951936,-0.054855,0.017548,1.001846,0.027245,0.019898,-0.037576,68.829193,33.133636,-146.533325,,,
729861531.24995,1.079648,3.28588,127.941499,-0.054855,0.017548,1.001846,0.027245,0.019898,-0.037576,68.829193,33.133636,-146.533325,,,
729861531.253368,1.087288,3.29393,127.932627,-0.054855,0.017548,1.001846,0.027245,0.019898,-0.037576,68.829193,33.133636,-146.533325,,,
729861531.256595,1.087288,3.302535,127.926207,-0.065613,0.014511,0.995071,0.030611,0.036922,-0.026365,68.829193,33.133636,-146.533325,,,
729861531.259956,1.093902,3.302535,127.926207,-0.065613,0.014511,0.995071,0.030611,0.036922,-0.026365,68.829193,33.133636,-146.533325,,,
729861531.26327,1.100348,3.314984,127.922691,-0.065613,0.014511,0.995071,0.030611,0.036922,-0.026365,68.829193,33.133636,-146.533325,,,
729861531.266594,1.100348,3.314984,127.922691,-0.072311,0.014038,0.985107,0.0169,0.048054,-0.007839,68.829193,33.133636,-146.533325,,,
729861531.269972,1.105163,3.324577,127.921476,-0.072311,0.014038,0.985107,0.0169,0.048054,-0.007839,68.829193,33.133636,-146.533325,,,
729861531.273269,1.106626,3.336386,127.921783,-0.072311,0.014038,0.985107,0.0169,0.048054,-0.007839,68.829193,33.133636,-146.533325,,,
729861531.276687,1.107552,3.342599,127.923518,-0.073593,0.017731,0.973434,-0.003486,0.041806,0.004468,68.829193,33.133636,-146.533325,,,
729861531.280019,1.107552,3.342599,127.923518,-0.073593,0.017731,0.973434,-0.003486,0.041806,0.004468,68.829193,33.133636,-146.533325,,,
729861531.28327,1.102684,3.351077,127.925758,-0.073593,0.017731,0.973434,-0.003486,0.041806,0.004468,68.422318,33.204025,-146.967987,,,
729861531.286599,1.102684,3.351077,127.925758,-0.074585,0.022659,0.968796,-0.02276,0.024085,0.00403,68.422318,33.204025,-146.967987,,,
729861531.290011,1.097467,3.352037,127.928316,-0.074585,0.022659,0.968796,-0.02276,0.024085,0.00403,68.422318,33.204025,-146.967987,,,
729861531.293346,1.088549,3.352417,127.930275,-0.074585,0.022659,0.968796,-0.02276,0.024085,0.00403,68.422318,33.204025,-146.967987,,,
729861531.296635,1.088549,3.352417,127.930275,-0.074585,0.022659,0.968796,-0.032266,-0.009541,0.002881,68.422318,33.204025,-146.967987,,,
729861531.299965,1.079981,3.343356,127.930941,-0.070999,0.022675,0.971741,-0.032266,-0.009541,0.002881,68.422318,33.204025,-146.967987,,,
729861531.303282,1.072279,3.334672,127.930181,-0.070999,0.022675,0.971741,-0.032266,-0.009541,0.002881,68.422318,33.204025,-146.967987,,,
729861531.306679,1.072279,3.334672,127.930181,-0.063187,0.022217,0.988297,-0.021293,-0.035272,-0.008036,68.422318,33.204025,-146.967987,,,
729861531.309938,1.066948,3.319529,127.927625,-0.063187,0.022217,0.988297,-0.021293,-0.035272,-0.008036,68.422318,33.204025,-146.967987,,,
729861531.313273,1.065084,3.307913,127.92325,-0.063187,0.022217,0.988297,-0.021293,-0.035272,-0.008036,68.422318,33.204025,-146.967987,,,
729861531.316603,1.065084,3.307913,127.92325,-0.063187,0.022217,0.988297,-0.021293,-0.035272,-0.008036,68.422318,33.204025,-146.967987,,,
729861531.320045,1.067953,3.294538,127.918453,-0.05957,0.020752,1.010544,0.008661,-0.038367,-0.018341,68.422318,33.204025,-146.967987,,,
729861531.323289,1.07451,3.285222,127.91349,-0.05957,0.020752,1.010544,0.008661,-0.038367,-0.018341,68.422318,33.204025,-146.967987,,,
729861531.326723,1.07451,3.285222,127.91349,-0.060791,0.014465,1.024429,0.028583,-0.024795,-0.014534,68.550995,32.954681,-146.710327,,,
729861531.329951,1.083042,3.278864,127.909288,-0.060791,0.014465,1.024429,0.028583,-0.024795,-0.014534,68.550995,32.954681,-146.710327,,,
729861531.333269,1.09357,3.275125,127.907426,-0.060791,0.014465,1.024429,0.028583,-0.024795,-0.014534,68.550995,32.954681,-146.710327,,,
729861531.336639,1.09357,3.275125,127.907426,-0.068115,0.009232,1.021362,0.038576,-0.00038,0.004275,68.550995,32.954681,-146.710327,,,
729861531.339951,1.104596,3.278863,127.909044,-0.068115,0.009232,1.021362,0.038576,-0.00038,0.004275,68.550995,32.954681,-146.710327,,,
729861531.343285,1.119388,3.283165,127.914713,-0.068115,0.009232,1.021362,0.038576,-0.00038,0.004275,68.550995,32.954681,-146.710327,,,
729861531.346633,1.119388,3.283165,127.914713,-0.072861,0.001877,1.024109,0.057373,0.029939,0.031808,68.550995,32.954681,-146.710327,,,
729861531.349972,1.13702,3.297532,127.924208,-0.072861,0.001877,1.024109,0.057373,0.029939,0.031808,68.550995,32.954681,-146.710327,,,
729861531.353297,1.162053,3.309414,127.9363,-0.072861,0.001877,1.024109,0.057373,0.029939,0.031808,68.550995,32.954681,-146.710327,,,
729861531.356605,1.162053,3.309414,127.9363,-0.072861,0.001877,1.024109,0.057373,0.029939,0.031808,68.550995,32.954681,-146.710327,,,
729861531.359941,1.193563,3.3282,127.949003,-0.072784,-0.000992,1.040298,0.098652,0.053114,0.049137,68.550995,32.954681,-146.710327,,,
729861531.363269,1.231012,3.340135,127.96171,-0.072784,-0.000992,1.040298,0.098652,0.053114,0.049137,68.550995,32.954681,-146.710327,,,
729861531.366638,1.231012,3.340135,127.96171,-0.072784,-0.000992,1.040298,0.145717,0.038181,0.048776,68.462601,33.165329,-147.156876,,,
729861531.370029,1.275846,3.352751,127.973281,-0.067276,0.003586,1.050247,0.145717,0.038181,0.048776,68.462601,33.165329,-147.156876,,,
729861531.373291,1.326934,3.355689,127.982428,-0.067276,0.003586,1.050247,0.145717,0.038181,0.048776,68.462601,33.165329,-147.156876,,,
729861531.376664,1.326934,3.355689,127.982428,-0.067276,0.003586,1.050247,0.145717,0.038181,0.048776,68.462601,33.165329,-147.156876,,,
729861531.379954,1.382347,3.354784,127.987928,-0.059799,0.011002,1.045151,0.187879,-0.002009,0.030869,68.462601,33.165329,-147.156876,,,
729861531.383277,1.43985,3.346115,127.989793,-0.059799,0.011002,1.045151,0.187879,-0.002009,0.030869,68.462601,33.165329,-147.156876,,,
729861531.386638,1.43985,3.346115,127.989793,-0.059799,0.011002,1.045151,0.187879,-0.002009,0.030869,68.462601,33.165329,-147.156876,,,
729861531.389946,1.496787,3.33304,127.988332,-0.053268,0.02301,1.031403,0.202355,-0.041597,0.007121,68.462601,33.165329,-147.156876,,,
729861531.39327,1.55214,3.31601,127.984363,-0.053268,0.02301,1.031403,0.202355,-0.041597,0.007121,68.462601,33.165329,-147.156876,,,
729861531.396655,1.55214,3.31601,127.984363,-0.053268,0.02301,1.031403,0.202355,-0.041597,0.007121,68.462601,33.165329,-147.156876,,,
729861531.399954,1.602399,3.298626,127.979647,-0.050949,0.03421,1.013412,0.183537,-0.060701,-0.006017,68.462601,33.165329,-147.156876,,,
729861531.403266,1.649779,3.283665,127.976117,-0.050949,0.03421,1.013412,0.183537,-0.060701,-0.006017,68.462601,33.165329,-147.156876,,,
729861531.406605,1.649779,3.283665,127.976117,-0.050949,0.03421,1.013412,0.183537,-0.060701,-0.006017,68.441147,32.789185,-147.180588,,,
729861531.409946,1.689663,3.275523,127.974184,-0.050812,0.040436,0.995941,0.147668,-0.034804,-0.002014,68.441147,32.789185,-147.180588,,,
729861531.413267,1.730172,3.275052,127.974703,-0.050812,0.040436,0.995941,0.147668,-0.034804,-0.002014,68.441147,32.789185,-147.180588,,,
729861531.416651,1.730172,3.275052,127.974703,-0.050812,0.040436,0.995941,0.147668,-0.034804,-0.002014,68.441147,32.789185,-147.180588,,,
729861531.420011,1.76802,3.28721,127.977711,-0.052719,0.037674,1.005402,0.140603,0.025928,0.01846,68.441147,32.789185,-147.180588,,,
729861531.42326,1.814158,3.308171,127.982418,-0.052719,0.037674,1.005402,0.140603,0.025928,0.01846,68.441147,32.789185,-147.180588,,,
729861531.426607,1.814158,3.308171,127.982418,-0.052719,0.037674,1.005402,0.140603,0.025928,0.01846,68.441147,32.789185,-147.180588,,,
729861531.429937,1.864543,3.342117,127.987692,-0.048874,0.02626,1.040405,0.181119,0.105535,0.0265,68.441147,32.789185,-147.180588,,,
729861531.433267,1.931393,3.381911,127.992673,-0.048874,0.02626,1.040405,0.181119,0.105535,0.0265,68.441147,32.789185,-147.180588,,,
729861531.436609,1.931393,3.381911,127.992673,-0.048874,0.02626,1.040405,0.181119,0.105535,0.0265,68.441147,32.789185,-147.180588,,,
729861531.439936,2.008993,3.428463,127.996667,-0.044067,0.020844,1.075592,0.26885,0.15744,0.027538,68.441147,32.789185,-147.180588,,,
729861531.443269,2.103802,3.476703,127.999461,-0.044067,0.020844,1.075592,0.26885,0.15744,0.027538,68.441147,32.789185,-147.180588,,,
729861531.446607,2.103802,3.476703,127.999461,-0.044067,0.020844,1.075592,0.26885,0.15744,0.027538,68.696198,32.315872,-147.222641,,,
729861531.449957,2.209432,3.52466,128.000762,-0.053253,0.011887,1.088455,0.36483,0.173386,0.027701,68.696198,32.315872,-147.222641,,,
729861531.453269,2.327556,3.569675,128.000016,-0.053253,0.011887,1.088455,0.36483,0.173386,0.027701,68.696198,32.315872,-147.222641,,,
729861531.456659,2.327556,3.569675,128.000016,-0.053253,0.011887,1.088455,0.36483,0.173386,0.027701,68.696198,32.315872,-147.222641,,,
729861531.459939,2.453093,3.608426,127.996763,-0.063797,0.009171,1.085129,0.438909,0.145973,0.01872,68.696198,32.315872,-147.222641,,,
729861531.46327,2.58592,3.63904,127.990508,-0.063797,0.009171,1.085129,0.438909,0.145973,0.01872,68.696198,32.315872,-147.222641,,,
729861531.466664,2.58592,3.63904,127.990508,-0.063797,0.009171,1.085129,0.438909,0.145973,0.01872,68.696198,32.315872,-147.222641,,,
729861531.470003,2.721381,3.660011,127.981969,-0.071106,0.02327,1.055466,0.472597,0.087346,0.001595,68.696198,32.315872,-147.222641,,,
729861531.473262,2.859313,3.673932,127.97281,-0.071106,0.02327,1.055466,0.472597,0.087346,0.001595,68.696198,32.315872,-147.222641,,,
729861531.476619,2.859313,3.673932,127.97281,-0.071106,0.02327,1.055466,0.472597,0.087346,0.001595,68.696198,32.315872,-147.222641,,,
729861531.479943,2.997463,3.680439,127.963634,-0.075867,0.04039,1.020386,0.483383,0.030133,-0.003559,68.696198,32.315872,-147.222641,,,
729861531.483269,3.135655,3.681941,127.955989,-0.075867,0.04039,1.020386,0.483383,0.030133,-0.003559,68.696198,32.315872,-147.222641,,,
729861531.486634,3.135655,3.681941,127.955989,-0.075867,0.04039,1.020386,0.483383,0.030133,-0.003559,68.696198,32.315872,-147.222641,,,
729861531.489951,3.271569,3.676129,127.951583,-0.081589,0.048813,1.006332,0.480006,-0.008142,0.009081,68.824203,31.293365,-147.325195,,,
729861531.493268,3.405367,3.66446,127.949618,-0.081589,0.048813,1.006332,0.480006,-0.008142,0.009081,68.824203,31.293365,-147.325195,,,
729861531.496695,3.405367,3.66446,127.949618,-0.081589,0.048813,1.006332,0.480006,-0.008142,0.009081,68.824203,31.293365,-147.325195,,,
729861531.499927,3.538387,3.648247,127.948848,-0.084412,0.052963,0.989655,0.459145,-0.051128,0.026854,68.824203,31.293365,-147.325195,,,
729861531.503271,3.673654,3.629008,127.947604,-0.084412,0.052963,0.989655,0.459145,-0.051128,0.026854,68.824203,31.293365,-147.325195,,,
729861531.506617,3.673654,3.629008,127.947604,-0.084412,0.052963,0.989655,0.459145,-0.051128,0.026854,68.824203,31.293365,-147.325195,,,
729861531.509941,3.807467,3.606898,127.945384,-0.070328,0.06572,0.987961,0.473822,-0.070941,0.024545,68.824203,31.293365,-147.325195,,,
729861531.513287,3.932578,3.581713,127.941041,-0.070328,0.06572,0.987961,0.473822,-0.070941,0.024545,68.824203,31.293365,-147.325195,,,
729861531.516626,3.932578,3.581713,127.941041,-0.070328,0.06572,0.987961,0.473822,-0.070941,0.024545,68.824203,31.293365,-147.325195,,,
729861531.520006,4.046095,3.553416,127.932966,-0.053986,0.069702,0.988739,0.407711,-0.091935,-0.001158,68.824203,31.293365,-147.325195,,,
729861531.523266,4.148406,3.522508,127.920192,-0.053986,0.069702,0.988739,0.407711,-0.091935,-0.001158,68.824203,31.293365,-147.325195,,,
729861531.526604,4.148406,3.522508,127.920192,-0.053986,0.069702,0.988739,0.407711,-0.091935,-0.001158,68.824203,31.293365,-147.325195,,,
729861531.530014,4.241463,3.490116,127.901322,-0.036758,0.086502,0.953781,0.333561,-0.116029,-0.038706,68.791351,30.520859,-147.627701,,,
729861531.533264,4.327328,3.45715,127.877073,-0.036758,0.086502,0.953781,0.333561,-0.116029,-0.038706,68.791351,30.520859,-147.627701,,,
729861531.536613,4.327328,3.45715,127.877073,-0.036758,0.086502,0.953781,0.333561,-0.116029,-0.038706,68.791351,30.520859,-147.627701,,,
729861531.539944,4.40745,3.424183,127.848778,-0.026398,0.094971,0.954163,0.288176,-0.119054,-0.077638,68.791351,30.520859,-147.627701,,,
729861531.543277,4.484289,3.392442,127.818257,-0.026398,0.094971,0.954163,0.288176,-0.119054,-0.077638,68.791351,30.520859,-147.627701,,,
729861531.546603,4.484289,3.392442,127.818257,-0.026398,0.094971,0.954163,0.288176,-0.119054,-0.077638,68.791351,30.520859,-147.627701,,,
729861531.549941,4.559444,3.363468,127.787917,-0.029541,0.095795,0.95932,0.271278,-0.11152,-0.090769,68.791351,30.520859,-147.627701,,,
729861531.553268,4.631635,3.337881,127.758849,-0.029541,0.095795,0.95932,0.271278,-0.11152,-0.090769,68.791351,30.520859,-147.627701,,,
729861531.556604,4.631635,3.337881,127.758849,-0.029541,0.095795,0.95932,0.271278,-0.11152,-0.090769,68.791351,30.520859,-147.627701,,,
729861531.55994,4.700392,3.316014,127.731597,-0.034576,0.083374,0.969772,0.248226,-0.08637,-0.082127,68.791351,30.520859,-147.627701,,,
729861531.563269,4.766837,3.29999,127.705755,-0.034576,0.083374,0.969772,0.248226,-0.08637,-0.082127,68.791351,30.520859,-147.627701,,,
729861531.56661,4.766837,3.29999,127.705755,-0.034576,0.083374,0.969772,0.248226,-0.08637,-0.082127,68.791351,30.520859,-147.627701,,,
729861531.569938,4.834237,3.291673,127.681694,-0.037766,0.081665,0.970734,0.233092,-0.041254,-0.072795,68.46492,29.760803,-147.416412,,,
729861531.57327,4.907218,3.291917,127.659591,-0.037766,0.081665,0.970734,0.233092,-0.041254,-0.072795,68.46492,29.760803,-147.416412,,,
729861531.576604,4.907218,3.291917,127.659591,-0.037766,0.081665,0.970734,0.233092,-0.041254,-0.072795,68.46492,29.760803,-147.416412,,,
729861531.579937,4.990599,3.300377,127.639074,-0.039917,0.071945,0.998016,0.283676,0.020504,-0.05936,68.46492,29.760803,-147.416412,,,
729861531.583276,5.086284,3.315954,127.620141,-0.039917,0.071945,0.998016,0.283676,0.020504,-0.05936,68.46492,29.760803,-147.416412,,,
729861531.586641,5.086284,3.315954,127.620141,-0.039917,0.071945,0.998016,0.283676,0.020504,-0.05936,68.46492,29.760803,-147.416412,,,
729861531.589935,5.193368,3.337346,127.601932,-0.041489,0.057526,1.045486,0.364341,0.066924,-0.04224,68.46492,29.760803,-147.416412,,,
729861531.593275,5.309616,3.362511,127.583826,-0.041489,0.057526,1.045486,0.364341,0.066924,-0.04224,68.46492,29.760803,-147.416412,,,
729861531.596611,5.309616,3.362511,127.583826,-0.041489,0.057526,1.045486,0.364341,0.066924,-0.04224,68.46492,29.760803,-147.416412,,,
729861531.599968,5.432012,3.387871,127.565124,-0.046478,0.057678,1.053436,0.427098,0.088225,-0.03903,68.46492,29.760803,-147.416412,,,
729861531.603271,5.556121,3.41011,127.544927,-0.046478,0.057678,1.053436,0.427098,0.088225,-0.03903,68.46492,29.760803,-147.416412,,,
729861531.606611,5.556121,3.41011,127.544927,-0.046478,0.057678,1.053436,0.427098,0.088225,-0.03903,68.46492,29.760803,-147.416412,,,
729861531.60994,5.678767,3.427567,127.52284,-0.049194,0.071503,1.018524,0.432948,0.061702,-0.049617,68.46492,29.760803,-147.416412,,,
729861531.613269,5.797952,3.438884,127.499056,-0.049194,0.071503,1.018524,0.432948,0.061702,-0.049617,68.623657,29.170776,-147.663849,,,
729861531.616614,5.797952,3.438884,127.499056,-0.049194,0.071503,1.018524,0.432948,0.061702,-0.049617,68.623657,29.170776,-147.663849,,,
729861531.619947,5.913622,3.443475,127.473424,-0.05423,0.09108,0.97934,0.409274,0.01377,-0.063047,68.623657,29.170776,-147.663849,,,
729861531.623267,6.026504,3.441825,127.445412,-0.05423,0.09108,0.97934,0.409274,0.01377,-0.063047,68.623657,29.170776,-147.663849,,,
729861531.626604,6.026504,3.441825,127.445412,-0.05423,0.09108,0.97934,0.409274,0.01377,-0.063047,68.623657,29.170776,-147.663849,,,
729861531.629952,6.137915,3.434191,127.415714,-0.055359,0.101776,0.965363,0.392067,-0.030954,-0.078502,68.623657,29.170776,-147.663849,,,
729861531.633269,6.250077,3.421675,127.384263,-0.055359,0.101776,0.965363,0.392067,-0.030954,-0.078502,68.623657,29.170776,-147.663849,,,
729861531.636679,6.250077,3.421675,127.384263,-0.055359,0.101776,0.965363,0.392067,-0.030954,-0.078502,68.623657,29.170776,-147.663849,,,
729861531.639932,6.366236,3.405404,127.350284,-0.052139,0.105057,0.977097,0.404189,-0.063933,-0.091077,68.623657,29.170776,-147.663849,,,
729861531.643289,6.488559,3.388748,127.314055,-0.052139,0.105057,0.977097,0.404189,-0.063933,-0.091077,68.623657,29.170776,-147.663849,,,
729861531.646625,6.488559,3.388748,127.314055,-0.052139,0.105057,0.977097,0.404189,-0.063933,-0.091077,68.623657,29.170776,-147.663849,,,
729861531.650001,6.618182,3.375161,127.2756,-0.049133,0.100861,1.006927,0.449857,-0.062364,-0.106125,68.623657,29.170776,-147.663849,,,
729861531.653262,6.756518,3.366349,127.234732,-0.049133,0.100861,1.006927,0.449857,-0.062364,-0.106125,68.333023,28.46434,-147.947906,,,
729861531.656612,6.756518,3.366349,127.234732,-0.049133,0.100861,1.006927,0.449857,-0.062364,-0.106125,68.333023,28.46434,-147.947906,,,
729861531.659939,6.904557,3.362177,127.192334,-0.049942,0.094223,1.042191,0.515511,-0.034316,-0.119148,68.333023,28.46434,-147.947906,,,
729861531.663271,7.06185,3.36024,127.148915,-0.049942,0.094223,1.042191,0.515511,-0.034316,-0.119148,68.333023,28.46434,-147.947906,,,
729861531.666623,7.06185,3.36024,127.148915,-0.049942,0.094223,1.042191,0.515511,-0.034316,-0.119148,68.333023,28.46434,-147.947906,,,
729861531.669944,7.228029,3.359356,127.105375,-0.055466,0.087006,1.06282,0.577098,-0.021136,-0.117026,68.333023,28.46434,-147.947906,,,
729861531.67327,7.402844,3.361005,127.062698,-0.055466,0.087006,1.06282,0.577098,-0.021136,-0.117026,68.333023,28.46434,-147.947906,,,
729861531.676603,7.402844,3.361005,127.062698,-0.055466,0.087006,1.06282,0.577098,-0.021136,-0.117026,68.333023,28.46434,-147.947906,,,
729861531.67994,7.586263,3.365259,127.021049,-0.07135,0.089066,1.061676,0.637302,-0.004115,-0.108025,68.333023,28.46434,-147.947906,,,
729861531.683269,7.776233,3.36908,126.981142,-0.07135,0.089066,1.061676,0.637302,-0.004115,-0.108025,68.333023,28.46434,-147.947906,,,
729861531.68671,7.776233,3.36908,126.981142,-0.07135,0.089066,1.061676,0.637302,-0.004115,-0.108025,68.333023,28.46434,-147.947906,,,
729861531.689963,7.971202,3.368306,126.943343,-0.078049,0.091904,1.060974,0.681438,-0.012319,-0.091089,68.333023,28.46434,-147.947906,,,
729861531.693283,8.169528,3.35872,126.907472,-0.078049,0.091904,1.060974,0.681438,-0.012319,-0.091089,68.04126,26.996597,-148.470383,,,
729861531.696625,8.169528,3.35872,126.907472,-0.078049,0.091904,1.060974,0.681438,-0.012319,-0.091089,68.04126,26.996597,-148.470383,,,
729861531.700042,8.370987,3.335773,126.873545,-0.08577,0.108414,1.030701,0.704147,-0.079048,-0.079017,68.04126,26.996597,-148.470383,,,
729861531.703275,8.577192,3.299207,126.840367,-0.08577,0.108414,1.030701,0.704147,-0.079048,-0.079017,68.04126,26.996597,-148.470383,,,
729861531.706606,8.577192,3.299207,126.840367,-0.08577,0.108414,1.030701,0.704147,-0.079048,-0.079017,68.04126,26.996597,-148.470383,,,
729861531.70997,8.790521,3.253103,126.806793,-0.098175,0.120041,1.013077,0.74018,-0.172642,-0.074562,68.04126,26.996597,-148.470383,,,
729861531.713273,9.012873,3.201751,126.773087,-0.098175,0.120041,1.013077,0.74018,-0.172642,-0.074562,68.04126,26.996597,-148.470383,,,
729861531.716624,9.012873,3.201751,126.773087,-0.098175,0.120041,1.013077,0.74018,-0.172642,-0.074562,68.04126,26.996597,-148.470383,,,
729861531.719962,9.244886,3.147411,126.738703,-0.088333,0.128723,1.027939,0.805514,-0.205429,-0.075073,68.04126,26.996597,-148.470383,,,
729861531.723273,9.485232,3.091615,126.703457,-0.088333,0.128723,1.027939,0.805514,-0.205429,-0.075073,68.04126,26.996597,-148.470383,,,
729861531.726609,9.485232,3.091615,126.703457,-0.088333,0.128723,1.027939,0.805514,-0.205429,-0.075073,68.04126,26.996597,-148.470383,,,
729861531.729945,9.732715,3.035479,126.66859,-0.069153,0.134033,1.048935,0.862801,-0.214278,-0.075939,68.04126,26.996597,-148.470383,,,
729861531.733273,9.986402,2.981522,126.634158,-0.069153,0.134033,1.048935,0.862801,-0.214278,-0.075939,68.119354,25.503937,-148.301895,,,
729861531.736695,9.986402,2.981522,126.634158,-0.069153,0.134033,1.048935,0.862801,-0.214278,-0.075939,68.119354,25.503937,-148.301895,,,
729861531.739953,10.246267,2.932801,126.600262,-0.069077,0.143753,1.038361,0.89856,-0.192429,-0.071468,68.119354,25.503937,-148.301895,,,
729861531.743281,10.516815,2.892095,126.567519,-0.069077,0.143753,1.038361,0.89856,-0.192429,-0.071468,68.119354,25.503937,-148.301895,,,
729861531.746626,10.516815,2.892095,126.567519,-0.069077,0.143753,1.038361,0.89856,-0.192429,-0.071468,68.119354,25.503937,-148.301895,,,
729861531.750011,10.802463,2.860817,126.535796,-0.060257,0.155548,1.04303,0.986685,-0.133422,-0.062446,68.119354,25.503937,-148.301895,,,
729861531.753269,11.102193,2.837454,126.504367,-0.060257,0.155548,1.04303,0.986685,-0.133422,-0.062446,68.119354,25.503937,-148.301895,,,
729861531.756616,11.102193,2.837454,126.504367,-0.060257,0.155548,1.04303,0.986685,-0.133422,-0.062446,68.119354,25.503937,-148.301895,,,
729861531.759975,11.413678,2.818579,126.472092,-0.049438,0.154266,1.070694,1.084547,-0.087279,-0.056879,68.119354,25.503937,-148.301895,,,
729861531.763268,11.732888,2.802285,126.437498,-0.049438,0.154266,1.070694,1.084547,-0.087279,-0.056879,68.119354,25.503937,-148.301895,,,
729861531.766606,11.732888,2.802285,126.437498,-0.049438,0.154266,1.070694,1.084547,-0.087279,-0.056879,68.119354,25.503937,-148.301895,,,
729861531.769937,12.057388,2.787839,126.399623,-0.038467,0.168701,1.058502,1.132604,-0.075961,-0.068743,68.119354,25.503937,-148.301895,,,
729861531.773323,12.387583,2.775004,126.357959,-0.038467,0.168701,1.058502,1.132604,-0.075961,-0.068743,68.119354,25.503937,-148.301895,,,
729861531.776654,12.387583,2.775004,126.357959,-0.038467,0.168701,1.058502,1.132604,-0.075961,-0.068743,67.79541,23.236267,-148.545593,,,
729861531.779979,12.722265,2.762852,126.312366,-0.036957,0.183655,1.035172,1.169292,-0.07222,-0.097134,67.79541,23.236267,-148.545593,,,
729861531.783276,13.058694,2.751758,126.262389,-0.036957,0.183655,1.035172,1.169292,-0.07222,-0.097134,67.79541,23.236267,-148.545593,,,
729861531.786723,13.058694,2.751758,126.262389,-0.036957,0.183655,1.035172,1.169292,-0.07222,-0.097134,67.79541,23.236267,-148.545593,,,
729861531.789961,13.396083,2.741778,126.208499,-0.028412,0.199463,1.024399,1.182008,-0.07393,-0.123462,67.79541,23.236267,-148.545593,,,
729861531.793345,13.732723,2.731668,126.151878,-0.028412,0.199463,1.024399,1.182008,-0.07393,-0.123462,67.79541,23.236267,-148.545593,,,
729861531.796626,13.732723,2.731668,126.151878,-0.028412,0.199463,1.024399,1.182008,-0.07393,-0.123462,67.79541,23.236267,-148.545593,,,
729861531.800021,14.067866,2.721095,126.093683,-0.027817,0.215408,1.00769,1.175801,-0.083478,-0.142429,67.79541,23.236267,-148.545593,,,
729861531.803267,14.400339,2.711084,126.03726,-0.027817,0.215408,1.00769,1.175801,-0.083478,-0.142429,67.79541,23.236267,-148.545593,,,
729861531.806621,14.400339,2.711084,126.03726,-0.027817,0.215408,1.00769,1.175801,-0.083478,-0.142429,67.79541,23.236267,-148.545593,,,
729861531.809942,14.730442,2.698855,125.984922,-0.031326,0.216125,0.993225,1.155853,-0.079145,-0.124868,67.79541,23.236267,-148.545593,,,
729861531.813274,15.06118,2.683648,125.935961,-0.031326,0.216125,0.993225,1.155853,-0.079145,-0.124868,67.79541,23.236267,-148.545593,,,
729861531.816699,15.06118,2.683648,125.935961,-0.031326,0.216125,0.993225,1.155853,-0.079145,-0.124868,67.771851,20.704269,-148.530014,,,
729861531.82003,15.395143,2.669919,125.889526,-0.049683,0.156036,0.973938,1.169028,-0.093324,-0.106019,67.771851,20.704269,-148.530014,,,
729861531.823276,15.731934,2.660944,125.843049,-0.049683,0.156036,0.973938,1.169028,-0.093324,-0.106019,67.771851,20.704269,-148.530014,,,
729861531.826614,15.731934,2.660944,125.843049,-0.049683,0.156036,0.973938,1.169028,-0.093324,-0.106019,67.771851,20.704269,-148.530014,,,
729861531.829944,16.071859,2.66033,125.794759,-0.033127,0.273392,1.001373,1.188446,-0.055636,-0.108527,67.771851,20.704269,-148.530014,,,
729861531.83328,16.414253,2.670288,125.744526,-0.033127,0.273392,1.001373,1.188446,-0.055636,-0.108527,67.771851,20.704269,-148.530014,,,
729861531.836616,16.414253,2.670288,125.744526,-0.033127,0.273392,1.001373,1.188446,-0.055636,-0.108527,67.771851,20.704269,-148.530014,,,
729861531.840042,16.75557,2.684391,125.692845,-0.033005,0.31015,1.007858,1.197289,0.003558,-0.119681,67.771851,20.704269,-148.530014,,,
729861531.843267,17.092261,2.695001,125.641741,-0.033005,0.31015,1.007858,1.197289,0.003558,-0.119681,67.771851,20.704269,-148.530014,,,
729861531.846451,17.092261,2.695001,125.641741,-0.033005,0.31015,1.007858,1.197289,0.003558,-0.119681,67.771851,20.704269,-148.530014,,,
729861531.849967,17.422529,2.697326,125.591969,-0.033264,0.261276,0.958984,1.163552,-0.030324,-0.112262,67.771851,20.704269,-148.530014,,,
729861531.853271,17.747678,2.692252,125.54205,-0.033264,0.261276,0.958984,1.163552,-0.030324,-0.112262,67.771851,20.704269,-148.530014,,,
729861531.856603,17.747678,2.692252,125.54205,-0.033264,0.261276,0.958984,1.163552,-0.030324,-0.112262,67.480652,18.383667,-148.500214,,,
729861531.859962,18.070979,2.683847,125.490466,-0.038345,0.278519,0.918411,1.133319,-0.078096,-0.117502,67.480652,18.383667,-148.500214,,,
729861531.863277,18.393664,2.674966,125.436835,-0.038345,0.278519,0.918411,1.133319,-0.078096,-0.117502,67.480652,18.383667,-148.500214,,,
729861531.866697,18.393664,2.674966,125.436835,-0.038345,0.278519,0.918411,1.133319,-0.078096,-0.117502,67.480652,18.383667,-148.500214,,,
729861531.870007,18.716304,2.667321,125.381414,-0.030243,0.283157,0.937714,1.130582,-0.089366,-0.131122,67.480652,18.383667,-148.500214,,,
729861531.873315,19.041858,2.665155,125.323505,-0.030243,0.283157,0.937714,1.130582,-0.089366,-0.131122,67.480652,18.383667,-148.500214,,,
729861531.876687,19.041858,2.665155,125.323505,-0.030243,0.283157,0.937714,1.130582,-0.089366,-0.131122,67.480652,18.383667,-148.500214,,,
729861531.879948,19.375578,2.671456,125.263751,-0.024551,0.30629,0.966965,1.161551,-0.051127,-0.142345,67.480652,18.383667,-148.500214,,,
729861531.883299,19.720195,2.685768,125.202315,-0.024551,0.30629,0.966965,1.161551,-0.051127,-0.142345,67.480652,18.383667,-148.500214,,,
729861531.88661,19.720195,2.685768,125.202315,-0.024551,0.30629,0.966965,1.161551,-0.051127,-0.142345,67.480652,18.383667,-148.500214,,,
729861531.89005,20.078633,2.705686,125.139158,-0.027649,0.301529,1.004318,1.244403,-0.007058,-0.149806,67.480652,18.383667,-148.500214,,,
729861531.893274,20.452102,2.7301,125.074533,-0.027649,0.301529,1.004318,1.244403,-0.007058,-0.149806,67.480652,18.383667,-148.500214,,,
729861531.896617,20.452102,2.7301,125.074533,-0.027649,0.301529,1.004318,1.244403,-0.007058,-0.149806,67.547989,15.630005,-148.367249,,,
729861531.899949,20.837894,2.757592,125.008777,-0.034393,0.286835,1.015137,1.349069,0.018293,-0.151378,67.547989,15.630005,-148.367249,,,
729861531.903281,21.229939,2.786356,124.942886,-0.034393,0.286835,1.015137,1.349069,0.018293,-0.151378,67.547989,15.630005,-148.367249,,,
729861531.906626,21.229939,2.786356,124.942886,-0.034393,0.286835,1.015137,1.349069,0.018293,-0.151378,67.547989,15.630005,-148.367249,,,
729861531.909948,21.623669,2.813972,124.877481,-0.041138,0.298065,0.98877,1.385174,0.017692,-0.144046,67.547989,15.630005,-148.367249,,,
729861531.913283,22.014581,2.839412,124.812255,-0.041138,0.298065,0.98877,1.385174,0.017692,-0.144046,67.547989,15.630005,-148.367249,,,
729861531.91669,22.014581,2.839412,124.812255,-0.041138,0.298065,0.98877,1.385174,0.017692,-0.144046,67.547989,15.630005,-148.367249,,,
729861531.919961,22.3979,2.863063,124.748127,-0.051376,0.327728,0.930511,1.358917,0.00148,-0.142164,67.547989,15.630005,-148.367249,,,
729861531.923277,22.769773,2.886675,124.685534,-0.051376,0.327728,0.930511,1.358917,0.00148,-0.142164,67.547989,15.630005,-148.367249,,,
729861531.926609,22.769773,2.886675,124.685534,-0.051376,0.327728,0.930511,1.358917,0.00148,-0.142164,67.547989,15.630005,-148.367249,,,
729861531.930014,23.126939,2.909516,124.624585,-0.058929,0.370148,0.884964,1.269421,-0.000314,-0.136045,67.547989,15.630005,-148.367249,,,
729861531.933273,23.466457,2.931317,124.565463,-0.058929,0.370148,0.884964,1.269421,-0.000314,-0.136045,67.547989,15.630005,-148.367249,,,
729861531.936616,23.466457,2.931317,124.565463,-0.058929,0.370148,0.884964,1.269421,-0.000314,-0.136045,67.547989,15.630005,-148.367249,,,
729861531.939962,23.787252,2.950771,124.5096,-0.065598,0.393265,0.855927,1.142224,-0.004887,-0.124536,67.493088,12.826675,-148.276596,,,
729861531.943273,24.090811,2.966813,124.457859,-0.065598,0.393265,0.855927,1.142224,-0.004887,-0.124536,67.493088,12.826675,-148.276596,,,
729861531.94663,24.090811,2.966813,124.457859,-0.065598,0.393265,0.855927,1.142224,-0.004887,-0.124536,67.493088,12.826675,-148.276596,,,
729861531.949952,24.381826,2.979137,124.409245,-0.072952,0.404205,0.838287,1.02835,-0.021786,-0.104695,67.493088,12.826675,-148.276596,,,
729861531.953272,24.664872,2.988306,124.362895,-0.072952,0.404205,0.838287,1.02835,-0.021786,-0.104695,67.493088,12.826675,-148.276596,,,
729861531.95666,24.664872,2.988306,124.362895,-0.072952,0.404205,0.838287,1.02835,-0.021786,-0.104695,67.493088,12.826675,-148.276596,,,
729861531.960034,24.944482,2.995993,124.317875,-0.070084,0.405945,0.851791,0.977457,-0.03712,-0.094955,67.493088,12.826675,-148.276596,,,
729861531.963263,25.223688,3.003038,124.274266,-0.070084,0.405945,0.851791,0.977457,-0.03712,-0.094955,67.493088,12.826675,-148.276596,,,
729861531.966628,25.223688,3.003038,124.274266,-0.070084,0.405945,0.851791,0.977457,-0.03712,-0.094955,67.493088,12.826675,-148.276596,,,
729861531.97002,25.503104,3.009559,124.232567,-0.065674,0.407883,0.88002,0.97809,-0.03996,-0.083858,67.493088,12.826675,-148.276596,,,
729861531.973264,25.783024,3.017133,124.192533,-0.065674,0.407883,0.88002,0.97809,-0.03996,-0.083858,67.493088,12.826675,-148.276596,,,
729861531.976616,25.783024,3.017133,124.192533,-0.065674,0.407883,0.88002,0.97809,-0.03996,-0.083858,67.493088,12.826675,-148.276596,,,
729861531.979952,26.063589,3.02649,124.155194,-0.064499,0.410217,0.894669,0.98445,-0.023239,-0.068903,67.48822,10.813034,-148.003525,,,
729861531.983272,26.34563,3.036887,124.121016,-0.064499,0.410217,0.894669,0.98445,-0.023239,-0.068903,67.48822,10.813034,-148.003525,,,
729861531.986628,26.34563,3.036887,124.121016,-0.064499,0.410217,0.894669,0.98445,-0.023239,-0.068903,67.48822,10.813034,-148.003525,,,
