Time (sec),Pitch (deg),Roll (deg),Yaw(deg),X-Acceleration (g),Y-Acceleration (g),Z-Acceleration (g),Pitch Rate (deg/sec),Roll Rate (deg/sec),Yaw Rate (deg/sec),Magnetic Field in X direction (uT),Magnetic Field in Y direction (uT),Magnetic Field in Z Direction (uT),Latitude (deg),Longitude (deg),Altitude (m)
729861126.204592,-1.089897,4.504725,56.139551,-0.078812,-0.034683,1.054794,-0.036012,0.025498,-0.057987,65.655884,23.865067,-145.11058,,,
729861126.207897,-1.088847,4.510865,56.120979,-0.078812,-0.034683,1.054794,0.020532,0.026861,-0.067549,65.655884,23.865067,-145.11058,,,
729861126.211199,-1.088847,4.510865,56.120979,-0.078812,-0.034683,1.054794,0.020532,0.026861,-0.067549,65.655884,23.865067,-145.11058,,,
729861126.21453,-1.081077,4.516803,56.101224,-0.082764,-0.035233,1.045425,0.020532,0.026861,-0.067549,65.446854,23.75087,-145.081223,,,
729861126.217858,-1.071039,4.522899,56.081568,-0.082764,-0.035233,1.045425,0.045684,0.024582,-0.06485,65.446854,23.75087,-145.081223,,,
729861126.221204,-1.071039,4.522899,56.081568,-0.082764,-0.035233,1.045425,0.045684,0.024582,-0.06485,65.446854,23.75087,-145.081223,,,
729861126.224539,-1.057056,4.528448,56.06364,-0.090698,-0.03009,1.019302,0.045684,0.024582,-0.06485,65.446854,23.75087,-145.081223,,,
729861126.227861,-1.046153,4.532045,56.04877,-0.090698,-0.03009,1.019302,0.039053,0.01317,-0.043977,65.446854,23.75087,-145.081223,,,
729861126.231258,-1.046153,4.532045,56.04877,-0.090698,-0.03009,1.019302,0.039053,0.01317,-0.043977,65.446854,23.75087,-145.081223,,,
729861126.234534,-1.037136,4.535247,56.037086,-0.098038,-0.020874,0.99025,0.039053,0.01317,-0.043977,65.446854,23.75087,-145.081223,,,
729861126.237945,-1.037113,4.535421,56.02799,-0.098038,-0.020874,0.99025,-0.007798,0.000926,-0.029412,65.446854,23.75087,-145.081223,,,
729861126.241203,-1.037113,4.535421,56.02799,-0.098038,-0.020874,0.99025,-0.007798,0.000926,-0.029412,65.446854,23.75087,-145.081223,,,
729861126.244606,-1.041866,4.535155,56.021125,-0.095001,-0.010422,0.967804,-0.007798,0.000926,-0.029412,65.446854,23.75087,-145.081223,,,
729861126.247846,-1.055355,4.530678,56.016077,-0.095001,-0.010422,0.967804,-0.059376,-0.015156,-0.020534,65.446854,23.75087,-145.081223,,,
729861126.251207,-1.055355,4.530678,56.016077,-0.095001,-0.010422,0.967804,-0.059376,-0.015156,-0.020534,65.446854,23.75087,-145.081223,,,
729861126.254563,-1.075351,4.527013,56.011988,-0.088409,-0.003418,0.958572,-0.059376,-0.015156,-0.020534,65.446854,23.75087,-145.081223,,,
729861126.257852,-1.103294,4.522646,56.007923,-0.088409,-0.003418,0.958572,-0.106911,-0.007209,-0.023963,65.364548,23.855011,-145.52623,,,
729861126.261187,-1.103294,4.522646,56.007923,-0.088409,-0.003418,0.958572,-0.106911,-0.007209,-0.023963,65.364548,23.855011,-145.52623,,,
729861126.264531,-1.136572,4.522208,56.003599,-0.083878,-0.004791,0.967804,-0.106911,-0.007209,-0.023963,65.364548,23.855011,-145.52623,,,
729861126.267859,-1.175317,4.524985,55.998804,-0.083878,-0.004791,0.967804,-0.141739,0.021802,-0.029859,65.364548,23.855011,-145.52623,,,
729861126.27127,-1.175317,4.524985,55.998804,-0.083878,-0.004791,0.967804,-0.141739,0.021802,-0.029859,65.364548,23.855011,-145.52623,,,
729861126.274543,-1.217137,4.531765,55.993853,-0.080322,-0.010742,0.985489,-0.141739,0.021802,-0.029859,65.364548,23.855011,-145.52623,,,
729861126.27786,-1.257293,4.54091,55.989105,-0.080322,-0.010742,0.985489,-0.133011,0.038879,-0.027873,65.364548,23.855011,-145.52623,,,
729861126.281206,-1.257293,4.54091,55.989105,-0.080322,-0.010742,0.985489,-0.133011,0.038879,-0.027873,65.364548,23.855011,-145.52623,,,
729861126.284589,-1.294015,4.550908,55.984311,-0.082733,-0.022552,1.008804,-0.133011,0.038879,-0.027873,65.364548,23.855011,-145.52623,,,
729861126.287865,-1.322494,4.562138,55.979455,-0.082733,-0.022552,1.008804,-0.081329,0.042734,-0.024342,65.364548,23.855011,-145.52623,,,
729861126.2912,-1.322494,4.562138,55.979455,-0.082733,-0.022552,1.008804,-0.081329,0.042734,-0.024342,65.364548,23.855011,-145.52623,,,
729861126.294548,-1.341365,4.571846,55.974451,-0.087677,-0.03688,1.037766,-0.081329,0.042734,-0.024342,65.364548,23.855011,-145.52623,,,
729861126.297859,-1.346509,4.579686,55.968898,-0.087677,-0.03688,1.037766,0.007948,0.027583,-0.021106,65.569244,23.863998,-145.393311,,,
729861126.301201,-1.346509,4.579686,55.968898,-0.087677,-0.03688,1.037766,0.007948,0.027583,-0.021106,65.569244,23.863998,-145.393311,,,
729861126.304538,-1.339817,4.586201,55.961892,-0.090363,-0.046234,1.05864,0.007948,0.027583,-0.021106,65.569244,23.863998,-145.393311,,,
729861126.307871,-1.322029,4.589423,55.953513,-0.090363,-0.046234,1.05864,0.082351,0.009832,-0.024598,65.569244,23.863998,-145.393311,,,
729861126.311254,-1.322029,4.589423,55.953513,-0.090363,-0.046234,1.05864,0.082351,0.009832,-0.024598,65.569244,23.863998,-145.393311,,,
729861126.314566,-1.296762,4.5923,55.944584,-0.089142,-0.04216,1.046036,0.082351,0.009832,-0.024598,65.569244,23.863998,-145.393311,,,
729861126.317858,-1.267977,4.591216,55.935344,-0.089142,-0.04216,1.046036,0.106726,-0.005125,-0.024572,65.569244,23.863998,-145.393311,,,
729861126.321201,-1.267977,4.591216,55.935344,-0.089142,-0.04216,1.046036,0.106726,-0.005125,-0.024572,65.569244,23.863998,-145.393311,,,
729861126.3246,-1.238086,4.589357,55.926931,-0.08847,-0.032944,1.008255,0.106726,-0.005125,-0.024572,65.569244,23.863998,-145.393311,,,
729861126.327843,-1.211765,4.5825,55.920066,-0.08847,-0.032944,1.008255,0.08571,-0.025629,-0.015137,65.569244,23.863998,-145.393311,,,
729861126.331214,-1.211765,4.5825,55.920066,-0.08847,-0.032944,1.008255,0.08571,-0.025629,-0.015137,65.569244,23.863998,-145.393311,,,
729861126.33453,-1.190209,4.574762,55.914037,-0.085114,-0.017456,0.972656,0.08571,-0.025629,-0.015137,65.569244,23.863998,-145.393311,,,
729861126.337854,-1.178135,4.564945,55.908602,-0.085114,-0.017456,0.972656,0.027694,-0.029674,-0.015346,65.580658,23.549637,-145.520432,,,
729861126.341182,-1.178135,4.564945,55.908602,-0.085114,-0.017456,0.972656,0.027694,-0.029674,-0.015346,65.580658,23.549637,-145.520432,,,
729861126.34452,-1.174042,4.557394,55.903437,-0.081573,-0.010406,0.959229,0.027694,-0.029674,-0.015346,65.580658,23.549637,-145.520432,,,
729861126.347853,-1.179504,4.551612,55.898078,-0.081573,-0.010406,0.959229,-0.030977,-0.011941,-0.021301,65.580658,23.549637,-145.520432,,,
729861126.351251,-1.179504,4.551612,55.898078,-0.081573,-0.010406,0.959229,-0.030977,-0.011941,-0.021301,65.580658,23.549637,-145.520432,,,
729861126.354529,-1.191622,4.548758,55.893874,-0.080353,-0.011917,0.961731,-0.030977,-0.011941,-0.021301,65.580658,23.549637,-145.520432,,,
729861126.357848,-1.209399,4.548445,55.891561,-0.080353,-0.011917,0.961731,-0.066661,0.007214,-0.010956,65.580658,23.549637,-145.520432,,,
729861126.361203,-1.209399,4.548445,55.891561,-0.080353,-0.011917,0.961731,-0.066661,0.007214,-0.010956,65.580658,23.549637,-145.520432,,,
729861126.364582,-1.228602,4.551344,55.890941,-0.077911,-0.019897,0.984543,-0.066661,0.007214,-0.010956,65.580658,23.549637,-145.520432,,,
729861126.367848,-1.247203,4.557649,55.891408,-0.077911,-0.019897,0.984543,-0.062399,0.031704,-0.003054,65.580658,23.549637,-145.520432,,,
729861126.371199,-1.247203,4.557649,55.891408,-0.077911,-0.019897,0.984543,-0.062399,0.031704,-0.003054,65.580658,23.549637,-145.520432,,,
729861126.374533,-1.264496,4.567804,55.892571,-0.077011,-0.025955,1.007782,-0.062399,0.031704,-0.003054,65.580658,23.549637,-145.520432,,,
729861126.377854,-1.277133,4.578718,55.893865,-0.077011,-0.025955,1.007782,-0.035789,0.040382,6.3e-05,65.744919,23.465408,-145.581741,,,
729861126.381203,-1.277133,4.578718,55.893865,-0.077011,-0.025955,1.007782,-0.035789,0.040382,6.3e-05,65.744919,23.465408,-145.581741,,,
729861126.384525,-1.286205,4.589229,55.894442,-0.07486,-0.031693,1.015549,-0.035789,0.040382,6.3e-05,65.744919,23.465408,-145.581741,,,
729861126.387852,-1.287461,4.597309,55.893454,-0.07486,-0.031693,1.015549,0.007834,0.028081,-0.007282,65.744919,23.465408,-145.581741,,,
729861126.39123,-1.287461,4.597309,55.893454,-0.07486,-0.031693,1.015549,0.007834,0.028081,-0.007282,65.744919,23.465408,-145.581741,,,
729861126.394528,-1.283816,4.604093,55.89062,-0.073074,-0.035522,1.020523,0.007834,0.028081,-0.007282,65.744919,23.465408,-145.581741,,,
729861126.397847,-1.272849,4.608244,55.885644,-0.073074,-0.035522,1.020523,0.049809,0.01429,-0.018756,65.744919,23.465408,-145.581741,,,
729861126.401204,-1.272849,4.608244,55.885644,-0.073074,-0.035522,1.020523,0.049809,0.01429,-0.018756,65.744919,23.465408,-145.581741,,,
729861126.404517,-1.258239,4.610829,55.878229,-0.07515,-0.034836,1.016403,0.049809,0.01429,-0.018756,65.744919,23.465408,-145.581741,,,
729861126.407853,-1.258239,4.610829,55.878229,-0.07515,-0.034836,1.016403,0.071509,-0.001134,-0.029628,65.744919,23.465408,-145.581741,,,
729861126.411219,-1.239607,4.610457,55.868995,-0.07515,-0.034836,1.016403,0.071509,-0.001134,-0.029628,65.744919,23.465408,-145.581741,,,
729861126.41457,-1.219241,4.609818,55.858572,-0.074707,-0.032547,1.006042,0.071509,-0.001134,-0.029628,65.744919,23.465408,-145.581741,,,
729861126.417846,-1.198923,4.607953,55.84732,-0.074707,-0.032547,1.006042,0.071552,-0.002765,-0.035312,65.744919,23.465408,-145.581741,,,
729861126.421188,-1.198923,4.607953,55.84732,-0.074707,-0.032547,1.006042,0.071552,-0.002765,-0.035312,65.626282,23.148422,-145.647583,,,
729861126.424519,-1.179849,4.607822,55.835863,-0.078171,-0.027878,0.999481,0.071552,-0.002765,-0.035312,65.626282,23.148422,-145.647583,,,
729861126.427854,-1.164909,4.609655,55.825071,-0.078171,-0.027878,0.999481,0.04929,0.015557,-0.032392,65.626282,23.148422,-145.647583,,,
729861126.4312,-1.164909,4.609655,55.825071,-0.078171,-0.027878,0.999481,0.04929,0.015557,-0.032392,65.626282,23.148422,-145.647583,,,
729861126.434523,-1.152396,4.615313,55.815605,-0.081635,-0.023132,0.99292,0.04929,0.015557,-0.032392,65.626282,23.148422,-145.647583,,,
729861126.437855,-1.152396,4.615313,55.815605,-0.081635,-0.023132,0.99292,0.023039,0.036311,-0.023785,65.626282,23.148422,-145.647583,,,
729861126.441256,-1.144481,4.623325,55.807646,-0.081635,-0.023132,0.99292,0.023039,0.036311,-0.023785,65.626282,23.148422,-145.647583,,,
729861126.444512,-1.141366,4.633219,55.801537,-0.085266,-0.021881,0.981842,0.023039,0.036311,-0.023785,65.626282,23.148422,-145.647583,,,
729861126.447896,-1.143473,4.642661,55.797438,-0.085266,-0.021881,0.981842,-0.01306,0.032568,-0.012693,65.626282,23.148422,-145.647583,,,
729861126.451205,-1.143473,4.642661,55.797438,-0.085266,-0.021881,0.981842,-0.01306,0.032568,-0.012693,65.626282,23.148422,-145.647583,,,
729861126.454552,-1.14983,4.648417,55.795273,-0.088211,-0.016998,0.966995,-0.01306,0.032568,-0.012693,65.626282,23.148422,-145.647583,,,
729861126.457972,-1.159099,4.65024,55.793984,-0.088211,-0.016998,0.966995,-0.037126,0.00123,-0.008554,65.626282,23.148422,-145.647583,,,
729861126.461198,-1.159099,4.65024,55.793984,-0.088211,-0.016998,0.966995,-0.037126,0.00123,-0.008554,65.944199,23.184509,-145.532928,,,
729861126.464525,-1.171827,4.647201,55.792516,-0.085754,-0.014832,0.966293,-0.037126,0.00123,-0.008554,65.944199,23.184509,-145.532928,,,
729861126.467865,-1.171827,4.642922,55.789934,-0.085754,-0.014832,0.966293,-0.040579,-0.014954,-0.016776,65.944199,23.184509,-145.532928,,,
729861126.471198,-1.184002,4.642922,55.789934,-0.085754,-0.014832,0.966293,-0.040579,-0.014954,-0.016776,65.944199,23.184509,-145.532928,,,
729861126.474519,-1.197512,4.634698,55.785693,-0.077087,-0.0215,0.982529,-0.040579,-0.014954,-0.016776,65.944199,23.184509,-145.532928,,,
729861126.477947,-1.205513,4.629861,55.779475,-0.077087,-0.0215,0.982529,-0.017335,-0.010466,-0.029157,65.944199,23.184509,-145.532928,,,
729861126.481252,-1.205513,4.629861,55.779475,-0.077087,-0.0215,0.982529,-0.017335,-0.010466,-0.029157,65.944199,23.184509,-145.532928,,,
729861126.484342,-1.210733,4.62415,55.771513,-0.073608,-0.030838,1.009109,-0.017335,-0.010466,-0.029157,65.944199,23.184509,-145.532928,,,
729861126.488035,-1.206952,4.622432,55.762681,-0.073608,-0.030838,1.009109,0.026797,0.002314,-0.031987,65.944199,23.184509,-145.532928,,,
729861126.49121,-1.206952,4.622432,55.762681,-0.073608,-0.030838,1.009109,0.026797,0.002314,-0.031987,65.944199,23.184509,-145.532928,,,
729861126.49453,-1.199888,4.621218,55.753026,-0.074509,-0.034454,1.023438,0.026797,0.002314,-0.031987,65.944199,23.184509,-145.532928,,,
729861126.497917,-1.199888,4.621218,55.753026,-0.074509,-0.034454,1.023438,0.026797,0.002314,-0.031987,65.944199,23.184509,-145.532928,,,
729861126.501186,-1.185914,4.623273,55.743129,-0.074509,-0.034454,1.023438,0.060862,0.012632,-0.031129,65.931625,23.126617,-145.864563,,,
729861126.504543,-1.16797,4.625366,55.732633,-0.075012,-0.032516,1.020309,0.060862,0.012632,-0.031129,65.931625,23.126617,-145.864563,,,
729861126.507858,-1.16797,4.625366,55.732633,-0.075012,-0.032516,1.020309,0.060862,0.012632,-0.031129,65.931625,23.126617,-145.864563,,,
729861126.511204,-1.143718,4.630282,55.721643,-0.075012,-0.032516,1.020309,0.093246,0.024066,-0.032168,65.931625,23.126617,-145.864563,,,
729861126.514526,-1.117928,4.63668,55.71006,-0.081375,-0.029297,1.013275,0.093246,0.024066,-0.032168,65.931625,23.126617,-145.864563,,,
729861126.517911,-1.117928,4.63668,55.71006,-0.081375,-0.029297,1.013275,0.093246,0.024066,-0.032168,65.931625,23.126617,-145.864563,,,
729861126.521195,-1.09115,4.643089,55.697284,-0.081375,-0.029297,1.013275,0.094902,0.025187,-0.040273,65.931625,23.126617,-145.864563,,,
729861126.524522,-1.067605,4.649965,55.683594,-0.08551,-0.0177,0.985596,0.094902,0.025187,-0.040273,65.931625,23.126617,-145.864563,,,
729861126.527863,-1.067605,4.649965,55.683594,-0.08551,-0.0177,0.985596,0.094902,0.025187,-0.040273,65.931625,23.126617,-145.864563,,,
729861126.531249,-1.047897,4.652237,55.669368,-0.08551,-0.0177,0.985596,0.063822,0.00358,-0.046403,65.931625,23.126617,-145.864563,,,
729861126.534531,-1.034483,4.653493,55.655159,-0.089951,-0.008865,0.955505,0.063822,0.00358,-0.046403,65.931625,23.126617,-145.864563,,,
729861126.537899,-1.034483,4.653493,55.655159,-0.089951,-0.008865,0.955505,0.063822,0.00358,-0.046403,65.931625,23.126617,-145.864563,,,
729861126.541186,-1.028039,4.649502,55.641984,-0.089951,-0.008865,0.955505,0.013879,-0.014211,-0.042945,65.753311,22.609543,-144.955063,,,
729861126.54452,-1.028619,4.645627,55.630963,-0.096893,-0.006332,0.946823,0.013879,-0.014211,-0.042945,65.753311,22.609543,-144.955063,,,
729861126.547884,-1.028619,4.645627,55.630963,-0.096893,-0.006332,0.946823,0.013879,-0.014211,-0.042945,65.753311,22.609543,-144.955063,,,
729861126.551188,-1.037246,4.638747,55.622246,-0.096893,-0.006332,0.946823,-0.040771,-0.021985,-0.03111,65.753311,22.609543,-144.955063,,,
729861126.554528,-1.053133,4.631281,55.616856,-0.101334,-0.004639,0.942368,-0.040771,-0.021985,-0.03111,65.753311,22.609543,-144.955063,,,
729861126.557933,-1.053133,4.631281,55.616856,-0.101334,-0.004639,0.942368,-0.040771,-0.021985,-0.03111,65.753311,22.609543,-144.955063,,,
729861126.561191,-1.073615,4.62389,55.61486,-0.101334,-0.004639,0.942368,-0.075073,-0.022273,-0.010194,65.753311,22.609543,-144.955063,,,
729861126.564531,-1.097095,4.615428,55.615531,-0.099228,-0.008865,0.957291,-0.075073,-0.022273,-0.010194,65.753311,22.609543,-144.955063,,,
729861126.567898,-1.097095,4.615428,55.615531,-0.099228,-0.008865,0.957291,-0.075073,-0.022273,-0.010194,65.753311,22.609543,-144.955063,,,
729861126.571251,-1.118745,4.608475,55.619183,-0.099228,-0.008865,0.957291,-0.072593,-0.020406,0.010655,65.753311,22.609543,-144.955063,,,
729861126.574553,-1.139751,4.601181,55.624824,-0.092041,-0.018951,0.984955,-0.072593,-0.020406,0.010655,65.753311,22.609543,-144.955063,,,
729861126.57791,-1.139751,4.601181,55.624824,-0.092041,-0.018951,0.984955,-0.072593,-0.020406,0.010655,65.753311,22.609543,-144.955063,,,
729861126.581194,-1.156403,4.597342,55.630745,-0.092041,-0.018951,0.984955,-0.054585,-0.00666,0.013897,65.753311,22.609543,-144.955063,,,
729861126.584571,-1.171309,4.593712,55.636047,-0.080475,-0.022873,0.997894,-0.054585,-0.00666,0.013897,65.393234,22.671936,-143.676132,,,
729861126.587889,-1.171309,4.593712,55.636047,-0.080475,-0.022873,0.997894,-0.054585,-0.00666,0.013897,65.393234,22.671936,-143.676132,,,
729861126.591203,-1.180648,4.593031,55.639589,-0.080475,-0.022873,0.997894,-0.024658,0.004519,0.003819,65.393234,22.671936,-143.676132,,,
729861126.594533,-1.187036,4.593972,55.64087,-0.069244,-0.023483,1.010406,-0.024658,0.004519,0.003819,65.393234,22.671936,-143.676132,,,
729861126.597857,-1.187036,4.593972,55.64087,-0.069244,-0.023483,1.010406,-0.024658,0.004519,0.003819,65.393234,22.671936,-143.676132,,,
729861126.601208,-1.188949,4.598099,55.64035,-0.069244,-0.023483,1.010406,-0.000917,0.02404,-0.006922,65.393234,22.671936,-143.676132,,,
729861126.60453,-1.188049,4.605061,55.637783,-0.065918,-0.027023,1.013962,-0.000917,0.02404,-0.006922,65.393234,22.671936,-143.676132,,,
729861126.607879,-1.188049,4.605061,55.637783,-0.065918,-0.027023,1.013962,-0.000917,0.02404,-0.006922,65.393234,22.671936,-143.676132,,,
729861126.611256,-1.184303,4.611184,55.633232,-0.065918,-0.027023,1.013962,0.020344,0.023789,-0.019027,65.393234,22.671936,-143.676132,,,
729861126.614525,-1.176886,4.618747,55.62686,-0.066513,-0.028244,1.010712,0.020344,0.023789,-0.019027,65.393234,22.671936,-143.676132,,,
729861126.61788,-1.176886,4.618747,55.62686,-0.066513,-0.028244,1.010712,0.020344,0.023789,-0.019027,65.393234,22.671936,-143.676132,,,
729861126.621193,-1.169342,4.623872,55.619102,-0.066513,-0.028244,1.010712,0.029316,0.01994,-0.027708,65.393234,22.671936,-143.676132,,,
729861126.624535,-1.160396,4.630277,55.611185,-0.076035,-0.025757,1.000031,0.029316,0.01994,-0.027708,65.509491,22.54184,-144.146118,,,
729861126.62787,-1.160396,4.630277,55.611185,-0.076035,-0.025757,1.000031,0.029316,0.01994,-0.027708,65.509491,22.54184,-144.146118,,,
729861126.631199,-1.15424,4.629291,55.603189,-0.076035,-0.025757,1.000031,0.020237,-0.00796,-0.028561,65.509491,22.54184,-144.146118,,,
729861126.634531,-1.149339,4.628366,55.595241,-0.081497,-0.019882,0.980301,0.020237,-0.00796,-0.028561,65.509491,22.54184,-144.146118,,,
729861126.637938,-1.149339,4.628366,55.595241,-0.081497,-0.019882,0.980301,0.020237,-0.00796,-0.028561,65.509491,22.54184,-144.146118,,,
729861126.641189,-1.148739,4.618533,55.587957,-0.081497,-0.019882,0.980301,0.001438,-0.039727,-0.024778,65.509491,22.54184,-144.146118,,,
729861126.644532,-1.148938,4.610092,55.581183,-0.079315,-0.013428,0.972595,0.001438,-0.039727,-0.024778,65.509491,22.54184,-144.146118,,,
729861126.647882,-1.148938,4.610092,55.581183,-0.079315,-0.013428,0.972595,0.001438,-0.039727,-0.024778,65.509491,22.54184,-144.146118,,,
729861126.651262,-1.153436,4.596988,55.573914,-0.079315,-0.013428,0.972595,-0.017893,-0.041744,-0.02919,65.509491,22.54184,-144.146118,,,
729861126.654527,-1.160378,4.587706,55.566146,-0.075653,-0.009811,0.979294,-0.017893,-0.041744,-0.02919,65.509491,22.54184,-144.146118,,,
729861126.657914,-1.160378,4.587706,55.566146,-0.075653,-0.009811,0.979294,-0.017893,-0.041744,-0.02919,65.509491,22.54184,-144.146118,,,
729861126.661218,-1.169946,4.577447,55.557967,-0.075653,-0.009811,0.979294,-0.033638,-0.028461,-0.032902,65.509491,22.54184,-144.146118,,,
729861126.664558,-1.180582,4.569985,55.549647,-0.073288,-0.014999,0.985733,-0.033638,-0.028461,-0.032902,65.778122,22.803314,-145.672165,,,
729861126.667854,-1.180582,4.569985,55.549647,-0.073288,-0.014999,0.985733,-0.033638,-0.028461,-0.032902,65.778122,22.803314,-145.672165,,,
729861126.6712,-1.18985,4.564261,55.541434,-0.073288,-0.014999,0.985733,-0.027307,-0.010579,-0.031558,65.778122,22.803314,-145.672165,,,
729861126.674527,-1.197989,4.560777,55.533083,-0.074295,-0.019226,1.000931,-0.027307,-0.010579,-0.031558,65.778122,22.803314,-145.672165,,,
729861126.677943,-1.197989,4.560777,55.533083,-0.074295,-0.019226,1.000931,-0.027307,-0.010579,-0.031558,65.778122,22.803314,-145.672165,,,
729861126.681201,-1.20505,4.563514,55.524597,-0.074295,-0.019226,1.000931,-0.021858,0.020189,-0.03232,65.778122,22.803314,-145.672165,,,
729861126.684527,-1.212273,4.567498,55.516415,-0.078552,-0.019028,1.006622,-0.021858,0.020189,-0.03232,65.778122,22.803314,-145.672165,,,
729861126.687866,-1.212273,4.567498,55.516415,-0.078552,-0.019028,1.006622,-0.021858,0.020189,-0.03232,65.778122,22.803314,-145.672165,,,
729861126.691272,-1.218779,4.578551,55.508976,-0.078552,-0.019028,1.006622,-0.020865,0.047462,-0.027548,65.778122,22.803314,-145.672165,,,
729861126.694525,-1.226416,4.587696,55.50203,-0.08107,-0.017975,1.000443,-0.020865,0.047462,-0.027548,65.778122,22.803314,-145.672165,,,
729861126.69788,-1.226416,4.587696,55.50203,-0.08107,-0.017975,1.000443,-0.020865,0.047462,-0.027548,65.778122,22.803314,-145.672165,,,
729861126.701208,-1.233778,4.599898,55.495147,-0.08107,-0.017975,1.000443,-0.025913,0.043059,-0.028043,65.778122,22.803314,-145.672165,,,
729861126.704533,-1.242954,4.6081,55.487297,-0.084274,-0.017014,0.994644,-0.025913,0.043059,-0.028043,65.778122,22.803314,-145.672165,,,
729861126.707941,-1.242954,4.6081,55.487297,-0.084274,-0.017014,0.994644,-0.025913,0.043059,-0.028043,65.72998,22.705734,-145.789658,,,
729861126.711196,-1.251508,4.616106,55.47817,-0.084274,-0.017014,0.994644,-0.027885,0.027314,-0.037358,65.72998,22.705734,-145.789658,,,
729861126.714524,-1.260487,4.621146,55.468258,-0.093002,-0.017563,0.992874,-0.027885,0.027314,-0.037358,65.72998,22.705734,-145.789658,,,
729861126.717931,-1.260487,4.621146,55.468258,-0.093002,-0.017563,0.992874,-0.027885,0.027314,-0.037358,65.72998,22.705734,-145.789658,,,
729861126.721194,-1.268505,4.621174,55.458391,-0.093002,-0.017563,0.992874,-0.02138,-0.004723,-0.036459,65.72998,22.705734,-145.789658,,,
729861126.724528,-1.273393,4.61749,55.449445,-0.09726,-0.023468,1.001282,-0.02138,-0.004723,-0.036459,65.72998,22.705734,-145.789658,,,
729861126.727875,-1.273393,4.61749,55.449445,-0.09726,-0.023468,1.001282,-0.02138,-0.004723,-0.036459,65.72998,22.705734,-145.789658,,,
729861126.731227,-1.277479,4.610689,55.44201,-0.09726,-0.023468,1.001282,-0.007095,-0.023355,-0.024667,65.72998,22.705734,-145.789658,,,
729861126.734532,-1.277795,4.6017,55.435572,-0.100433,-0.027359,1.009659,-0.007095,-0.023355,-0.024667,65.72998,22.705734,-145.789658,,,
729861126.737893,-1.277795,4.6017,55.435572,-0.100433,-0.027359,1.009659,-0.007095,-0.023355,-0.024667,65.72998,22.705734,-145.789658,,,
729861126.741203,-1.280163,4.592443,55.430382,-0.100433,-0.027359,1.009659,-0.005533,-0.030226,-0.015899,65.72998,22.705734,-145.789658,,,
729861126.744533,-1.281244,4.581598,55.426828,-0.096481,-0.024551,1.003113,-0.005533,-0.030226,-0.015899,65.72998,22.705734,-145.789658,,,
729861126.747692,-1.281244,4.581598,55.426828,-0.096481,-0.024551,1.003113,-0.005533,-0.030226,-0.015899,65.74411,22.691971,-146.22435,,,
729861126.751219,-1.28522,4.573578,55.424379,-0.096481,-0.024551,1.003113,-0.014444,-0.022004,-0.00912,65.74411,22.691971,-146.22435,,,
729861126.754574,-1.288816,4.5652,55.422801,-0.091064,-0.021912,0.996918,-0.014444,-0.022004,-0.00912,65.74411,22.691971,-146.22435,,,
729861126.757906,-1.288816,4.5652,55.422801,-0.091064,-0.021912,0.996918,-0.014444,-0.022004,-0.00912,65.74411,22.691971,-146.22435,,,
729861126.761193,-1.293318,4.560705,55.422281,-0.091064,-0.021912,0.996918,-0.015948,-0.007475,-0.002117,65.74411,22.691971,-146.22435,,,
729861126.764531,-1.29818,4.559427,55.42222,-0.086945,-0.022293,1.006943,-0.015948,-0.007475,-0.002117,65.74411,22.691971,-146.22435,,,
729861126.767979,-1.29818,4.559427,55.42222,-0.086945,-0.022293,1.006943,-0.015948,-0.007475,-0.002117,65.74411,22.691971,-146.22435,,,
729861126.771209,-1.303683,4.562867,55.422018,-0.086945,-0.022293,1.006943,-0.017223,0.019865,-0.003347,65.74411,22.691971,-146.22435,,,
729861126.774534,-1.306681,4.569155,55.421867,-0.084686,-0.023254,1.008774,-0.017223,0.019865,-0.003347,65.74411,22.691971,-146.22435,,,
729861126.777875,-1.306681,4.569155,55.421867,-0.084686,-0.023254,1.008774,-0.017223,0.019865,-0.003347,65.74411,22.691971,-146.22435,,,
729861126.781197,-1.307836,4.57594,55.421927,-0.084686,-0.023254,1.008774,0.002283,0.025822,-0.000235,65.74411,22.691971,-146.22435,,,
729861126.784529,-1.304488,4.583348,55.421821,-0.08107,-0.028778,1.011169,0.002283,0.025822,-0.000235,65.74411,22.691971,-146.22435,,,
729861126.78786,-1.304488,4.583348,55.421821,-0.08107,-0.028778,1.011169,0.002283,0.025822,-0.000235,65.565292,22.699432,-146.198181,,,
729861126.7912,-1.299276,4.589225,55.4209,-0.08107,-0.028778,1.011169,0.023268,0.021744,-0.004128,65.565292,22.699432,-146.198181,,,
729861126.794531,-1.291153,4.597455,55.419503,-0.083252,-0.029922,1.008133,0.023268,0.021744,-0.004128,65.565292,22.699432,-146.198181,,,
729861126.797879,-1.291153,4.597455,55.419503,-0.083252,-0.029922,1.008133,0.023268,0.021744,-0.004128,65.565292,22.699432,-146.198181,,,
729861126.801209,-1.282738,4.601033,55.418079,-0.083252,-0.029922,1.008133,0.032413,0.01158,-0.003079,65.565292,22.699432,-146.198181,,,
729861126.804532,-1.273953,4.607323,55.417317,-0.088364,-0.03096,0.992935,0.032413,0.01158,-0.003079,65.565292,22.699432,-146.198181,,,
729861126.807923,-1.273953,4.607323,55.417317,-0.088364,-0.03096,0.992935,0.032413,0.01158,-0.003079,65.565292,22.699432,-146.198181,,,
729861126.811195,-1.265912,4.606085,55.417267,-0.088364,-0.03096,0.992935,0.028241,-0.007143,0.002258,65.565292,22.699432,-146.198181,,,
729861126.814536,-1.260037,4.607743,55.418178,-0.084976,-0.027222,0.979248,0.028241,-0.007143,0.002258,65.565292,22.699432,-146.198181,,,
729861126.817877,-1.260037,4.607743,55.418178,-0.084976,-0.027222,0.979248,0.028241,-0.007143,0.002258,65.565292,22.699432,-146.198181,,,
729861126.821282,-1.256564,4.602507,55.419114,-0.084976,-0.027222,0.979248,0.005305,-0.016774,0.001435,65.565292,22.699432,-146.198181,,,
729861126.824527,-1.257072,4.601652,55.41983,-0.081741,-0.020538,0.97081,0.005305,-0.016774,0.001435,65.565292,22.699432,-146.198181,,,
729861126.827861,-1.257072,4.601652,55.41983,-0.081741,-0.020538,0.97081,0.005305,-0.016774,0.001435,65.639786,22.534851,-145.956665,,,
729861126.831219,-1.259281,4.595349,55.420547,-0.081741,-0.020538,0.97081,-0.010783,-0.020123,0.000904,65.639786,22.534851,-145.956665,,,
729861126.834535,-1.263383,4.593174,55.4211,-0.079102,-0.021439,0.969574,-0.010783,-0.020123,0.000904,65.639786,22.534851,-145.956665,,,
729861126.837873,-1.263383,4.593174,55.4211,-0.079102,-0.021439,0.969574,-0.010783,-0.020123,0.000904,65.639786,22.534851,-145.956665,,,
729861126.841208,-1.269163,4.589295,55.421789,-0.079102,-0.021439,0.969574,-0.02233,-0.007191,0.001436,65.639786,22.534851,-145.956665,,,
729861126.844523,-1.275796,4.588942,55.423297,-0.076675,-0.024353,0.978241,-0.02233,-0.007191,0.001436,65.639786,22.534851,-145.956665,,,
729861126.847933,-1.275796,4.588942,55.423297,-0.076675,-0.024353,0.978241,-0.02233,-0.007191,0.001436,65.639786,22.534851,-145.956665,,,
729861126.851212,-1.282614,4.587572,55.425059,-0.076675,-0.024353,0.978241,-0.024253,0.001279,0.003382,65.639786,22.534851,-145.956665,,,
729861126.854527,-1.288634,4.588589,55.427184,-0.073792,-0.022461,0.981293,-0.024253,0.001279,0.003382,65.639786,22.534851,-145.956665,,,
729861126.857888,-1.288634,4.588589,55.427184,-0.073792,-0.022461,0.981293,-0.024253,0.001279,0.003382,65.639786,22.534851,-145.956665,,,
729861126.86126,-1.292325,4.589104,55.429041,-0.073792,-0.022461,0.981293,-0.008547,0.005559,0.002968,65.639786,22.534851,-145.956665,,,
729861126.86452,-1.293603,4.590906,55.429766,-0.064484,-0.027405,0.99437,-0.008547,0.005559,0.002968,65.639786,22.534851,-145.956665,,,
729861126.867893,-1.293603,4.590906,55.429766,-0.064484,-0.027405,0.99437,-0.008547,0.005559,0.002968,65.639786,22.534851,-145.956665,,,
729861126.871214,-1.291256,4.594012,55.428497,-0.064484,-0.027405,0.99437,0.012251,0.016872,-0.009307,65.84964,22.279495,-146.339386,,,
729861126.874523,-1.288838,4.599427,55.424703,-0.060562,-0.028961,1.001266,0.012251,0.016872,-0.009307,65.84964,22.279495,-146.339386,,,
729861126.877876,-1.288838,4.599427,55.424703,-0.060562,-0.028961,1.001266,0.012251,0.016872,-0.009307,65.84964,22.279495,-146.339386,,,
729861126.88121,-1.283999,4.606235,55.418624,-0.060562,-0.028961,1.001266,0.020658,0.027501,-0.024576,65.84964,22.279495,-146.339386,,,
729861126.884523,-1.280521,4.61481,55.410887,-0.064926,-0.025787,0.993042,0.020658,0.027501,-0.024576,65.84964,22.279495,-146.339386,,,
729861126.887961,-1.280521,4.61481,55.410887,-0.064926,-0.025787,0.993042,0.020658,0.027501,-0.024576,65.84964,22.279495,-146.339386,,,
729861126.891214,-1.276203,4.618949,55.402123,-0.064926,-0.025787,0.993042,0.015614,0.01243,-0.031815,65.84964,22.279495,-146.339386,,,
729861126.894634,-1.27505,4.622848,55.392592,-0.070221,-0.026688,0.982529,0.015614,0.01243,-0.031815,65.84964,22.279495,-146.339386,,,
729861126.897863,-1.27505,4.622848,55.392592,-0.070221,-0.026688,0.982529,0.015614,0.01243,-0.031815,65.84964,22.279495,-146.339386,,,
729861126.901278,-1.275253,4.623131,55.382688,-0.070221,-0.026688,0.982529,-0.003311,0.00151,-0.035631,65.84964,22.279495,-146.339386,,,
729861126.90453,-1.278267,4.623475,55.372895,-0.077652,-0.023087,0.977417,-0.003311,0.00151,-0.035631,65.84964,22.279495,-146.339386,,,
729861126.907782,-1.278267,4.623475,55.372895,-0.077652,-0.023087,0.977417,-0.003311,0.00151,-0.035631,65.84964,22.279495,-146.339386,,,
729861126.911316,-1.283928,4.622581,55.363261,-0.077652,-0.023087,0.977417,-0.02103,0.000525,-0.035801,65.466583,22.162506,-145.563004,,,
729861126.914525,-1.291566,4.622736,55.354185,-0.080902,-0.025314,0.985886,-0.02103,0.000525,-0.035801,65.466583,22.162506,-145.563004,,,
729861126.917886,-1.291566,4.622736,55.354185,-0.080902,-0.025314,0.985886,-0.02103,0.000525,-0.035801,65.466583,22.162506,-145.563004,,,
729861126.921204,-1.301609,4.624201,55.345946,-0.080902,-0.025314,0.985886,-0.036793,0.010774,-0.031221,65.466583,22.162506,-145.563004,,,
729861126.924528,-1.314521,4.626777,55.339098,-0.084671,-0.027222,0.991333,-0.036793,0.010774,-0.031221,65.466583,22.162506,-145.563004,,,
729861126.927865,-1.314521,4.626777,55.339098,-0.084671,-0.027222,0.991333,-0.036793,0.010774,-0.031221,65.466583,22.162506,-145.563004,,,
729861126.931202,-1.329062,4.632088,55.333556,-0.084671,-0.027222,0.991333,-0.051723,0.024129,-0.023318,65.466583,22.162506,-145.563004,,,
729861126.934526,-1.346057,4.637679,55.328732,-0.084885,-0.023361,0.989517,-0.051723,0.024129,-0.023318,65.466583,22.162506,-145.563004,,,
729861126.937877,-1.346057,4.637679,55.328732,-0.084885,-0.023361,0.989517,-0.051723,0.024129,-0.023318,65.466583,22.162506,-145.563004,,,
729861126.941242,-1.364736,4.646234,55.324394,-0.084885,-0.023361,0.989517,-0.063403,0.035529,-0.021164,65.466583,22.162506,-145.563004,,,
729861126.944521,-1.384486,4.651592,55.319853,-0.08461,-0.026596,0.991974,-0.063403,0.035529,-0.021164,65.466583,22.162506,-145.563004,,,
729861126.947872,-1.384486,4.651592,55.319853,-0.08461,-0.026596,0.991974,-0.063403,0.035529,-0.021164,65.466583,22.162506,-145.563004,,,
729861126.951212,-1.404533,4.661917,55.315055,-0.08461,-0.026596,0.991974,-0.067888,0.041429,-0.024077,65.492142,22.354446,-144.535965,,,
729861126.954524,-1.423669,4.667166,55.309796,-0.087662,-0.032288,1.003677,-0.067888,0.041429,-0.024077,65.492142,22.354446,-144.535965,,,
729861126.957888,-1.423669,4.667166,55.309796,-0.087662,-0.032288,1.003677,-0.067888,0.041429,-0.024077,65.492142,22.354446,-144.535965,,,
729861126.9612,-1.438892,4.678043,55.303669,-0.087662,-0.032288,1.003677,-0.045261,0.039892,-0.029391,65.492142,22.354446,-144.535965,,,
729861126.964526,-1.450906,4.681996,55.296766,-0.09433,-0.035172,1.014297,-0.045261,0.039892,-0.029391,65.492142,22.354446,-144.535965,,,
729861126.967965,-1.450906,4.681996,55.296766,-0.09433,-0.035172,1.014297,-0.045261,0.039892,-0.029391,65.492142,22.354446,-144.535965,,,
729861126.971222,-1.457866,4.688468,55.29069,-0.09433,-0.035172,1.014297,-0.011387,0.021088,-0.02177,65.492142,22.354446,-144.535965,,,
729861126.974536,-1.459582,4.688921,55.285626,-0.09816,-0.039291,1.020325,-0.011387,0.021088,-0.02177,65.492142,22.354446,-144.535965,,,
729861126.977874,-1.459582,4.688921,55.285626,-0.09816,-0.039291,1.020325,-0.011387,0.021088,-0.02177,65.492142,22.354446,-144.535965,,,
729861126.981201,-1.456101,4.6912,55.281173,-0.09816,-0.039291,1.020325,0.022559,0.009626,-0.015328,65.492142,22.354446,-144.535965,,,
729861126.98453,-1.448143,4.691235,55.277117,-0.097641,-0.04129,1.02301,0.022559,0.009626,-0.015328,65.492142,22.354446,-144.535965,,,
729861126.987867,-1.448143,4.691235,55.277117,-0.097641,-0.04129,1.02301,0.022559,0.009626,-0.015328,65.492142,22.354446,-144.535965,,,
729861126.991312,-1.437326,4.690755,55.27386,-0.097641,-0.04129,1.02301,0.043671,-0.00206,-0.008208,65.492142,22.354446,-144.535965,,,
729861126.994615,-1.424775,4.68855,55.271271,-0.099091,-0.034744,1.008057,0.043671,-0.00206,-0.008208,65.593719,22.109802,-144.989319,,,
729861126.997901,-1.424775,4.68855,55.271271,-0.099091,-0.034744,1.008057,0.043671,-0.00206,-0.008208,65.593719,22.109802,-144.989319,,,
729861127.001212,-1.41304,4.684364,55.269457,-0.099091,-0.034744,1.008057,0.039579,-0.016066,-0.003182,65.593719,22.109802,-144.989319,,,
729861127.004544,-1.404332,4.679245,55.268038,-0.097534,-0.024887,0.989563,0.039579,-0.016066,-0.003182,65.593719,22.109802,-144.989319,,,
729861127.007885,-1.404332,4.679245,55.268038,-0.097534,-0.024887,0.989563,0.039579,-0.016066,-0.003182,65.593719,22.109802,-144.989319,,,
729861127.011218,-1.398908,4.673096,55.266897,-0.097534,-0.024887,0.989563,0.013078,-0.018346,-0.003259,65.593719,22.109802,-144.989319,,,
729861127.014531,-1.398474,4.669316,55.266419,-0.089005,-0.018478,0.980316,0.013078,-0.018346,-0.003259,65.593719,22.109802,-144.989319,,,
729861127.017863,-1.398474,4.669316,55.266419,-0.089005,-0.018478,0.980316,0.013078,-0.018346,-0.003259,65.593719,22.109802,-144.989319,,,
729861127.021218,-1.403413,4.666244,55.266159,-0.089005,-0.018478,0.980316,-0.02486,-0.004547,-0.004624,65.593719,22.109802,-144.989319,,,
729861127.0246,-1.412703,4.666202,55.265748,-0.086136,-0.016922,0.982147,-0.02486,-0.004547,-0.004624,65.593719,22.109802,-144.989319,,,
729861127.027923,-1.412703,4.666202,55.265748,-0.086136,-0.016922,0.982147,-0.02486,-0.004547,-0.004624,65.593719,22.109802,-144.989319,,,
729861127.031258,-1.424833,4.666849,55.265171,-0.086136,-0.016922,0.982147,-0.045062,0.008898,-0.007196,65.593719,22.109802,-144.989319,,,
729861127.034557,-1.439667,4.670616,55.264088,-0.086258,-0.020538,0.991791,-0.045062,0.008898,-0.007196,65.700623,22.398438,-146.116089,,,
729861127.037928,-1.439667,4.670616,55.264088,-0.086258,-0.020538,0.991791,-0.045062,0.008898,-0.007196,65.700623,22.398438,-146.116089,,,
729861127.041233,-1.453619,4.674432,55.262715,-0.086258,-0.020538,0.991791,-0.046673,0.017587,-0.009187,65.700623,22.398438,-146.116089,,,
729861127.044514,-1.46805,4.682099,55.262166,-0.089264,-0.028351,1.005219,-0.046673,0.017587,-0.009187,65.700623,22.398438,-146.116089,,,
729861127.047942,-1.46805,4.682099,55.262166,-0.089264,-0.028351,1.005219,-0.046673,0.017587,-0.009187,65.700623,22.398438,-146.116089,,,
729861127.051283,-1.478308,4.687879,55.262427,-0.089264,-0.028351,1.005219,-0.029869,0.024731,-0.001666,65.700623,22.398438,-146.116089,,,
729861127.054584,-1.487206,4.698251,55.263876,-0.094833,-0.033524,1.012405,-0.029869,0.024731,-0.001666,65.700623,22.398438,-146.116089,,,
729861127.057886,-1.487206,4.698251,55.263876,-0.094833,-0.033524,1.012405,-0.029869,0.024731,-0.001666,65.700623,22.398438,-146.116089,,,
729861127.061227,-1.490003,4.704453,55.266612,-0.094833,-0.033524,1.012405,-0.003,0.023471,0.01021,65.700623,22.398438,-146.116089,,,
729861127.06454,-1.491993,4.714327,55.271007,-0.096115,-0.031677,1.015793,-0.003,0.023471,0.01021,65.700623,22.398438,-146.116089,,,
729861127.06788,-1.491993,4.714327,55.271007,-0.096115,-0.031677,1.015793,-0.003,0.023471,0.01021,65.700623,22.398438,-146.116089,,,
729861127.071221,-1.488059,4.720528,55.276756,-0.096115,-0.031677,1.015793,0.018615,0.023167,0.022135,65.700623,22.398438,-146.116089,,,
729861127.074568,-1.482975,4.7298,55.283442,-0.09404,-0.03186,1.010345,0.018615,0.023167,0.022135,65.38031,22.279892,-145.400406,,,
729861127.077925,-1.482975,4.7298,55.283442,-0.09404,-0.03186,1.010345,0.018615,0.023167,0.022135,65.38031,22.279892,-145.400406,,,
729861127.081254,-1.472756,4.733292,55.290339,-0.09404,-0.03186,1.010345,0.04016,0.011983,0.026175,65.38031,22.279892,-145.400406,,,
729861127.084565,-1.459141,4.7394,55.297096,-0.089249,-0.032196,1.007858,0.04016,0.011983,0.026175,65.38031,22.279892,-145.400406,,,
729861127.087875,-1.459141,4.7394,55.297096,-0.089249,-0.032196,1.007858,0.04016,0.011983,0.026175,65.38031,22.279892,-145.400406,,,
729861127.091239,-1.442025,4.738866,55.302979,-0.089249,-0.032196,1.007858,0.06292,-0.002793,0.02278,65.38031,22.279892,-145.400406,,,
729861127.094529,-1.422421,4.738887,55.307045,-0.08078,-0.028992,1.002701,0.06292,-0.002793,0.02278,65.38031,22.279892,-145.400406,,,
729861127.097862,-1.422421,4.738887,55.307045,-0.08078,-0.028992,1.002701,0.06292,-0.002793,0.02278,65.38031,22.279892,-145.400406,,,
729861127.101196,-1.403633,4.733499,55.309098,-0.08078,-0.028992,1.002701,0.066108,-0.020765,0.009486,65.38031,22.279892,-145.400406,,,
729861127.104565,-1.384627,4.727537,55.310331,-0.07457,-0.025696,0.986328,0.066108,-0.020765,0.009486,65.38031,22.279892,-145.400406,,,
729861127.107857,-1.384627,4.727537,55.310331,-0.07457,-0.025696,0.986328,0.066108,-0.020765,0.009486,65.38031,22.279892,-145.400406,,,
729861127.111216,-1.369744,4.71898,55.311376,-0.07457,-0.025696,0.986328,0.04645,-0.028351,0.006742,65.38031,22.279892,-145.400406,,,
729861127.114539,-1.357681,4.71199,55.313214,-0.073456,-0.020172,0.971405,0.04645,-0.028351,0.006742,65.444733,22.180923,-145.194138,,,
729861127.117862,-1.357681,4.71199,55.313214,-0.073456,-0.020172,0.971405,0.04645,-0.028351,0.006742,65.444733,22.180923,-145.194138,,,
729861127.12122,-1.351118,4.70399,55.316077,-0.073456,-0.020172,0.971405,0.014737,-0.02573,0.01145,65.444733,22.180923,-145.194138,,,
729861127.124559,-1.349952,4.699258,55.319877,-0.069778,-0.016983,0.968399,0.014737,-0.02573,0.01145,65.444733,22.180923,-145.194138,,,
729861127.127878,-1.349952,4.699258,55.319877,-0.069778,-0.016983,0.968399,0.014737,-0.02573,0.01145,65.444733,22.180923,-145.194138,,,
729861127.131204,-1.353927,4.69605,55.324359,-0.069778,-0.016983,0.968399,-0.024851,-0.002911,0.013273,65.444733,22.180923,-145.194138,,,
729861127.134541,-1.364672,4.698954,55.32907,-0.065247,-0.016525,0.970306,-0.024851,-0.002911,0.013273,65.444733,22.180923,-145.194138,,,
729861127.13787,-1.364672,4.698954,55.32907,-0.065247,-0.016525,0.970306,-0.024851,-0.002911,0.013273,65.444733,22.180923,-145.194138,,,
729861127.141206,-1.377938,4.701769,55.333707,-0.065247,-0.016525,0.970306,-0.053841,0.018066,0.0109,65.444733,22.180923,-145.194138,,,
729861127.144645,-1.395518,4.710888,55.338069,-0.063766,-0.019135,0.976669,-0.053841,0.018066,0.0109,65.444733,22.180923,-145.194138,,,
729861127.147864,-1.395518,4.710888,55.338069,-0.063766,-0.019135,0.976669,-0.053841,0.018066,0.0109,65.444733,22.180923,-145.194138,,,
729861127.151201,-1.411062,4.718182,55.341506,-0.063766,-0.019135,0.976669,-0.0496,0.029071,0.005357,65.444733,22.180923,-145.194138,,,
729861127.154522,-1.411062,4.718182,55.341506,-0.065536,-0.027817,0.998703,-0.0496,0.029071,0.005357,65.429993,22.103699,-145.12471,,,
729861127.157865,-1.423776,4.72904,55.343499,-0.065536,-0.027817,0.998703,-0.0496,0.029071,0.005357,65.429993,22.103699,-145.12471,,,
729861127.161255,-1.429146,4.736671,55.343528,-0.065536,-0.027817,0.998703,-0.006216,0.030084,-0.004143,65.429993,22.103699,-145.12471,,,
729861127.16457,-1.429146,4.736671,55.341981,-0.066879,-0.035706,1.02536,-0.006216,0.030084,-0.004143,65.429993,22.103699,-145.12471,,,
729861127.167872,-1.428682,4.746322,55.341981,-0.066879,-0.035706,1.02536,-0.006216,0.030084,-0.004143,65.429993,22.103699,-145.12471,,,
729861127.171201,-1.419387,4.75258,55.338721,-0.066879,-0.035706,1.02536,0.046744,0.021156,-0.011391,65.429993,22.103699,-145.12471,,,
729861127.1746,-1.419387,4.75258,55.334257,-0.072235,-0.039902,1.021774,0.046744,0.021156,-0.011391,65.429993,22.103699,-145.12471,,,
729861127.17794,-1.4049,4.756356,55.334257,-0.072235,-0.039902,1.021774,0.046744,0.021156,-0.011391,65.429993,22.103699,-145.12471,,,
729861127.181208,-1.38451,4.758001,55.329048,-0.072235,-0.039902,1.021774,0.082399,0.003326,-0.01376,65.429993,22.103699,-145.12471,,,
729861127.184622,-1.38451,4.754417,55.323207,-0.07872,-0.036636,1.00679,0.082399,0.003326,-0.01376,65.429993,22.103699,-145.12471,,,
729861127.187869,-1.360194,4.754417,55.323207,-0.07872,-0.036636,1.00679,0.082399,0.003326,-0.01376,65.429993,22.103699,-145.12471,,,
729861127.191257,-1.333777,4.749651,55.317684,-0.07872,-0.036636,1.00679,0.092729,-0.018039,-0.011058,65.429993,22.103699,-145.12471,,,
729861127.19457,-1.333777,4.749651,55.317684,-0.07872,-0.036636,1.00679,0.092729,-0.018039,-0.011058,65.429993,22.103699,-145.12471,,,
729861127.197889,-1.307856,4.74057,55.312805,-0.080826,-0.027161,0.991806,0.092729,-0.018039,-0.011058,65.623291,22.074448,-145.524933,,,
729861127.2012,-1.283883,4.731854,55.308484,-0.080826,-0.027161,0.991806,0.080051,-0.029788,-0.008638,65.623291,22.074448,-145.524933,,,
729861127.204619,-1.283883,4.731854,55.308484,-0.080826,-0.027161,0.991806,0.080051,-0.029788,-0.008638,65.623291,22.074448,-145.524933,,,
729861127.207884,-1.263066,4.719483,55.304807,-0.078186,-0.019409,0.975174,0.080051,-0.029788,-0.008638,65.623291,22.074448,-145.524933,,,
729861127.21122,-1.248621,4.70873,55.302012,-0.078186,-0.019409,0.975174,0.040366,-0.03545,-0.006193,65.623291,22.074448,-145.524933,,,
729861127.214562,-1.248621,4.70873,55.302012,-0.078186,-0.019409,0.975174,0.040366,-0.03545,-0.006193,65.623291,22.074448,-145.524933,,,
729861127.217864,-1.239968,4.693684,55.299937,-0.077194,-0.012894,0.956635,0.040366,-0.03545,-0.006193,65.623291,22.074448,-145.524933,,,
729861127.221199,-1.238697,4.683491,55.298206,-0.077194,-0.012894,0.956635,-0.005058,-0.029852,-0.008166,65.623291,22.074448,-145.524933,,,
729861127.2246,-1.238697,4.683491,55.298206,-0.077194,-0.012894,0.956635,-0.005058,-0.029852,-0.008166,65.623291,22.074448,-145.524933,,,
729861127.227855,-1.242937,4.671705,55.295642,-0.07515,-0.00972,0.956635,-0.005058,-0.029852,-0.008166,65.623291,22.074448,-145.524933,,,
729861127.23128,-1.253346,4.66722,55.292487,-0.07515,-0.00972,0.956635,-0.043532,-0.00836,-0.016112,65.623291,22.074448,-145.524933,,,
729861127.234524,-1.253346,4.66722,55.292487,-0.07515,-0.00972,0.956635,-0.043532,-0.00836,-0.016112,65.623291,22.074448,-145.524933,,,
729861127.237879,-1.26842,4.661818,55.289795,-0.072906,-0.011597,0.962128,-0.043532,-0.00836,-0.016112,65.585327,21.807602,-144.664734,,,
729861127.241228,-1.285428,4.663355,55.288074,-0.072906,-0.011597,0.962128,-0.06179,0.011388,-0.011523,65.585327,21.807602,-144.664734,,,
729861127.244558,-1.285428,4.663355,55.288074,-0.072906,-0.011597,0.962128,-0.06179,0.011388,-0.011523,65.585327,21.807602,-144.664734,,,
729861127.247904,-1.305081,4.663383,55.28641,-0.07608,-0.01683,0.970276,-0.06179,0.011388,-0.011523,65.585327,21.807602,-144.664734,,,
729861127.251214,-1.322373,4.668881,55.284672,-0.07608,-0.01683,0.970276,-0.055726,0.024825,-0.012053,65.585327,21.807602,-144.664734,,,
729861127.254533,-1.322373,4.668881,55.284672,-0.07608,-0.01683,0.970276,-0.055726,0.024825,-0.012053,65.585327,21.807602,-144.664734,,,
729861127.257928,-1.338819,4.672346,55.282547,-0.079575,-0.022812,0.983643,-0.055726,0.024825,-0.012053,65.585327,21.807602,-144.664734,,,
729861127.261207,-1.349479,4.677158,55.279813,-0.079575,-0.022812,0.983643,-0.028342,0.018536,-0.014409,65.585327,21.807602,-144.664734,,,
729861127.264592,-1.349479,4.677158,55.279813,-0.079575,-0.022812,0.983643,-0.028342,0.018536,-0.014409,65.585327,21.807602,-144.664734,,,
729861127.267863,-1.357126,4.680303,55.276296,-0.084824,-0.03009,0.995895,-0.028342,0.018536,-0.014409,65.585327,21.807602,-144.664734,,,
729861127.271272,-1.35802,4.683253,55.272327,-0.084824,-0.03009,0.995895,0.006706,0.011512,-0.014811,65.585327,21.807602,-144.664734,,,
729861127.274569,-1.35802,4.683253,55.272327,-0.084824,-0.03009,0.995895,0.006706,0.011512,-0.014811,65.585327,21.807602,-144.664734,,,
729861127.277863,-1.355144,4.684494,55.268252,-0.089401,-0.034195,1.006393,0.006706,0.011512,-0.014811,65.58815,22.226868,-145.947952,,,
729861127.2812,-1.346963,4.684362,55.264443,-0.089401,-0.034195,1.006393,0.037301,0.000216,-0.01051,65.58815,22.226868,-145.947952,,,
729861127.284631,-1.346963,4.684362,55.264443,-0.089401,-0.034195,1.006393,0.037301,0.000216,-0.01051,65.58815,22.226868,-145.947952,,,
729861127.287869,-1.336309,4.681717,55.260848,-0.087784,-0.032852,0.999878,0.037301,0.000216,-0.01051,65.58815,22.226868,-145.947952,,,
729861127.291207,-1.325279,4.67552,55.257333,-0.087784,-0.032852,0.999878,0.041191,-0.025355,-0.009685,65.58815,22.226868,-145.947952,,,
729861127.294535,-1.325279,4.67552,55.257333,-0.087784,-0.032852,0.999878,0.041191,-0.025355,-0.009685,65.58815,22.226868,-145.947952,,,
729861127.297918,-1.313005,4.666109,55.253152,-0.087402,-0.025192,0.987885,0.041191,-0.025355,-0.009685,65.58815,22.226868,-145.947952,,,
729861127.301192,-1.305106,4.655159,55.248043,-0.087402,-0.025192,0.987885,0.022587,-0.038605,-0.017777,65.58815,22.226868,-145.947952,,,
729861127.304548,-1.305106,4.655159,55.248043,-0.087402,-0.025192,0.987885,0.022587,-0.038605,-0.017777,65.58815,22.226868,-145.947952,,,
729861127.307869,-1.298329,4.642919,55.242205,-0.084656,-0.023132,0.986893,0.022587,-0.038605,-0.017777,65.58815,22.226868,-145.947952,,,
729861127.311288,-1.297417,4.633106,55.235682,-0.084656,-0.023132,0.986893,-0.001631,-0.026538,-0.024693,65.58815,22.226868,-145.947952,,,
729861127.31453,-1.297417,4.633106,55.235682,-0.084656,-0.023132,0.986893,-0.001631,-0.026538,-0.024693,65.58815,22.226868,-145.947952,,,
729861127.317903,-1.298683,4.624727,55.229357,-0.086334,-0.023041,0.987152,-0.001631,-0.026538,-0.024693,65.58815,22.226868,-145.947952,,,
729861127.320901,-1.306582,4.620688,55.224688,-0.086334,-0.023041,0.987152,-0.033394,-0.007255,-0.015931,65.597336,22.115158,-146.391037,,,
729861127.324604,-1.306582,4.620688,55.224688,-0.086334,-0.023041,0.987152,-0.033394,-0.007255,-0.015931,65.597336,22.115158,-146.391037,,,
729861127.327878,-1.317962,4.61866,55.222517,-0.088333,-0.022125,0.988403,-0.033394,-0.007255,-0.015931,65.597336,22.115158,-146.391037,,,
729861127.331228,-1.334798,4.620864,55.222624,-0.088333,-0.022125,0.988403,-0.063729,0.015758,-0.00253,65.597336,22.115158,-146.391037,,,
729861127.334681,-1.334798,4.620864,55.222624,-0.088333,-0.022125,0.988403,-0.063729,0.015758,-0.00253,65.597336,22.115158,-146.391037,,,
729861127.337891,-1.353702,4.625504,55.224678,-0.092026,-0.025681,0.99881,-0.063729,0.015758,-0.00253,65.597336,22.115158,-146.391037,,,
729861127.341208,-1.373734,4.632394,55.228879,-0.092026,-0.025681,0.99881,-0.071229,0.029116,0.011881,65.597336,22.115158,-146.391037,,,
729861127.34455,-1.373734,4.632394,55.228879,-0.092026,-0.025681,0.99881,-0.071229,0.029116,0.011881,65.597336,22.115158,-146.391037,,,
729861127.347873,-1.393172,4.640505,55.234866,-0.092606,-0.030594,1.011002,-0.071229,0.029116,0.011881,65.597336,22.115158,-146.391037,,,
729861127.351201,-1.409477,4.647607,55.241113,-0.092606,-0.030594,1.011002,-0.054554,0.026617,0.01514,65.597336,22.115158,-146.391037,,,
729861127.354545,-1.409477,4.647607,55.241113,-0.092606,-0.030594,1.011002,-0.054554,0.026617,0.01514,65.597336,22.115158,-146.391037,,,
729861127.357916,-1.424896,4.655731,55.246513,-0.087051,-0.032013,1.019547,-0.054554,0.026617,0.01514,65.597336,22.115158,-146.391037,,,
729861127.361215,-1.434656,4.658996,55.250412,-0.087051,-0.032013,1.019547,-0.025025,0.007153,0.007399,66.033768,22.249252,-146.166809,,,
729861127.364548,-1.434656,4.658996,55.250412,-0.087051,-0.032013,1.019547,-0.025025,0.007153,0.007399,66.033768,22.249252,-146.166809,,,
729861127.367886,-1.440748,4.660983,55.252496,-0.082932,-0.034348,1.024216,-0.025025,0.007153,0.007399,66.033768,22.249252,-146.166809,,,
729861127.371199,-1.43979,4.659783,55.252327,-0.082932,-0.034348,1.024216,0.013277,-0.003688,-0.004905,66.033768,22.249252,-146.166809,,,
729861127.374609,-1.43979,4.659783,55.252327,-0.082932,-0.034348,1.024216,0.013277,-0.003688,-0.004905,66.033768,22.249252,-146.166809,,,
729861127.377875,-1.434993,4.660238,55.250438,-0.081116,-0.037842,1.032791,0.013277,-0.003688,-0.004905,66.033768,22.249252,-146.166809,,,
729861127.381199,-1.426813,4.659459,55.247562,-0.081116,-0.037842,1.032791,0.034869,0.002686,-0.009669,66.033768,22.249252,-146.166809,,,
729861127.384558,-1.426813,4.659459,55.247562,-0.081116,-0.037842,1.032791,0.034869,0.002686,-0.009669,66.033768,22.249252,-146.166809,,,
729861127.387865,-1.416537,4.661514,55.244494,-0.083618,-0.033707,1.023865,0.034869,0.002686,-0.009669,66.033768,22.249252,-146.166809,,,
729861127.391197,-1.406411,4.663547,55.24208,-0.083618,-0.033707,1.023865,0.036131,0.013105,-0.004815,66.033768,22.249252,-146.166809,,,
729861127.394544,-1.406411,4.663547,55.24208,-0.083618,-0.033707,1.023865,0.036131,0.013105,-0.004815,66.033768,22.249252,-146.166809,,,
729861127.397885,-1.397237,4.668341,55.240935,-0.086105,-0.025558,1.006302,0.036131,0.013105,-0.004815,66.033768,22.249252,-146.166809,,,
729861127.401198,-1.390929,4.673221,55.241304,-0.086105,-0.025558,1.006302,0.01614,0.022825,0.004381,65.979279,22.210724,-146.310715,,,
729861127.404547,-1.390929,4.673221,55.241304,-0.086105,-0.025558,1.006302,0.01614,0.022825,0.004381,65.979279,22.210724,-146.310715,,,
729861127.407884,-1.387282,4.681928,55.242579,-0.081558,-0.021133,0.996445,0.01614,0.022825,0.004381,65.979279,22.210724,-146.310715,,,
729861127.411202,-1.387689,4.6908,55.243891,-0.081558,-0.021133,0.996445,-0.008279,0.037001,0.002961,65.979279,22.210724,-146.310715,,,
729861127.414629,-1.387689,4.6908,55.243891,-0.081558,-0.021133,0.996445,-0.008279,0.037001,0.002961,65.979279,22.210724,-146.310715,,,
729861127.417877,-1.391548,4.704237,55.24516,-0.080933,-0.019745,0.995895,-0.008279,0.037001,0.002961,65.979279,22.210724,-146.310715,,,
729861127.421199,-1.397843,4.716657,55.245626,-0.080933,-0.019745,0.995895,-0.025059,0.047987,-0.003644,65.979279,22.210724,-146.310715,,,
729861127.424528,-1.397843,4.716657,55.245626,-0.080933,-0.019745,0.995895,-0.025059,0.047987,-0.003644,65.979279,22.210724,-146.310715,,,
729861127.427937,-1.406714,4.733168,55.245596,-0.083099,-0.02092,0.999069,-0.025059,0.047987,-0.003644,65.979279,22.210724,-146.310715,,,
729861127.431193,-1.414799,4.747796,55.24571,-0.083099,-0.02092,0.999069,-0.026031,0.054354,-0.002215,65.979279,22.210724,-146.310715,,,
729861127.434531,-1.414799,4.747796,55.24571,-0.083099,-0.02092,0.999069,-0.026031,0.054354,-0.002215,65.979279,22.210724,-146.310715,,,
729861127.437892,-1.423282,4.763334,55.246507,-0.086517,-0.025742,1.002258,-0.026031,0.054354,-0.002215,65.979279,22.210724,-146.310715,,,
729861127.441195,-1.429789,4.776523,55.248143,-0.086517,-0.025742,1.002258,-0.020696,0.045811,0.004235,66.028458,22.35405,-146.484802,,,
729861127.44454,-1.429789,4.776523,55.248143,-0.086517,-0.025742,1.002258,-0.020696,0.045811,0.004235,66.028458,22.35405,-146.484802,,,
729861127.447872,-1.435618,4.786489,55.250755,-0.0905,-0.027634,0.998566,-0.020696,0.045811,0.004235,66.028458,22.35405,-146.484802,,,
729861127.451194,-1.436561,4.792633,55.253834,-0.0905,-0.027634,0.998566,0.003887,0.016832,0.009454,66.028458,22.35405,-146.484802,,,
729861127.454648,-1.436561,4.792633,55.253834,-0.0905,-0.027634,0.998566,0.003887,0.016832,0.009454,66.028458,22.35405,-146.484802,,,
729861127.457886,-1.434506,4.79347,55.256493,-0.091003,-0.032242,1.003922,0.003887,0.016832,0.009454,66.028458,22.35405,-146.484802,,,
729861127.461205,-1.424962,4.792405,55.258377,-0.091003,-0.032242,1.003922,0.042416,-0.006009,0.007024,66.028458,22.35405,-146.484802,,,
729861127.464566,-1.424962,4.792405,55.258377,-0.091003,-0.032242,1.003922,0.042416,-0.006009,0.007024,66.028458,22.35405,-146.484802,,,
729861127.467924,-1.411293,4.787746,55.258753,-0.089233,-0.034348,1.013504,0.042416,-0.006009,0.007024,66.028458,22.35405,-146.484802,,,
729861127.471193,-1.389807,4.781886,55.257164,-0.089233,-0.034348,1.013504,0.085808,-0.020113,-0.003213,66.028458,22.35405,-146.484802,,,
729861127.474545,-1.389807,4.781886,55.257164,-0.089233,-0.034348,1.013504,0.085808,-0.020113,-0.003213,66.028458,22.35405,-146.484802,,,
729861127.47786,-1.3638,4.775197,55.25451,-0.08847,-0.034897,1.014893,0.085808,-0.020113,-0.003213,66.028458,22.35405,-146.484802,,,
729861127.481198,-1.334524,4.767072,55.251479,-0.08847,-0.034897,1.014893,0.105889,-0.026429,-0.004062,66.028458,22.35405,-146.484802,,,
729861127.484541,-1.334524,4.767072,55.251479,-0.08847,-0.034897,1.014893,0.105889,-0.026429,-0.004062,65.86261,22.3367,-146.318405,,,
729861127.487865,-1.304071,4.759452,55.248193,-0.087936,-0.030167,1.002487,0.105889,-0.026429,-0.004062,65.86261,22.3367,-146.318405,,,
729861127.491196,-1.274109,4.753087,55.245581,-0.087936,-0.030167,1.002487,0.103586,-0.017,0.000495,65.86261,22.3367,-146.318405,,,
729861127.494593,-1.274109,4.753087,55.245581,-0.087936,-0.030167,1.002487,0.103586,-0.017,0.000495,65.86261,22.3367,-146.318405,,,
729861127.49786,-1.245158,4.747273,55.244467,-0.088821,-0.02182,0.986328,0.103586,-0.017,0.000495,65.86261,22.3367,-146.318405,,,
729861127.501202,-1.21921,4.743358,55.245017,-0.088821,-0.02182,0.986328,0.083828,-0.008143,0.010354,65.86261,22.3367,-146.318405,,,
729861127.504536,-1.21921,4.743358,55.245017,-0.088821,-0.02182,0.986328,0.083828,-0.008143,0.010354,65.86261,22.3367,-146.318405,,,
729861127.507921,-1.196592,4.739762,55.247954,-0.095215,-0.015915,0.971893,0.083828,-0.008143,0.010354,65.86261,22.3367,-146.318405,,,
729861127.511212,-1.177497,4.73547,55.253222,-0.095215,-0.015915,0.971893,0.059463,-0.013836,0.02466,65.86261,22.3367,-146.318405,,,
729861127.51457,-1.177497,4.73547,55.253222,-0.095215,-0.015915,0.971893,0.059463,-0.013836,0.02466,65.86261,22.3367,-146.318405,,,
729861127.517833,-1.162609,4.730137,55.260344,-0.095688,-0.014359,0.958527,0.059463,-0.013836,0.02466,65.86261,22.3367,-146.318405,,,
729861127.521218,-1.15048,4.721037,55.269182,-0.095688,-0.014359,0.958527,0.034336,-0.035065,0.034724,65.86261,22.3367,-146.318405,,,
729861127.524531,-1.15048,4.721037,55.269182,-0.095688,-0.014359,0.958527,0.034336,-0.035065,0.034724,65.870483,22.221115,-146.276001,,,
729861127.527878,-1.14216,4.711284,55.279069,-0.092773,-0.011841,0.956818,0.034336,-0.035065,0.034724,65.870483,22.221115,-146.276001,,,
729861127.531203,-1.135193,4.697744,55.289198,-0.092773,-0.011841,0.956818,0.01524,-0.04721,0.03512,65.870483,22.221115,-146.276001,,,
729861127.534592,-1.135193,4.697744,55.289198,-0.092773,-0.011841,0.956818,0.01524,-0.04721,0.03512,65.870483,22.221115,-146.276001,,,
729861127.537862,-1.134197,4.685503,55.299592,-0.084564,-0.010498,0.955307,0.01524,-0.04721,0.03512,65.870483,22.221115,-146.276001,,,
729861127.541202,-1.134025,4.670614,55.309606,-0.084564,-0.010498,0.955307,-0.004158,-0.050048,0.031149,65.870483,22.221115,-146.276001,,,
729861127.544603,-1.134025,4.670614,55.309606,-0.084564,-0.010498,0.955307,-0.004158,-0.050048,0.031149,65.870483,22.221115,-146.276001,,,
729861127.547862,-1.137458,4.658206,55.318552,-0.07402,-0.013153,0.964218,-0.004158,-0.050048,0.031149,65.870483,22.221115,-146.276001,,,
729861127.551206,-1.139065,4.645788,55.326536,-0.07402,-0.013153,0.964218,-0.008466,-0.038339,0.024269,65.870483,22.221115,-146.276001,,,
729861127.554557,-1.139065,4.645788,55.326536,-0.07402,-0.013153,0.964218,-0.008466,-0.038339,0.024269,65.870483,22.221115,-146.276001,,,
729861127.557971,-1.143985,4.636776,55.333168,-0.067108,-0.016541,0.975189,-0.008466,-0.038339,0.024269,65.870483,22.221115,-146.276001,,,
729861127.5612,-1.145821,4.628579,55.337818,-0.067108,-0.016541,0.975189,-0.004097,-0.022633,0.010992,65.870483,22.221115,-146.276001,,,
729861127.56454,-1.145821,4.628579,55.337818,-0.067108,-0.016541,0.975189,-0.004097,-0.022633,0.010992,65.864182,22.212708,-146.400269,,,
729861127.567944,-1.14779,4.623772,55.340797,-0.067169,-0.019272,0.984344,-0.004097,-0.022633,0.010992,65.864182,22.212708,-146.400269,,,
729861127.571216,-1.145951,4.619814,55.342541,-0.067169,-0.019272,0.984344,0.008919,-0.005236,0.00363,65.864182,22.212708,-146.400269,,,
729861127.574563,-1.145951,4.619814,55.342541,-0.067169,-0.019272,0.984344,0.008919,-0.005236,0.00363,65.864182,22.212708,-146.400269,,,
729861127.577894,-1.143669,4.620587,55.343114,-0.068253,-0.025024,0.993515,0.008919,-0.005236,0.00363,65.864182,22.212708,-146.400269,,,
729861127.581195,-1.139153,4.620927,55.343284,-0.068253,-0.025024,0.993515,0.018731,0.006836,0.001877,65.864182,22.212708,-146.400269,,,
729861127.58453,-1.139153,4.620927,55.343284,-0.068253,-0.025024,0.993515,0.018731,0.006836,0.001877,65.864182,22.212708,-146.400269,,,
729861127.58788,-1.133911,4.626923,55.343873,-0.073349,-0.025635,0.98938,0.018731,0.006836,0.001877,65.864182,22.212708,-146.400269,,,
729861127.591201,-1.130843,4.628597,55.344683,-0.073349,-0.025635,0.98938,0.007268,0.005637,0.00302,65.864182,22.212708,-146.400269,,,
729861127.594635,-1.130843,4.628597,55.344683,-0.073349,-0.025635,0.98938,0.007268,0.005637,0.00302,65.864182,22.212708,-146.400269,,,
729861127.597867,-1.129419,4.632916,55.346319,-0.075623,-0.018707,0.972733,0.007268,0.005637,0.00302,65.864182,22.212708,-146.400269,,,
729861127.601207,-1.131588,4.63153,55.3483,-0.075623,-0.018707,0.972733,-0.013433,-0.0041,0.0044,65.864182,22.212708,-146.400269,,,
729861127.604578,-1.131588,4.63153,55.3483,-0.075623,-0.018707,0.972733,-0.013433,-0.0041,0.0044,65.763168,22.008331,-146.196411,,,
729861127.607937,-1.136657,4.631814,55.349639,-0.075058,-0.012283,0.960114,-0.013433,-0.0041,0.0044,65.763168,22.008331,-146.196411,,,
729861127.611194,-1.146667,4.62762,55.349375,-0.075058,-0.012283,0.960114,-0.041431,-0.013424,-0.008612,65.763168,22.008331,-146.196411,,,
729861127.614569,-1.146667,4.62762,55.349375,-0.075058,-0.012283,0.960114,-0.041431,-0.013424,-0.008612,65.763168,22.008331,-146.196411,,,
729861127.617883,-1.159614,4.623641,55.348114,-0.073425,-0.011078,0.960922,-0.041431,-0.013424,-0.008612,65.763168,22.008331,-146.196411,,,
729861127.621202,-1.176913,4.617499,55.346292,-0.073425,-0.011078,0.960922,-0.064904,-0.017437,-0.014206,65.763168,22.008331,-146.196411,,,
729861127.624564,-1.176913,4.617499,55.346292,-0.073425,-0.011078,0.960922,-0.064904,-0.017437,-0.014206,65.763168,22.008331,-146.196411,,,
729861127.627883,-1.196118,4.611773,55.343673,-0.074203,-0.014038,0.969818,-0.064904,-0.017437,-0.014206,65.763168,22.008331,-146.196411,,,
729861127.631211,-1.21792,4.606934,55.340672,-0.074203,-0.014038,0.969818,-0.077962,-0.012204,-0.017881,65.763168,22.008331,-146.196411,,,
729861127.634604,-1.21792,4.606934,55.340672,-0.074203,-0.014038,0.969818,-0.077962,-0.012204,-0.017881,65.763168,22.008331,-146.196411,,,
729861127.637888,-1.23987,4.601736,55.337796,-0.072449,-0.017776,0.983124,-0.077962,-0.012204,-0.017881,65.763168,22.008331,-146.196411,,,
729861127.641223,-1.260886,4.598866,55.334884,-0.072449,-0.017776,0.983124,-0.069097,-0.003527,-0.017527,65.763168,22.008331,-146.196411,,,
729861127.64455,-1.260886,4.598866,55.334884,-0.072449,-0.017776,0.983124,-0.069097,-0.003527,-0.017527,65.763168,22.008331,-146.196411,,,
729861127.647937,-1.279957,4.596994,55.331469,-0.073013,-0.022675,1.003418,-0.069097,-0.003527,-0.017527,65.754959,22.37883,-146.465561,,,
729861127.651196,-1.297039,4.599883,55.327614,-0.073013,-0.022675,1.003418,-0.053256,0.020934,-0.019531,65.754959,22.37883,-146.465561,,,
