Time (sec),Pitch (deg),Roll (deg),Yaw(deg),X-Acceleration (g),Y-Acceleration (g),Z-Acceleration (g),Pitch Rate (deg/sec),Roll Rate (deg/sec),Yaw Rate (deg/sec),Magnetic Field in X direction (uT),Magnetic Field in Y direction (uT),Magnetic Field in Z Direction (uT),Latitude (deg),Longitude (deg),Altitude (m)
729860973.282066,0.342721,3.781505,46.358363,-0.055191,-0.017059,1.061249,0.067371,0.06602,-0.028182,63.241013,6.650085,-146.086334,,,
729860973.285485,0.363707,3.797802,46.349689,-0.055191,-0.017059,1.061249,0.067371,0.06602,-0.028182,63.241013,6.650085,-146.086334,,,
729860973.288756,0.363707,3.797802,46.349689,-0.055191,-0.017059,1.061249,0.067371,0.06602,-0.028182,63.241013,6.650085,-146.086334,,,
729860973.292044,0.391072,3.80958,46.3423,-0.063995,-0.013535,1.038376,0.09465,0.037081,-0.01734,63.241013,6.650085,-146.086334,,,
729860973.295389,0.417129,3.816818,46.336086,-0.063995,-0.013535,1.038376,0.09465,0.037081,-0.01734,63.241013,6.650085,-146.086334,,,
729860973.298708,0.417129,3.816818,46.336086,-0.063995,-0.013535,1.038376,0.09465,0.037081,-0.01734,63.241013,6.650085,-146.086334,,,
729860973.302039,0.443717,3.817951,46.330616,-0.067841,-0.001007,1.006042,0.083842,0.004218,-0.012934,63.241013,6.650085,-146.086334,,,
729860973.305364,0.465102,3.816916,46.326656,-0.067841,-0.001007,1.006042,0.083842,0.004218,-0.012934,63.241013,6.650085,-146.086334,,,
729860973.308699,0.465102,3.816916,46.326656,-0.067841,-0.001007,1.006042,0.083842,0.004218,-0.012934,63.241013,6.650085,-146.086334,,,
729860973.312039,0.483167,3.811235,46.324384,-0.072464,0.006622,0.990021,0.050803,-0.014695,-0.003553,63.241013,6.650085,-146.086334,,,
729860973.315369,0.494385,3.804795,46.323102,-0.072464,0.006622,0.990021,0.050803,-0.014695,-0.003553,63.411819,6.246811,-146.028214,,,
729860973.318726,0.494385,3.804795,46.323102,-0.072464,0.006622,0.990021,0.050803,-0.014695,-0.003553,63.411819,6.246811,-146.028214,,,
729860973.322037,0.500612,3.793857,46.322397,-0.073959,0.010056,0.978653,0.0114,-0.031618,-0.002259,63.411819,6.246811,-146.028214,,,
729860973.325364,0.500878,3.783679,46.322703,-0.073959,0.010056,0.978653,0.0114,-0.031618,-0.002259,63.411819,6.246811,-146.028214,,,
729860973.328774,0.500878,3.783679,46.322703,-0.073959,0.010056,0.978653,0.0114,-0.031618,-0.002259,63.411819,6.246811,-146.028214,,,
729860973.332026,0.495282,3.771073,46.324528,-0.076004,0.017334,0.971375,-0.031927,-0.029681,0.005345,63.411819,6.246811,-146.028214,,,
729860973.335383,0.483144,3.76203,46.328308,-0.076004,0.017334,0.971375,-0.031927,-0.029681,0.005345,63.411819,6.246811,-146.028214,,,
729860973.338725,0.483144,3.76203,46.328308,-0.076004,0.017334,0.971375,-0.031927,-0.029681,0.005345,63.411819,6.246811,-146.028214,,,
729860973.342026,0.46492,3.751049,46.334314,-0.079346,0.020157,0.968857,-0.07053,-0.021402,0.01821,63.411819,6.246811,-146.028214,,,
729860973.34537,0.442952,3.744626,46.341944,-0.079346,0.020157,0.968857,-0.07053,-0.021402,0.01821,63.411819,6.246811,-146.028214,,,
729860973.348704,0.442952,3.744626,46.341944,-0.079346,0.020157,0.968857,-0.07053,-0.021402,0.01821,63.411819,6.246811,-146.028214,,,
729860973.352034,0.416125,3.736592,46.350712,-0.079132,0.02037,0.966721,-0.095278,-0.014155,0.024428,63.411819,6.246811,-146.028214,,,
729860973.355408,0.416125,3.732048,46.360228,-0.079132,0.02037,0.966721,-0.095278,-0.014155,0.024428,63.37204,6.598938,-146.433624,,,
729860973.358688,0.388639,3.732048,46.360228,-0.079132,0.02037,0.966721,-0.095278,-0.014155,0.024428,63.37204,6.598938,-146.433624,,,
729860973.362028,0.36029,3.725774,46.370129,-0.07959,0.011063,0.974396,-0.087749,-0.014562,0.027566,63.37204,6.598938,-146.433624,,,
729860973.365371,0.36029,3.725774,46.370129,-0.07959,0.011063,0.974396,-0.087749,-0.014562,0.027566,63.37204,6.598938,-146.433624,,,
729860973.368753,0.339782,3.718318,46.37964,-0.07959,0.011063,0.974396,-0.087749,-0.014562,0.027566,63.37204,6.598938,-146.433624,,,
729860973.372032,0.326982,3.706844,46.388106,-0.073669,-0.000443,1.001923,-0.018252,-0.038831,0.024796,63.37204,6.598938,-146.433624,,,
729860973.375362,0.326982,3.694895,46.394977,-0.073669,-0.000443,1.001923,-0.018252,-0.038831,0.024796,63.37204,6.598938,-146.433624,,,
729860973.378695,0.327521,3.694895,46.394977,-0.073669,-0.000443,1.001923,-0.018252,-0.038831,0.024796,63.37204,6.598938,-146.433624,,,
729860973.382027,0.336082,3.685206,46.399796,-0.066116,-0.010147,1.032318,0.047223,-0.023987,0.014635,63.37204,6.598938,-146.433624,,,
729860973.385364,0.351879,3.679885,46.402276,-0.066116,-0.010147,1.032318,0.047223,-0.023987,0.014635,63.37204,6.598938,-146.433624,,,
729860973.388698,0.351879,3.679885,46.402276,-0.066116,-0.010147,1.032318,0.047223,-0.023987,0.014635,63.37204,6.598938,-146.433624,,,
729860973.392031,0.370852,3.680575,46.402943,-0.052811,-0.003952,1.017929,0.070503,0.010988,0.00349,63.37204,6.598938,-146.433624,,,
729860973.395426,0.389712,3.684443,46.4028,-0.052811,-0.003952,1.017929,0.070503,0.010988,0.00349,63.37204,6.598938,-146.433624,,,
729860973.398706,0.389712,3.684443,46.4028,-0.052811,-0.003952,1.017929,0.070503,0.010988,0.00349,63.165024,6.599396,-146.056366,,,
729860973.402031,0.405564,3.691387,46.401929,-0.050919,0.012344,0.987091,0.048244,0.022387,-0.002921,63.165024,6.599396,-146.056366,,,
729860973.405382,0.405564,3.691387,46.401929,-0.050919,0.012344,0.987091,0.048244,0.022387,-0.002921,63.165024,6.599396,-146.056366,,,
729860973.408706,0.415353,3.69614,46.399779,-0.050919,0.012344,0.987091,0.048244,0.022387,-0.002921,63.165024,6.599396,-146.056366,,,
729860973.412041,0.417903,3.700723,46.396393,-0.054565,0.024002,0.955231,-0.008333,0.011114,-0.015133,63.165024,6.599396,-146.056366,,,
729860973.41537,0.417903,3.700723,46.396393,-0.054565,0.024002,0.955231,-0.008333,0.011114,-0.015133,63.165024,6.599396,-146.056366,,,
729860973.41871,0.411193,3.70213,46.392229,-0.054565,0.024002,0.955231,-0.008333,0.011114,-0.015133,63.165024,6.599396,-146.056366,,,
729860973.422033,0.397806,3.703357,46.387683,-0.061035,0.022263,0.949951,-0.06375,-0.003231,-0.021223,63.165024,6.599396,-146.056366,,,
729860973.425397,0.397806,3.703357,46.387683,-0.061035,0.022263,0.949951,-0.06375,-0.003231,-0.021223,63.165024,6.599396,-146.056366,,,
729860973.428726,0.376055,3.69995,46.383929,-0.061035,0.022263,0.949951,-0.06375,-0.003231,-0.021223,63.165024,6.599396,-146.056366,,,
729860973.432038,0.351109,3.695627,46.382093,-0.06778,0.017578,0.958893,-0.098127,-0.023719,-0.009986,63.165024,6.599396,-146.056366,,,
729860973.435358,0.351109,3.695627,46.382093,-0.06778,0.017578,0.958893,-0.098127,-0.023719,-0.009986,63.165024,6.599396,-146.056366,,,
729860973.438702,0.321918,3.686004,46.382767,-0.06778,0.017578,0.958893,-0.098127,-0.023719,-0.009986,63.377945,6.804504,-146.467178,,,
729860973.442036,0.293163,3.676097,46.385697,-0.072342,0.010956,0.977097,-0.10513,-0.046147,0.005463,63.377945,6.804504,-146.467178,,,
729860973.445385,0.293163,3.676097,46.385697,-0.072342,0.010956,0.977097,-0.10513,-0.046147,0.005463,63.377945,6.804504,-146.467178,,,
729860973.448769,0.264838,3.662526,46.390127,-0.072342,0.010956,0.977097,-0.10513,-0.046147,0.005463,63.377945,6.804504,-146.467178,,,
729860973.452019,0.237783,3.652569,46.394563,-0.062592,0.004105,1.001251,-0.093314,-0.040087,0.006306,63.377945,6.804504,-146.467178,,,
729860973.455374,0.237783,3.652569,46.394563,-0.062592,0.004105,1.001251,-0.093314,-0.040087,0.006306,63.377945,6.804504,-146.467178,,,
729860973.458768,0.21124,3.641734,46.398099,-0.062592,0.004105,1.001251,-0.093314,-0.040087,0.006306,63.377945,6.804504,-146.467178,,,
729860973.462049,0.182977,3.635481,46.400665,-0.047073,0.006683,1.005264,-0.08787,-0.012504,-0.000153,63.377945,6.804504,-146.467178,,,
729860973.465385,0.182977,3.635481,46.400665,-0.047073,0.006683,1.005264,-0.08787,-0.012504,-0.000153,63.377945,6.804504,-146.467178,,,
729860973.46871,0.159849,3.633636,46.401401,-0.047073,0.006683,1.005264,-0.08787,-0.012504,-0.000153,63.377945,6.804504,-146.467178,,,
729860973.472029,0.141409,3.634536,46.400545,-0.04155,0.000778,1.025848,-0.04089,0.021361,-0.008348,63.377945,6.804504,-146.467178,,,
729860973.475364,0.141409,3.634536,46.400545,-0.04155,0.000778,1.025848,-0.04089,0.021361,-0.008348,63.377945,6.804504,-146.467178,,,
729860973.478697,0.135835,3.642978,46.398397,-0.04155,0.000778,1.025848,-0.04089,0.021361,-0.008348,63.181763,6.984528,-146.583725,,,
729860973.482044,0.144997,3.656145,46.394486,-0.050339,-0.020004,1.085663,0.057688,0.065971,-0.014335,63.181763,6.984528,-146.583725,,,
729860973.485382,0.144997,3.656145,46.394486,-0.050339,-0.020004,1.085663,0.057688,0.065971,-0.014335,63.181763,6.984528,-146.583725,,,
729860973.4888,0.167135,3.677106,46.388826,-0.050339,-0.020004,1.085663,0.057688,0.065971,-0.014335,63.181763,6.984528,-146.583725,,,
729860973.492017,0.200802,3.7014,46.38153,-0.056915,-0.021423,1.097,0.128834,0.093688,-0.021144,63.181763,6.984528,-146.583725,,,
729860973.495394,0.200802,3.7014,46.38153,-0.056915,-0.021423,1.097,0.128834,0.093688,-0.021144,63.181763,6.984528,-146.583725,,,
729860973.4987,0.239516,3.727411,46.37305,-0.056915,-0.021423,1.097,0.128834,0.093688,-0.021144,63.181763,6.984528,-146.583725,,,
729860973.502028,0.281903,3.751811,46.363936,-0.062027,-0.008362,1.049042,0.145996,0.083583,-0.024314,63.181763,6.984528,-146.583725,,,
729860973.505382,0.281903,3.751811,46.363936,-0.062027,-0.008362,1.049042,0.145996,0.083583,-0.024314,63.181763,6.984528,-146.583725,,,
729860973.508695,0.320986,3.771486,46.35448,-0.062027,-0.008362,1.049042,0.145996,0.083583,-0.024314,63.181763,6.984528,-146.583725,,,
729860973.512029,0.354909,3.785015,46.34495,-0.068359,0.015778,0.993851,0.104355,0.039197,-0.027457,63.181763,6.984528,-146.583725,,,
729860973.515458,0.354909,3.785015,46.34495,-0.068359,0.015778,0.993851,0.104355,0.039197,-0.027457,63.181763,6.984528,-146.583725,,,
729860973.518737,0.379016,3.79292,46.335424,-0.068359,0.015778,0.993851,0.104355,0.039197,-0.027457,63.181763,6.984528,-146.583725,,,
729860973.522038,0.393981,3.796218,46.326133,-0.075378,0.027893,0.958679,0.037934,0.003988,-0.030205,63.548035,6.587601,-146.250443,,,
729860973.525365,0.393981,3.796218,46.326133,-0.075378,0.027893,0.958679,0.037934,0.003988,-0.030205,63.548035,6.587601,-146.250443,,,
729860973.528773,0.397891,3.794534,46.317782,-0.075378,0.027893,0.958679,0.037934,0.003988,-0.030205,63.548035,6.587601,-146.250443,,,
729860973.532015,0.390337,3.789621,46.311914,-0.081543,0.029327,0.946991,-0.042065,-0.018739,-0.018155,63.548035,6.587601,-146.250443,,,
729860973.535377,0.390337,3.789621,46.311914,-0.081543,0.029327,0.946991,-0.042065,-0.018739,-0.018155,63.548035,6.587601,-146.250443,,,
729860973.538716,0.372962,3.782609,46.309838,-0.081543,0.029327,0.946991,-0.042065,-0.018739,-0.018155,63.548035,6.587601,-146.250443,,,
729860973.542027,0.346518,3.773847,46.312189,-0.091919,0.02858,0.948929,-0.106719,-0.024073,0.008517,63.548035,6.587601,-146.250443,,,
729860973.545378,0.346518,3.773847,46.312189,-0.091919,0.02858,0.948929,-0.106719,-0.024073,0.008517,63.548035,6.587601,-146.250443,,,
729860973.548713,0.313747,3.767369,46.319435,-0.091919,0.02858,0.948929,-0.106719,-0.024073,0.008517,63.548035,6.587601,-146.250443,,,
729860973.552027,0.277828,3.761858,46.330924,-0.094482,0.023087,0.970398,-0.130082,-0.007179,0.036593,63.548035,6.587601,-146.250443,,,
729860973.555426,0.277828,3.761858,46.330924,-0.094482,0.023087,0.970398,-0.130082,-0.007179,0.036593,63.548035,6.587601,-146.250443,,,
729860973.558688,0.241982,3.760356,46.345768,-0.094482,0.023087,0.970398,-0.130082,-0.007179,0.036593,63.548035,6.587601,-146.250443,,,
729860973.562032,0.207632,3.759622,46.36299,-0.085556,0.012482,0.994873,-0.113635,0.006817,0.054162,63.647507,6.429459,-146.033722,,,
729860973.565373,0.207632,3.759622,46.36299,-0.085556,0.012482,0.994873,-0.113635,0.006817,0.054162,63.647507,6.429459,-146.033722,,,
729860973.568771,0.178439,3.760698,46.380936,-0.085556,0.012482,0.994873,-0.113635,0.006817,0.054162,63.647507,6.429459,-146.033722,,,
729860973.57202,0.153798,3.760536,46.397746,-0.074142,0.001709,1.011337,-0.072498,0.004177,0.048951,63.647507,6.429459,-146.033722,,,
729860973.575363,0.153798,3.760536,46.397746,-0.074142,0.001709,1.011337,-0.072498,0.004177,0.048951,63.647507,6.429459,-146.033722,,,
729860973.578708,0.139222,3.760496,46.412058,-0.074142,0.001709,1.011337,-0.072498,0.004177,0.048951,63.647507,6.429459,-146.033722,,,
729860973.582027,0.135221,3.759264,46.422833,-0.053253,-0.004318,1.039062,0.008393,-0.000489,0.029545,63.647507,6.429459,-146.033722,,,
729860973.585367,0.135221,3.759264,46.422833,-0.053253,-0.004318,1.039062,0.008393,-0.000489,0.029545,63.647507,6.429459,-146.033722,,,
729860973.588728,0.14464,3.757995,46.428707,-0.053253,-0.004318,1.039062,0.008393,-0.000489,0.029545,63.647507,6.429459,-146.033722,,,
729860973.592032,0.166226,3.75686,46.427759,-0.034027,-0.011765,1.060059,0.093248,0.000175,-0.012508,63.647507,6.429459,-146.033722,,,
729860973.595436,0.166226,3.75686,46.427759,-0.034027,-0.011765,1.060059,0.093248,0.000175,-0.012508,63.647507,6.429459,-146.033722,,,
729860973.598722,0.19624,3.756617,46.419574,-0.034027,-0.011765,1.060059,0.093248,0.000175,-0.012508,63.647507,6.429459,-146.033722,,,
729860973.60204,0.232918,3.758484,46.405734,-0.03537,-0.009659,1.040497,0.132267,0.009855,-0.049434,63.827454,6.563644,-146.192947,,,
729860973.605372,0.232918,3.758484,46.405734,-0.03537,-0.009659,1.040497,0.132267,0.009855,-0.049434,63.827454,6.563644,-146.192947,,,
729860973.608696,0.268965,3.760617,46.388154,-0.03537,-0.009659,1.040497,0.132267,0.009855,-0.049434,63.827454,6.563644,-146.192947,,,
729860973.612026,0.303277,3.763392,46.369604,-0.049683,0.006287,0.999786,0.110303,0.005797,-0.057621,63.827454,6.563644,-146.192947,,,
729860973.61538,0.303277,3.763392,46.369604,-0.049683,0.006287,0.999786,0.110303,0.005797,-0.057621,63.827454,6.563644,-146.192947,,,
729860973.618707,0.330011,3.764333,46.352047,-0.049683,0.006287,0.999786,0.110303,0.005797,-0.057621,63.827454,6.563644,-146.192947,,,
729860973.622031,0.349041,3.766836,46.336484,-0.061737,0.025467,0.960526,0.046253,0.005139,-0.047827,63.827454,6.563644,-146.192947,,,
729860973.625362,0.349041,3.766836,46.336484,-0.061737,0.025467,0.960526,0.046253,0.005139,-0.047827,63.827454,6.563644,-146.192947,,,
729860973.628717,0.355961,3.767737,46.32406,-0.061737,0.025467,0.960526,0.046253,0.005139,-0.047827,63.827454,6.563644,-146.192947,,,
729860973.632031,0.353324,3.771501,46.314734,-0.065643,0.031677,0.944214,-0.028317,0.012999,-0.031027,63.827454,6.563644,-146.192947,,,
729860973.635457,0.353324,3.771501,46.314734,-0.065643,0.031677,0.944214,-0.028317,0.012999,-0.031027,63.827454,6.563644,-146.192947,,,
729860973.638709,0.340107,3.775584,46.307489,-0.065643,0.031677,0.944214,-0.028317,0.012999,-0.031027,63.827454,6.563644,-146.192947,,,
729860973.642067,0.319124,3.782712,46.301592,-0.068695,0.02771,0.948227,-0.086669,0.025485,-0.025439,63.719666,6.344208,-146.272888,,,
729860973.64538,0.319124,3.782712,46.301592,-0.068695,0.02771,0.948227,-0.086669,0.025485,-0.025439,63.719666,6.344208,-146.272888,,,
729860973.648759,0.291407,3.789379,46.29657,-0.068695,0.02771,0.948227,-0.086669,0.025485,-0.025439,63.719666,6.344208,-146.272888,,,
729860973.652031,0.259511,3.796666,46.291848,-0.068329,0.020248,0.951828,-0.115169,0.02385,-0.02525,63.719666,6.344208,-146.272888,,,
729860973.655379,0.259511,3.796666,46.291848,-0.068329,0.020248,0.951828,-0.115169,0.02385,-0.02525,63.719666,6.344208,-146.272888,,,
729860973.6587,0.225406,3.802696,46.286842,-0.068329,0.020248,0.951828,-0.115169,0.02385,-0.02525,63.719666,6.344208,-146.272888,,,
729860973.66204,0.191241,3.808165,46.280672,-0.063492,0.012802,0.97345,-0.111101,0.025465,-0.033119,63.719666,6.344208,-146.272888,,,
729860973.665381,0.191241,3.808165,46.280672,-0.063492,0.012802,0.97345,-0.111101,0.025465,-0.033119,63.719666,6.344208,-146.272888,,,
729860973.668703,0.160348,3.815967,46.272981,-0.063492,0.012802,0.97345,-0.111101,0.025465,-0.033119,63.719666,6.344208,-146.272888,,,
729860973.672045,0.133138,3.823307,46.264157,-0.066589,-0.002396,1.008972,-0.077465,0.043478,-0.038864,63.719666,6.344208,-146.272888,,,
729860973.675391,0.133138,3.823307,46.264157,-0.066589,-0.002396,1.008972,-0.077465,0.043478,-0.038864,63.719666,6.344208,-146.272888,,,
729860973.678708,0.112877,3.836375,46.254382,-0.066589,-0.002396,1.008972,-0.077465,0.043478,-0.038864,63.719666,6.344208,-146.272888,,,
729860973.68204,0.097505,3.849147,46.243629,-0.066147,-0.009979,1.027161,-0.035269,0.064469,-0.04291,63.719666,6.344208,-146.272888,,,
729860973.685448,0.097505,3.849147,46.243629,-0.066147,-0.009979,1.027161,-0.035269,0.064469,-0.04291,63.775375,6.569595,-146.253586,,,
729860973.68869,0.089982,3.868235,46.231464,-0.066147,-0.009979,1.027161,-0.035269,0.064469,-0.04291,63.775375,6.569595,-146.253586,,,
729860973.692048,0.088809,3.886674,46.218445,-0.072708,-0.011566,1.033936,0.009172,0.074509,-0.045908,63.775375,6.569595,-146.253586,,,
729860973.695376,0.088809,3.886674,46.218445,-0.072708,-0.011566,1.033936,0.009172,0.074509,-0.045908,63.775375,6.569595,-146.253586,,,
729860973.698777,0.092681,3.906739,46.20555,-0.072708,-0.011566,1.033936,0.009172,0.074509,-0.045908,63.775375,6.569595,-146.253586,,,
729860973.702033,0.102678,3.923935,46.193169,-0.082016,-0.014664,1.028824,0.039193,0.059249,-0.040237,63.775375,6.569595,-146.253586,,,
729860973.705382,0.102678,3.923935,46.193169,-0.082016,-0.014664,1.028824,0.039193,0.059249,-0.040237,63.775375,6.569595,-146.253586,,,
729860973.708755,0.114498,3.937571,46.18141,-0.082016,-0.014664,1.028824,0.039193,0.059249,-0.040237,63.775375,6.569595,-146.253586,,,
729860973.712032,0.131666,3.946714,46.169341,-0.085953,-0.012283,1.019058,0.056225,0.028766,-0.041159,63.775375,6.569595,-146.253586,,,
729860973.715374,0.131666,3.946714,46.169341,-0.085953,-0.012283,1.019058,0.056225,0.028766,-0.041159,63.775375,6.569595,-146.253586,,,
729860973.718717,0.146414,3.952628,46.157124,-0.085953,-0.012283,1.019058,0.056225,0.028766,-0.041159,63.775375,6.569595,-146.253586,,,
729860973.722029,0.161347,3.955202,46.145453,-0.08461,-0.00386,1.003036,0.039544,0.003698,-0.038466,63.775375,6.569595,-146.253586,,,
729860973.725364,0.161347,3.955202,46.145453,-0.08461,-0.00386,1.003036,0.039544,0.003698,-0.038466,63.969437,6.392838,-146.267807,,,
729860973.728725,0.169453,3.953876,46.135274,-0.08461,-0.00386,1.003036,0.039544,0.003698,-0.038466,63.969437,6.392838,-146.267807,,,
729860973.732028,0.174234,3.950452,46.127006,-0.086716,0.001297,0.981476,0.002966,-0.012949,-0.027657,63.969437,6.392838,-146.267807,,,
729860973.73543,0.174234,3.950452,46.127006,-0.086716,0.001297,0.981476,0.002966,-0.012949,-0.027657,63.969437,6.392838,-146.267807,,,
729860973.738714,0.171496,3.945807,46.120361,-0.086716,0.001297,0.981476,0.002966,-0.012949,-0.027657,63.969437,6.392838,-146.267807,,,
729860973.742031,0.164069,3.940534,46.115557,-0.084412,0.008163,0.970276,-0.039099,-0.015252,-0.017743,63.969437,6.392838,-146.267807,,,
729860973.745361,0.164069,3.940534,46.115557,-0.084412,0.008163,0.970276,-0.039099,-0.015252,-0.017743,63.969437,6.392838,-146.267807,,,
729860973.748799,0.149672,3.935191,46.112572,-0.084412,0.008163,0.970276,-0.039099,-0.015252,-0.017743,63.969437,6.392838,-146.267807,,,
729860973.752034,0.130883,3.929107,46.111449,-0.080368,0.011932,0.970245,-0.07013,-0.017079,-0.006793,63.969437,6.392838,-146.267807,,,
729860973.755393,0.130883,3.929107,46.111449,-0.080368,0.011932,0.970245,-0.07013,-0.017079,-0.006793,63.969437,6.392838,-146.267807,,,
729860973.758701,0.10965,3.923384,46.111606,-0.080368,0.011932,0.970245,-0.07013,-0.017079,-0.006793,63.969437,6.392838,-146.267807,,,
729860973.7621,0.085835,3.917919,46.111815,-0.072098,0.005875,0.976898,-0.077501,-0.011347,-0.006919,63.969437,6.392838,-146.267807,,,
729860973.765363,0.085835,3.917919,46.111815,-0.072098,0.005875,0.976898,-0.077501,-0.011347,-0.006919,63.849777,6.410309,-146.144852,,,
729860973.768711,0.063134,3.915334,46.111793,-0.072098,0.005875,0.976898,-0.077501,-0.011347,-0.006919,63.849777,6.410309,-146.144852,,,
729860973.772041,0.039244,3.916623,46.111574,-0.065002,0.002487,0.989578,-0.073627,0.015489,-0.008054,63.849777,6.410309,-146.144852,,,
729860973.775366,0.039244,3.916623,46.111574,-0.065002,0.002487,0.989578,-0.073627,0.015489,-0.008054,63.849777,6.410309,-146.144852,,,
729860973.77872,0.019086,3.92281,46.111172,-0.065002,0.002487,0.989578,-0.073627,0.015489,-0.008054,63.849777,6.410309,-146.144852,,,
729860973.782038,-0.000199,3.935647,46.110357,-0.060135,-0.003555,1.005951,-0.053264,0.051757,-0.009559,63.849777,6.410309,-146.144852,,,
729860973.785385,-0.000199,3.935647,46.110357,-0.060135,-0.003555,1.005951,-0.053264,0.051757,-0.009559,63.849777,6.410309,-146.144852,,,
729860973.788699,-0.014167,3.951664,46.109031,-0.060135,-0.003555,1.005951,-0.053264,0.051757,-0.009559,63.849777,6.410309,-146.144852,,,
729860973.79204,-0.026135,3.973682,46.107155,-0.059204,-0.004944,1.013992,-0.023008,0.07457,-0.011333,63.849777,6.410309,-146.144852,,,
729860973.795375,-0.026135,3.973682,46.107155,-0.059204,-0.004944,1.013992,-0.023008,0.07457,-0.011333,63.849777,6.410309,-146.144852,,,
729860973.798702,-0.029722,3.994032,46.104521,-0.059204,-0.004944,1.013992,-0.023008,0.07457,-0.011333,63.849777,6.410309,-146.144852,,,
729860973.802042,-0.028229,4.016452,46.101063,-0.065247,-0.009567,1.016479,0.020509,0.068669,-0.01402,63.849777,6.410309,-146.144852,,,
729860973.805389,-0.028229,4.016452,46.101063,-0.065247,-0.009567,1.016479,0.020509,0.068669,-0.01402,64.209381,6.133667,-145.842896,,,
729860973.8087,-0.019581,4.034541,46.097117,-0.065247,-0.009567,1.016479,0.020509,0.068669,-0.01402,64.209381,6.133667,-145.842896,,,
729860973.812041,-0.005658,4.056053,46.093024,-0.07193,-0.01265,1.019943,0.057767,0.058181,-0.012421,64.209381,6.133667,-145.842896,,,
729860973.81543,-0.005658,4.056053,46.093024,-0.07193,-0.01265,1.019943,0.057767,0.058181,-0.012421,64.209381,6.133667,-145.842896,,,
729860973.818695,0.012073,4.070392,46.088273,-0.07193,-0.01265,1.019943,0.057767,0.058181,-0.012421,64.209381,6.133667,-145.842896,,,
729860973.822044,0.033307,4.086965,46.083062,-0.072464,-0.006485,1.001831,0.068963,0.035561,-0.014813,64.209381,6.133667,-145.842896,,,
729860973.825365,0.033307,4.086965,46.083062,-0.072464,-0.006485,1.001831,0.068963,0.035561,-0.014813,64.209381,6.133667,-145.842896,,,
729860973.82878,0.05268,4.093583,46.077672,-0.072464,-0.006485,1.001831,0.068963,0.035561,-0.014813,64.209381,6.133667,-145.842896,,,
729860973.832027,0.073669,4.098361,46.071682,-0.073959,0.0009,0.978134,0.058397,-0.0055,-0.019661,64.209381,6.133667,-145.842896,,,
729860973.835371,0.073669,4.098361,46.071682,-0.073959,0.0009,0.978134,0.058397,-0.0055,-0.019661,64.209381,6.133667,-145.842896,,,
729860973.838714,0.08824,4.093325,46.064638,-0.073959,0.0009,0.978134,0.058397,-0.0055,-0.019661,64.209381,6.133667,-145.842896,,,
729860973.842034,0.100824,4.085641,46.056642,-0.072723,0.009293,0.962906,0.032462,-0.033015,-0.02819,64.209381,6.133667,-145.842896,,,
729860973.845394,0.100824,4.085641,46.056642,-0.072723,0.009293,0.962906,0.032462,-0.033015,-0.02819,64.209381,6.133667,-145.842896,,,
729860973.848713,0.106602,4.075283,46.047742,-0.072723,0.009293,0.962906,0.032462,-0.033015,-0.02819,64.129333,6.287476,-146.136948,,,
729860973.852029,0.106401,4.063831,46.038892,-0.070175,0.010422,0.958176,-0.0103,-0.033035,-0.030884,64.129333,6.287476,-146.136948,,,
729860973.855449,0.106401,4.063831,46.038892,-0.070175,0.010422,0.958176,-0.0103,-0.033035,-0.030884,64.129333,6.287476,-146.136948,,,
729860973.858689,0.099713,4.054516,46.031809,-0.070175,0.010422,0.958176,-0.0103,-0.033035,-0.030884,64.129333,6.287476,-146.136948,,,
729860973.862032,0.086011,4.044053,46.026993,-0.068375,0.010086,0.954941,-0.052591,-0.021155,-0.018095,64.129333,6.287476,-146.136948,,,
729860973.865362,0.086011,4.044053,46.026993,-0.068375,0.010086,0.954941,-0.052591,-0.021155,-0.018095,64.129333,6.287476,-146.136948,,,
729860973.868787,0.068086,4.038332,46.024448,-0.068375,0.010086,0.954941,-0.052591,-0.021155,-0.018095,64.129333,6.287476,-146.136948,,,
729860973.872024,0.04427,4.030294,46.024585,-0.070999,0.013657,0.95816,-0.084668,-0.011437,-0.001621,64.129333,6.287476,-146.136948,,,
729860973.875375,0.04427,4.030294,46.024585,-0.070999,0.013657,0.95816,-0.084668,-0.011437,-0.001621,64.129333,6.287476,-146.136948,,,
729860973.878722,0.018346,4.0262,46.02731,-0.070999,0.013657,0.95816,-0.084668,-0.011437,-0.001621,64.129333,6.287476,-146.136948,,,
729860973.882034,-0.009911,4.019199,46.032091,-0.073502,0.007751,0.96875,-0.091655,-0.019516,0.012182,64.129333,6.287476,-146.136948,,,
729860973.885388,-0.009911,4.019199,46.032091,-0.073502,0.007751,0.96875,-0.091655,-0.019516,0.012182,64.129333,6.287476,-146.136948,,,
729860973.888723,-0.034893,4.012744,46.037274,-0.073502,0.007751,0.96875,-0.091655,-0.019516,0.012182,64.057434,6.260086,-145.960175,,,
729860973.892095,-0.059262,4.005992,46.041353,-0.061401,-0.001907,0.994354,-0.069062,-0.020775,0.006009,64.057434,6.260086,-145.960175,,,
729860973.895433,-0.059262,4.005992,46.041353,-0.061401,-0.001907,0.994354,-0.069062,-0.020775,0.006009,64.057434,6.260086,-145.960175,,,
729860973.898711,-0.076396,3.999334,46.043465,-0.061401,-0.001907,0.994354,-0.069062,-0.020775,0.006009,64.057434,6.260086,-145.960175,,,
729860973.902048,-0.088791,3.993211,46.042579,-0.050339,-0.010223,1.017807,-0.023157,-0.021491,-0.011773,64.057434,6.260086,-145.960175,,,
729860973.905383,-0.088791,3.993211,46.042579,-0.050339,-0.010223,1.017807,-0.023157,-0.021491,-0.011773,64.057434,6.260086,-145.960175,,,
729860973.908785,-0.092833,3.987257,46.038583,-0.050339,-0.010223,1.017807,-0.023157,-0.021491,-0.011773,64.057434,6.260086,-145.960175,,,
729860973.912101,-0.089657,3.985277,46.031687,-0.046844,-0.01767,1.034515,0.027993,-0.001912,-0.028451,64.057434,6.260086,-145.960175,,,
729860973.915385,-0.089657,3.985277,46.031687,-0.046844,-0.01767,1.034515,0.027993,-0.001912,-0.028451,64.057434,6.260086,-145.960175,,,
729860973.918725,-0.078098,3.984641,46.022711,-0.046844,-0.01767,1.034515,0.027993,-0.001912,-0.028451,64.057434,6.260086,-145.960175,,,
729860973.922077,-0.057787,3.98671,46.012039,-0.050339,-0.022034,1.047592,0.080022,0.010522,-0.036647,64.057434,6.260086,-145.960175,,,
729860973.925389,-0.057787,3.98671,46.012039,-0.050339,-0.022034,1.047592,0.080022,0.010522,-0.036647,64.057434,6.260086,-145.960175,,,
729860973.928695,-0.033897,3.989306,45.999748,-0.050339,-0.022034,1.047592,0.080022,0.010522,-0.036647,64.061325,6.179459,-146.193848,,,
729860973.932033,-0.006406,3.99278,45.987143,-0.058258,-0.014847,1.026138,0.094119,0.012272,-0.037845,64.061325,6.179459,-146.193848,,,
729860973.935459,-0.006406,3.99278,45.987143,-0.058258,-0.014847,1.026138,0.094119,0.012272,-0.037845,64.061325,6.179459,-146.193848,,,
729860973.938746,0.018261,3.995267,45.975331,-0.058258,-0.014847,1.026138,0.094119,0.012272,-0.037845,64.061325,6.179459,-146.193848,,,
729860973.942054,0.039559,3.996428,45.963985,-0.062088,0.001038,0.989563,0.061688,0.000507,-0.036864,64.061325,6.179459,-146.193848,,,
729860973.945367,0.039559,3.996428,45.963985,-0.062088,0.001038,0.989563,0.061688,0.000507,-0.036864,64.061325,6.179459,-146.193848,,,
729860973.948782,0.052692,3.994923,45.952386,-0.062088,0.001038,0.989563,0.061688,0.000507,-0.036864,64.061325,6.179459,-146.193848,,,
729860973.952042,0.05926,3.99194,45.940333,-0.07016,0.014938,0.956284,0.004602,-0.012958,-0.044115,64.061325,6.179459,-146.193848,,,
729860973.955384,0.05926,3.99194,45.940333,-0.07016,0.014938,0.956284,0.004602,-0.012958,-0.044115,64.061325,6.179459,-146.193848,,,
729860973.95875,0.055076,3.986679,45.928684,-0.07016,0.014938,0.956284,0.004602,-0.012958,-0.044115,64.061325,6.179459,-146.193848,,,
729860973.962032,0.043156,3.981115,45.917908,-0.079483,0.017578,0.949677,-0.0573,-0.021504,-0.042349,64.061325,6.179459,-146.193848,,,
729860973.965374,0.043156,3.981115,45.917908,-0.079483,0.017578,0.949677,-0.0573,-0.021504,-0.042349,64.061325,6.179459,-146.193848,,,
729860973.968708,0.022833,3.973658,45.908486,-0.079483,0.017578,0.949677,-0.0573,-0.021504,-0.042349,64.061325,6.179459,-146.193848,,,
729860973.972055,-0.002062,3.965632,45.902112,-0.089798,0.014694,0.958862,-0.09094,-0.021333,-0.023353,64.146027,6.163223,-146.099747,,,
729860973.975448,-0.002062,3.965632,45.902112,-0.089798,0.014694,0.958862,-0.09094,-0.021333,-0.023353,64.146027,6.163223,-146.099747,,,
729860973.978705,-0.02919,3.959858,45.899092,-0.089798,0.014694,0.958862,-0.09094,-0.021333,-0.023353,64.146027,6.163223,-146.099747,,,
729860973.982063,-0.05797,3.954347,45.899062,-0.092941,0.003357,0.981781,-0.096997,-0.003748,-0.00287,64.146027,6.163223,-146.099747,,,
729860973.985362,-0.05797,3.954347,45.899062,-0.092941,0.003357,0.981781,-0.096997,-0.003748,-0.00287,64.146027,6.163223,-146.099747,,,
729860973.988781,-0.085808,3.953817,45.901755,-0.092941,0.003357,0.981781,-0.096997,-0.003748,-0.00287,64.146027,6.163223,-146.099747,,,
729860973.992043,-0.113525,3.952772,45.906315,-0.090622,-0.004608,0.99704,-0.086083,0.014889,0.010916,64.146027,6.163223,-146.099747,,,
729860973.995419,-0.113525,3.952772,45.906315,-0.090622,-0.004608,0.99704,-0.086083,0.014889,0.010916,64.146027,6.163223,-146.099747,,,
729860973.998711,-0.135864,3.956456,45.911735,-0.090622,-0.004608,0.99704,-0.086083,0.014889,0.010916,64.146027,6.163223,-146.099747,,,
729860974.002172,-0.154066,3.957339,45.917446,-0.088898,-0.009323,1.01358,-0.041784,0.01584,0.016125,64.146027,6.163223,-146.099747,,,
729860974.005379,-0.154066,3.957339,45.917446,-0.088898,-0.009323,1.01358,-0.041784,0.01584,0.016125,64.146027,6.163223,-146.099747,,,
729860974.008732,-0.161603,3.959786,45.922902,-0.088898,-0.009323,1.01358,-0.041784,0.01584,0.016125,64.146027,6.163223,-146.099747,,,
729860974.012065,-0.161603,3.956809,45.92719,-0.085587,-0.015564,1.031647,0.019294,-0.008875,0.012206,63.933075,6.082031,-145.91658,,,
729860974.015445,-0.162134,3.956809,45.92719,-0.085587,-0.015564,1.031647,0.019294,-0.008875,0.012206,63.933075,6.082031,-145.91658,,,
729860974.018723,-0.152756,3.951026,45.929668,-0.085587,-0.015564,1.031647,0.019294,-0.008875,0.012206,63.933075,6.082031,-145.91658,,,
729860974.022115,-0.136419,3.939485,45.930264,-0.080673,-0.019699,1.029144,0.06961,-0.042369,0.002536,63.933075,6.082031,-145.91658,,,
729860974.025377,-0.136419,3.939485,45.930264,-0.080673,-0.019699,1.029144,0.06961,-0.042369,0.002536,63.933075,6.082031,-145.91658,,,
729860974.02878,-0.113481,3.92486,45.929226,-0.080673,-0.019699,1.029144,0.06961,-0.042369,0.002536,63.933075,6.082031,-145.91658,,,
729860974.032032,-0.113481,3.92486,45.929226,-0.07338,-0.019287,1.027283,0.10511,-0.061283,-0.009115,63.933075,6.082031,-145.91658,,,
729860974.035384,-0.083649,3.90777,45.926185,-0.07338,-0.019287,1.027283,0.10511,-0.061283,-0.009115,63.933075,6.082031,-145.91658,,,
729860974.038719,-0.05366,3.889264,45.921489,-0.07338,-0.019287,1.027283,0.10511,-0.061283,-0.009115,63.933075,6.082031,-145.91658,,,
729860974.042056,-0.05366,3.889264,45.916651,-0.067917,-0.014755,1.017853,0.103169,-0.059316,-0.010301,63.933075,6.082031,-145.91658,,,
729860974.045382,-0.021358,3.873002,45.916651,-0.067917,-0.014755,1.017853,0.103169,-0.059316,-0.010301,63.933075,6.082031,-145.91658,,,
729860974.048714,0.00645,3.855992,45.912195,-0.067917,-0.014755,1.017853,0.103169,-0.059316,-0.010301,63.933075,6.082031,-145.91658,,,
729860974.052059,0.00645,3.855992,45.912195,-0.067917,-0.014755,1.017853,0.071628,-0.044753,-0.007783,64.005356,5.76178,-145.844376,,,
729860974.055365,0.032087,3.844698,45.908406,-0.061096,-0.003113,0.998459,0.071628,-0.044753,-0.007783,64.005356,5.76178,-145.844376,,,
729860974.058725,0.047814,3.832485,45.905901,-0.061096,-0.003113,0.998459,0.071628,-0.044753,-0.007783,64.005356,5.76178,-145.844376,,,
729860974.062027,0.047814,3.832485,45.905901,-0.05658,0.009094,0.976196,0.006569,-0.020601,-0.00174,64.005356,5.76178,-145.844376,,,
729860974.065385,0.054982,3.827892,45.904898,-0.05658,0.009094,0.976196,0.006569,-0.020601,-0.00174,64.005356,5.76178,-145.844376,,,
729860974.068782,0.051216,3.823497,45.905051,-0.05658,0.009094,0.976196,0.006569,-0.020601,-0.00174,64.005356,5.76178,-145.844376,,,
729860974.072042,0.051216,3.823497,45.905051,-0.05658,0.009094,0.976196,-0.061423,0.008608,0.001205,64.005356,5.76178,-145.844376,,,
729860974.075385,0.037267,3.826847,45.906274,-0.052673,0.017944,0.966125,-0.061423,0.008608,0.001205,64.005356,5.76178,-145.844376,,,
729860974.07871,0.015476,3.829542,45.908922,-0.052673,0.017944,0.966125,-0.061423,0.008608,0.001205,64.005356,5.76178,-145.844376,,,
729860974.082036,0.015476,3.829542,45.912509,-0.061432,0.0159,0.964386,-0.108177,0.020907,0.004661,64.005356,5.76178,-145.844376,,,
729860974.085476,-0.014198,3.83738,45.912509,-0.061432,0.0159,0.964386,-0.108177,0.020907,0.004661,64.005356,5.76178,-145.844376,,,
729860974.088727,-0.045825,3.842177,45.916763,-0.061432,0.0159,0.964386,-0.108177,0.020907,0.004661,64.005356,5.76178,-145.844376,,,
729860974.092038,-0.045825,3.842177,45.916763,-0.061432,0.0159,0.964386,-0.099583,0.009178,0.010984,63.913925,5.884796,-145.728683,,,
729860974.095465,-0.07829,3.848326,45.921856,-0.07077,0.005356,0.981033,-0.099583,0.009178,0.010984,63.913925,5.884796,-145.728683,,,
729860974.098719,-0.102919,3.848351,45.927127,-0.07077,0.005356,0.981033,-0.099583,0.009178,0.010984,63.913925,5.884796,-145.728683,,,
729860974.102071,-0.102919,3.848351,45.927127,-0.07077,0.005356,0.981033,-0.031795,-0.009051,0.012019,63.913925,5.884796,-145.728683,,,
729860974.105387,-0.120544,3.848065,45.931898,-0.076492,-0.013336,1.024612,-0.031795,-0.009051,0.012019,63.913925,5.884796,-145.728683,,,
729860974.10878,-0.123028,3.843624,45.935834,-0.076492,-0.013336,1.024612,-0.031795,-0.009051,0.012019,63.913925,5.884796,-145.728683,,,
729860974.112027,-0.123028,3.843624,45.935834,-0.076492,-0.013336,1.024612,-0.031795,-0.009051,0.012019,63.913925,5.884796,-145.728683,,,
729860974.115394,-0.115095,3.839131,45.937951,-0.073517,-0.030716,1.056549,0.05733,-0.01567,0.005252,63.913925,5.884796,-145.728683,,,
729860974.118721,-0.093521,3.834389,45.937376,-0.073517,-0.030716,1.056549,0.05733,-0.01567,0.005252,63.913925,5.884796,-145.728683,,,
729860974.122063,-0.093521,3.834389,45.937376,-0.073517,-0.030716,1.056549,0.120706,-0.011276,-0.007071,63.913925,5.884796,-145.728683,,,
729860974.125396,-0.064792,3.83031,45.934426,-0.062958,-0.027466,1.051376,0.120706,-0.011276,-0.007071,63.913925,5.884796,-145.728683,,,
729860974.128701,-0.02947,3.825957,45.929507,-0.062958,-0.027466,1.051376,0.120706,-0.011276,-0.007071,63.913925,5.884796,-145.728683,,,
729860974.132173,-0.02947,3.825957,45.929507,-0.062958,-0.027466,1.051376,0.120706,-0.011276,-0.007071,63.913925,5.884796,-145.728683,,,
729860974.135453,0.004058,3.819412,45.923038,-0.065063,-0.011795,1.011047,0.115441,-0.021791,-0.018234,64.111954,5.719467,-145.65065,,,
729860974.138705,0.033423,3.812103,45.916284,-0.065063,-0.011795,1.011047,0.115441,-0.021791,-0.018234,64.111954,5.719467,-145.65065,,,
729860974.141835,0.033423,3.812103,45.916284,-0.065063,-0.011795,1.011047,0.115441,-0.021791,-0.018234,64.111954,5.719467,-145.65065,,,
729860974.145438,0.05563,3.803023,45.910545,-0.072098,0.005981,0.961426,0.059461,-0.025201,-0.014892,64.111954,5.719467,-145.65065,,,
729860974.148761,0.067913,3.794432,45.906823,-0.072098,0.005981,0.961426,0.059461,-0.025201,-0.014892,64.111954,5.719467,-145.65065,,,
729860974.152061,0.067913,3.794432,45.906823,-0.072098,0.005981,0.961426,0.059461,-0.025201,-0.014892,64.111954,5.719467,-145.65065,,,
729860974.155454,0.073113,3.783365,45.906149,-0.074783,0.017181,0.945084,-0.003985,-0.031787,0.00215,64.111954,5.719467,-145.65065,,,
729860974.1587,0.06746,3.773188,45.908856,-0.074783,0.017181,0.945084,-0.003985,-0.031787,0.00215,64.111954,5.719467,-145.65065,,,
729860974.162082,0.06746,3.773188,45.908856,-0.074783,0.017181,0.945084,-0.003985,-0.031787,0.00215,64.111954,5.719467,-145.65065,,,
729860974.165366,0.054716,3.762916,45.913607,-0.069031,0.015778,0.941055,-0.064886,-0.028687,0.012413,64.111954,5.719467,-145.65065,,,
729860974.168705,0.033625,3.754876,45.919575,-0.069031,0.015778,0.941055,-0.064886,-0.028687,0.012413,64.111954,5.719467,-145.65065,,,
729860974.172064,0.033625,3.754876,45.919575,-0.069031,0.015778,0.941055,-0.064886,-0.028687,0.012413,64.111954,5.719467,-145.65065,,,
729860974.175387,0.007779,3.749117,45.925919,-0.05864,0.013092,0.949188,-0.102852,-0.016666,0.012544,64.103973,5.769135,-146.113358,,,
729860974.178713,-0.023353,3.744317,45.931272,-0.05864,0.013092,0.949188,-0.102852,-0.016666,0.012544,64.103973,5.769135,-146.113358,,,
729860974.182036,-0.023353,3.744317,45.931272,-0.05864,0.013092,0.949188,-0.102852,-0.016666,0.012544,64.103973,5.769135,-146.113358,,,
729860974.185414,-0.058204,3.741253,45.935223,-0.052582,0.009079,0.957596,-0.123565,-0.010105,0.001442,64.103973,5.769135,-146.113358,,,
729860974.188699,-0.09245,3.737623,45.937048,-0.052582,0.009079,0.957596,-0.123565,-0.010105,0.001442,64.103973,5.769135,-146.113358,,,
729860974.192141,-0.09245,3.737623,45.937048,-0.052582,0.009079,0.957596,-0.123565,-0.010105,0.001442,64.103973,5.769135,-146.113358,,,
729860974.195376,-0.12544,3.734939,45.936278,-0.047775,0.001343,0.982941,-0.09803,-0.007876,-0.014987,64.103973,5.769135,-146.113358,,,
729860974.198745,-0.150483,3.732856,45.93292,-0.047775,0.001343,0.982941,-0.09803,-0.007876,-0.014987,64.103973,5.769135,-146.113358,,,
729860974.202135,-0.150483,3.732856,45.93292,-0.047775,0.001343,0.982941,-0.09803,-0.007876,-0.014987,64.103973,5.769135,-146.113358,,,
729860974.20538,-0.170475,3.732294,45.927103,-0.045456,-0.011948,1.016663,-0.045117,0.005263,-0.028687,64.103973,5.769135,-146.113358,,,
729860974.208706,-0.180689,3.733776,45.918789,-0.045456,-0.011948,1.016663,-0.045117,0.005263,-0.028687,64.103973,5.769135,-146.113358,,,
729860974.212164,-0.180689,3.733776,45.918789,-0.045456,-0.011948,1.016663,-0.045117,0.005263,-0.028687,64.103973,5.769135,-146.113358,,,
729860974.215361,-0.18482,3.73652,45.90758,-0.048477,-0.020035,1.026917,0.006189,0.01665,-0.045509,63.90567,5.857025,-146.040436,,,
729860974.218724,-0.181768,3.741372,45.89389,-0.048477,-0.020035,1.026917,0.006189,0.01665,-0.045509,63.90567,5.857025,-146.040436,,,
729860974.222059,-0.181768,3.741372,45.89389,-0.048477,-0.020035,1.026917,0.006189,0.01665,-0.045509,63.90567,5.857025,-146.040436,,,
729860974.225427,-0.17385,3.748505,45.878966,-0.056091,-0.019485,1.02681,0.037527,0.028625,-0.052077,63.90567,5.857025,-146.040436,,,
729860974.22871,-0.164691,3.75642,45.864476,-0.056091,-0.019485,1.02681,0.037527,0.028625,-0.052077,63.90567,5.857025,-146.040436,,,
729860974.232067,-0.164691,3.75642,45.864476,-0.056091,-0.019485,1.02681,0.037527,0.028625,-0.052077,63.90567,5.857025,-146.040436,,,
729860974.235365,-0.155619,3.765365,45.850923,-0.064682,-0.01091,1.002579,0.025328,0.026976,-0.046334,63.90567,5.857025,-146.040436,,,
729860974.238748,-0.151285,3.770456,45.839182,-0.064682,-0.01091,1.002579,0.025328,0.026976,-0.046334,63.90567,5.857025,-146.040436,,,
729860974.242042,-0.151285,3.770456,45.839182,-0.064682,-0.01091,1.002579,0.025328,0.026976,-0.046334,63.90567,5.857025,-146.040436,,,
729860974.245411,-0.149508,3.771592,45.829943,-0.070892,-0.002487,0.971237,-0.00644,-0.00666,-0.030945,63.90567,5.857025,-146.040436,,,
729860974.248722,-0.15609,3.765455,45.822705,-0.070892,-0.002487,0.971237,-0.00644,-0.00666,-0.030945,63.90567,5.857025,-146.040436,,,
729860974.252155,-0.15609,3.765455,45.822705,-0.070892,-0.002487,0.971237,-0.00644,-0.00666,-0.030945,63.90567,5.857025,-146.040436,,,
729860974.255364,-0.169119,3.753283,45.817222,-0.074738,0.003616,0.947113,-0.061566,-0.048084,-0.022306,63.942902,5.720749,-146.039581,,,
729860974.258721,-0.190762,3.737446,45.812857,-0.074738,0.003616,0.947113,-0.061566,-0.048084,-0.022306,63.942902,5.720749,-146.039581,,,
729860974.262044,-0.190762,3.737446,45.812857,-0.074738,0.003616,0.947113,-0.061566,-0.048084,-0.022306,63.942902,5.720749,-146.039581,,,
729860974.265421,-0.217684,3.720548,45.809011,-0.066833,0.007675,0.948639,-0.105958,-0.04979,-0.021466,63.942902,5.720749,-146.039581,,,
729860974.268697,-0.250468,3.7076,45.805705,-0.066833,0.007675,0.948639,-0.105958,-0.04979,-0.021466,63.942902,5.720749,-146.039581,,,
729860974.272055,-0.250468,3.7076,45.805705,-0.066833,0.007675,0.948639,-0.105958,-0.04979,-0.021466,63.942902,5.720749,-146.039581,,,
729860974.275381,-0.285828,3.697237,45.803018,-0.064133,-0.000732,0.974594,-0.129109,-0.022044,-0.018527,63.942902,5.720749,-146.039581,,,
729860974.278745,-0.322855,3.692537,45.801029,-0.064133,-0.000732,0.974594,-0.129109,-0.022044,-0.018527,63.942902,5.720749,-146.039581,,,
729860974.282029,-0.322855,3.692537,45.801029,-0.064133,-0.000732,0.974594,-0.129109,-0.022044,-0.018527,63.942902,5.720749,-146.039581,,,
729860974.285373,-0.35821,3.689314,45.799993,-0.06514,-0.00827,0.997559,-0.116097,0.006593,-0.010956,63.942902,5.720749,-146.039581,,,
729860974.28871,-0.389611,3.692074,45.799743,-0.06514,-0.00827,0.997559,-0.116097,0.006593,-0.010956,63.942902,5.720749,-146.039581,,,
729860974.292129,-0.389611,3.692074,45.799743,-0.06514,-0.00827,0.997559,-0.116097,0.006593,-0.010956,63.942902,5.720749,-146.039581,,,
729860974.29536,-0.417104,3.69527,45.800069,-0.070465,-0.014297,1.017105,-0.078668,0.028794,-0.004384,63.942902,5.720749,-146.039581,,,
729860974.298727,-0.436282,3.703133,45.800266,-0.070465,-0.014297,1.017105,-0.078668,0.028794,-0.004384,64.194809,5.922821,-146.602844,,,
729860974.302037,-0.436282,3.703133,45.800266,-0.070465,-0.014297,1.017105,-0.078668,0.028794,-0.004384,64.194809,5.922821,-146.602844,,,
729860974.305381,-0.449231,3.710289,45.799253,-0.067719,-0.019562,1.027649,-0.025397,0.034413,-0.009328,64.194809,5.922821,-146.602844,,,
729860974.308719,-0.453707,3.717417,45.796383,-0.067719,-0.019562,1.027649,-0.025397,0.034413,-0.009328,64.194809,5.922821,-146.602844,,,
729860974.312059,-0.453707,3.717417,45.796383,-0.067719,-0.019562,1.027649,-0.025397,0.034413,-0.009328,64.194809,5.922821,-146.602844,,,
729860974.315433,-0.453249,3.719466,45.791373,-0.06427,-0.018936,1.016846,0.014347,0.001479,-0.021643,64.194809,5.922821,-146.602844,,,
729860974.318693,-0.447101,3.716569,45.784431,-0.06427,-0.018936,1.016846,0.014347,0.001479,-0.021643,64.194809,5.922821,-146.602844,,,
729860974.322071,-0.447101,3.716569,45.784431,-0.06427,-0.018936,1.016846,0.014347,0.001479,-0.021643,64.194809,5.922821,-146.602844,,,
729860974.325396,-0.436344,3.709555,45.775837,-0.065536,-0.014679,1.003189,0.043369,-0.03299,-0.03134,64.194809,5.922821,-146.602844,,,
729860974.32878,-0.423745,3.696404,45.766577,-0.065536,-0.014679,1.003189,0.043369,-0.03299,-0.03134,64.194809,5.922821,-146.602844,,,
729860974.332044,-0.423745,3.696404,45.766577,-0.065536,-0.014679,1.003189,0.043369,-0.03299,-0.03134,64.194809,5.922821,-146.602844,,,
729860974.33537,-0.408824,3.68099,45.757251,-0.064728,-0.01152,0.993713,0.049719,-0.066193,-0.031461,64.194809,5.922821,-146.602844,,,
729860974.338703,-0.395755,3.659807,45.747647,-0.064728,-0.01152,0.993713,0.049719,-0.066193,-0.031461,63.968323,5.744019,-146.519745,,,
729860974.34212,-0.395755,3.659807,45.747647,-0.064728,-0.01152,0.993713,0.049719,-0.066193,-0.031461,63.968323,5.744019,-146.519745,,,
729860974.345384,-0.382292,3.638825,45.738443,-0.060501,-0.009933,0.988861,0.03293,-0.077989,-0.029837,63.968323,5.744019,-146.519745,,,
729860974.348716,-0.375572,3.615676,45.73035,-0.060501,-0.009933,0.988861,0.03293,-0.077989,-0.029837,63.968323,5.744019,-146.519745,,,
729860974.352053,-0.375572,3.615676,45.73035,-0.060501,-0.009933,0.988861,0.03293,-0.077989,-0.029837,63.968323,5.744019,-146.519745,,,
729860974.35544,-0.372493,3.593777,45.722897,-0.055435,-0.001785,0.982452,-0.004347,-0.075143,-0.027776,63.968323,5.744019,-146.519745,,,
729860974.358714,-0.378109,3.571893,45.715557,-0.055435,-0.001785,0.982452,-0.004347,-0.075143,-0.027776,63.968323,5.744019,-146.519745,,,
729860974.36204,-0.378109,3.571893,45.715557,-0.055435,-0.001785,0.982452,-0.004347,-0.075143,-0.027776,63.968323,5.744019,-146.519745,,,
729860974.365382,-0.390113,3.552673,45.708542,-0.048691,0.003525,0.983185,-0.047733,-0.059949,-0.028213,63.968323,5.744019,-146.519745,,,
729860974.368767,-0.406096,3.536723,45.702189,-0.048691,0.003525,0.983185,-0.047733,-0.059949,-0.028213,63.968323,5.744019,-146.519745,,,
729860974.372049,-0.406096,3.536723,45.702189,-0.048691,0.003525,0.983185,-0.047733,-0.059949,-0.028213,63.968323,5.744019,-146.519745,,,
729860974.375405,-0.426196,3.527415,45.696757,-0.04982,0.000641,0.993713,-0.069187,-0.024583,-0.02317,63.968323,5.744019,-146.519745,,,
729860974.378702,-0.447555,3.522196,45.692763,-0.04982,0.000641,0.993713,-0.069187,-0.024583,-0.02317,63.922714,5.799698,-146.760895,,,
729860974.382103,-0.447555,3.522196,45.692763,-0.04982,0.000641,0.993713,-0.069187,-0.024583,-0.02317,63.922714,5.799698,-146.760895,,,
729860974.385374,-0.472715,3.524001,45.690959,-0.055374,-0.006058,1.008682,-0.079284,0.013567,-0.008571,63.922714,5.799698,-146.760895,,,
729860974.388709,-0.49493,3.530295,45.691235,-0.055374,-0.006058,1.008682,-0.079284,0.013567,-0.008571,63.922714,5.799698,-146.760895,,,
729860974.392046,-0.49493,3.530295,45.691235,-0.055374,-0.006058,1.008682,-0.079284,0.013567,-0.008571,63.922714,5.799698,-146.760895,,,
729860974.395451,-0.517598,3.54299,45.693258,-0.060257,-0.006577,1.021133,-0.068159,0.054551,0.004284,63.922714,5.799698,-146.760895,,,
729860974.398752,-0.535109,3.558615,45.697315,-0.060257,-0.006577,1.021133,-0.068159,0.054551,0.004284,63.922714,5.799698,-146.760895,,,
729860974.402162,-0.535109,3.558615,45.697315,-0.060257,-0.006577,1.021133,-0.068159,0.054551,0.004284,63.922714,5.799698,-146.760895,,,
729860974.405407,-0.549885,3.575104,45.702607,-0.062546,-0.012146,1.024734,-0.040516,0.057212,0.014611,63.922714,5.799698,-146.760895,,,
729860974.408801,-0.558015,3.589158,45.707064,-0.062546,-0.012146,1.024734,-0.040516,0.057212,0.014611,63.922714,5.799698,-146.760895,,,
729860974.412056,-0.558015,3.589158,45.707064,-0.062546,-0.012146,1.024734,-0.040516,0.057212,0.014611,63.922714,5.799698,-146.760895,,,
729860974.415406,-0.55969,3.60056,45.708899,-0.061081,-0.016037,1.027985,0.008705,0.033054,-0.000728,63.922714,5.799698,-146.760895,,,
729860974.418766,-0.554174,3.605685,45.70719,-0.061081,-0.016037,1.027985,0.008705,0.033054,-0.000728,63.922714,5.799698,-146.760895,,,
729860974.422129,-0.554174,3.605685,45.70719,-0.061081,-0.016037,1.027985,0.008705,0.033054,-0.000728,63.924484,5.856934,-146.974457,,,
729860974.425406,-0.541881,3.603735,45.701891,-0.060196,-0.018433,1.029312,0.058154,-0.015564,-0.02265,63.924484,5.856934,-146.974457,,,
729860974.428715,-0.523473,3.595751,45.692959,-0.060196,-0.018433,1.029312,0.058154,-0.015564,-0.02265,63.924484,5.856934,-146.974457,,,
729860974.432057,-0.523473,3.595751,45.692959,-0.060196,-0.018433,1.029312,0.058154,-0.015564,-0.02265,63.924484,5.856934,-146.974457,,,
729860974.435449,-0.49953,3.582027,45.681634,-0.06514,-0.021225,1.028564,0.087104,-0.043221,-0.037444,63.924484,5.856934,-146.974457,,,
729860974.438728,-0.474224,3.567878,45.668968,-0.06514,-0.021225,1.028564,0.087104,-0.043221,-0.037444,63.924484,5.856934,-146.974457,,,
729860974.442167,-0.474224,3.567878,45.668968,-0.06514,-0.021225,1.028564,0.087104,-0.043221,-0.037444,63.924484,5.856934,-146.974457,,,
729860974.445383,-0.444781,3.549867,45.65624,-0.066025,-0.014297,1.02507,0.095765,-0.050252,-0.037233,63.924484,5.856934,-146.974457,,,
729860974.448809,-0.418629,3.53483,45.645439,-0.066025,-0.014297,1.02507,0.095765,-0.050252,-0.037233,63.924484,5.856934,-146.974457,,,
729860974.45206,-0.418629,3.53483,45.645439,-0.066025,-0.014297,1.02507,0.095765,-0.050252,-0.037233,63.924484,5.856934,-146.974457,,,
729860974.455405,-0.392366,3.518238,45.636782,-0.070847,-0.01123,1.019211,0.081861,-0.040969,-0.023038,63.924484,5.856934,-146.974457,,,
729860974.458714,-0.371195,3.507515,45.630135,-0.070847,-0.01123,1.019211,0.081861,-0.040969,-0.023038,63.924484,5.856934,-146.974457,,,
729860974.462123,-0.371195,3.507515,45.630135,-0.070847,-0.01123,1.019211,0.081861,-0.040969,-0.023038,63.911133,5.741623,-146.760315,,,
729860974.465387,-0.354243,3.497811,45.625869,-0.07312,-0.003937,1.008133,0.049504,-0.020968,-0.00831,63.911133,5.741623,-146.760315,,,
729860974.468724,-0.343321,3.491788,45.623652,-0.07312,-0.003937,1.008133,0.049504,-0.020968,-0.00831,63.911133,5.741623,-146.760315,,,
729860974.472043,-0.343321,3.491788,45.623652,-0.07312,-0.003937,1.008133,0.049504,-0.020968,-0.00831,63.911133,5.741623,-146.760315,,,
729860974.475466,-0.338448,3.486092,45.622653,-0.069778,0.001465,0.994598,0.007369,-0.011465,-0.00227,63.911133,5.741623,-146.760315,,,
729860974.478742,-0.33889,3.482976,45.622743,-0.069778,0.001465,0.994598,0.007369,-0.011465,-0.00227,63.911133,5.741623,-146.760315,,,
729860974.482068,-0.33889,3.482976,45.622743,-0.069778,0.001465,0.994598,0.007369,-0.011465,-0.00227,63.911133,5.741623,-146.760315,,,
729860974.485447,-0.345398,3.482261,45.623668,-0.070038,0.000778,0.991043,-0.02602,0.006988,0.001469,63.911133,5.741623,-146.760315,,,
729860974.488717,-0.354102,3.485648,45.625287,-0.070038,0.000778,0.991043,-0.02602,0.006988,0.001469,63.911133,5.741623,-146.760315,,,
729860974.492049,-0.354102,3.485648,45.625287,-0.070038,0.000778,0.991043,-0.02602,0.006988,0.001469,63.911133,5.741623,-146.760315,,,
729860974.495384,-0.36534,3.492607,45.628138,-0.071671,-0.002426,1.002121,-0.027241,0.032317,0.010042,63.911133,5.741623,-146.760315,,,
729860974.498774,-0.371787,3.501797,45.63269,-0.071671,-0.002426,1.002121,-0.027241,0.032317,0.010042,63.911133,5.741623,-146.760315,,,
729860974.502031,-0.371787,3.501797,45.63269,-0.071671,-0.002426,1.002121,-0.027241,0.032317,0.010042,64.037994,5.996994,-146.64769,,,
729860974.505367,-0.376032,3.510543,45.638168,-0.075546,-0.011444,1.022125,0.004796,0.037139,0.018477,64.037994,5.996994,-146.64769,,,
729860974.508731,-0.371579,3.520143,45.64406,-0.075546,-0.011444,1.022125,0.004796,0.037139,0.018477,64.037994,5.996994,-146.64769,,,
729860974.5121,-0.371579,3.520143,45.64406,-0.075546,-0.011444,1.022125,0.004796,0.037139,0.018477,64.037994,5.996994,-146.64769,,,
729860974.515373,-0.363305,3.528639,45.649809,-0.072723,-0.017929,1.030472,0.051393,0.028789,0.020402,64.037994,5.996994,-146.64769,,,
729860974.518716,-0.345437,3.535382,45.654567,-0.072723,-0.017929,1.030472,0.051393,0.028789,0.020402,64.037994,5.996994,-146.64769,,,
729860974.522047,-0.345437,3.535382,45.654567,-0.072723,-0.017929,1.030472,0.051393,0.028789,0.020402,64.037994,5.996994,-146.64769,,,
729860974.525475,-0.322987,3.540048,45.657751,-0.066254,-0.021179,1.029312,0.094052,0.011477,0.012068,64.037994,5.996994,-146.64769,,,
729860974.528731,-0.294132,3.541046,45.658616,-0.066254,-0.021179,1.029312,0.094052,0.011477,0.012068,64.037994,5.996994,-146.64769,,,
729860974.53206,-0.294132,3.541046,45.658616,-0.066254,-0.021179,1.029312,0.094052,0.011477,0.012068,64.037994,5.996994,-146.64769,,,
729860974.535405,-0.263567,3.538995,45.655918,-0.059021,-0.015717,1.018906,0.113074,-0.015601,-0.011727,64.037994,5.996994,-146.64769,,,
729860974.53878,-0.231571,3.531882,45.649964,-0.059021,-0.015717,1.018906,0.113074,-0.015601,-0.011727,64.037994,5.996994,-146.64769,,,
729860974.542037,-0.231571,3.531882,45.649964,-0.059021,-0.015717,1.018906,0.113074,-0.015601,-0.011727,63.856339,5.805084,-146.53215,,,
729860974.54541,-0.200971,3.523634,45.642093,-0.059814,-0.009583,1.003433,0.106518,-0.033942,-0.025554,63.856339,5.805084,-146.53215,,,
729860974.548741,-0.173375,3.512699,45.633586,-0.059814,-0.009583,1.003433,0.106518,-0.033942,-0.025554,63.856339,5.805084,-146.53215,,,
729860974.552106,-0.173375,3.512699,45.633586,-0.059814,-0.009583,1.003433,0.106518,-0.033942,-0.025554,63.856339,5.805084,-146.53215,,,
729860974.555388,-0.150031,3.503366,45.626373,-0.063156,-0.00322,0.985733,0.072493,-0.033792,-0.018699,63.856339,5.805084,-146.53215,,,
729860974.558717,-0.132618,3.493148,45.621243,-0.063156,-0.00322,0.985733,0.072493,-0.033792,-0.018699,63.856339,5.805084,-146.53215,,,
729860974.562056,-0.132618,3.493148,45.621243,-0.063156,-0.00322,0.985733,0.072493,-0.033792,-0.018699,63.856339,5.805084,-146.53215,,,
729860974.565478,-0.120376,3.485626,45.618484,-0.065201,0.002014,0.974869,0.030871,-0.027706,-0.004732,63.856339,5.805084,-146.53215,,,
729860974.568719,-0.114942,3.477778,45.61815,-0.065201,0.002014,0.974869,0.030871,-0.027706,-0.004732,63.856339,5.805084,-146.53215,,,
729860974.572051,-0.114942,3.477778,45.61815,-0.065201,0.002014,0.974869,0.030871,-0.027706,-0.004732,63.856339,5.805084,-146.53215,,,
729860974.575381,-0.114473,3.474828,45.619992,-0.063828,0.003876,0.975494,-0.006717,-0.012798,0.008082,63.856339,5.805084,-146.53215,,,
729860974.578787,-0.118433,3.471456,45.623537,-0.063828,0.003876,0.975494,-0.006717,-0.012798,0.008082,63.856339,5.805084,-146.53215,,,
729860974.582045,-0.118433,3.471456,45.623537,-0.063828,0.003876,0.975494,-0.006717,-0.012798,0.008082,63.856339,5.805084,-146.53215,,,
729860974.585382,-0.12791,3.474892,45.627692,-0.058975,-1.5e-05,0.976486,-0.032753,0.005791,0.010692,63.659439,5.900833,-146.123581,,,
729860974.588719,-0.138745,3.476804,45.631634,-0.058975,-1.5e-05,0.976486,-0.032753,0.005791,0.010692,63.659439,5.900833,-146.123581,,,
729860974.592117,-0.138745,3.476804,45.631634,-0.058975,-1.5e-05,0.976486,-0.032753,0.005791,0.010692,63.659439,5.900833,-146.123581,,,
729860974.595376,-0.155967,3.484844,45.635471,-0.053879,0.001755,0.975494,-0.049311,0.023404,0.008907,63.659439,5.900833,-146.123581,,,
729860974.598713,-0.171297,3.493554,45.639237,-0.053879,0.001755,0.975494,-0.049311,0.023404,0.008907,63.659439,5.900833,-146.123581,,,
729860974.602039,-0.171297,3.493554,45.639237,-0.053879,0.001755,0.975494,-0.049311,0.023404,0.008907,63.659439,5.900833,-146.123581,,,
729860974.605402,-0.193558,3.508534,45.642812,-0.051407,0.002502,0.978668,-0.063434,0.05745,0.00663,63.659439,5.900833,-146.123581,,,
729860974.608713,-0.212239,3.525952,45.646044,-0.051407,0.002502,0.978668,-0.063434,0.05745,0.00663,63.659439,5.900833,-146.123581,,,
729860974.612047,-0.212239,3.525952,45.646044,-0.051407,0.002502,0.978668,-0.063434,0.05745,0.00663,63.659439,5.900833,-146.123581,,,
729860974.615372,-0.23461,3.545266,45.648502,-0.050308,-0.00206,0.98851,-0.062299,0.075673,0.001338,63.659439,5.900833,-146.123581,,,
729860974.618762,-0.251491,3.566804,45.65001,-0.050308,-0.00206,0.98851,-0.062299,0.075673,0.001338,63.659439,5.900833,-146.123581,,,
729860974.622044,-0.251491,3.566804,45.65001,-0.050308,-0.00206,0.98851,-0.062299,0.075673,0.001338,63.659439,5.900833,-146.123581,,,
729860974.625391,-0.267533,3.587651,45.650443,-0.054596,-0.009186,1.000366,-0.043986,0.080057,-0.004985,64.042313,6.061707,-146.290787,,,
729860974.628722,-0.277513,3.60915,45.649834,-0.054596,-0.009186,1.000366,-0.043986,0.080057,-0.004985,64.042313,6.061707,-146.290787,,,
729860974.632126,-0.277513,3.60915,45.649834,-0.054596,-0.009186,1.000366,-0.043986,0.080057,-0.004985,64.042313,6.061707,-146.290787,,,
729860974.635389,-0.281045,3.62932,45.64827,-0.059937,-0.01741,1.019974,0.00024,0.069554,-0.008875,64.042313,6.061707,-146.290787,,,
729860974.63873,-0.278062,3.647073,45.645627,-0.059937,-0.01741,1.019974,0.00024,0.069554,-0.008875,64.042313,6.061707,-146.290787,,,
729860974.642055,-0.278062,3.647073,45.645627,-0.059937,-0.01741,1.019974,0.00024,0.069554,-0.008875,64.042313,6.061707,-146.290787,,,
729860974.645434,-0.267398,3.661283,45.64178,-0.05925,-0.018631,1.028519,0.044969,0.041327,-0.014418,64.042313,6.061707,-146.290787,,,
729860974.648716,-0.252968,3.670148,45.636733,-0.05925,-0.018631,1.028519,0.044969,0.041327,-0.014418,64.042313,6.061707,-146.290787,,,
729860974.652069,-0.252968,3.670148,45.636733,-0.05925,-0.018631,1.028519,0.044969,0.041327,-0.014418,64.042313,6.061707,-146.290787,,,
729860974.655379,-0.233809,3.674636,45.630593,-0.068497,-0.016327,1.012344,0.063407,0.006476,-0.020889,64.042313,6.061707,-146.290787,,,
729860974.658782,-0.217074,3.673292,45.623733,-0.068497,-0.016327,1.012344,0.063407,0.006476,-0.020889,64.042313,6.061707,-146.290787,,,
729860974.662041,-0.217074,3.673292,45.623733,-0.068497,-0.016327,1.012344,0.063407,0.006476,-0.020889,64.042313,6.061707,-146.290787,,,
729860974.665373,-0.201972,3.667714,45.617365,-0.076904,-0.004517,0.985428,0.042545,-0.01841,-0.018821,64.1651,6.327301,-146.440308,,,
729860974.668715,-0.193003,3.661155,45.612948,-0.076904,-0.004517,0.985428,0.042545,-0.01841,-0.018821,64.1651,6.327301,-146.440308,,,
729860974.672157,-0.193003,3.661155,45.612948,-0.076904,-0.004517,0.985428,0.042545,-0.01841,-0.018821,64.1651,6.327301,-146.440308,,,
729860974.675405,-0.187822,3.652208,45.611144,-0.076385,0.003571,0.970642,0.005819,-0.019569,-0.002864,64.1651,6.327301,-146.440308,,,
729860974.678735,-0.18829,3.646112,45.611999,-0.076385,0.003571,0.970642,0.005819,-0.019569,-0.002864,64.1651,6.327301,-146.440308,,,
729860974.682041,-0.18829,3.646112,45.611999,-0.076385,0.003571,0.970642,0.005819,-0.019569,-0.002864,64.1651,6.327301,-146.440308,,,
729860974.68546,-0.191618,3.637743,45.615601,-0.074295,0.009262,0.966141,-0.026157,-0.011473,0.014362,64.1651,6.327301,-146.440308,,,
729860974.688715,-0.200674,3.634554,45.620872,-0.074295,0.009262,0.966141,-0.026157,-0.011473,0.014362,64.1651,6.327301,-146.440308,,,
729860974.692044,-0.200674,3.634554,45.620872,-0.074295,0.009262,0.966141,-0.026157,-0.011473,0.014362,64.1651,6.327301,-146.440308,,,
729860974.695395,-0.212023,3.630002,45.626666,-0.065125,0.00618,0.968109,-0.046948,0.005137,0.016789,64.1651,6.327301,-146.440308,,,
729860974.698768,-0.224884,3.632789,45.632848,-0.065125,0.00618,0.968109,-0.046948,0.005137,0.016789,64.1651,6.327301,-146.440308,,,
729860974.702038,-0.224884,3.632789,45.632848,-0.065125,0.00618,0.968109,-0.046948,0.005137,0.016789,64.1651,6.327301,-146.440308,,,
729860974.705413,-0.236903,3.636654,45.638324,-0.055695,0.002701,0.980743,-0.035296,0.031305,0.012643,63.814392,6.464828,-146.53273,,,
729860974.708712,-0.246226,3.64546,45.64241,-0.055695,0.002701,0.980743,-0.035296,0.031305,0.012643,63.814392,6.464828,-146.53273,,,
729860974.712101,-0.246226,3.64546,45.64241,-0.055695,0.002701,0.980743,-0.035296,0.031305,0.012643,63.814392,6.464828,-146.53273,,,
729860974.715386,-0.256367,3.653643,45.645494,-0.051651,-0.002289,0.989914,-0.021188,0.036846,0.006524,63.814392,6.464828,-146.53273,,,
729860974.718777,-0.260226,3.663034,45.647274,-0.051651,-0.002289,0.989914,-0.021188,0.036846,0.006524,63.814392,6.464828,-146.53273,,,
729860974.722106,-0.260226,3.663034,45.647274,-0.051651,-0.002289,0.989914,-0.021188,0.036846,0.006524,63.814392,6.464828,-146.53273,,,
729860974.72538,-0.263416,3.669286,45.647383,-0.052078,-0.007965,0.99498,0.009765,0.027563,-0.003072,63.814392,6.464828,-146.53273,,,
729860974.728735,-0.258699,3.67553,45.646063,-0.052078,-0.007965,0.99498,0.009765,0.027563,-0.003072,63.814392,6.464828,-146.53273,,,
729860974.732055,-0.258699,3.67553,45.646063,-0.052078,-0.007965,0.99498,0.009765,0.027563,-0.003072,63.814392,6.464828,-146.53273,,,
729860974.735449,-0.25315,3.679206,45.643693,-0.052109,-0.009262,1.002213,0.041542,0.00963,-0.008391,63.814392,6.464828,-146.53273,,,
729860974.738739,-0.239257,3.678011,45.640322,-0.052109,-0.009262,1.002213,0.041542,0.00963,-0.008391,63.814392,6.464828,-146.53273,,,
729860974.742047,-0.239257,3.678011,45.640322,-0.052109,-0.009262,1.002213,0.041542,0.00963,-0.008391,63.814392,6.464828,-146.53273,,,
729860974.74538,-0.222816,3.674102,45.635607,-0.055786,-0.011047,0.995728,0.065821,-0.032886,-0.016272,63.814392,6.464828,-146.53273,,,
