Time (sec),Pitch (deg),Roll (deg),Yaw(deg),X-Acceleration (g),Y-Acceleration (g),Z-Acceleration (g),Pitch Rate (deg/sec),Roll Rate (deg/sec),Yaw Rate (deg/sec),Magnetic Field in X direction (uT),Magnetic Field in Y direction (uT),Magnetic Field in Z Direction (uT),Latitude (deg),Longitude (deg),Altitude (m)
729862606.437641,0.107086,2.968709,37.178995,-0.037399,0.00708,0.972565,-0.041282,0.017397,-0.006824,58.402328,-6.566071,-147.663849,,,
729862606.441006,0.107086,2.968709,37.178995,-0.037399,0.00708,0.972565,-0.041282,0.017397,-0.006824,58.402328,-6.566071,-147.663849,,,
729862606.444315,0.093698,2.97248,37.177944,-0.037399,0.00708,0.972565,-0.041282,0.017397,-0.006824,58.402328,-6.566071,-147.663849,,,
729862606.44762,0.080072,2.97797,37.177041,-0.047043,0.001312,0.987549,-0.042419,0.009423,-0.005907,58.402328,-6.566071,-147.663849,,,
729862606.45099,0.080072,2.97797,37.177041,-0.047043,0.001312,0.987549,-0.042419,0.009423,-0.005907,58.402328,-6.566071,-147.663849,,,
729862606.454361,0.06914,2.979952,37.177014,-0.047043,0.001312,0.987549,-0.042419,0.009423,-0.005907,58.402328,-6.566071,-147.663849,,,
729862606.457657,0.061674,2.982739,37.178241,-0.058167,-0.005249,1.016708,-0.015221,0.005775,0.004352,58.402328,-6.566071,-147.663849,,,
729862606.46096,0.061674,2.982739,37.178241,-0.058167,-0.005249,1.016708,-0.015221,0.005775,0.004352,58.402328,-6.566071,-147.663849,,,
729862606.464305,0.059784,2.983147,37.181048,-0.058167,-0.005249,1.016708,-0.015221,0.005775,0.004352,58.402328,-6.566071,-147.663849,,,
729862606.467619,0.061659,2.982343,37.186186,-0.067108,-0.008636,1.027237,0.015711,-0.002158,0.022218,58.402328,-6.566071,-147.663849,,,
729862606.470969,0.061659,2.982343,37.186186,-0.067108,-0.008636,1.027237,0.015711,-0.002158,0.022218,58.402328,-6.566071,-147.663849,,,
729862606.474338,0.068528,2.979485,37.19357,-0.067108,-0.008636,1.027237,0.015711,-0.002158,0.022218,58.436447,-6.507767,-147.702164,,,
729862606.477615,0.077638,2.972854,37.202353,-0.066757,-0.004425,1.015625,0.038019,-0.020657,0.033123,58.436447,-6.507767,-147.702164,,,
729862606.481019,0.077638,2.972854,37.202353,-0.066757,-0.004425,1.015625,0.038019,-0.020657,0.033123,58.436447,-6.507767,-147.702164,,,
729862606.484298,0.089707,2.965143,37.212014,-0.066757,-0.004425,1.015625,0.038019,-0.020657,0.033123,58.436447,-6.507767,-147.702164,,,
729862606.487619,0.101778,2.954245,37.222307,-0.051727,0.004578,0.999374,0.042375,-0.027338,0.037657,58.436447,-6.507767,-147.702164,,,
729862606.491003,0.101778,2.954245,37.222307,-0.051727,0.004578,0.999374,0.042375,-0.027338,0.037657,58.436447,-6.507767,-147.702164,,,
729862606.494376,0.11353,2.946453,37.232204,-0.051727,0.004578,0.999374,0.042375,-0.027338,0.037657,58.436447,-6.507767,-147.702164,,,
729862606.497609,0.123471,2.937369,37.240387,-0.038071,0.007812,0.98735,0.03275,-0.015842,0.025134,58.436447,-6.507767,-147.702164,,,
729862606.500964,0.123471,2.937369,37.240387,-0.038071,0.007812,0.98735,0.03275,-0.015842,0.025134,58.436447,-6.507767,-147.702164,,,
729862606.504282,0.131298,2.932698,37.24614,-0.038071,0.007812,0.98735,0.03275,-0.015842,0.025134,58.436447,-6.507767,-147.702164,,,
729862606.507658,0.137272,2.927008,37.249155,-0.028595,0.015167,0.981003,0.016421,-0.00131,0.005078,58.436447,-6.507767,-147.702164,,,
729862606.510998,0.137272,2.927008,37.249155,-0.028595,0.015167,0.981003,0.016421,-0.00131,0.005078,58.436447,-6.507767,-147.702164,,,
729862606.51431,0.140165,2.928036,37.250194,-0.028595,0.015167,0.981003,0.016421,-0.00131,0.005078,58.436447,-6.507767,-147.702164,,,
729862606.51763,0.140982,2.930491,37.249722,-0.030945,0.015472,0.985443,-0.002665,0.028917,-0.006483,58.605179,-6.803864,-147.410126,,,
729862606.521004,0.140982,2.930491,37.249722,-0.030945,0.015472,0.985443,-0.002665,0.028917,-0.006483,58.605179,-6.803864,-147.410126,,,
729862606.524355,0.139088,2.940364,37.24811,-0.030945,0.015472,0.985443,-0.002665,0.028917,-0.006483,58.605179,-6.803864,-147.410126,,,
729862606.527621,0.135549,2.95305,37.246056,-0.034271,0.010376,0.995682,-0.015197,0.058481,-0.010259,58.605179,-6.803864,-147.410126,,,
729862606.53097,0.135549,2.95305,37.246056,-0.034271,0.010376,0.995682,-0.015197,0.058481,-0.010259,58.605179,-6.803864,-147.410126,,,
729862606.534296,0.129882,2.969458,37.243722,-0.034271,0.010376,0.995682,-0.015197,0.058481,-0.010259,58.605179,-6.803864,-147.410126,,,
729862606.53759,0.121907,2.986145,37.241262,-0.042358,0.006577,0.999344,-0.024073,0.055996,-0.01154,58.605179,-6.803864,-147.410126,,,
729862606.541022,0.121907,2.986145,37.241262,-0.042358,0.006577,0.999344,-0.024073,0.055996,-0.01154,58.605179,-6.803864,-147.410126,,,
729862606.544276,0.114975,3.000526,37.238399,-0.042358,0.006577,0.999344,-0.024073,0.055996,-0.01154,58.605179,-6.803864,-147.410126,,,
729862606.547625,0.107462,3.014943,37.235112,-0.051224,0.003265,1.001678,-0.017554,0.03998,-0.014158,58.605179,-6.803864,-147.410126,,,
729862606.550951,0.107462,3.014943,37.235112,-0.051224,0.003265,1.001678,-0.017554,0.03998,-0.014158,58.605179,-6.803864,-147.410126,,,
729862606.554288,0.102948,3.023745,37.2317,-0.051224,0.003265,1.001678,-0.017554,0.03998,-0.014158,58.605179,-6.803864,-147.410126,,,
729862606.557679,0.098869,3.031926,37.22886,-0.057419,-0.000458,1.004364,-0.005171,0.014252,-0.009436,58.700623,-6.609787,-147.845642,,,
729862606.560984,0.098869,3.031926,37.22886,-0.057419,-0.000458,1.004364,-0.005171,0.014252,-0.009436,58.700623,-6.609787,-147.845642,,,
729862606.564275,0.097069,3.033593,37.22688,-0.057419,-0.000458,1.004364,-0.005171,0.014252,-0.009436,58.700623,-6.609787,-147.845642,,,
729862606.567614,0.094941,3.033218,37.22495,-0.054123,0.0009,0.999176,-0.009436,-0.003181,-0.009261,58.700623,-6.609787,-147.845642,,,
729862606.570946,0.094941,3.033218,37.22495,-0.054123,0.0009,0.999176,-0.009436,-0.003181,-0.009261,58.700623,-6.609787,-147.845642,,,
729862606.574364,0.090265,3.032272,37.221579,-0.054123,0.0009,0.999176,-0.009436,-0.003181,-0.009261,58.700623,-6.609787,-147.845642,,,
729862606.577605,0.083602,3.029602,37.216353,-0.046173,0.004913,0.996033,-0.028729,0.001993,-0.023278,58.700623,-6.609787,-147.845642,,,
729862606.580948,0.083602,3.029602,37.216353,-0.046173,0.004913,0.996033,-0.028729,0.001993,-0.023278,58.700623,-6.609787,-147.845642,,,
729862606.584281,0.073602,3.030151,37.209777,-0.046173,0.004913,0.996033,-0.028729,0.001993,-0.023278,58.700623,-6.609787,-147.845642,,,
729862606.587614,0.064663,3.027465,37.202805,-0.045166,0.004684,1.000916,-0.03438,0.012323,-0.026399,58.700623,-6.609787,-147.845642,,,
729862606.590988,0.064663,3.027465,37.202805,-0.045166,0.004684,1.000916,-0.03438,0.012323,-0.026399,58.700623,-6.609787,-147.845642,,,
729862606.594276,0.05475,3.030481,37.196224,-0.045166,0.004684,1.000916,-0.03438,0.012323,-0.026399,58.700623,-6.609787,-147.845642,,,
729862606.597619,0.049741,3.029643,37.190296,-0.05545,-0.005768,1.017288,-0.017807,0.018048,-0.021014,58.527344,-6.445572,-147.868195,,,
729862606.601052,0.049741,3.029643,37.190296,-0.05545,-0.005768,1.017288,-0.017807,0.018048,-0.021014,58.527344,-6.445572,-147.868195,,,
729862606.604309,0.045959,3.03458,37.185719,-0.05545,-0.005768,1.017288,-0.017807,0.018048,-0.021014,58.527344,-6.445572,-147.868195,,,
729862606.607668,0.0486,3.035919,37.182724,-0.063553,-0.007889,1.026245,0.014003,0.021202,-0.008306,58.527344,-6.445572,-147.868195,,,
729862606.610965,0.0486,3.035919,37.182724,-0.063553,-0.007889,1.026245,0.014003,0.021202,-0.008306,58.527344,-6.445572,-147.868195,,,
729862606.614358,0.054408,3.040995,37.181055,-0.063553,-0.007889,1.026245,0.014003,0.021202,-0.008306,58.527344,-6.445572,-147.868195,,,
729862606.617602,0.065065,3.042399,37.180266,-0.065201,-0.007217,1.023605,0.040577,0.015147,-0.000712,58.527344,-6.445572,-147.868195,,,
729862606.620961,0.065065,3.042399,37.180266,-0.065201,-0.007217,1.023605,0.040577,0.015147,-0.000712,58.527344,-6.445572,-147.868195,,,
729862606.624331,0.077504,3.045498,37.179835,-0.065201,-0.007217,1.023605,0.040577,0.015147,-0.000712,58.527344,-6.445572,-147.868195,,,
729862606.62764,0.092031,3.046495,37.179842,-0.063904,-0.000595,1.011856,0.051773,0.006693,0.002887,58.527344,-6.445572,-147.868195,,,
729862606.631035,0.092031,3.046495,37.179842,-0.063904,-0.000595,1.011856,0.051773,0.006693,0.002887,58.527344,-6.445572,-147.868195,,,
729862606.634311,0.106221,3.047555,37.179688,-0.063904,-0.000595,1.011856,0.051773,0.006693,0.002887,58.527344,-6.445572,-147.868195,,,
729862606.637709,0.118062,3.048767,37.178692,-0.056534,0.00383,0.988434,0.037727,0.003469,-0.003675,58.803619,-6.562531,-147.812439,,,
729862606.640998,0.118062,3.048767,37.178692,-0.056534,0.00383,0.988434,0.037727,0.003469,-0.003675,58.803619,-6.562531,-147.812439,,,
729862606.644301,0.125932,3.049953,37.177224,-0.056534,0.00383,0.988434,0.037727,0.003469,-0.003675,58.803619,-6.562531,-147.812439,,,
729862606.647639,0.128466,3.053693,37.175271,-0.047913,0.010132,0.974594,0.002342,0.018012,-0.008916,58.803619,-6.562531,-147.812439,,,
729862606.651047,0.128466,3.053693,37.175271,-0.047913,0.010132,0.974594,0.002342,0.018012,-0.008916,58.803619,-6.562531,-147.812439,,,
729862606.654303,0.126865,3.059154,37.17323,-0.047913,0.010132,0.974594,0.002342,0.018012,-0.008916,58.803619,-6.562531,-147.812439,,,
729862606.657709,0.1222,3.064674,37.171034,-0.048676,0.011093,0.975937,-0.019973,0.026725,-0.011195,58.803619,-6.562531,-147.812439,,,
729862606.660944,0.1222,3.064674,37.171034,-0.048676,0.011093,0.975937,-0.019973,0.026725,-0.011195,58.803619,-6.562531,-147.812439,,,
729862606.664367,0.115001,3.071634,37.168629,-0.048676,0.011093,0.975937,-0.019973,0.026725,-0.011195,58.803619,-6.562531,-147.812439,,,
729862606.667603,0.106694,3.07695,37.166952,-0.054733,0.005447,0.98053,-0.033158,0.029719,-0.006862,58.803619,-6.562531,-147.812439,,,
729862606.67096,0.106694,3.07695,37.166952,-0.054733,0.005447,0.98053,-0.033158,0.029719,-0.006862,58.803619,-6.562531,-147.812439,,,
729862606.674342,0.097359,3.0846,37.166418,-0.054733,0.005447,0.98053,-0.033158,0.029719,-0.006862,58.803619,-6.562531,-147.812439,,,
729862606.677608,0.088917,3.091383,37.16727,-0.064438,0.002502,0.990097,-0.022474,0.025389,0.003339,58.803619,-6.562531,-147.812439,,,
729862606.680965,0.088917,3.091383,37.16727,-0.064438,0.002502,0.990097,-0.022474,0.025389,0.003339,58.732452,-6.686478,-147.909348,,,
729862606.684284,0.083147,3.09718,37.169904,-0.064438,0.002502,0.990097,-0.022474,0.025389,0.003339,58.732452,-6.686478,-147.909348,,,
729862606.687614,0.07703,3.103345,37.17408,-0.068848,-0.000259,0.994507,-0.015389,0.017845,0.014429,58.732452,-6.686478,-147.909348,,,
729862606.691049,0.07703,3.103345,37.17408,-0.068848,-0.000259,0.994507,-0.015389,0.017845,0.014429,58.732452,-6.686478,-147.909348,,,
729862606.694282,0.073026,3.107727,37.178939,-0.068848,-0.000259,0.994507,-0.015389,0.017845,0.014429,58.732452,-6.686478,-147.909348,,,
729862606.697615,0.068934,3.113876,37.183649,-0.060623,0.00058,0.999405,-0.005788,0.016843,0.01389,58.732452,-6.686478,-147.909348,,,
729862606.700959,0.068934,3.113876,37.183649,-0.060623,0.00058,0.999405,-0.005788,0.016843,0.01389,58.732452,-6.686478,-147.909348,,,
729862606.704343,0.068777,3.117314,37.187493,-0.060623,0.00058,0.999405,-0.005788,0.016843,0.01389,58.732452,-6.686478,-147.909348,,,
729862606.707659,0.071502,3.120791,37.190357,-0.052643,-0.004181,1.006378,0.018382,0.004935,0.008329,58.732452,-6.686478,-147.909348,,,
729862606.710991,0.071502,3.120791,37.190357,-0.052643,-0.004181,1.006378,0.018382,0.004935,0.008329,58.732452,-6.686478,-147.909348,,,
729862606.714309,0.078841,3.120723,37.191807,-0.052643,-0.004181,1.006378,0.018382,0.004935,0.008329,58.732452,-6.686478,-147.909348,,,
729862606.717612,0.089588,3.120445,37.19189,-0.051102,-0.004318,1.008591,0.041306,-0.003344,-6e-06,58.732452,-6.686478,-147.909348,,,
729862606.720976,0.089588,3.120445,37.19189,-0.051102,-0.004318,1.008591,0.041306,-0.003344,-6e-06,58.783722,-6.62558,-147.648621,,,
729862606.724339,0.101918,3.118916,37.191914,-0.051102,-0.004318,1.008591,0.041306,-0.003344,-6e-06,58.783722,-6.62558,-147.648621,,,
729862606.72763,0.116886,3.116416,37.192769,-0.053329,-0.001907,1.004944,0.050988,-0.002669,0.00632,58.783722,-6.62558,-147.648621,,,
729862606.731054,0.116886,3.116416,37.192769,-0.053329,-0.001907,1.004944,0.050988,-0.002669,0.00632,58.783722,-6.62558,-147.648621,,,
729862606.734287,0.130564,3.115204,37.194849,-0.053329,-0.001907,1.004944,0.050988,-0.002669,0.00632,58.783722,-6.62558,-147.648621,,,
729862606.73763,0.143389,3.113964,37.197873,-0.048096,0.00621,0.994003,0.034488,0.003614,0.011966,58.783722,-6.62558,-147.648621,,,
729862606.741017,0.143389,3.113964,37.197873,-0.048096,0.00621,0.994003,0.034488,0.003614,0.011966,58.783722,-6.62558,-147.648621,,,
729862606.744366,0.151451,3.115175,37.20059,-0.048096,0.00621,0.994003,0.034488,0.003614,0.011966,58.783722,-6.62558,-147.648621,,,
729862606.747615,0.155984,3.117293,37.202496,-0.033966,0.01265,0.979492,0.005149,0.011089,0.00465,58.783722,-6.62558,-147.648621,,,
729862606.750957,0.155984,3.117293,37.202496,-0.033966,0.01265,0.979492,0.005149,0.011089,0.00465,58.783722,-6.62558,-147.648621,,,
729862606.754293,0.155283,3.120239,37.202885,-0.033966,0.01265,0.979492,0.005149,0.011089,0.00465,58.783722,-6.62558,-147.648621,,,
729862606.757685,0.149633,3.125383,37.201649,-0.029099,0.012939,0.968658,-0.028243,0.01514,-0.008517,58.783722,-6.62558,-147.648621,,,
729862606.760979,0.149633,3.125383,37.201649,-0.029099,0.012939,0.968658,-0.028243,0.01514,-0.008517,58.97879,-6.713455,-147.477676,,,
729862606.7643,0.138681,3.128577,37.199776,-0.029099,0.012939,0.968658,-0.028243,0.01514,-0.008517,58.97879,-6.713455,-147.477676,,,
729862606.767622,0.123247,3.133768,37.197492,-0.036011,0.014114,0.964417,-0.057776,0.007598,-0.012971,58.97879,-6.713455,-147.477676,,,
729862606.771032,0.123247,3.133768,37.197492,-0.036011,0.014114,0.964417,-0.057776,0.007598,-0.012971,58.97879,-6.713455,-147.477676,,,
729862606.774376,0.105929,3.134861,37.195185,-0.036011,0.014114,0.964417,-0.057776,0.007598,-0.012971,58.97879,-6.713455,-147.477676,,,
729862606.777613,0.088533,3.137396,37.193519,-0.045593,0.006561,0.981964,-0.056868,0.005615,-0.008465,58.97879,-6.713455,-147.477676,,,
729862606.780965,0.088533,3.137396,37.193519,-0.045593,0.006561,0.981964,-0.056868,0.005615,-0.008465,58.97879,-6.713455,-147.477676,,,
729862606.78429,0.072705,3.138785,37.192398,-0.045593,0.006561,0.981964,-0.056868,0.005615,-0.008465,58.97879,-6.713455,-147.477676,,,
729862606.787621,0.058795,3.141112,37.191125,-0.045563,-0.000763,0.998505,-0.039372,0.012804,-0.008602,58.97879,-6.713455,-147.477676,,,
729862606.791017,0.058795,3.141112,37.191125,-0.045563,-0.000763,0.998505,-0.039372,0.012804,-0.008602,58.97879,-6.713455,-147.477676,,,
729862606.794299,0.04871,3.143522,37.189422,-0.045563,-0.000763,0.998505,-0.039372,0.012804,-0.008602,58.97879,-6.713455,-147.477676,,,
729862606.797621,0.040777,3.144267,37.186993,-0.044342,-0.003922,1.0065,-0.018143,0.007585,-0.012545,58.97879,-6.713455,-147.477676,,,
729862606.801006,0.040777,3.144267,37.186993,-0.044342,-0.003922,1.0065,-0.018143,0.007585,-0.012545,58.97879,-6.713455,-147.477676,,,
729862606.804302,0.036376,3.146149,37.183507,-0.044342,-0.003922,1.0065,-0.018143,0.007585,-0.012545,58.957489,-6.631424,-147.454498,,,
729862606.807659,0.035446,3.148261,37.179338,-0.046738,-0.008118,1.013016,0.009252,0.013504,-0.015837,58.957489,-6.631424,-147.454498,,,
729862606.811025,0.035446,3.148261,37.179338,-0.046738,-0.008118,1.013016,0.009252,0.013504,-0.015837,58.957489,-6.631424,-147.454498,,,
729862606.814345,0.039046,3.152246,37.174266,-0.046738,-0.008118,1.013016,0.009252,0.013504,-0.015837,58.957489,-6.631424,-147.454498,,,
729862606.817667,0.046236,3.157541,37.168666,-0.050354,-0.005249,1.019791,0.031014,0.028588,-0.018369,58.957489,-6.631424,-147.454498,,,
729862606.820958,0.046236,3.157541,37.168666,-0.050354,-0.005249,1.019791,0.031014,0.028588,-0.018369,58.957489,-6.631424,-147.454498,,,
729862606.824344,0.054549,3.166255,37.162791,-0.050354,-0.005249,1.019791,0.031014,0.028588,-0.018369,58.957489,-6.631424,-147.454498,,,
729862606.827619,0.063213,3.173438,37.15605,-0.053619,-0.0,1.0065,0.022191,0.042345,-0.024983,58.957489,-6.631424,-147.454498,,,
729862606.830969,0.063213,3.173438,37.15605,-0.053619,-0.0,1.0065,0.022191,0.042345,-0.024983,58.957489,-6.631424,-147.454498,,,
729862606.834303,0.067768,3.184586,37.148969,-0.053619,-0.0,1.0065,0.022191,0.042345,-0.024983,58.957489,-6.631424,-147.454498,,,
729862606.837622,0.071797,3.189612,37.142179,-0.063507,0.006821,0.988068,0.004832,0.037735,-0.023946,58.957489,-6.631424,-147.454498,,,
729862606.841003,0.071797,3.189612,37.142179,-0.063507,0.006821,0.988068,0.004832,0.037735,-0.023946,58.957489,-6.631424,-147.454498,,,
729862606.844301,0.071735,3.199463,37.136181,-0.063507,0.006821,0.988068,0.004832,0.037735,-0.023946,58.800125,-6.557938,-147.395477,,,
729862606.847621,0.071855,3.20359,37.131832,-0.075043,0.005478,0.988297,-0.009491,0.02765,-0.01326,58.800125,-6.557938,-147.395477,,,
729862606.851014,0.071855,3.20359,37.131832,-0.075043,0.005478,0.988297,-0.009491,0.02765,-0.01326,58.800125,-6.557938,-147.395477,,,
729862606.854303,0.06792,3.208743,37.129966,-0.075043,0.005478,0.988297,-0.009491,0.02765,-0.01326,58.800125,-6.557938,-147.395477,,,
729862606.857668,0.064221,3.206388,37.130704,-0.084152,0.002258,0.985031,-0.018256,-0.007475,0.00439,58.800125,-6.557938,-147.395477,,,
729862606.860962,0.064221,3.206388,37.130704,-0.084152,0.002258,0.985031,-0.018256,-0.007475,0.00439,58.800125,-6.557938,-147.395477,,,
729862606.864292,0.058958,3.200774,37.133709,-0.084152,0.002258,0.985031,-0.018256,-0.007475,0.00439,58.800125,-6.557938,-147.395477,,,
729862606.867621,0.053609,3.188663,37.138089,-0.079651,0.004059,0.983627,-0.018917,-0.040059,0.013942,58.800125,-6.557938,-147.395477,,,
729862606.870969,0.053609,3.188663,37.138089,-0.079651,0.004059,0.983627,-0.018917,-0.040059,0.013942,58.800125,-6.557938,-147.395477,,,
729862606.874348,0.049143,3.174633,37.143452,-0.079651,0.004059,0.983627,-0.018917,-0.040059,0.013942,58.800125,-6.557938,-147.395477,,,
729862606.877619,0.045484,3.156084,37.149469,-0.064423,0.002411,0.991989,-0.009637,-0.055257,0.019009,58.800125,-6.557938,-147.395477,,,
729862606.88096,0.045484,3.156084,37.149469,-0.064423,0.002411,0.991989,-0.009637,-0.055257,0.019009,58.800125,-6.557938,-147.395477,,,
729862606.884292,0.043762,3.139176,37.155441,-0.064423,0.002411,0.991989,-0.009637,-0.055257,0.019009,58.680634,-6.720184,-147.748154,,,
729862606.887619,0.041869,3.120749,37.16095,-0.049835,0.001175,0.993546,-0.001538,-0.053048,0.016244,58.680634,-6.720184,-147.748154,,,
729862606.891027,0.041869,3.120749,37.16095,-0.049835,0.001175,0.993546,-0.001538,-0.053048,0.016244,58.680634,-6.720184,-147.748154,,,
729862606.894293,0.041277,3.106668,37.165593,-0.049835,0.001175,0.993546,-0.001538,-0.053048,0.016244,58.680634,-6.720184,-147.748154,,,
729862606.897518,0.038877,3.095489,37.169526,-0.040924,0.007721,0.992477,-0.007214,-0.024922,0.01097,58.680634,-6.720184,-147.748154,,,
729862606.90104,0.038877,3.095489,37.169526,-0.040924,0.007721,0.992477,-0.007214,-0.024922,0.01097,58.680634,-6.720184,-147.748154,,,
729862606.904301,0.036198,3.089977,37.172903,-0.040924,0.007721,0.992477,-0.007214,-0.024922,0.01097,58.680634,-6.720184,-147.748154,,,
729862606.907665,0.032075,3.088244,37.175299,-0.032928,0.007233,0.992615,-0.012773,0.004108,0.003795,58.680634,-6.720184,-147.748154,,,
729862606.910944,0.032075,3.088244,37.175299,-0.032928,0.007233,0.992615,-0.012773,0.004108,0.003795,58.680634,-6.720184,-147.748154,,,
729862606.914292,0.02844,3.090527,37.176048,-0.032928,0.007233,0.992615,-0.012773,0.004108,0.003795,58.680634,-6.720184,-147.748154,,,
729862606.917622,0.027018,3.097349,37.174782,-0.024704,0.005127,0.999725,-0.00335,0.023797,-0.009716,58.680634,-6.720184,-147.748154,,,
729862606.920965,0.027018,3.097349,37.174782,-0.024704,0.005127,0.999725,-0.00335,0.023797,-0.009716,58.680634,-6.720184,-147.748154,,,
729862606.924334,0.026618,3.103688,37.170924,-0.024704,0.005127,0.999725,-0.00335,0.023797,-0.009716,58.72937,-6.426224,-147.643509,,,
729862606.927629,0.028513,3.114052,37.164506,-0.026901,0.001419,0.999466,0.007268,0.02506,-0.027098,58.72937,-6.426224,-147.643509,,,
729862606.930963,0.028513,3.114052,37.164506,-0.026901,0.001419,0.999466,0.007268,0.02506,-0.027098,58.72937,-6.426224,-147.643509,,,
729862606.934292,0.029761,3.120066,37.155781,-0.026901,0.001419,0.999466,0.007268,0.02506,-0.027098,58.72937,-6.426224,-147.643509,,,
729862606.937622,0.030691,3.131598,37.144777,-0.031754,0.001373,0.991028,0.004278,0.020948,-0.043059,58.72937,-6.426224,-147.643509,,,
729862606.941079,0.030691,3.131598,37.144777,-0.031754,0.001373,0.991028,0.004278,0.020948,-0.043059,58.72937,-6.426224,-147.643509,,,
729862606.944294,0.029201,3.137084,37.132855,-0.031754,0.001373,0.991028,0.004278,0.020948,-0.043059,58.72937,-6.426224,-147.643509,,,
729862606.947617,0.024611,3.148478,37.121242,-0.04097,0.004333,0.985275,-0.021369,0.02186,-0.042282,58.72937,-6.426224,-147.643509,,,
729862606.950959,0.024611,3.148478,37.121242,-0.04097,0.004333,0.985275,-0.021369,0.02186,-0.042282,58.72937,-6.426224,-147.643509,,,
729862606.954365,0.01617,3.154479,37.110865,-0.04097,0.004333,0.985275,-0.021369,0.02186,-0.042282,58.72937,-6.426224,-147.643509,,,
729862606.957646,0.005081,3.1649,37.102301,-0.05188,0.002228,0.986099,-0.043409,0.030553,-0.030817,58.72937,-6.426224,-147.643509,,,
729862606.960966,0.005081,3.1649,37.102301,-0.05188,0.002228,0.986099,-0.043409,0.030553,-0.030817,58.72937,-6.426224,-147.643509,,,
729862606.964299,-0.008633,3.173647,37.095177,-0.05188,0.002228,0.986099,-0.043409,0.030553,-0.030817,58.72937,-6.426224,-147.643509,,,
729862606.967667,-0.008633,3.173647,37.088769,-0.057129,0.002487,0.994949,-0.046508,0.02928,-0.026016,59.051468,-6.844147,-147.417953,,,
729862606.970954,-0.022666,3.181751,37.088769,-0.057129,0.002487,0.994949,-0.046508,0.02928,-0.026016,59.051468,-6.844147,-147.417953,,,
729862606.974342,-0.035977,3.187913,37.081717,-0.057129,0.002487,0.994949,-0.046508,0.02928,-0.026016,59.051468,-6.844147,-147.417953,,,
729862606.977621,-0.035977,3.187913,37.073492,-0.060089,-0.002121,1.000046,-0.033759,-0.00331,-0.033482,59.051468,-6.844147,-147.417953,,,
729862606.98103,-0.046437,3.186919,37.073492,-0.060089,-0.002121,1.000046,-0.033759,-0.00331,-0.033482,59.051468,-6.844147,-147.417953,,,
729862606.984297,-0.055576,3.183582,37.064089,-0.060089,-0.002121,1.000046,-0.033759,-0.00331,-0.033482,59.051468,-6.844147,-147.417953,,,
729862606.987684,-0.055576,3.183582,37.064089,-0.066986,-0.007446,1.011612,-0.014875,-0.0292,-0.04043,59.051468,-6.844147,-147.417953,,,
729862606.990996,-0.060648,3.172317,37.053534,-0.066986,-0.007446,1.011612,-0.014875,-0.0292,-0.04043,59.051468,-6.844147,-147.417953,,,
729862606.994351,-0.063446,3.16244,37.04372,-0.066986,-0.007446,1.011612,-0.014875,-0.0292,-0.04043,59.051468,-6.844147,-147.417953,,,
729862606.997602,-0.063446,3.16244,37.04372,-0.071396,-0.010544,1.02684,0.017348,-0.036241,-0.024529,59.051468,-6.844147,-147.417953,,,
729862607.000972,-0.060578,3.145594,37.035926,-0.071396,-0.010544,1.02684,0.017348,-0.036241,-0.024529,59.051468,-6.844147,-147.417953,,,
729862607.004282,-0.053702,3.134382,37.029743,-0.071396,-0.010544,1.02684,0.017348,-0.036241,-0.024529,59.051468,-6.844147,-147.417953,,,
729862607.007744,-0.053702,3.117307,37.024786,-0.068207,-0.012115,1.036667,0.052963,-0.03427,-0.014058,58.95253,-6.831985,-147.693466,,,
729862607.010959,-0.041001,3.117307,37.024786,-0.068207,-0.012115,1.036667,0.052963,-0.03427,-0.014058,58.95253,-6.831985,-147.693466,,,
729862607.014291,-0.024758,3.10861,37.020162,-0.068207,-0.012115,1.036667,0.052963,-0.03427,-0.014058,58.95253,-6.831985,-147.693466,,,
729862607.017625,-0.024758,3.10861,37.020162,-0.063156,-0.008774,1.035233,0.072612,-0.014822,-0.012833,58.95253,-6.831985,-147.693466,,,
729862607.020997,-0.005449,3.097948,37.015554,-0.063156,-0.008774,1.035233,0.072612,-0.014822,-0.012833,58.95253,-6.831985,-147.693466,,,
729862607.024347,0.015402,3.094685,37.010745,-0.063156,-0.008774,1.035233,0.072612,-0.014822,-0.012833,58.95253,-6.831985,-147.693466,,,
729862607.027617,0.015402,3.094685,37.010745,-0.063156,-0.008774,1.035233,0.072612,-0.014822,-0.012833,58.95253,-6.831985,-147.693466,,,
729862607.03102,0.03749,3.092031,37.005917,-0.059967,-0.002472,1.02713,0.077269,0.012783,-0.012722,58.95253,-6.831985,-147.693466,,,
729862607.034274,0.058387,3.09636,37.001875,-0.059967,-0.002472,1.02713,0.077269,0.012783,-0.012722,58.95253,-6.831985,-147.693466,,,
729862607.037672,0.058387,3.09636,37.001875,-0.065506,0.00383,1.005707,0.056205,0.026896,-0.003519,58.95253,-6.831985,-147.693466,,,
729862607.041001,0.076649,3.101958,36.999314,-0.065506,0.00383,1.005707,0.056205,0.026896,-0.003519,58.95253,-6.831985,-147.693466,,,
729862607.044329,0.090564,3.109316,36.998694,-0.065506,0.00383,1.005707,0.056205,0.026896,-0.003519,58.95253,-6.831985,-147.693466,,,
729862607.047619,0.090564,3.109316,36.998694,-0.065506,0.00383,1.005707,0.02302,0.021722,0.007677,58.848892,-6.831192,-147.688904,,,
729862607.050948,0.09999,3.116375,36.999941,-0.068497,0.007843,0.975006,0.02302,0.021722,0.007677,58.848892,-6.831192,-147.688904,,,
729862607.054287,0.104494,3.120166,37.002395,-0.068497,0.007843,0.975006,0.02302,0.021722,0.007677,58.848892,-6.831192,-147.688904,,,
729862607.057687,0.104494,3.120166,37.002395,-0.067734,0.011276,0.961517,-0.007486,-0.005547,0.007411,58.848892,-6.831192,-147.688904,,,
729862607.06095,0.104191,3.120922,37.00505,-0.067734,0.011276,0.961517,-0.007486,-0.005547,0.007411,58.848892,-6.831192,-147.688904,,,
729862607.06429,0.099914,3.116742,37.007254,-0.067734,0.011276,0.961517,-0.007486,-0.005547,0.007411,58.848892,-6.831192,-147.688904,,,
729862607.067644,0.099914,3.116742,37.007254,-0.067734,0.011276,0.961517,-0.032937,-0.025197,0.000754,58.848892,-6.831192,-147.688904,,,
729862607.070988,0.091007,3.111512,37.008695,-0.0616,0.010345,0.958832,-0.032937,-0.025197,0.000754,58.848892,-6.831192,-147.688904,,,
729862607.074321,0.080234,3.103299,37.009551,-0.0616,0.010345,0.958832,-0.032937,-0.025197,0.000754,58.848892,-6.831192,-147.688904,,,
729862607.077631,0.080234,3.103299,37.009551,-0.0616,0.010345,0.958832,-0.032937,-0.025197,0.000754,58.848892,-6.831192,-147.688904,,,
729862607.080954,0.066627,3.097785,37.009873,-0.0569,0.008438,0.974884,-0.043786,-0.022028,-0.003614,58.848892,-6.831192,-147.688904,,,
729862607.08412,0.054171,3.091592,37.01072,-0.0569,0.008438,0.974884,-0.043786,-0.022028,-0.003614,58.848892,-6.831192,-147.688904,,,
729862607.087741,0.054171,3.091592,37.01072,-0.0569,0.008438,0.974884,-0.027601,-0.00606,0.006388,58.775818,-6.778717,-147.297134,,,
729862607.091071,0.042668,3.089568,37.012874,-0.056824,-0.000168,1.004547,-0.027601,-0.00606,0.006388,58.775818,-6.778717,-147.297134,,,
729862607.094285,0.036472,3.088662,37.01528,-0.056824,-0.000168,1.004547,-0.027601,-0.00606,0.006388,58.775818,-6.778717,-147.297134,,,
729862607.097653,0.036472,3.088662,37.01528,-0.056824,-0.000168,1.004547,-0.027601,-0.00606,0.006388,58.775818,-6.778717,-147.297134,,,
729862607.100973,0.034075,3.091936,37.017231,-0.054764,-0.010544,1.029343,0.006792,0.0159,0.005067,58.775818,-6.778717,-147.297134,,,
729862607.104291,0.038967,3.095987,37.01816,-0.054764,-0.010544,1.029343,0.006792,0.0159,0.005067,58.775818,-6.778717,-147.297134,,,
729862607.107785,0.038967,3.095987,37.01816,-0.054764,-0.010544,1.029343,0.051185,0.019428,0.004004,58.775818,-6.778717,-147.297134,,,
729862607.110958,0.049738,3.101109,37.01859,-0.054642,-0.014481,1.039474,0.051185,0.019428,0.004004,58.775818,-6.778717,-147.297134,,,
729862607.114285,0.067007,3.106029,37.019064,-0.054642,-0.014481,1.039474,0.051185,0.019428,0.004004,58.775818,-6.778717,-147.297134,,,
729862607.117676,0.067007,3.106029,37.019064,-0.054642,-0.014481,1.039474,0.051185,0.019428,0.004004,58.775818,-6.778717,-147.297134,,,
729862607.12102,0.088496,3.111502,37.019577,-0.060287,-0.0121,1.033981,0.079287,0.016451,0.0058,58.775818,-6.778717,-147.297134,,,
729862607.124329,0.111484,3.115171,37.020715,-0.060287,-0.0121,1.033981,0.079287,0.016451,0.0058,58.775818,-6.778717,-147.297134,,,
729862607.127629,0.111484,3.115171,37.020715,-0.060287,-0.0121,1.033981,0.079287,0.016451,0.0058,58.775818,-6.778717,-147.297134,,,
729862607.130953,0.134958,3.11934,37.023123,-0.061966,-0.003998,1.008652,0.079443,0.007306,0.014757,58.757751,-7.097839,-147.11261,,,
729862607.134291,0.155689,3.119643,37.027896,-0.061966,-0.003998,1.008652,0.079443,0.007306,0.014757,58.757751,-7.097839,-147.11261,,,
729862607.137699,0.155689,3.119643,37.027896,-0.061966,-0.003998,1.008652,0.079443,0.007306,0.014757,58.757751,-7.097839,-147.11261,,,
729862607.141022,0.173044,3.119389,37.034413,-0.057648,0.005737,0.980087,0.04977,-0.009283,0.025285,58.757751,-7.097839,-147.11261,,,
729862607.144281,0.184048,3.115147,37.041554,-0.057648,0.005737,0.980087,0.04977,-0.009283,0.025285,58.757751,-7.097839,-147.11261,,,
729862607.147718,0.184048,3.115147,37.041554,-0.057648,0.005737,0.980087,0.04977,-0.009283,0.025285,58.757751,-7.097839,-147.11261,,,
729862607.150947,0.189146,3.111264,37.048597,-0.051498,0.012238,0.966568,0.004709,-0.014863,0.022106,58.757751,-7.097839,-147.11261,,,
729862607.154287,0.186958,3.106558,37.054371,-0.051498,0.012238,0.966568,0.004709,-0.014863,0.022106,58.757751,-7.097839,-147.11261,,,
729862607.157751,0.186958,3.106558,37.054371,-0.051498,0.012238,0.966568,0.004709,-0.014863,0.022106,58.757751,-7.097839,-147.11261,,,
729862607.161001,0.179391,3.103084,37.05823,-0.04628,0.010574,0.972107,-0.035185,-0.009921,0.006609,58.757751,-7.097839,-147.11261,,,
729862607.164287,0.167958,3.100306,37.059976,-0.04628,0.010574,0.972107,-0.035185,-0.009921,0.006609,58.757751,-7.097839,-147.11261,,,
729862607.167666,0.167958,3.100306,37.059976,-0.04628,0.010574,0.972107,-0.035185,-0.009921,0.006609,58.757751,-7.097839,-147.11261,,,
729862607.170961,0.155728,3.099389,37.061298,-0.051559,0.003967,0.991898,-0.040203,0.0008,0.003311,58.808441,-6.90358,-147.363235,,,
729862607.174326,0.146953,3.100496,37.064178,-0.051559,0.003967,0.991898,-0.040203,0.0008,0.003311,58.808441,-6.90358,-147.363235,,,
729862607.177656,0.146953,3.100496,37.064178,-0.051559,0.003967,0.991898,-0.040203,0.0008,0.003311,58.808441,-6.90358,-147.363235,,,
729862607.180957,0.142809,3.103376,37.069425,-0.073303,-0.010223,1.024063,-0.002283,0.012768,0.021885,58.808441,-6.90358,-147.363235,,,
729862607.184292,0.145876,3.105843,37.076996,-0.073303,-0.010223,1.024063,-0.002283,0.012768,0.021885,58.808441,-6.90358,-147.363235,,,
729862607.187703,0.145876,3.105843,37.076996,-0.073303,-0.010223,1.024063,-0.002283,0.012768,0.021885,58.808441,-6.90358,-147.363235,,,
729862607.191006,0.154659,3.106995,37.08563,-0.077042,-0.014786,1.039444,0.046027,0.00615,0.031921,58.808441,-6.90358,-147.363235,,,
729862607.194286,0.170854,3.108542,37.094223,-0.077042,-0.014786,1.039444,0.046027,0.00615,0.031921,58.808441,-6.90358,-147.363235,,,
729862607.197627,0.170854,3.108542,37.094223,-0.077042,-0.014786,1.039444,0.046027,0.00615,0.031921,58.808441,-6.90358,-147.363235,,,
729862607.201015,0.191109,3.111638,37.101561,-0.068726,-0.012497,1.037384,0.082707,0.014983,0.025144,58.808441,-6.90358,-147.363235,,,
729862607.204286,0.217106,3.11623,37.107893,-0.068726,-0.012497,1.037384,0.082707,0.014983,0.025144,58.808441,-6.90358,-147.363235,,,
729862607.207671,0.217106,3.11623,37.107893,-0.068726,-0.012497,1.037384,0.082707,0.014983,0.025144,58.808441,-6.90358,-147.363235,,,
729862607.210946,0.244674,3.123002,37.11513,-0.06694,-0.010757,1.025696,0.098254,0.025521,0.032357,58.726547,-7.178223,-147.123627,,,
729862607.214291,0.273548,3.128592,37.124012,-0.06694,-0.010757,1.025696,0.098254,0.025521,0.032357,58.726547,-7.178223,-147.123627,,,
729862607.217635,0.273548,3.128592,37.124012,-0.06694,-0.010757,1.025696,0.098254,0.025521,0.032357,58.726547,-7.178223,-147.123627,,,
729862607.220961,0.302974,3.131794,37.135046,-0.071289,-0.003738,0.998581,0.101751,0.005654,0.047586,58.726547,-7.178223,-147.123627,,,
729862607.224329,0.332194,3.129983,37.148199,-0.071289,-0.003738,0.998581,0.101751,0.005654,0.047586,58.726547,-7.178223,-147.123627,,,
729862607.227673,0.332194,3.129983,37.148199,-0.071289,-0.003738,0.998581,0.101751,0.005654,0.047586,58.726547,-7.178223,-147.123627,,,
729862607.230963,0.361054,3.124176,37.162291,-0.066193,0.000198,0.981445,0.0954,-0.022858,0.053714,58.726547,-7.178223,-147.123627,,,
729862607.234299,0.387851,3.115851,37.176139,-0.066193,0.000198,0.981445,0.0954,-0.022858,0.053714,58.726547,-7.178223,-147.123627,,,
729862607.237634,0.387851,3.115851,37.176139,-0.066193,0.000198,0.981445,0.0954,-0.022858,0.053714,58.726547,-7.178223,-147.123627,,,
729862607.241058,0.412541,3.105142,37.189362,-0.051041,0.006699,0.975555,0.077458,-0.034302,0.048341,58.726547,-7.178223,-147.123627,,,
729862607.244278,0.43391,3.094691,37.201446,-0.051041,0.006699,0.975555,0.077458,-0.034302,0.048341,58.726547,-7.178223,-147.123627,,,
729862607.247633,0.43391,3.094691,37.201446,-0.051041,0.006699,0.975555,0.077458,-0.034302,0.048341,58.726547,-7.178223,-147.123627,,,
729862607.250963,0.451668,3.084783,37.211879,-0.036865,0.009689,0.969376,0.053536,-0.025797,0.035491,58.726547,-7.178223,-147.123627,,,
729862607.25429,0.465076,3.077759,37.221287,-0.036865,0.009689,0.969376,0.053536,-0.025797,0.035491,58.324661,-7.121201,-146.785919,,,
729862607.257675,0.465076,3.077759,37.221287,-0.036865,0.009689,0.969376,0.053536,-0.025797,0.035491,58.324661,-7.121201,-146.785919,,,
729862607.260956,0.473439,3.075068,37.229605,-0.026642,0.013077,0.970428,0.027186,-0.005979,0.026539,58.324661,-7.121201,-146.785919,,,
729862607.26429,0.48016,3.074245,37.237263,-0.026642,0.013077,0.970428,0.027186,-0.005979,0.026539,58.324661,-7.121201,-146.785919,,,
729862607.267689,0.48016,3.074245,37.237263,-0.026642,0.013077,0.970428,0.027186,-0.005979,0.026539,58.324661,-7.121201,-146.785919,,,
729862607.270966,0.481978,3.079029,37.244948,-0.024368,0.012421,0.976501,0.007898,0.014875,0.025802,58.324661,-7.121201,-146.785919,,,
729862607.274387,0.482508,3.082973,37.252046,-0.024368,0.012421,0.976501,0.007898,0.014875,0.025802,58.324661,-7.121201,-146.785919,,,
729862607.277633,0.482508,3.082973,37.252046,-0.024368,0.012421,0.976501,0.007898,0.014875,0.025802,58.324661,-7.121201,-146.785919,,,
729862607.281019,0.476995,3.088844,37.25801,-0.019791,0.013412,0.964569,-0.019714,0.015626,0.016538,58.324661,-7.121201,-146.785919,,,
729862607.284159,0.468576,3.09247,37.262316,-0.019791,0.013412,0.964569,-0.019714,0.015626,0.016538,58.324661,-7.121201,-146.785919,,,
729862607.287635,0.468576,3.09247,37.262316,-0.019791,0.013412,0.964569,-0.019714,0.015626,0.016538,58.324661,-7.121201,-146.785919,,,
729862607.291011,0.45371,3.097921,37.263902,-0.013214,0.01683,0.956802,-0.050366,0.019567,-0.004051,58.324661,-7.121201,-146.785919,,,
729862607.29428,0.436977,3.103775,37.261979,-0.013214,0.01683,0.956802,-0.050366,0.019567,-0.004051,58.552734,-7.317612,-146.485397,,,
729862607.297635,0.436977,3.103775,37.261979,-0.013214,0.01683,0.956802,-0.050366,0.019567,-0.004051,58.552734,-7.317612,-146.485397,,,
729862607.300968,0.416615,3.113379,37.25681,-0.015869,0.011612,0.96788,-0.066857,0.032653,-0.027486,58.552734,-7.317612,-146.485397,,,
729862607.304286,0.397906,3.123063,37.24977,-0.015869,0.011612,0.96788,-0.066857,0.032653,-0.027486,58.552734,-7.317612,-146.485397,,,
729862607.307722,0.397906,3.123063,37.24977,-0.015869,0.011612,0.96788,-0.066857,0.032653,-0.027486,58.552734,-7.317612,-146.485397,,,
729862607.310963,0.382144,3.136376,37.241515,-0.03067,0.000565,0.99704,-0.040613,0.045072,-0.034455,58.552734,-7.317612,-146.485397,,,
729862607.314295,0.372578,3.149796,37.232678,-0.03067,0.000565,0.99704,-0.040613,0.045072,-0.034455,58.552734,-7.317612,-146.485397,,,
729862607.317669,0.372578,3.149796,37.232678,-0.03067,0.000565,0.99704,-0.040613,0.045072,-0.034455,58.552734,-7.317612,-146.485397,,,
729862607.321061,0.368768,3.165943,37.22356,-0.046005,-0.00975,1.023773,0.000324,0.063405,-0.03419,58.552734,-7.317612,-146.485397,,,
729862607.324333,0.371092,3.183579,37.214522,-0.046005,-0.00975,1.023773,0.000324,0.063405,-0.03419,58.552734,-7.317612,-146.485397,,,
729862607.327636,0.371092,3.183579,37.214522,-0.046005,-0.00975,1.023773,0.000324,0.063405,-0.03419,58.552734,-7.317612,-146.485397,,,
729862607.330967,0.378288,3.19859,37.20633,-0.059204,-0.011459,1.023315,0.032649,0.056406,-0.026569,58.552734,-7.317612,-146.485397,,,
729862607.334285,0.38877,3.211478,37.20025,-0.059204,-0.011459,1.023315,0.032649,0.056406,-0.026569,58.539978,-7.065247,-146.597473,,,
729862607.337627,0.38877,3.211478,37.20025,-0.059204,-0.011459,1.023315,0.032649,0.056406,-0.026569,58.539978,-7.065247,-146.597473,,,
729862607.341016,0.401277,3.215447,37.196242,-0.076065,-0.003952,0.996277,0.042003,0.015615,-0.011698,58.539978,-7.065247,-146.597473,,,
729862607.344279,0.412921,3.216507,37.194122,-0.076065,-0.003952,0.996277,0.042003,0.015615,-0.011698,58.539978,-7.065247,-146.597473,,,
729862607.347637,0.412921,3.216507,37.194122,-0.076065,-0.003952,0.996277,0.042003,0.015615,-0.011698,58.539978,-7.065247,-146.597473,,,
729862607.350955,0.423948,3.208958,37.194692,-0.07782,0.00824,0.974121,0.032963,-0.014891,0.00628,58.539978,-7.065247,-146.597473,,,
729862607.354292,0.43197,3.202545,37.196995,-0.07782,0.00824,0.974121,0.032963,-0.014891,0.00628,58.539978,-7.065247,-146.597473,,,
729862607.357757,0.43197,3.202545,37.196995,-0.07782,0.00824,0.974121,0.032963,-0.014891,0.00628,58.539978,-7.065247,-146.597473,,,
729862607.360963,0.436618,3.188517,37.200308,-0.06543,0.011475,0.964264,0.004638,-0.02724,0.011451,58.539978,-7.065247,-146.597473,,,
729862607.364295,0.434199,3.179615,37.204399,-0.06543,0.011475,0.964264,0.004638,-0.02724,0.011451,58.539978,-7.065247,-146.597473,,,
729862607.36764,0.434199,3.179615,37.204399,-0.06543,0.011475,0.964264,0.004638,-0.02724,0.011451,58.539978,-7.065247,-146.597473,,,
729862607.371028,0.425826,3.165728,37.209486,-0.05484,0.017975,0.945114,-0.042935,-0.029733,0.01551,58.539978,-7.065247,-146.597473,,,
729862607.374324,0.410076,3.156207,37.214784,-0.05484,0.017975,0.945114,-0.042935,-0.029733,0.01551,58.441437,-6.947525,-146.753906,,,
729862607.377631,0.410076,3.156207,37.214784,-0.05484,0.017975,0.945114,-0.042935,-0.029733,0.01551,58.441437,-6.947525,-146.753906,,,
729862607.38097,0.389022,3.142917,37.219468,-0.044846,0.024307,0.945053,-0.083053,-0.031899,0.008891,58.441437,-6.947525,-146.753906,,,
729862607.384291,0.36373,3.134418,37.222827,-0.044846,0.024307,0.945053,-0.083053,-0.031899,0.008891,58.441437,-6.947525,-146.753906,,,
729862607.387636,0.36373,3.134418,37.222827,-0.044846,0.024307,0.945053,-0.083053,-0.031899,0.008891,58.441437,-6.947525,-146.753906,,,
729862607.391092,0.336677,3.127416,37.223665,-0.032043,0.019058,0.969299,-0.093166,-0.006386,-0.009344,58.441437,-6.947525,-146.753906,,,
729862607.394397,0.310484,3.128566,37.221089,-0.032043,0.019058,0.969299,-0.093166,-0.006386,-0.009344,58.441437,-6.947525,-146.753906,,,
729862607.397652,0.310484,3.128566,37.221089,-0.032043,0.019058,0.969299,-0.093166,-0.006386,-0.009344,58.441437,-6.947525,-146.753906,,,
729862607.400985,0.286617,3.135595,37.215735,-0.027756,0.006073,1.008713,-0.070235,0.042049,-0.02751,58.441437,-6.947525,-146.753906,,,
729862607.404298,0.26896,3.14897,37.208507,-0.027756,0.006073,1.008713,-0.070235,0.042049,-0.02751,58.441437,-6.947525,-146.753906,,,
729862607.407726,0.26896,3.14897,37.208507,-0.027756,0.006073,1.008713,-0.070235,0.042049,-0.02751,58.441437,-6.947525,-146.753906,,,
729862607.410974,0.257141,3.164846,37.200013,-0.040237,-0.002563,1.035065,-0.019801,0.06029,-0.033548,58.441437,-6.947525,-146.753906,,,
729862607.414298,0.255418,3.181215,37.190887,-0.040237,-0.002563,1.035065,-0.019801,0.06029,-0.033548,58.441437,-6.947525,-146.753906,,,
729862607.417623,0.255418,3.181215,37.190887,-0.040237,-0.002563,1.035065,-0.019801,0.06029,-0.033548,58.799988,-7.123901,-146.879974,,,
729862607.421032,0.261752,3.198366,37.18197,-0.060104,-0.012192,1.049347,0.041179,0.0547,-0.028614,58.799988,-7.123901,-146.879974,,,
729862607.424285,0.275781,3.212347,37.174592,-0.060104,-0.012192,1.049347,0.041179,0.0547,-0.028614,58.799988,-7.123901,-146.879974,,,
729862607.427643,0.275781,3.212347,37.174592,-0.060104,-0.012192,1.049347,0.041179,0.0547,-0.028614,58.799988,-7.123901,-146.879974,,,
729862607.430967,0.294408,3.225557,37.169392,-0.073196,-0.009628,1.035294,0.071984,0.0367,-0.011666,58.799988,-7.123901,-146.879974,,,
729862607.434317,0.314511,3.233283,37.166452,-0.073196,-0.009628,1.035294,0.071984,0.0367,-0.011666,58.799988,-7.123901,-146.879974,,,
729862607.43765,0.314511,3.233283,37.166452,-0.073196,-0.009628,1.035294,0.071984,0.0367,-0.011666,58.799988,-7.123901,-146.879974,,,
729862607.440967,0.333302,3.237177,37.165113,-0.06871,0.007141,0.998047,0.059874,0.002103,-0.001202,58.799988,-7.123901,-146.879974,,,
729862607.444291,0.347913,3.234096,37.165039,-0.06871,0.007141,0.998047,0.059874,0.002103,-0.001202,58.799988,-7.123901,-146.879974,,,
729862607.447738,0.347913,3.234096,37.165039,-0.06871,0.007141,0.998047,0.059874,0.002103,-0.001202,58.799988,-7.123901,-146.879974,,,
729862607.450966,0.357947,3.226118,37.166345,-0.062332,0.017715,0.967545,0.022906,-0.033523,0.006305,58.799988,-7.123901,-146.879974,,,
729862607.45429,0.361489,3.214999,37.168917,-0.062332,0.017715,0.967545,0.022906,-0.033523,0.006305,58.799988,-7.123901,-146.879974,,,
729862607.45762,0.361489,3.214999,37.168917,-0.062332,0.017715,0.967545,0.022906,-0.033523,0.006305,58.360825,-6.984756,-146.634109,,,
729862607.461014,0.360398,3.203276,37.172949,-0.059937,0.02272,0.966614,-0.017839,-0.03392,0.014194,58.360825,-6.984756,-146.634109,,,
729862607.464288,0.352392,3.193069,37.178349,-0.059937,0.02272,0.966614,-0.017839,-0.03392,0.014194,58.360825,-6.984756,-146.634109,,,
729862607.467618,0.352392,3.193069,37.178349,-0.059937,0.02272,0.966614,-0.017839,-0.03392,0.014194,58.360825,-6.984756,-146.634109,,,
729862607.470971,0.340067,3.182731,37.185188,-0.055405,0.021011,0.969238,-0.054955,-0.02418,0.022131,58.360825,-6.984756,-146.634109,,,
729862607.474284,0.32271,3.176905,37.19361,-0.055405,0.021011,0.969238,-0.054955,-0.02418,0.022131,58.360825,-6.984756,-146.634109,,,
729862607.47765,0.32271,3.176905,37.19361,-0.055405,0.021011,0.969238,-0.054955,-0.02418,0.022131,58.360825,-6.984756,-146.634109,,,
729862607.480964,0.303157,3.171071,37.202823,-0.051834,0.020813,0.977631,-0.07197,-0.007707,0.026588,58.360825,-6.984756,-146.634109,,,
729862607.484279,0.282897,3.168438,37.21226,-0.051834,0.020813,0.977631,-0.07197,-0.007707,0.026588,58.360825,-6.984756,-146.634109,,,
729862607.487677,0.282897,3.168438,37.21226,-0.051834,0.020813,0.977631,-0.07197,-0.007707,0.026588,58.360825,-6.984756,-146.634109,,,
729862607.490956,0.263523,3.164252,37.222166,-0.050827,0.012878,0.98587,-0.063709,-0.005261,0.030224,58.360825,-6.984756,-146.634109,,,
729862607.494282,0.247798,3.161535,37.231986,-0.050827,0.012878,0.98587,-0.063709,-0.005261,0.030224,58.360825,-6.984756,-146.634109,,,
729862607.497615,0.247798,3.161535,37.231986,-0.050827,0.012878,0.98587,-0.063709,-0.005261,0.030224,58.518951,-6.853607,-146.697662,,,
729862607.50102,0.236147,3.157733,37.24051,-0.047424,0.004532,1.00206,-0.028005,-0.011427,0.023168,58.518951,-6.853607,-146.697662,,,
729862607.504078,0.232053,3.154188,37.246577,-0.047424,0.004532,1.00206,-0.028005,-0.011427,0.023168,58.518951,-6.853607,-146.697662,,,
729862607.507657,0.232053,3.154188,37.246577,-0.047424,0.004532,1.00206,-0.028005,-0.011427,0.023168,58.518951,-6.853607,-146.697662,,,
729862607.510955,0.233763,3.152984,37.24913,-0.03653,0.001633,1.02829,0.020584,-0.003068,0.001396,58.518951,-6.853607,-146.697662,,,
729862607.514285,0.241399,3.152257,37.247518,-0.03653,0.001633,1.02829,0.020584,-0.003068,0.001396,58.518951,-6.853607,-146.697662,,,
729862607.517627,0.241399,3.152257,37.247518,-0.03653,0.001633,1.02829,0.020584,-0.003068,0.001396,58.518951,-6.853607,-146.697662,,,
729862607.520968,0.251615,3.154442,37.242312,-0.035843,-0.001999,1.023407,0.040299,0.008443,-0.022615,58.518951,-6.853607,-146.697662,,,
729862607.524283,0.262063,3.155808,37.234939,-0.035843,-0.001999,1.023407,0.040299,0.008443,-0.022615,58.518951,-6.853607,-146.697662,,,
729862607.527694,0.262063,3.155808,37.234939,-0.035843,-0.001999,1.023407,0.040299,0.008443,-0.022615,58.518951,-6.853607,-146.697662,,,
729862607.530953,0.27069,3.157071,37.227093,-0.040634,0.010132,0.991943,0.022089,0.001139,-0.026945,58.518951,-6.853607,-146.697662,,,
729862607.534285,0.273955,3.154788,37.220716,-0.040634,0.010132,0.991943,0.022089,0.001139,-0.026945,58.518951,-6.853607,-146.697662,,,
729862607.537669,0.273955,3.154788,37.220716,-0.040634,0.010132,0.991943,0.022089,0.001139,-0.026945,58.457672,-6.917816,-146.834595,,,
729862607.54104,0.273433,3.148814,37.216672,-0.051041,0.015335,0.964722,-0.01575,-0.030322,-0.012707,58.457672,-6.917816,-146.834595,,,
729862607.544286,0.266316,3.136529,37.214573,-0.051041,0.015335,0.964722,-0.01575,-0.030322,-0.012707,58.457672,-6.917816,-146.834595,,,
729862607.54764,0.266316,3.136529,37.214573,-0.051041,0.015335,0.964722,-0.01575,-0.030322,-0.012707,58.457672,-6.917816,-146.834595,,,
729862607.551029,0.256639,3.119631,37.213594,-0.052521,0.015564,0.958145,-0.044081,-0.06523,-0.00636,58.457672,-6.917816,-146.834595,,,
729862607.554281,0.241586,3.099662,37.212411,-0.052521,0.015564,0.958145,-0.044081,-0.06523,-0.00636,58.457672,-6.917816,-146.834595,,,
729862607.557641,0.241586,3.099662,37.212411,-0.052521,0.015564,0.958145,-0.044081,-0.06523,-0.00636,58.457672,-6.917816,-146.834595,,,
729862607.560968,0.224729,3.07898,37.210074,-0.038208,0.014679,0.968277,-0.0651,-0.070624,-0.015481,58.457672,-6.917816,-146.834595,,,
729862607.56429,0.204321,3.058748,37.205905,-0.038208,0.014679,0.968277,-0.0651,-0.070624,-0.015481,58.457672,-6.917816,-146.834595,,,
729862607.567701,0.204321,3.058748,37.205905,-0.038208,0.014679,0.968277,-0.0651,-0.070624,-0.015481,58.457672,-6.917816,-146.834595,,,
729862607.570978,0.183296,3.041041,37.199245,-0.022018,0.014023,0.980957,-0.07463,-0.051767,-0.033285,58.457672,-6.917816,-146.834595,,,
729862607.57429,0.160903,3.028119,37.190094,-0.022018,0.014023,0.980957,-0.07463,-0.051767,-0.033285,58.457672,-6.917816,-146.834595,,,
729862607.577644,0.160903,3.028119,37.190094,-0.022018,0.014023,0.980957,-0.07463,-0.051767,-0.033285,58.457672,-6.917816,-146.834595,,,
729862607.581031,0.14,3.020848,37.178851,-0.017578,0.00592,1.006149,-0.066326,-0.008856,-0.047434,58.386276,-6.814316,-147.073776,,,
729862607.58428,0.122155,3.022364,37.165791,-0.017578,0.00592,1.006149,-0.066326,-0.008856,-0.047434,58.386276,-6.814316,-147.073776,,,
729862607.587637,0.122155,3.022364,37.165791,-0.017578,0.00592,1.006149,-0.066326,-0.008856,-0.047434,58.386276,-6.814316,-147.073776,,,
729862607.590963,0.108526,3.030313,37.15184,-0.028534,-0.003769,1.03746,-0.036473,0.052919,-0.052136,58.386276,-6.814316,-147.073776,,,
729862607.594357,0.098979,3.048016,37.138927,-0.028534,-0.003769,1.03746,-0.036473,0.052919,-0.052136,58.386276,-6.814316,-147.073776,,,
729862607.597612,0.098979,3.048016,37.138927,-0.028534,-0.003769,1.03746,-0.036473,0.052919,-0.052136,58.386276,-6.814316,-147.073776,,,
729862607.600981,0.093393,3.068356,37.128015,-0.047424,-0.009781,1.043259,-0.007166,0.087809,-0.036647,58.386276,-6.814316,-147.073776,,,
729862607.604288,0.092738,3.093124,37.118815,-0.047424,-0.009781,1.043259,-0.007166,0.087809,-0.036647,58.386276,-6.814316,-147.073776,,,
729862607.607696,0.092738,3.093124,37.118815,-0.047424,-0.009781,1.043259,-0.007166,0.087809,-0.036647,58.386276,-6.814316,-147.073776,,,
729862607.610985,0.096734,3.115371,37.110556,-0.063904,-0.01004,1.03952,0.022376,0.08147,-0.028468,58.386276,-6.814316,-147.073776,,,
729862607.614308,0.10467,3.136238,37.10294,-0.063904,-0.01004,1.03952,0.022376,0.08147,-0.028468,58.386276,-6.814316,-147.073776,,,
729862607.617642,0.10467,3.136238,37.10294,-0.063904,-0.01004,1.03952,0.022376,0.08147,-0.028468,58.386276,-6.814316,-147.073776,,,
729862607.620958,0.117528,3.152213,37.095652,-0.07399,-0.011154,1.02742,0.048757,0.050562,-0.024723,58.84494,-6.925278,-147.017029,,,
729862607.624286,0.132348,3.163737,37.088252,-0.07399,-0.011154,1.02742,0.048757,0.050562,-0.024723,58.84494,-6.925278,-147.017029,,,
729862607.627639,0.132348,3.163737,37.088252,-0.07399,-0.011154,1.02742,0.048757,0.050562,-0.024723,58.84494,-6.925278,-147.017029,,,
729862607.631063,0.150849,3.170268,37.08142,-0.078552,-0.007858,1.020065,0.066092,0.015322,-0.019708,58.84494,-6.925278,-147.017029,,,
729862607.634292,0.170479,3.170988,37.076305,-0.078552,-0.007858,1.020065,0.066092,0.015322,-0.019708,58.84494,-6.925278,-147.017029,,,
729862607.637621,0.170479,3.170988,37.076305,-0.078552,-0.007858,1.020065,0.066092,0.015322,-0.019708,58.84494,-6.925278,-147.017029,,,
729862607.640968,0.192175,3.164863,37.073374,-0.085449,-0.002853,1.007065,0.071566,-0.023118,-0.004176,58.84494,-6.925278,-147.017029,,,
729862607.644294,0.210578,3.155174,37.072956,-0.085449,-0.002853,1.007065,0.071566,-0.023118,-0.004176,58.84494,-6.925278,-147.017029,,,
729862607.647645,0.210578,3.155174,37.072956,-0.085449,-0.002853,1.007065,0.071566,-0.023118,-0.004176,58.84494,-6.925278,-147.017029,,,
729862607.650973,0.225748,3.137658,37.075285,-0.087982,0.004669,0.980972,0.041372,-0.053765,0.013177,58.84494,-6.925278,-147.017029,,,
729862607.654293,0.235314,3.120192,37.080436,-0.087982,0.004669,0.980972,0.041372,-0.053765,0.013177,58.84494,-6.925278,-147.017029,,,
729862607.657689,0.235314,3.120192,37.080436,-0.087982,0.004669,0.980972,0.041372,-0.053765,0.013177,58.84494,-6.925278,-147.017029,,,
729862607.66095,0.240904,3.096726,37.087827,-0.076813,0.012604,0.967148,0.010499,-0.067036,0.026887,58.601654,-6.947037,-146.854172,,,
729862607.664294,0.241778,3.07699,37.095808,-0.076813,0.012604,0.967148,0.010499,-0.067036,0.026887,58.601654,-6.947037,-146.854172,,,
729862607.66764,0.241778,3.07699,37.095808,-0.076813,0.012604,0.967148,0.010499,-0.067036,0.026887,58.601654,-6.947037,-146.854172,,,
729862607.671023,0.238625,3.0555,37.103493,-0.054352,0.010422,0.97403,-0.014185,-0.057734,0.023347,58.601654,-6.947037,-146.854172,,,
729862607.674279,0.23364,3.039098,37.110335,-0.054352,0.010422,0.97403,-0.014185,-0.057734,0.023347,58.601654,-6.947037,-146.854172,,,
729862607.677651,0.23364,3.039098,37.110335,-0.054352,0.010422,0.97403,-0.014185,-0.057734,0.023347,58.601654,-6.947037,-146.854172,,,
729862607.680979,0.226051,3.023446,37.115924,-0.043854,0.009109,0.982651,-0.024956,-0.042799,0.013988,58.601654,-6.947037,-146.854172,,,
729862607.684291,0.218905,3.012426,37.120591,-0.043854,0.009109,0.982651,-0.024956,-0.042799,0.013988,58.601654,-6.947037,-146.854172,,,
729862607.687645,0.218905,3.012426,37.120591,-0.043854,0.009109,0.982651,-0.024956,-0.042799,0.013988,58.601654,-6.947037,-146.854172,,,
729862607.690969,0.211052,3.006687,37.124646,-0.042343,0.0065,0.997787,-0.022601,-0.010706,0.009901,58.601654,-6.947037,-146.854172,,,
729862607.694285,0.205083,3.005273,37.128089,-0.042343,0.0065,0.997787,-0.022601,-0.010706,0.009901,58.601654,-6.947037,-146.854172,,,
729862607.697715,0.205083,3.005273,37.128089,-0.042343,0.0065,0.997787,-0.022601,-0.010706,0.009901,58.601654,-6.947037,-146.854172,,,
729862607.700942,0.199922,3.01019,37.131287,-0.03978,-0.000809,1.009109,-0.008709,0.01911,0.00897,58.609085,-7.118378,-146.951004,,,
729862607.704281,0.199056,3.016277,37.134509,-0.03978,-0.000809,1.009109,-0.008709,0.01911,0.00897,58.609085,-7.118378,-146.951004,,,
729862607.707635,0.199056,3.016277,37.134509,-0.03978,-0.000809,1.009109,-0.008709,0.01911,0.00897,58.609085,-7.118378,-146.951004,,,
729862607.711026,0.200055,3.027778,37.137368,-0.038315,-0.005722,1.012253,0.01397,0.034407,0.007741,58.609085,-7.118378,-146.951004,,,
729862607.714278,0.20543,3.037728,37.138679,-0.038315,-0.005722,1.012253,0.01397,0.034407,0.007741,58.609085,-7.118378,-146.951004,,,
729862607.717626,0.20543,3.037728,37.138679,-0.038315,-0.005722,1.012253,0.01397,0.034407,0.007741,58.609085,-7.118378,-146.951004,,,
729862607.720952,0.212356,3.053765,37.137824,-0.036484,-0.005737,1.01207,0.031884,0.043721,-0.006255,58.609085,-7.118378,-146.951004,,,
729862607.724288,0.222,3.065966,37.134818,-0.036484,-0.005737,1.01207,0.031884,0.043721,-0.006255,58.609085,-7.118378,-146.951004,,,
729862607.72762,0.222,3.065966,37.134818,-0.036484,-0.005737,1.01207,0.031884,0.043721,-0.006255,58.609085,-7.118378,-146.951004,,,
729862607.730963,0.232239,3.085438,37.1305,-0.044922,-0.008606,1.008926,0.038141,0.04972,-0.0149,58.609085,-7.118378,-146.951004,,,
729862607.734287,0.243367,3.099293,37.126313,-0.044922,-0.008606,1.008926,0.038141,0.04972,-0.0149,58.609085,-7.118378,-146.951004,,,
729862607.737684,0.243367,3.099293,37.126313,-0.044922,-0.008606,1.008926,0.038141,0.04972,-0.0149,58.609085,-7.118378,-146.951004,,,
729862607.74095,0.256375,3.117345,37.123246,-0.060394,-0.007904,1.007416,0.043678,0.041952,-0.006645,58.609085,-7.118378,-146.951004,,,
729862607.744299,0.267914,3.1267,37.121657,-0.060394,-0.007904,1.007416,0.043678,0.041952,-0.006645,58.801971,-7.110519,-147.333099,,,
729862607.747617,0.267914,3.1267,37.121657,-0.060394,-0.007904,1.007416,0.043678,0.041952,-0.006645,58.801971,-7.110519,-147.333099,,,
729862607.750957,0.279291,3.133012,37.121354,-0.070419,-0.000168,0.999237,0.034143,0.010982,0.001948,58.801971,-7.110519,-147.333099,,,
729862607.754289,0.287887,3.132185,37.121112,-0.070419,-0.000168,0.999237,0.034143,0.010982,0.001948,58.801971,-7.110519,-147.333099,,,
729862607.757701,0.287887,3.132185,37.121112,-0.070419,-0.000168,0.999237,0.034143,0.010982,0.001948,58.801971,-7.110519,-147.333099,,,
729862607.761015,0.294645,3.123082,37.119922,-0.067993,0.005569,0.98349,0.016795,-0.033356,-0.005695,58.801971,-7.110519,-147.333099,,,
729862607.764422,0.297675,3.110784,37.118316,-0.067993,0.005569,0.98349,0.016795,-0.033356,-0.005695,58.801971,-7.110519,-147.333099,,,
729862607.76767,0.297675,3.110784,37.118316,-0.067993,0.005569,0.98349,0.016795,-0.033356,-0.005695,58.801971,-7.110519,-147.333099,,,
729862607.77097,0.297265,3.091757,37.116978,-0.063568,0.009567,0.975342,-0.010847,-0.06315,-0.005441,58.801971,-7.110519,-147.333099,,,
729862607.774361,0.292119,3.07173,37.116277,-0.063568,0.009567,0.975342,-0.010847,-0.06315,-0.005441,58.801971,-7.110519,-147.333099,,,
729862607.777625,0.292119,3.07173,37.116277,-0.063568,0.009567,0.975342,-0.010847,-0.06315,-0.005441,58.801971,-7.110519,-147.333099,,,
729862607.780972,0.28275,3.047167,37.116504,-0.059677,0.010544,0.97554,-0.036462,-0.07353,-0.000364,58.801971,-7.110519,-147.333099,,,
729862607.784357,0.271712,3.025765,37.117905,-0.059677,0.010544,0.97554,-0.036462,-0.07353,-0.000364,58.542084,-7.028122,-147.234802,,,
729862607.78769,0.271712,3.025765,37.117905,-0.059677,0.010544,0.97554,-0.036462,-0.07353,-0.000364,58.542084,-7.028122,-147.234802,,,
729862607.790968,0.25923,3.00383,37.120564,-0.053024,0.007492,0.996964,-0.035253,-0.055752,0.008461,58.542084,-7.028122,-147.234802,,,
729862607.794299,0.250703,2.990005,37.124025,-0.053024,0.007492,0.996964,-0.035253,-0.055752,0.008461,58.542084,-7.028122,-147.234802,,,
729862607.79763,0.250703,2.990005,37.124025,-0.053024,0.007492,0.996964,-0.035253,-0.055752,0.008461,58.542084,-7.028122,-147.234802,,,
729862607.801033,0.244744,2.979435,37.127766,-0.046417,-0.004074,1.029541,-0.006828,-0.008591,0.011781,58.542084,-7.028122,-147.234802,,,
729862607.804295,0.245857,2.980145,37.130815,-0.046417,-0.004074,1.029541,-0.006828,-0.008591,0.011781,58.542084,-7.028122,-147.234802,,,
729862607.807641,0.245857,2.980145,37.130815,-0.046417,-0.004074,1.029541,-0.006828,-0.008591,0.011781,58.542084,-7.028122,-147.234802,,,
729862607.810983,0.251067,2.98667,37.13282,-0.044281,-0.007935,1.052673,0.034349,0.048149,0.006608,58.542084,-7.028122,-147.234802,,,
729862607.814364,0.264403,3.00297,37.134303,-0.044281,-0.007935,1.052673,0.034349,0.048149,0.006608,58.542084,-7.028122,-147.234802,,,
729862607.817627,0.264403,3.00297,37.134303,-0.044281,-0.007935,1.052673,0.034349,0.048149,0.006608,58.542084,-7.028122,-147.234802,,,
729862607.820955,0.282087,3.025678,37.135546,-0.045441,-0.01059,1.055145,0.075411,0.089033,0.007177,58.542084,-7.028122,-147.234802,,,
729862607.824319,0.303513,3.051356,37.136364,-0.045441,-0.01059,1.055145,0.075411,0.089033,0.007177,58.49411,-6.933411,-146.992096,,,
729862607.827682,0.303513,3.051356,37.136364,-0.045441,-0.01059,1.055145,0.075411,0.089033,0.007177,58.49411,-6.933411,-146.992096,,,
729862607.830956,0.323063,3.079953,37.136509,-0.053436,-0.00148,1.018585,0.069229,0.091135,0.002284,58.49411,-6.933411,-146.992096,,,
729862607.834331,0.341302,3.102716,37.136244,-0.053436,-0.00148,1.018585,0.069229,0.091135,0.002284,58.49411,-6.933411,-146.992096,,,
729862607.837635,0.341302,3.102716,37.136244,-0.053436,-0.00148,1.018585,0.069229,0.091135,0.002284,58.49411,-6.933411,-146.992096,,,
729862607.841044,0.355497,3.122245,37.135623,-0.062347,0.013245,0.976929,0.042297,0.048184,-0.001573,58.49411,-6.933411,-146.992096,,,
729862607.844313,0.355497,3.122245,37.135112,-0.062347,0.013245,0.976929,0.042297,0.048184,-0.001573,58.49411,-6.933411,-146.992096,,,
729862607.847616,0.364057,3.131445,37.135112,-0.062347,0.013245,0.976929,0.042297,0.048184,-0.001573,58.49411,-6.933411,-146.992096,,,
729862607.850952,0.366533,3.133478,37.135179,-0.069336,0.018265,0.949799,-0.002612,-0.012285,5.1e-05,58.49411,-6.933411,-146.992096,,,
729862607.854395,0.362739,3.126138,37.136578,-0.069336,0.018265,0.949799,-0.002612,-0.012285,5.1e-05,58.49411,-6.933411,-146.992096,,,
729862607.857622,0.362739,3.126138,37.136578,-0.069336,0.018265,0.949799,-0.002612,-0.012285,5.1e-05,58.49411,-6.933411,-146.992096,,,
729862607.861032,0.353975,3.113641,37.139771,-0.072632,0.018967,0.946793,-0.039818,-0.053539,0.010578,58.49411,-6.933411,-146.992096,,,
729862607.86429,0.353975,3.113641,37.139771,-0.072632,0.018967,0.946793,-0.039818,-0.053539,0.010578,58.49411,-6.933411,-146.992096,,,
729862607.867706,0.34113,3.095772,37.144443,-0.072632,0.018967,0.946793,-0.039818,-0.053539,0.010578,58.578812,-6.932022,-146.838684,,,
729862607.870951,0.326621,3.076678,37.150151,-0.064026,0.017838,0.968094,-0.05368,-0.06299,0.017151,58.578812,-6.932022,-146.838684,,,
729862607.8743,0.326621,3.076678,37.150151,-0.064026,0.017838,0.968094,-0.05368,-0.06299,0.017151,58.578812,-6.932022,-146.838684,,,
729862607.877614,0.312589,3.059409,37.156644,-0.064026,0.017838,0.968094,-0.05368,-0.06299,0.017151,58.578812,-6.932022,-146.838684,,,
729862607.880953,0.301604,3.045089,37.163423,-0.049774,0.005569,1.000824,-0.029304,-0.037721,0.020498,58.578812,-6.932022,-146.838684,,,
729862607.884296,0.301604,3.045089,37.163423,-0.049774,0.005569,1.000824,-0.029304,-0.037721,0.020498,58.578812,-6.932022,-146.838684,,,
729862607.887627,0.295903,3.036903,37.169674,-0.049774,0.005569,1.000824,-0.029304,-0.037721,0.020498,58.578812,-6.932022,-146.838684,,,
729862607.890957,0.294582,3.034734,37.17497,-0.040009,-0.000992,1.029037,0.006857,0.010798,0.01572,58.578812,-6.932022,-146.838684,,,
729862607.894422,0.294582,3.039664,37.179338,-0.040009,-0.000992,1.029037,0.006857,0.010798,0.01572,58.578812,-6.932022,-146.838684,,,
729862607.897636,0.298821,3.039664,37.179338,-0.040009,-0.000992,1.029037,0.006857,0.010798,0.01572,58.578812,-6.932022,-146.838684,,,
729862607.900956,0.305656,3.048618,37.183525,-0.034317,0.001465,1.021912,0.031574,0.044926,0.015719,58.578812,-6.932022,-146.838684,,,
729862607.904299,0.305656,3.048618,37.183525,-0.034317,0.001465,1.021912,0.031574,0.044926,0.015719,58.578812,-6.932022,-146.838684,,,
