Time (sec),Pitch (deg),Roll (deg),Yaw(deg),X-Acceleration (g),Y-Acceleration (g),Z-Acceleration (g),Pitch Rate (deg/sec),Roll Rate (deg/sec),Yaw Rate (deg/sec),Magnetic Field in X direction (uT),Magnetic Field in Y direction (uT),Magnetic Field in Z Direction (uT),Latitude (deg),Longitude (deg),Altitude (m)
729863170.983143,0.552872,5.58488,49.951569,-0.104462,0.005966,1.014404,0.034272,0.002438,-0.00205,58.266418,3.441284,-149.63385,,,
729863170.986559,0.562233,5.58519,49.950102,-0.103821,0.010269,0.998611,0.034272,0.002438,-0.00205,58.266418,3.441284,-149.63385,,,
729863170.989808,0.572914,5.576648,49.94933,-0.103821,0.010269,0.998611,0.016765,-0.001314,-0.003354,58.266418,3.441284,-149.63385,,,
729863170.993162,0.572914,5.576648,49.94933,-0.103821,0.010269,0.998611,0.016765,-0.001314,-0.003354,58.266418,3.441284,-149.63385,,,
729863170.996497,0.578853,5.574983,49.948371,-0.098129,0.014938,0.990891,0.016765,-0.001314,-0.003354,58.266418,3.441284,-149.63385,,,
729863170.999815,0.585477,5.57057,49.947208,-0.098129,0.014938,0.990891,0.006659,0.001349,-0.001159,58.266418,3.441284,-149.63385,,,
729863171.003295,0.585477,5.57057,49.947208,-0.098129,0.014938,0.990891,0.006659,0.001349,-0.001159,58.266418,3.441284,-149.63385,,,
729863171.006482,0.587475,5.570252,49.946728,-0.096939,0.015228,0.988464,0.006659,0.001349,-0.001159,58.306427,3.399078,-149.816193,,,
729863171.009819,0.589017,5.568232,49.94741,-0.096939,0.015228,0.988464,-0.015384,0.002636,0.002929,58.306427,3.399078,-149.816193,,,
729863171.013235,0.589017,5.568232,49.94741,-0.096939,0.015228,0.988464,-0.015384,0.002636,0.002929,58.306427,3.399078,-149.816193,,,
729863171.016555,0.586451,5.568178,49.948831,-0.09787,0.018021,0.980423,-0.015384,0.002636,0.002929,58.306427,3.399078,-149.816193,,,
729863171.019867,0.583102,5.567992,49.950601,-0.09787,0.018021,0.980423,-0.021,-0.002038,0.002129,58.306427,3.399078,-149.816193,,,
729863171.02319,0.583102,5.567992,49.950601,-0.09787,0.018021,0.980423,-0.021,-0.002038,0.002129,58.306427,3.399078,-149.816193,,,
729863171.02655,0.577283,5.567702,49.952065,-0.09198,0.019531,0.983307,-0.021,-0.002038,0.002129,58.306427,3.399078,-149.816193,,,
729863171.029824,0.571109,5.565836,49.952672,-0.09198,0.019531,0.983307,-0.022109,0.000247,-0.006374,58.306427,3.399078,-149.816193,,,
729863171.033147,0.571109,5.565836,49.952672,-0.09198,0.019531,0.983307,-0.022109,0.000247,-0.006374,58.306427,3.399078,-149.816193,,,
729863171.036537,0.564813,5.565339,49.951882,-0.091385,0.013123,0.987366,-0.022109,0.000247,-0.006374,58.306427,3.399078,-149.816193,,,
729863171.039811,0.557328,5.564146,49.950533,-0.091385,0.013123,0.987366,-0.017712,0.012727,-0.005871,58.306427,3.399078,-149.816193,,,
729863171.043147,0.557328,5.564146,49.950533,-0.091385,0.013123,0.987366,-0.017712,0.012727,-0.005871,58.306427,3.399078,-149.816193,,,
729863171.046478,0.551619,5.565903,49.949967,-0.093582,0.008423,0.993607,-0.017712,0.012727,-0.005871,58.165359,3.518585,-149.791931,,,
729863171.049804,0.547114,5.569663,49.949917,-0.093582,0.008423,0.993607,0.002076,0.023004,0.001739,58.165359,3.518585,-149.791931,,,
729863171.053141,0.547114,5.569663,49.949917,-0.093582,0.008423,0.993607,0.002076,0.023004,0.001739,58.165359,3.518585,-149.791931,,,
729863171.056475,0.547065,5.575174,49.950052,-0.0979,0.002701,1.010941,0.002076,0.023004,0.001739,58.165359,3.518585,-149.791931,,,
729863171.05981,0.549367,5.583569,49.949881,-0.0979,0.002701,1.010941,0.028799,0.021648,-0.001589,58.165359,3.518585,-149.791931,,,
729863171.063184,0.549367,5.583569,49.949881,-0.0979,0.002701,1.010941,0.028799,0.021648,-0.001589,58.165359,3.518585,-149.791931,,,
729863171.06647,0.556199,5.589646,49.949133,-0.097855,-0.001617,1.020905,0.028799,0.021648,-0.001589,58.165359,3.518585,-149.791931,,,
729863171.069812,0.56749,5.596421,49.947646,-0.097855,-0.001617,1.020905,0.054355,0.007574,-0.002923,58.165359,3.518585,-149.791931,,,
729863171.07314,0.56749,5.596421,49.947646,-0.097855,-0.001617,1.020905,0.054355,0.007574,-0.002923,58.165359,3.518585,-149.791931,,,
729863171.076518,0.581867,5.599263,49.945686,-0.100479,-0.002914,1.020126,0.054355,0.007574,-0.002923,58.165359,3.518585,-149.791931,,,
729863171.079803,0.599226,5.599549,49.943622,-0.100479,-0.002914,1.020126,0.058741,0.001057,-0.003727,58.165359,3.518585,-149.791931,,,
729863171.083143,0.599226,5.599549,49.943622,-0.100479,-0.002914,1.020126,0.058741,0.001057,-0.003727,58.165359,3.518585,-149.791931,,,
729863171.086477,0.615849,5.598646,49.940961,-0.1008,0.003738,1.009506,0.058741,0.001057,-0.003727,58.53653,3.141556,-149.757065,,,
729863171.089811,0.633804,5.597781,49.937978,-0.1008,0.003738,1.009506,0.056097,-0.004534,-0.004969,58.53653,3.141556,-149.757065,,,
729863171.093152,0.633804,5.597781,49.937978,-0.1008,0.003738,1.009506,0.056097,-0.004534,-0.004969,58.53653,3.141556,-149.757065,,,
729863171.096476,0.649948,5.595663,49.934984,-0.09581,0.006699,1.000076,0.056097,-0.004534,-0.004969,58.53653,3.141556,-149.757065,,,
729863171.09981,0.665497,5.591933,49.931403,-0.09581,0.006699,1.000076,0.03594,-0.02048,-0.012353,58.53653,3.141556,-149.757065,,,
729863171.10325,0.665497,5.591933,49.931403,-0.09581,0.006699,1.000076,0.03594,-0.02048,-0.012353,58.53653,3.141556,-149.757065,,,
729863171.106503,0.676049,5.58591,49.92757,-0.092728,0.01413,0.983429,0.03594,-0.02048,-0.012353,58.53653,3.141556,-149.757065,,,
729863171.109819,0.684984,5.575056,49.923858,-0.092728,0.01413,0.983429,0.011884,-0.040474,-0.015046,58.53653,3.141556,-149.757065,,,
729863171.113156,0.684984,5.575056,49.923858,-0.092728,0.01413,0.983429,0.011884,-0.040474,-0.015046,58.53653,3.141556,-149.757065,,,
729863171.116561,0.688693,5.562979,49.919935,-0.094864,0.020172,0.971497,0.011884,-0.040474,-0.015046,58.53653,3.141556,-149.757065,,,
729863171.119823,0.689207,5.548031,49.915782,-0.094864,0.020172,0.971497,-0.007387,-0.041479,-0.016896,58.53653,3.141556,-149.757065,,,
729863171.123164,0.689207,5.548031,49.915782,-0.094864,0.020172,0.971497,-0.007387,-0.041479,-0.016896,58.53653,3.141556,-149.757065,,,
729863171.126487,0.687342,5.535444,49.911955,-0.087021,0.021027,0.974991,-0.007387,-0.041479,-0.016896,58.408096,3.454575,-149.71582,,,
729863171.129824,0.682351,5.525505,49.907909,-0.087021,0.021027,0.974991,-0.014919,-0.013823,-0.018759,58.408096,3.454575,-149.71582,,,
729863171.133181,0.682351,5.525505,49.907909,-0.087021,0.021027,0.974991,-0.014919,-0.013823,-0.018759,58.408096,3.454575,-149.71582,,,
729863171.136497,0.678045,5.520399,49.903441,-0.079208,0.016769,0.988831,-0.014919,-0.013823,-0.018759,58.408096,3.454575,-149.71582,,,
729863171.139819,0.67209,5.51917,49.89972,-0.079208,0.016769,0.988831,-0.00939,0.014983,-0.01075,58.408096,3.454575,-149.71582,,,
729863171.14324,0.67209,5.51917,49.89972,-0.079208,0.016769,0.988831,-0.00939,0.014983,-0.01075,58.408096,3.454575,-149.71582,,,
729863171.146489,0.669378,5.521549,49.897008,-0.084442,0.01268,0.997009,-0.00939,0.014983,-0.01075,58.408096,3.454575,-149.71582,,,
729863171.149814,0.6632,5.527517,49.894893,-0.084442,0.01268,0.997009,-0.013782,0.043416,-0.013857,58.408096,3.454575,-149.71582,,,
729863171.153158,0.6632,5.527517,49.894893,-0.084442,0.01268,0.997009,-0.013782,0.043416,-0.013857,58.408096,3.454575,-149.71582,,,
729863171.156529,0.659327,5.537875,49.892122,-0.084702,0.017365,0.989456,-0.013782,0.043416,-0.013857,58.408096,3.454575,-149.71582,,,
729863171.159805,0.651205,5.552977,49.887572,-0.084702,0.017365,0.989456,-0.015945,0.064449,-0.022929,58.408096,3.454575,-149.71582,,,
729863171.163154,0.651205,5.552977,49.887572,-0.084702,0.017365,0.989456,-0.015945,0.064449,-0.022929,58.408096,3.454575,-149.71582,,,
729863171.166486,0.645736,5.570444,49.88148,-0.084839,0.013351,0.992111,-0.015945,0.064449,-0.022929,58.408096,3.454575,-149.71582,,,
729863171.16981,0.639051,5.588903,49.874793,-0.084839,0.013351,0.992111,-0.010615,0.056631,-0.022622,58.432068,3.213104,-149.718735,,,
729863171.173152,0.639051,5.588903,49.874793,-0.084839,0.013351,0.992111,-0.010615,0.056631,-0.022622,58.432068,3.213104,-149.718735,,,
729863171.176483,0.634985,5.60533,49.868243,-0.099915,0.007751,0.996857,-0.010615,0.056631,-0.022622,58.432068,3.213104,-149.718735,,,
729863171.179811,0.631816,5.617892,49.862721,-0.099915,0.007751,0.996857,0.002266,0.034714,-0.0094,58.432068,3.213104,-149.718735,,,
729863171.183211,0.631816,5.617892,49.862721,-0.099915,0.007751,0.996857,0.002266,0.034714,-0.0094,58.432068,3.213104,-149.718735,,,
729863171.186483,0.632019,5.627982,49.859286,-0.116776,0.007935,0.9991,0.002266,0.034714,-0.0094,58.432068,3.213104,-149.718735,,,
729863171.18981,0.636244,5.631998,49.857794,-0.116776,0.007935,0.9991,0.022256,-0.004937,0.001048,58.432068,3.213104,-149.718735,,,
729863171.193152,0.636244,5.631998,49.857794,-0.116776,0.007935,0.9991,0.022256,-0.004937,0.001048,58.432068,3.213104,-149.718735,,,
729863171.19654,0.641857,5.631247,49.85751,-0.118271,0.004135,1.000946,0.022256,-0.004937,0.001048,58.432068,3.213104,-149.718735,,,
729863171.199804,0.651911,5.625613,49.857796,-0.118271,0.004135,1.000946,0.031962,-0.024309,0.000826,58.432068,3.213104,-149.718735,,,
729863171.203142,0.651911,5.625613,49.857796,-0.118271,0.004135,1.000946,0.031962,-0.024309,0.000826,58.432068,3.213104,-149.718735,,,
729863171.206481,0.661169,5.618666,49.857815,-0.108246,0.004669,1.001541,0.031962,-0.024309,0.000826,58.432068,3.213104,-149.718735,,,
729863171.209823,0.674086,5.607239,49.85742,-0.108246,0.004669,1.001541,0.042869,-0.022707,-0.003459,58.392578,3.137314,-149.8405,,,
729863171.213154,0.674086,5.607239,49.85742,-0.108246,0.004669,1.001541,0.042869,-0.022707,-0.003459,58.392578,3.137314,-149.8405,,,
729863171.216478,0.685975,5.599825,49.855923,-0.098251,0.005341,1.004868,0.042869,-0.022707,-0.003459,58.392578,3.137314,-149.8405,,,
729863171.219812,0.698696,5.588238,49.85343,-0.098251,0.005341,1.004868,0.037426,-0.009905,-0.005434,58.392578,3.137314,-149.8405,,,
729863171.22323,0.698696,5.588238,49.85343,-0.098251,0.005341,1.004868,0.037426,-0.009905,-0.005434,58.392578,3.137314,-149.8405,,,
729863171.226494,0.709803,5.584645,49.850872,-0.093307,0.009903,1.001221,0.037426,-0.009905,-0.005434,58.392578,3.137314,-149.8405,,,
729863171.229819,0.719164,5.580918,49.848813,-0.093307,0.009903,1.001221,0.024524,0.020723,-0.004405,58.392578,3.137314,-149.8405,,,
729863171.23314,0.719164,5.580918,49.848813,-0.093307,0.009903,1.001221,0.024524,0.020723,-0.004405,58.392578,3.137314,-149.8405,,,
729863171.236524,0.726499,5.585239,49.84741,-0.094467,0.012039,0.997772,0.024524,0.020723,-0.004405,58.392578,3.137314,-149.8405,,,
729863171.23984,0.733661,5.587505,49.846393,-0.094467,0.012039,0.997772,0.016093,0.024099,-0.003546,58.392578,3.137314,-149.8405,,,
729863171.243156,0.733661,5.587505,49.846393,-0.094467,0.012039,0.997772,0.016093,0.024099,-0.003546,58.392578,3.137314,-149.8405,,,
729863171.246561,0.738329,5.593604,49.845256,-0.1017,0.014938,0.990631,0.016093,0.024099,-0.003546,58.392578,3.137314,-149.8405,,,
729863171.249814,0.741076,5.594708,49.844437,-0.1017,0.014938,0.990631,-0.001091,0.009199,-0.005069,58.465149,3.213272,-149.635254,,,
729863171.253158,0.741076,5.594708,49.844437,-0.1017,0.014938,0.990631,-0.001091,0.009199,-0.005069,58.465149,3.213272,-149.635254,,,
729863171.256496,0.741814,5.596925,49.84343,-0.101685,0.017578,0.972626,-0.001091,0.009199,-0.005069,58.465149,3.213272,-149.635254,,,
729863171.259829,0.73863,5.600794,49.842456,-0.101685,0.017578,0.972626,-0.013147,0.007551,0.000711,58.465149,3.213272,-149.635254,,,
729863171.263157,0.73863,5.600794,49.842456,-0.101685,0.017578,0.972626,-0.013147,0.007551,0.000711,58.465149,3.213272,-149.635254,,,
729863171.266497,0.734539,5.602351,49.843061,-0.106384,0.017853,0.971161,-0.013147,0.007551,0.000711,58.465149,3.213272,-149.635254,,,
729863171.269823,0.728162,5.608546,49.846087,-0.106384,0.017853,0.971161,-0.016214,-0.016615,0.018715,58.465149,3.213272,-149.635254,,,
729863171.273238,0.728162,5.608546,49.846087,-0.106384,0.017853,0.971161,-0.016214,-0.016615,0.018715,58.465149,3.213272,-149.635254,,,
729863171.276492,0.72372,5.604754,49.851752,-0.113876,0.014557,0.968719,-0.016214,-0.016615,0.018715,58.465149,3.213272,-149.635254,,,
729863171.279607,0.72372,5.603272,49.858482,-0.113876,0.014557,0.968719,-0.009256,-0.036683,0.020522,58.465149,3.213272,-149.635254,,,
729863171.283194,0.717834,5.603272,49.858482,-0.113876,0.014557,0.968719,-0.009256,-0.036683,0.020522,58.465149,3.213272,-149.635254,,,
729863171.286547,0.715078,5.593101,49.865015,-0.105682,0.018143,0.970917,-0.009256,-0.036683,0.020522,58.465149,3.213272,-149.635254,,,
729863171.289847,0.712601,5.584983,49.870545,-0.105682,0.018143,0.970917,0.009142,-0.026235,0.014712,58.465149,3.213272,-149.635254,,,
729863171.293162,0.712601,5.584983,49.870545,-0.105682,0.018143,0.970917,0.009142,-0.026235,0.014712,58.476471,3.075363,-149.657486,,,
729863171.296483,0.715051,5.576187,49.875057,-0.094986,0.008194,0.992004,0.009142,-0.026235,0.014712,58.476471,3.075363,-149.657486,,,
729863171.299811,0.71924,5.568151,49.879305,-0.094986,0.008194,0.992004,0.024665,-0.014707,0.016299,58.476471,3.075363,-149.657486,,,
729863171.30325,0.71924,5.568151,49.879305,-0.094986,0.008194,0.992004,0.024665,-0.014707,0.016299,58.476471,3.075363,-149.657486,,,
729863171.306478,0.726764,5.562229,49.883356,-0.089264,0.00386,0.996704,0.024665,-0.014707,0.016299,58.476471,3.075363,-149.657486,,,
729863171.30982,0.733758,5.557292,49.887036,-0.089264,0.00386,0.996704,0.017564,-0.007101,0.00756,58.476471,3.075363,-149.657486,,,
729863171.31322,0.733758,5.557292,49.887036,-0.089264,0.00386,0.996704,0.017564,-0.007101,0.00756,58.476471,3.075363,-149.657486,,,
729863171.316496,0.740147,5.554982,49.889845,-0.082977,0.011444,0.995026,0.017564,-0.007101,0.00756,58.476471,3.075363,-149.657486,,,
729863171.319819,0.744883,5.552803,49.891056,-0.082977,0.011444,0.995026,0.010913,-0.003172,-0.003745,58.476471,3.075363,-149.657486,,,
729863171.323154,0.744883,5.552803,49.891056,-0.082977,0.011444,0.995026,0.010913,-0.003172,-0.003745,58.476471,3.075363,-149.657486,,,
729863171.326546,0.747998,5.550867,49.890452,-0.077682,0.012222,0.985733,0.010913,-0.003172,-0.003745,58.476471,3.075363,-149.657486,,,
729863171.329849,0.749323,5.551575,49.8875,-0.077682,0.012222,0.985733,-0.009672,0.000147,-0.021508,58.476471,3.075363,-149.657486,,,
729863171.333152,0.749323,5.551575,49.8875,-0.077682,0.012222,0.985733,-0.009672,0.000147,-0.021508,58.40625,3.132507,-149.96077,,,
729863171.336492,0.746776,5.550697,49.882385,-0.07547,0.019196,0.979797,-0.009672,0.000147,-0.021508,58.40625,3.132507,-149.96077,,,
729863171.339818,0.742211,5.551912,49.875877,-0.07547,0.019196,0.979797,-0.032103,-0.00103,-0.033188,58.40625,3.132507,-149.96077,,,
729863171.343157,0.742211,5.551912,49.875877,-0.07547,0.019196,0.979797,-0.032103,-0.00103,-0.033188,58.40625,3.132507,-149.96077,,,
729863171.346487,0.732277,5.550831,49.867962,-0.079849,0.022964,0.973343,-0.032103,-0.00103,-0.033188,58.40625,3.132507,-149.96077,,,
729863171.349817,0.720177,5.556253,49.858215,-0.079849,0.022964,0.973343,-0.051192,0.011504,-0.041281,58.40625,3.132507,-149.96077,,,
729863171.353221,0.720177,5.556253,49.858215,-0.079849,0.022964,0.973343,-0.051192,0.011504,-0.041281,58.40625,3.132507,-149.96077,,,
729863171.356518,0.705109,5.559475,49.847962,-0.088425,0.024414,0.978653,-0.051192,0.011504,-0.041281,58.40625,3.132507,-149.96077,,,
729863171.359818,0.689743,5.570867,49.837592,-0.088425,0.024414,0.978653,-0.051394,0.026234,-0.041815,58.40625,3.132507,-149.96077,,,
729863171.363159,0.689743,5.570867,49.837592,-0.088425,0.024414,0.978653,-0.051394,0.026234,-0.041815,58.40625,3.132507,-149.96077,,,
729863171.366544,0.673906,5.577549,49.827197,-0.093292,0.019516,0.992371,-0.051394,0.026234,-0.041815,58.40625,3.132507,-149.96077,,,
729863171.369805,0.662528,5.587662,49.817271,-0.093292,0.019516,0.992371,-0.018871,0.032844,-0.03303,58.40625,3.132507,-149.96077,,,
729863171.373162,0.662528,5.587662,49.817271,-0.093292,0.019516,0.992371,-0.018871,0.032844,-0.03303,58.410904,3.122894,-149.786118,,,
729863171.376481,0.654814,5.596678,49.808237,-0.104309,0.013199,1.014008,-0.018871,0.032844,-0.03303,58.410904,3.122894,-149.786118,,,
729863171.379807,0.651503,5.604491,49.800723,-0.104309,0.013199,1.014008,0.02504,0.02922,-0.018389,58.410904,3.122894,-149.786118,,,
729863171.383147,0.651503,5.604491,49.800723,-0.104309,0.013199,1.014008,0.02504,0.02922,-0.018389,58.410904,3.122894,-149.786118,,,
729863171.38649,0.655585,5.61242,49.795005,-0.111969,0.003677,1.0242,0.02504,0.02922,-0.018389,58.410904,3.122894,-149.786118,,,
729863171.389817,0.663079,5.615072,49.791251,-0.111969,0.003677,1.0242,0.044219,0.010308,-0.002701,58.410904,3.122894,-149.786118,,,
729863171.39321,0.663079,5.615072,49.791251,-0.111969,0.003677,1.0242,0.044219,0.010308,-0.002701,58.410904,3.122894,-149.786118,,,
729863171.39648,0.674895,5.618207,49.788967,-0.114227,0.004639,1.015015,0.044219,0.010308,-0.002701,58.410904,3.122894,-149.786118,,,
729863171.399819,0.688286,5.612643,49.787853,-0.114227,0.004639,1.015015,0.04225,-0.015496,-0.001229,58.410904,3.122894,-149.786118,,,
729863171.403158,0.688286,5.612643,49.787853,-0.114227,0.004639,1.015015,0.04225,-0.015496,-0.001229,58.410904,3.122894,-149.786118,,,
729863171.406551,0.70134,5.60837,49.78696,-0.108078,0.012253,1.000305,0.04225,-0.015496,-0.001229,58.410904,3.122894,-149.786118,,,
729863171.409834,0.70134,5.60837,49.78696,-0.108078,0.012253,1.000305,0.027191,-0.030704,-0.005161,58.410904,3.122894,-149.786118,,,
729863171.413153,0.712646,5.594116,49.785511,-0.108078,0.012253,1.000305,0.027191,-0.030704,-0.005161,58.57312,2.996414,-149.855423,,,
729863171.416489,0.720931,5.584719,49.783201,-0.095123,0.013,0.988525,0.027191,-0.030704,-0.005161,58.57312,2.996414,-149.855423,,,
729863171.419868,0.720931,5.570289,49.779899,-0.095123,0.013,0.988525,-0.005761,-0.009843,-0.015607,58.57312,2.996414,-149.855423,,,
729863171.423153,0.7271,5.570289,49.779899,-0.095123,0.013,0.988525,-0.005761,-0.009843,-0.015607,58.57312,2.996414,-149.855423,,,
729863171.426502,0.726016,5.565387,49.776028,-0.08786,0.016251,0.990112,-0.005761,-0.009843,-0.015607,58.57312,2.996414,-149.855423,,,
729863171.429887,0.726016,5.565387,49.776028,-0.08786,0.016251,0.990112,-0.03518,0.013286,-0.009394,58.57312,2.996414,-149.855423,,,
729863171.43321,0.7232,5.560627,49.773041,-0.08786,0.016251,0.990112,-0.03518,0.013286,-0.009394,58.57312,2.996414,-149.855423,,,
729863171.436487,0.713642,5.563091,49.771201,-0.090881,0.016373,0.993088,-0.03518,0.013286,-0.009394,58.57312,2.996414,-149.855423,,,
729863171.439868,0.713642,5.563091,49.771201,-0.090881,0.016373,0.993088,-0.050167,0.032424,-0.002791,58.57312,2.996414,-149.855423,,,
729863171.443163,0.703595,5.566503,49.771116,-0.090881,0.016373,0.993088,-0.050167,0.032424,-0.002791,58.57312,2.996414,-149.855423,,,
729863171.446558,0.68947,5.574332,49.772646,-0.096848,0.014694,0.995728,-0.050167,0.032424,-0.002791,58.57312,2.996414,-149.855423,,,
729863171.449832,0.68947,5.574332,49.772646,-0.096848,0.014694,0.995728,-0.050167,0.032424,-0.002791,58.57312,2.996414,-149.855423,,,
729863171.453198,0.677015,5.58295,49.775351,-0.096848,0.014694,0.995728,-0.039807,0.032287,0.002676,58.57312,2.996414,-149.855423,,,
729863171.456481,0.66439,5.591683,49.778586,-0.099976,0.012039,1.003662,-0.039807,0.032287,0.002676,58.543121,3.148819,-150.076126,,,
729863171.45984,0.66439,5.591683,49.781923,-0.099976,0.012039,1.003662,-0.013753,0.015468,0.007418,58.543121,3.148819,-150.076126,,,
729863171.463153,0.654625,5.60023,49.781923,-0.099976,0.012039,1.003662,-0.013753,0.015468,0.007418,58.543121,3.148819,-150.076126,,,
729863171.466495,0.64896,5.604849,49.784876,-0.099915,0.007156,1.008453,-0.013753,0.015468,0.007418,58.543121,3.148819,-150.076126,,,
729863171.469893,0.64896,5.604849,49.784876,-0.099915,0.007156,1.008453,-0.013753,0.015468,0.007418,58.543121,3.148819,-150.076126,,,
729863171.473199,0.645255,5.612237,49.786248,-0.099915,0.007156,1.008453,0.012808,0.011476,-0.000193,58.543121,3.148819,-150.076126,,,
729863171.476483,0.647634,5.61485,49.786262,-0.093567,0.005051,1.017746,0.012808,0.011476,-0.000193,58.543121,3.148819,-150.076126,,,
729863171.479825,0.647634,5.61485,49.786262,-0.093567,0.005051,1.017746,0.012808,0.011476,-0.000193,58.543121,3.148819,-150.076126,,,
729863171.483186,0.652553,5.621065,49.783751,-0.093567,0.005051,1.017746,0.037898,0.005376,-0.016781,58.543121,3.148819,-150.076126,,,
729863171.486475,0.661844,5.622178,49.778384,-0.08696,0.005234,1.017487,0.037898,0.005376,-0.016781,58.543121,3.148819,-150.076126,,,
729863171.489857,0.661844,5.622178,49.778384,-0.08696,0.005234,1.017487,0.037898,0.005376,-0.016781,58.543121,3.148819,-150.076126,,,
729863171.493171,0.674784,5.624378,49.771058,-0.08696,0.005234,1.017487,0.058069,-0.003696,-0.023946,58.543121,3.148819,-150.076126,,,
729863171.496483,0.689593,5.62387,49.763093,-0.095795,0.003433,1.014053,0.058069,-0.003696,-0.023946,58.288803,3.149246,-150.254456,,,
729863171.499807,0.689593,5.62387,49.763093,-0.095795,0.003433,1.014053,0.058069,-0.003696,-0.023946,58.288803,3.149246,-150.254456,,,
729863171.50315,0.705662,5.621509,49.756037,-0.095795,0.003433,1.014053,0.057471,-0.002853,-0.009341,58.288803,3.149246,-150.254456,,,
729863171.506487,0.721701,5.620266,49.751173,-0.106598,0.002075,1.002975,0.057471,-0.002853,-0.009341,58.288803,3.149246,-150.254456,,,
729863171.509836,0.721701,5.620266,49.751173,-0.106598,0.002075,1.002975,0.057471,-0.002853,-0.009341,58.288803,3.149246,-150.254456,,,
729863171.513225,0.737426,5.615099,49.749274,-0.106598,0.002075,1.002975,0.040496,-0.010466,0.006463,58.288803,3.149246,-150.254456,,,
729863171.51656,0.749294,5.611552,49.749762,-0.105743,0.009933,0.983871,0.040496,-0.010466,0.006463,58.288803,3.149246,-150.254456,,,
729863171.51986,0.749294,5.611552,49.749762,-0.105743,0.009933,0.983871,0.040496,-0.010466,0.006463,58.288803,3.149246,-150.254456,,,
729863171.523154,0.758445,5.604485,49.751441,-0.105743,0.009933,0.983871,0.017056,-0.021457,0.005827,58.288803,3.149246,-150.254456,,,
729863171.526484,0.763601,5.597984,49.752795,-0.094025,0.017166,0.96524,0.017056,-0.021457,0.005827,58.288803,3.149246,-150.254456,,,
729863171.529602,0.763601,5.597984,49.752795,-0.094025,0.017166,0.96524,0.017056,-0.021457,0.005827,58.288803,3.149246,-150.254456,,,
729863171.533215,0.765667,5.591322,49.753149,-0.094025,0.017166,0.96524,-0.002652,-0.017499,-0.004886,58.288803,3.149246,-150.254456,,,
729863171.536483,0.764773,5.585486,49.752357,-0.081055,0.018646,0.966583,-0.002652,-0.017499,-0.004886,58.253693,2.933929,-150.013977,,,
729863171.539888,0.764773,5.585486,49.752357,-0.081055,0.018646,0.966583,-0.002652,-0.017499,-0.004886,58.253693,2.933929,-150.013977,,,
729863171.543148,0.761204,5.58314,49.750444,-0.081055,0.018646,0.966583,-0.013678,0.009115,-0.012477,58.253693,2.933929,-150.013977,,,
729863171.546487,0.757028,5.584128,49.747824,-0.08194,0.015366,0.982391,-0.013678,0.009115,-0.012477,58.253693,2.933929,-150.013977,,,
729863171.549821,0.757028,5.584128,49.747824,-0.08194,0.015366,0.982391,-0.013678,0.009115,-0.012477,58.253693,2.933929,-150.013977,,,
729863171.553202,0.750495,5.588876,49.745781,-0.08194,0.015366,0.982391,-0.011963,0.030954,-0.001257,58.253693,2.933929,-150.013977,,,
729863171.556479,0.746313,5.596328,49.745581,-0.096771,0.011353,0.990936,-0.011963,0.030954,-0.001257,58.253693,2.933929,-150.013977,,,
729863171.559825,0.746313,5.596328,49.745581,-0.096771,0.011353,0.990936,-0.011963,0.030954,-0.001257,58.253693,2.933929,-150.013977,,,
729863171.56315,0.742462,5.6007,49.747024,-0.096771,0.011353,0.990936,0.009571,0.014411,0.007232,58.253693,2.933929,-150.013977,,,
729863171.566485,0.744181,5.60519,49.74919,-0.100601,0.00882,0.992493,0.009571,0.014411,0.007232,58.253693,2.933929,-150.013977,,,
729863171.569836,0.744181,5.60519,49.74919,-0.100601,0.00882,0.992493,0.009571,0.014411,0.007232,58.253693,2.933929,-150.013977,,,
729863171.573169,0.747036,5.602629,49.750341,-0.100601,0.00882,0.992493,0.028585,-0.007495,-0.003327,58.253693,2.933929,-150.013977,,,
729863171.576487,0.754009,5.60068,49.749245,-0.094376,0.010483,0.986313,0.028585,-0.007495,-0.003327,58.29245,3.144424,-149.93602,,,
729863171.579914,0.754009,5.60068,49.749245,-0.094376,0.010483,0.986313,0.028585,-0.007495,-0.003327,58.29245,3.144424,-149.93602,,,
729863171.583147,0.759442,5.59616,49.74651,-0.094376,0.010483,0.986313,0.024852,-0.022304,-0.01391,58.29245,3.144424,-149.93602,,,
729863171.586483,0.766198,5.589668,49.742723,-0.089279,0.011444,0.972778,0.024852,-0.022304,-0.01391,58.29245,3.144424,-149.93602,,,
729863171.58982,0.766198,5.589668,49.742723,-0.089279,0.011444,0.972778,0.024852,-0.022304,-0.01391,58.29245,3.144424,-149.93602,,,
729863171.593221,0.767859,5.585143,49.738213,-0.089279,0.011444,0.972778,0.003371,-0.020971,-0.019719,58.29245,3.144424,-149.93602,,,
729863171.596468,0.76881,5.578451,49.733027,-0.085632,0.015915,0.96785,0.003371,-0.020971,-0.019719,58.29245,3.144424,-149.93602,,,
729863171.599824,0.76881,5.578451,49.733027,-0.085632,0.015915,0.96785,0.003371,-0.020971,-0.019719,58.29245,3.144424,-149.93602,,,
729863171.603144,0.766749,5.577193,49.726959,-0.085632,0.015915,0.96785,-0.008772,0.005575,-0.02598,58.29245,3.144424,-149.93602,,,
729863171.606474,0.76402,5.576741,49.720319,-0.084976,0.015305,0.98439,-0.008772,0.005575,-0.02598,58.29245,3.144424,-149.93602,,,
729863171.609823,0.76402,5.576741,49.720319,-0.084976,0.015305,0.98439,-0.008772,0.005575,-0.02598,58.29245,3.144424,-149.93602,,,
729863171.613154,0.761948,5.577678,49.713742,-0.084976,0.015305,0.98439,-0.013305,0.015944,-0.027794,58.29245,3.144424,-149.93602,,,
729863171.616478,0.757942,5.58197,49.706896,-0.087662,0.009476,0.994476,-0.013305,0.015944,-0.027794,58.29245,3.144424,-149.93602,,,
729863171.619876,0.757942,5.58197,49.706896,-0.087662,0.009476,0.994476,-0.013305,0.015944,-0.027794,58.339828,3.100006,-149.676239,,,
729863171.623156,0.755185,5.582107,49.699713,-0.087662,0.009476,0.994476,-0.010723,0.020256,-0.030503,58.339828,3.100006,-149.676239,,,
729863171.626481,0.751154,5.586941,49.69223,-0.100357,0.013245,0.993423,-0.010723,0.020256,-0.030503,58.339828,3.100006,-149.676239,,,
729863171.629824,0.751154,5.586941,49.69223,-0.100357,0.013245,0.993423,-0.010723,0.020256,-0.030503,58.339828,3.100006,-149.676239,,,
729863171.633238,0.746096,5.587604,49.685228,-0.100357,0.013245,0.993423,-0.02496,0.012525,-0.018528,58.339828,3.100006,-149.676239,,,
729863171.636477,0.738572,5.591135,49.680189,-0.112076,0.013962,0.985794,-0.02496,0.012525,-0.018528,58.339828,3.100006,-149.676239,,,
729863171.639832,0.738572,5.591135,49.680189,-0.112076,0.013962,0.985794,-0.02496,0.012525,-0.018528,58.339828,3.100006,-149.676239,,,
729863171.643174,0.728008,5.594251,49.677231,-0.112076,0.013962,0.985794,-0.044792,0.008232,-0.011083,58.339828,3.100006,-149.676239,,,
729863171.646486,0.71539,5.595926,49.675867,-0.11293,0.016815,0.979004,-0.044792,0.008232,-0.011083,58.339828,3.100006,-149.676239,,,
729863171.649829,0.71539,5.595926,49.675867,-0.11293,0.016815,0.979004,-0.044792,0.008232,-0.011083,58.339828,3.100006,-149.676239,,,
729863171.653135,0.700257,5.598593,49.675743,-0.11293,0.016815,0.979004,-0.051939,0.011339,-0.003805,58.339828,3.100006,-149.676239,,,
729863171.656487,0.685295,5.600933,49.676491,-0.113907,0.017181,0.98526,-0.051939,0.011339,-0.003805,58.339828,3.100006,-149.676239,,,
729863171.659814,0.685295,5.600933,49.676491,-0.113907,0.017181,0.98526,-0.051939,0.011339,-0.003805,58.217621,3.341675,-149.668503,,,
729863171.663165,0.6715,5.602799,49.67749,-0.113907,0.017181,0.98526,-0.037832,0.012574,-0.000714,58.217621,3.341675,-149.668503,,,
729863171.666478,0.660328,5.605729,49.678327,-0.114594,0.009735,1.006256,-0.037832,0.012574,-0.000714,58.217621,3.341675,-149.668503,,,
729863171.6699,0.660328,5.605729,49.678327,-0.114594,0.009735,1.006256,-0.037832,0.012574,-0.000714,58.217621,3.341675,-149.668503,,,
729863171.673157,0.651876,5.60646,49.679157,-0.114594,0.009735,1.006256,-0.009231,0.016464,0.001575,58.217621,3.341675,-149.668503,,,
729863171.676593,0.647897,5.610102,49.680453,-0.114975,0.004028,1.020767,-0.009231,0.016464,0.001575,58.217621,3.341675,-149.668503,,,
729863171.679833,0.647897,5.610102,49.680453,-0.114975,0.004028,1.020767,-0.009231,0.016464,0.001575,58.217621,3.341675,-149.668503,,,
729863171.68322,0.65031,5.611005,49.68287,-0.114975,0.004028,1.020767,0.025619,0.010638,0.012859,58.217621,3.341675,-149.668503,,,
729863171.68648,0.656424,5.613982,49.686432,-0.114136,0.000809,1.031387,0.025619,0.010638,0.012859,58.217621,3.341675,-149.668503,,,
729863171.68983,0.656424,5.613982,49.686432,-0.114136,0.000809,1.031387,0.025619,0.010638,0.012859,58.217621,3.341675,-149.668503,,,
729863171.693157,0.668357,5.610601,49.690539,-0.114136,0.000809,1.031387,0.058091,-0.007958,0.020247,58.217621,3.341675,-149.668503,,,
729863171.696488,0.683707,5.608353,49.69448,-0.111633,0.001297,1.028122,0.058091,-0.007958,0.020247,58.217621,3.341675,-149.668503,,,
729863171.699814,0.683707,5.608353,49.69448,-0.111633,0.001297,1.028122,0.058091,-0.007958,0.020247,58.394608,3.103592,-149.968796,,,
729863171.703161,0.701057,5.600679,49.69828,-0.111633,0.001297,1.028122,0.057449,-0.023885,0.015947,58.394608,3.103592,-149.968796,,,
729863171.706483,0.718685,5.593238,49.701842,-0.100388,0.009659,1.008408,0.057449,-0.023885,0.015947,58.394608,3.103592,-149.968796,,,
729863171.709894,0.718685,5.593238,49.701842,-0.100388,0.009659,1.008408,0.057449,-0.023885,0.015947,58.394608,3.103592,-149.968796,,,
729863171.713152,0.733431,5.588661,49.704867,-0.100388,0.009659,1.008408,0.030441,-0.012652,0.008917,58.394608,3.103592,-149.968796,,,
729863171.716481,0.743264,5.583753,49.706854,-0.087769,0.018311,0.994308,0.030441,-0.012652,0.008917,58.394608,3.103592,-149.968796,,,
729863171.719826,0.743264,5.583753,49.706854,-0.087769,0.018311,0.994308,0.030441,-0.012652,0.008917,58.394608,3.103592,-149.968796,,,
729863171.723227,0.748666,5.587326,49.708368,-0.087769,0.018311,0.994308,-0.001474,0.001782,0.001458,58.394608,3.103592,-149.968796,,,
729863171.726473,0.749507,5.587747,49.709437,-0.086884,0.023636,0.988464,-0.001474,0.001782,0.001458,58.394608,3.103592,-149.968796,,,
729863171.729858,0.749507,5.587747,49.709437,-0.086884,0.023636,0.988464,-0.001474,0.001782,0.001458,58.394608,3.103592,-149.968796,,,
729863171.733162,0.747882,5.595673,49.710416,-0.086884,0.023636,0.988464,-0.020824,0.020415,0.005557,58.394608,3.103592,-149.968796,,,
729863171.736486,0.742335,5.60024,49.712596,-0.092804,0.01889,0.991608,-0.020824,0.020415,0.005557,58.394608,3.103592,-149.968796,,,
729863171.739809,0.742335,5.60024,49.712596,-0.092804,0.01889,0.991608,-0.020824,0.020415,0.005557,58.343781,3.218018,-149.726425,,,
729863171.743167,0.736392,5.611677,49.715915,-0.092804,0.01889,0.991608,-0.023621,0.02749,0.011013,58.343781,3.218018,-149.726425,,,
729863171.746483,0.729598,5.618148,49.720447,-0.098648,0.01564,0.994949,-0.023621,0.02749,0.011013,58.343781,3.218018,-149.726425,,,
729863171.749893,0.729598,5.618148,49.720447,-0.098648,0.01564,0.994949,-0.023621,0.02749,0.011013,58.343781,3.218018,-149.726425,,,
729863171.753157,0.722267,5.628029,49.725346,-0.098648,0.01564,0.994949,-0.014582,0.015947,0.012482,58.343781,3.218018,-149.726425,,,
729863171.75648,0.717476,5.631878,49.730024,-0.100235,0.013565,0.997635,-0.014582,0.015947,0.012482,58.343781,3.218018,-149.726425,,,
729863171.759823,0.717476,5.631878,49.730024,-0.100235,0.013565,0.997635,-0.014582,0.015947,0.012482,58.343781,3.218018,-149.726425,,,
729863171.763225,0.711481,5.638716,49.733718,-0.100235,0.013565,0.997635,-0.007517,0.000759,0.009585,58.343781,3.218018,-149.726425,,,
729863171.766491,0.708957,5.63925,49.736625,-0.099731,0.013229,0.998322,-0.007517,0.000759,0.009585,58.343781,3.218018,-149.726425,,,
729863171.769828,0.708957,5.63925,49.736625,-0.099731,0.013229,0.998322,-0.007517,0.000759,0.009585,58.343781,3.218018,-149.726425,,,
729863171.773172,0.70607,5.641929,49.739168,-0.099731,0.013229,0.998322,0.013077,-0.004597,0.007738,58.343781,3.218018,-149.726425,,,
729863171.776486,0.708657,5.640526,49.740854,-0.096268,0.01268,1.005096,0.013077,-0.004597,0.007738,58.343781,3.218018,-149.726425,,,
729863171.77959,0.708657,5.640526,49.740854,-0.096268,0.01268,1.005096,0.013077,-0.004597,0.007738,58.343781,3.218018,-149.726425,,,
729863171.783201,0.71223,5.641759,49.741856,-0.096268,0.01268,1.005096,0.03091,0.003034,0.005158,58.642181,3.059738,-149.594986,,,
729863171.786479,0.720336,5.641593,49.743048,-0.098785,0.007355,1.011963,0.03091,0.003034,0.005158,58.642181,3.059738,-149.594986,,,
729863171.789882,0.720336,5.641593,49.743048,-0.098785,0.007355,1.011963,0.03091,0.003034,0.005158,58.642181,3.059738,-149.594986,,,
729863171.793146,0.729799,5.642693,49.743886,-0.098785,0.007355,1.011963,0.037418,0.015848,0.00522,58.642181,3.059738,-149.594986,,,
729863171.796484,0.740804,5.646087,49.74434,-0.100494,0.00679,1.0103,0.037418,0.015848,0.00522,58.642181,3.059738,-149.594986,,,
729863171.799826,0.740804,5.646087,49.74434,-0.100494,0.00679,1.0103,0.037418,0.015848,0.00522,58.642181,3.059738,-149.594986,,,
729863171.803216,0.7549,5.646649,49.745017,-0.100494,0.00679,1.0103,0.046436,0.019304,0.007801,58.642181,3.059738,-149.594986,,,
729863171.806481,0.768199,5.65138,49.745878,-0.103271,0.008255,1.007996,0.046436,0.019304,0.007801,58.642181,3.059738,-149.594986,,,
729863171.809815,0.768199,5.65138,49.745878,-0.103271,0.008255,1.007996,0.046436,0.019304,0.007801,58.642181,3.059738,-149.594986,,,
729863171.813174,0.783439,5.652627,49.74681,-0.103271,0.008255,1.007996,0.044291,0.01104,0.010218,58.642181,3.059738,-149.594986,,,
729863171.816486,0.796076,5.655171,49.748191,-0.103455,0.011154,0.988953,0.044291,0.01104,0.010218,58.642181,3.059738,-149.594986,,,
729863171.819813,0.796076,5.655171,49.748191,-0.103455,0.011154,0.988953,0.044291,0.01104,0.010218,58.642181,3.059738,-149.594986,,,
729863171.823169,0.807349,5.65451,49.750321,-0.103455,0.011154,0.988953,0.019638,-0.001818,0.015697,58.604843,2.968414,-149.716476,,,
729863171.826481,0.813941,5.653531,49.75339,-0.103348,0.016052,0.97168,0.019638,-0.001818,0.015697,58.604843,2.968414,-149.716476,,,
729863171.829878,0.813941,5.653531,49.75339,-0.103348,0.016052,0.97168,0.019638,-0.001818,0.015697,58.604843,2.968414,-149.716476,,,
729863171.833158,0.816908,5.65136,49.757392,-0.103348,0.016052,0.97168,-0.007303,-0.008943,0.014073,58.604843,2.968414,-149.716476,,,
729863171.836487,0.815656,5.648358,49.761795,-0.0979,0.022644,0.962814,-0.007303,-0.008943,0.014073,58.604843,2.968414,-149.716476,,,
729863171.839827,0.815656,5.648358,49.761795,-0.0979,0.022644,0.962814,-0.007303,-0.008943,0.014073,58.604843,2.968414,-149.716476,,,
729863171.843219,0.811058,5.646154,49.766192,-0.0979,0.022644,0.962814,-0.027643,0.000902,0.009075,58.604843,2.968414,-149.716476,,,
729863171.84648,0.803519,5.644888,49.770112,-0.090118,0.021759,0.967957,-0.027643,0.000902,0.009075,58.604843,2.968414,-149.716476,,,
729863171.849828,0.803519,5.644888,49.770112,-0.090118,0.021759,0.967957,-0.027643,0.000902,0.009075,58.604843,2.968414,-149.716476,,,
729863171.85316,0.79314,5.646055,49.773276,-0.090118,0.021759,0.967957,-0.044147,0.021019,0.003727,58.604843,2.968414,-149.716476,,,
729863171.856488,0.78114,5.65027,49.776091,-0.085114,0.021622,0.978577,-0.044147,0.021019,0.003727,58.604843,2.968414,-149.716476,,,
729863171.859831,0.78114,5.65027,49.776091,-0.085114,0.021622,0.978577,-0.044147,0.021019,0.003727,58.604843,2.968414,-149.716476,,,
729863171.863153,0.768368,5.657314,49.778515,-0.085114,0.021622,0.978577,-0.038211,0.038495,0.003832,58.40979,3.049362,-149.608444,,,
729863171.866488,0.757052,5.667368,49.780965,-0.087234,0.015167,0.990982,-0.038211,0.038495,0.003832,58.40979,3.049362,-149.608444,,,
729863171.869846,0.757052,5.667368,49.780965,-0.087234,0.015167,0.990982,-0.038211,0.038495,0.003832,58.40979,3.049362,-149.608444,,,
729863171.873169,0.74646,5.677591,49.7837,-0.087234,0.015167,0.990982,-0.014065,0.038862,0.005943,58.40979,3.049362,-149.608444,,,
729863171.876491,0.741319,5.688203,49.786228,-0.100555,0.008041,1.003143,-0.014065,0.038862,0.005943,58.40979,3.049362,-149.608444,,,
729863171.879836,0.741319,5.688203,49.786228,-0.100555,0.008041,1.003143,-0.014065,0.038862,0.005943,58.40979,3.049362,-149.608444,,,
729863171.883231,0.739055,5.698023,49.788808,-0.100555,0.008041,1.003143,0.019166,0.026931,0.008949,58.40979,3.049362,-149.608444,,,
729863171.886472,0.74327,5.705383,49.791176,-0.103455,0.006836,1.010635,0.019166,0.026931,0.008949,58.40979,3.049362,-149.608444,,,
729863171.889826,0.74327,5.705383,49.791176,-0.103455,0.006836,1.010635,0.019166,0.026931,0.008949,58.40979,3.049362,-149.608444,,,
729863171.893154,0.750905,5.711767,49.792761,-0.103455,0.006836,1.010635,0.04244,0.018276,0.000248,58.40979,3.049362,-149.608444,,,
729863171.896482,0.762355,5.716397,49.792934,-0.102905,0.004288,1.011032,0.04244,0.018276,0.000248,58.40979,3.049362,-149.608444,,,
729863171.899826,0.762355,5.716397,49.792934,-0.102905,0.004288,1.011032,0.04244,0.018276,0.000248,58.40979,3.049362,-149.608444,,,
729863171.903176,0.7752,5.723187,49.79172,-0.102905,0.004288,1.011032,0.04768,0.019771,-0.001704,58.40979,3.049362,-149.608444,,,
729863171.90648,0.789276,5.728517,49.790396,-0.101685,0.00972,1.004196,0.04768,0.019771,-0.001704,58.560013,3.167969,-149.508057,,,
729863171.909856,0.789276,5.728517,49.790396,-0.101685,0.00972,1.004196,0.04768,0.019771,-0.001704,58.560013,3.167969,-149.508057,,,
729863171.913147,0.803782,5.735114,49.789665,-0.101685,0.00972,1.004196,0.036095,0.014588,0.001765,58.560013,3.167969,-149.508057,,,
729863171.916485,0.814324,5.7393,49.789633,-0.099396,0.014099,0.985764,0.036095,0.014588,0.001765,58.560013,3.167969,-149.508057,,,
729863171.919825,0.814324,5.7393,49.789633,-0.099396,0.014099,0.985764,0.036095,0.014588,0.001765,58.560013,3.167969,-149.508057,,,
729863171.923188,0.82285,5.741056,49.789859,-0.099396,0.014099,0.985764,0.003761,-0.000431,-0.001978,58.560013,3.167969,-149.508057,,,
729863171.926477,0.824271,5.740996,49.789674,-0.097977,0.020004,0.965958,0.003761,-0.000431,-0.001978,58.560013,3.167969,-149.508057,,,
729863171.92982,0.824271,5.740996,49.789674,-0.097977,0.020004,0.965958,0.003761,-0.000431,-0.001978,58.560013,3.167969,-149.508057,,,
729863171.933162,0.823064,5.735688,49.789547,-0.097977,0.020004,0.965958,-0.026049,-0.017364,5.3e-05,58.560013,3.167969,-149.508057,,,
729863171.93652,0.816735,5.730689,49.790444,-0.094955,0.020676,0.961105,-0.026049,-0.017364,5.3e-05,58.560013,3.167969,-149.508057,,,
729863171.939834,0.816735,5.730689,49.790444,-0.094955,0.020676,0.961105,-0.026049,-0.017364,5.3e-05,58.560013,3.167969,-149.508057,,,
729863171.943158,0.808323,5.719513,49.79172,-0.094955,0.020676,0.961105,-0.04885,-0.021449,-0.000864,58.560013,3.167969,-149.508057,,,
729863171.946486,0.794478,5.71251,49.79306,-0.089081,0.024261,0.960815,-0.04885,-0.021449,-0.000864,58.762787,3.021515,-149.591873,,,
729863171.949905,0.794478,5.71251,49.79306,-0.089081,0.024261,0.960815,-0.04885,-0.021449,-0.000864,58.762787,3.021515,-149.591873,,,
729863171.953157,0.778058,5.703562,49.79457,-0.089081,0.024261,0.960815,-0.061439,-0.014382,0.002373,58.762787,3.021515,-149.591873,,,
729863171.956489,0.760985,5.698111,49.79655,-0.083893,0.020996,0.968445,-0.061439,-0.014382,0.002373,58.762787,3.021515,-149.591873,,,
729863171.959822,0.760985,5.698111,49.79655,-0.083893,0.020996,0.968445,-0.061439,-0.014382,0.002373,58.762787,3.021515,-149.591873,,,
729863171.963219,0.743285,5.693586,49.799225,-0.083893,0.020996,0.968445,-0.050013,-0.016672,0.001612,58.762787,3.021515,-149.591873,,,
729863171.966478,0.728549,5.688515,49.801482,-0.081131,0.014587,0.980469,-0.050013,-0.016672,0.001612,58.762787,3.021515,-149.591873,,,
729863171.969828,0.728549,5.688515,49.801482,-0.081131,0.014587,0.980469,-0.050013,-0.016672,0.001612,58.762787,3.021515,-149.591873,,,
729863171.973152,0.716076,5.68414,49.802603,-0.081131,0.014587,0.980469,-0.019646,-0.004056,-0.007114,58.762787,3.021515,-149.591873,,,
729863171.976487,0.709221,5.681104,49.80179,-0.076523,0.009018,1.005493,-0.019646,-0.004056,-0.007114,58.762787,3.021515,-149.591873,,,
729863171.979829,0.709221,5.681104,49.80179,-0.076523,0.009018,1.005493,-0.019646,-0.004056,-0.007114,58.762787,3.021515,-149.591873,,,
729863171.983161,0.705646,5.681907,49.799578,-0.076523,0.009018,1.005493,0.013918,0.016578,-0.011435,58.762787,3.021515,-149.591873,,,
729863171.986506,0.707751,5.685487,49.7961,-0.076477,0.003662,1.012054,0.013918,0.016578,-0.011435,58.61969,3.026215,-149.883652,,,
729863171.98988,0.707751,5.685487,49.7961,-0.076477,0.003662,1.012054,0.013918,0.016578,-0.011435,58.61969,3.026215,-149.883652,,,
729863171.993161,0.71189,5.693527,49.790975,-0.076477,0.003662,1.012054,0.017872,0.04885,-0.026688,58.61969,3.026215,-149.883652,,,
729863171.996489,0.716855,5.705137,49.784347,-0.07782,0.00795,1.007599,0.017872,0.04885,-0.026688,58.61969,3.026215,-149.883652,,,
729863171.999913,0.716855,5.705137,49.784347,-0.07782,0.00795,1.007599,0.017872,0.04885,-0.026688,58.61969,3.026215,-149.883652,,,
729863172.003212,0.721661,5.719831,49.776581,-0.07782,0.00795,1.007599,0.013565,0.056558,-0.030654,58.61969,3.026215,-149.883652,,,
729863172.006482,0.724644,5.734964,49.76815,-0.088989,0.009338,0.996964,0.013565,0.056558,-0.030654,58.61969,3.026215,-149.883652,,,
729863172.009816,0.724644,5.734964,49.76815,-0.088989,0.009338,0.996964,0.013565,0.056558,-0.030654,58.61969,3.026215,-149.883652,,,
729863172.013163,0.7283,5.7486,49.760121,-0.088989,0.009338,0.996964,0.001845,0.031903,-0.022723,58.61969,3.026215,-149.883652,,,
729863172.016509,0.728395,5.757801,49.753675,-0.107712,0.007339,0.980179,0.001845,0.031903,-0.022723,58.61969,3.026215,-149.883652,,,
729863172.019847,0.728395,5.757801,49.753675,-0.107712,0.007339,0.980179,0.001845,0.031903,-0.022723,58.61969,3.026215,-149.883652,,,
729863172.023163,0.728212,5.760837,49.748726,-0.107712,0.007339,0.980179,-0.018646,-0.004793,-0.015849,58.61969,3.026215,-149.883652,,,
729863172.026485,0.722625,5.760359,49.744737,-0.11731,0.014236,0.968094,-0.018646,-0.004793,-0.015849,58.6819,3.164703,-149.596481,,,
729863172.029606,0.722625,5.760359,49.744737,-0.11731,0.014236,0.968094,-0.018646,-0.004793,-0.015849,58.6819,3.164703,-149.596481,,,
729863172.033199,0.716962,5.751405,49.741734,-0.11731,0.014236,0.968094,-0.042809,-0.036894,-0.009027,58.6819,3.164703,-149.596481,,,
729863172.036475,0.706055,5.741429,49.740166,-0.114258,0.015717,0.96637,-0.042809,-0.036894,-0.009027,58.6819,3.164703,-149.596481,,,
729863172.039838,0.706055,5.741429,49.740166,-0.114258,0.015717,0.96637,-0.042809,-0.036894,-0.009027,58.6819,3.164703,-149.596481,,,
729863172.043236,0.69553,5.724583,49.740034,-0.114258,0.015717,0.96637,-0.047499,-0.043668,0.002162,58.6819,3.164703,-149.596481,,,
729863172.046473,0.682219,5.711553,49.741401,-0.112244,0.013474,0.97757,-0.047499,-0.043668,0.002162,58.6819,3.164703,-149.596481,,,
729863172.049827,0.682219,5.711553,49.741401,-0.112244,0.013474,0.97757,-0.047499,-0.043668,0.002162,58.6819,3.164703,-149.596481,,,
729863172.053173,0.669188,5.695145,49.744307,-0.112244,0.013474,0.97757,-0.049187,-0.017696,0.009966,58.6819,3.164703,-149.596481,,,
729863172.056478,0.656203,5.688068,49.748299,-0.106873,0.012268,0.996445,-0.049187,-0.017696,0.009966,58.6819,3.164703,-149.596481,,,
729863172.059823,0.656203,5.688068,49.748299,-0.106873,0.012268,0.996445,-0.049187,-0.017696,0.009966,58.6819,3.164703,-149.596481,,,
729863172.063162,0.642741,5.679466,49.753542,-0.106873,0.012268,0.996445,-0.037919,0.010041,0.015799,58.6819,3.164703,-149.596481,,,
729863172.066478,0.631847,5.681065,49.759288,-0.100555,0.007355,1.007568,-0.037919,0.010041,0.015799,58.6819,3.164703,-149.596481,,,
729863172.069897,0.631847,5.681065,49.759288,-0.100555,0.007355,1.007568,-0.037919,0.010041,0.015799,58.662552,2.994049,-149.620529,,,
729863172.073161,0.622672,5.677802,49.764904,-0.100555,0.007355,1.007568,-0.012251,0.017852,0.012515,58.662552,2.994049,-149.620529,,,
729863172.076483,0.618861,5.681608,49.769323,-0.097214,0.005463,1.013596,-0.012251,0.017852,0.012515,58.662552,2.994049,-149.620529,,,
729863172.079836,0.618861,5.681608,49.769323,-0.097214,0.005463,1.013596,-0.012251,0.017852,0.012515,58.662552,2.994049,-149.620529,,,
729863172.083151,0.618861,5.678719,49.772494,-0.097214,0.005463,1.013596,0.018552,0.007415,-0.001022,58.662552,2.994049,-149.620529,,,
729863172.086492,0.623021,5.68012,49.77334,-0.093109,0.000488,1.020966,0.018552,0.007415,-0.001022,58.662552,2.994049,-149.620529,,,
729863172.089837,0.623021,5.68012,49.77334,-0.093109,0.000488,1.020966,0.018552,0.007415,-0.001022,58.662552,2.994049,-149.620529,,,
729863172.093224,0.629269,5.67806,49.772129,-0.093109,0.000488,1.020966,0.030803,-0.002669,-0.005017,58.662552,2.994049,-149.620529,,,
729863172.096467,0.638164,5.676531,49.769958,-0.093857,4.6e-05,1.014206,0.030803,-0.002669,-0.005017,58.662552,2.994049,-149.620529,,,
729863172.099838,0.638164,5.676531,49.769958,-0.093857,4.6e-05,1.014206,0.030803,-0.002669,-0.005017,58.662552,2.994049,-149.620529,,,
729863172.103166,0.647454,5.677985,49.767235,-0.093857,4.6e-05,1.014206,0.032145,-0.014576,-0.002536,58.662552,2.994049,-149.620529,,,
729863172.10652,0.656778,5.673236,49.76532,-0.103302,0.002899,1.008453,0.032145,-0.014576,-0.002536,58.662552,2.994049,-149.620529,,,
729863172.109832,0.656778,5.673236,49.76532,-0.103302,0.002899,1.008453,0.032145,-0.014576,-0.002536,58.506409,3.126831,-149.781601,,,
729863172.113149,0.664818,5.675642,49.764553,-0.103302,0.002899,1.008453,0.006033,-0.007458,0.001682,58.506409,3.126831,-149.781601,,,
729863172.116483,0.667832,5.67272,49.764836,-0.106216,0.00647,0.999435,0.006033,-0.007458,0.001682,58.506409,3.126831,-149.781601,,,
729863172.119876,0.667832,5.67272,49.764836,-0.106216,0.00647,0.999435,0.006033,-0.007458,0.001682,58.506409,3.126831,-149.781601,,,
729863172.123137,0.668618,5.675723,49.766023,-0.106216,0.00647,0.999435,-0.004688,-0.011586,0.00168,58.506409,3.126831,-149.781601,,,
729863172.126558,0.667294,5.672294,49.767611,-0.103287,0.011459,0.994171,-0.004688,-0.011586,0.00168,58.506409,3.126831,-149.781601,,,
729863172.129817,0.667294,5.672294,49.767611,-0.103287,0.011459,0.994171,-0.004688,-0.011586,0.00168,58.506409,3.126831,-149.781601,,,
729863172.133203,0.666054,5.671545,49.768714,-0.103287,0.011459,0.994171,-0.008032,-0.01954,-0.001074,58.506409,3.126831,-149.781601,,,
729863172.136564,0.666054,5.665232,49.769524,-0.103485,0.012772,0.999023,-0.008032,-0.01954,-0.001074,58.506409,3.126831,-149.781601,,,
729863172.1399,0.663827,5.665232,49.769524,-0.103485,0.012772,0.999023,-0.008032,-0.01954,-0.001074,58.506409,3.126831,-149.781601,,,
729863172.143179,0.66186,5.659581,49.769782,-0.103485,0.012772,0.999023,-0.00308,-0.028306,0.000552,58.506409,3.126831,-149.781601,,,
729863172.146531,0.66069,5.650973,49.770242,-0.106186,0.013641,0.99881,-0.00308,-0.028306,0.000552,58.506409,3.126831,-149.781601,,,
729863172.149878,0.66069,5.650973,49.770242,-0.106186,0.013641,0.99881,-0.00308,-0.028306,0.000552,58.522263,3.186356,-149.604172,,,
729863172.152813,0.660053,5.641755,49.772077,-0.106186,0.013641,0.99881,0.005562,-0.030724,0.008455,58.522263,3.186356,-149.604172,,,
729863172.156537,0.661796,5.632791,49.774494,-0.104523,0.015991,0.997101,0.005562,-0.030724,0.008455,58.522263,3.186356,-149.604172,,,
729863172.159848,0.661796,5.632791,49.774494,-0.104523,0.015991,0.997101,0.005562,-0.030724,0.008455,58.522263,3.186356,-149.604172,,,
729863172.163161,0.661775,5.623676,49.776559,-0.104523,0.015991,0.997101,0.005626,-0.014982,0.003826,58.522263,3.186356,-149.604172,,,
729863172.166547,0.662984,5.618336,49.777841,-0.09523,0.021301,0.989899,0.005626,-0.014982,0.003826,58.522263,3.186356,-149.604172,,,
729863172.16983,0.662984,5.618336,49.777841,-0.09523,0.021301,0.989899,0.005626,-0.014982,0.003826,58.522263,3.186356,-149.604172,,,
729863172.173155,0.660137,5.614112,49.778288,-0.09523,0.021301,0.989899,-0.005595,0.015886,-0.000917,58.522263,3.186356,-149.604172,,,
729863172.176487,0.658729,5.617007,49.778377,-0.091125,0.021759,0.988693,-0.005595,0.015886,-0.000917,58.522263,3.186356,-149.604172,,,
729863172.179821,0.658729,5.617007,49.778377,-0.091125,0.021759,0.988693,-0.005595,0.015886,-0.000917,58.522263,3.186356,-149.604172,,,
729863172.183155,0.654086,5.623388,49.778501,-0.091125,0.021759,0.988693,-0.008963,0.040892,0.00129,58.522263,3.186356,-149.604172,,,
729863172.186523,0.652032,5.634077,49.779313,-0.094238,0.018051,0.991257,-0.008963,0.040892,0.00129,58.522263,3.186356,-149.604172,,,
729863172.189829,0.652032,5.634077,49.779313,-0.094238,0.018051,0.991257,-0.008963,0.040892,0.00129,58.337738,3.185394,-149.622314,,,
729863172.193162,0.648237,5.648259,49.781148,-0.094238,0.018051,0.991257,-0.007534,0.048756,0.009535,58.337738,3.185394,-149.622314,,,
729863172.19658,0.646296,5.661253,49.783582,-0.10173,0.014175,0.99324,-0.007534,0.048756,0.009535,58.337738,3.185394,-149.622314,,,
729863172.199865,0.646296,5.661253,49.783582,-0.10173,0.014175,0.99324,-0.007534,0.048756,0.009535,58.337738,3.185394,-149.622314,,,
729863172.203148,0.643852,5.675464,49.786146,-0.10173,0.014175,0.99324,-0.006944,0.033966,0.010303,58.337738,3.185394,-149.622314,,,
729863172.206581,0.641944,5.685213,49.789016,-0.106339,0.011185,0.990768,-0.006944,0.033966,0.010303,58.337738,3.185394,-149.622314,,,
729863172.209811,0.641944,5.685213,49.789016,-0.106339,0.011185,0.990768,-0.006944,0.033966,0.010303,58.337738,3.185394,-149.622314,,,
729863172.213203,0.639849,5.692659,49.792248,-0.106339,0.011185,0.990768,-0.011362,0.005054,0.012697,58.337738,3.185394,-149.622314,,,
729863172.216539,0.636968,5.694416,49.796318,-0.110107,0.010162,0.985046,-0.011362,0.005054,0.012697,58.337738,3.185394,-149.622314,,,
729863172.21983,0.636968,5.694416,49.796318,-0.110107,0.010162,0.985046,-0.011362,0.005054,0.012697,58.337738,3.185394,-149.622314,,,
729863172.223167,0.633287,5.693178,49.801571,-0.110107,0.010162,0.985046,-0.021613,-0.021977,0.017201,58.337738,3.185394,-149.622314,,,
729863172.226569,0.628094,5.686889,49.807407,-0.107437,0.011276,0.980408,-0.021613,-0.021977,0.017201,58.337738,3.185394,-149.622314,,,
729863172.229823,0.628094,5.686889,49.807407,-0.107437,0.011276,0.980408,-0.021613,-0.021977,0.017201,58.337738,3.185394,-149.622314,,,
729863172.233161,0.622689,5.680335,49.813723,-0.107437,0.011276,0.980408,-0.020467,-0.028055,0.018284,58.313705,3.287369,-149.805649,,,
729863172.236518,0.616577,5.671344,49.819981,-0.107437,0.011276,0.980408,-0.020467,-0.028055,0.018284,58.313705,3.287369,-149.805649,,,
729863172.239897,0.616577,5.671344,49.819981,-0.094238,0.009094,0.989975,-0.020467,-0.028055,0.018284,58.313705,3.287369,-149.805649,,,
729863172.243171,0.612356,5.664843,49.825015,-0.094238,0.009094,0.989975,-0.014185,-0.012244,0.009832,58.313705,3.287369,-149.805649,,,
729863172.246489,0.612356,5.664843,49.828223,-0.094238,0.009094,0.989975,-0.014185,-0.012244,0.009832,58.313705,3.287369,-149.805649,,,
729863172.249829,0.607486,5.659653,49.828223,-0.083328,0.004379,1.006302,-0.014185,-0.012244,0.009832,58.313705,3.287369,-149.805649,,,
729863172.253212,0.608038,5.655924,49.829099,-0.083328,0.004379,1.006302,0.009243,0.00128,-0.007167,58.313705,3.287369,-149.805649,,,
729863172.256478,0.608038,5.655924,49.829099,-0.083328,0.004379,1.006302,0.009243,0.00128,-0.007167,58.313705,3.287369,-149.805649,,,
729863172.259813,0.609785,5.655267,49.827709,-0.077789,0.002365,1.022949,0.009243,0.00128,-0.007167,58.313705,3.287369,-149.805649,,,
729863172.26315,0.618363,5.654927,49.824312,-0.077789,0.002365,1.022949,0.045861,0.017041,-0.012991,58.313705,3.287369,-149.805649,,,
729863172.266592,0.618363,5.654927,49.819839,-0.077789,0.002365,1.022949,0.045861,0.017041,-0.012991,58.313705,3.287369,-149.805649,,,
729863172.26982,0.629668,5.658862,49.819839,-0.084274,-0.002823,1.03273,0.045861,0.017041,-0.012991,58.313705,3.287369,-149.805649,,,
729863172.273187,0.646536,5.662562,49.816382,-0.084274,-0.002823,1.03273,0.068418,0.014517,0.004316,58.407471,3.32016,-149.905243,,,
729863172.276577,0.66518,5.666695,49.81541,-0.084274,-0.002823,1.03273,0.068418,0.014517,0.004316,58.407471,3.32016,-149.905243,,,
729863172.279817,0.66518,5.666695,49.81541,-0.100449,-0.004013,1.021729,0.068418,0.014517,0.004316,58.407471,3.32016,-149.905243,,,
729863172.283151,0.686044,5.671372,49.817453,-0.100449,-0.004013,1.021729,0.073255,0.006208,0.022194,58.407471,3.32016,-149.905243,,,
729863172.286497,0.686044,5.671372,49.817453,-0.100449,-0.004013,1.021729,0.073255,0.006208,0.022194,58.407471,3.32016,-149.905243,,,
729863172.289884,0.706443,5.672801,49.822058,-0.105942,0.003906,1.00058,0.073255,0.006208,0.022194,58.407471,3.32016,-149.905243,,,
729863172.293155,0.725309,5.675429,49.827992,-0.105942,0.003906,1.00058,0.053108,0.000411,0.025988,58.407471,3.32016,-149.905243,,,
729863172.296486,0.725309,5.675429,49.827992,-0.105942,0.003906,1.00058,0.053108,0.000411,0.025988,58.407471,3.32016,-149.905243,,,
729863172.299814,0.741565,5.674676,49.833723,-0.092148,0.017044,0.977859,0.053108,0.000411,0.025988,58.407471,3.32016,-149.905243,,,
729863172.303236,0.752392,5.677897,49.837992,-0.092148,0.017044,0.977859,0.01497,-0.000807,0.009245,58.407471,3.32016,-149.905243,,,
729863172.306531,0.752392,5.677897,49.837992,-0.092148,0.017044,0.977859,0.01497,-0.000807,0.009245,58.407471,3.32016,-149.905243,,,
729863172.309823,0.757782,5.677747,49.840546,-0.082474,0.026443,0.958221,0.01497,-0.000807,0.009245,58.407471,3.32016,-149.905243,,,
729863172.313156,0.756558,5.679313,49.841345,-0.082474,0.026443,0.958221,-0.030083,-0.000134,-0.00653,58.532272,3.184967,-149.818314,,,
729863172.316569,0.756558,5.679313,49.841345,-0.082474,0.026443,0.958221,-0.030083,-0.000134,-0.00653,58.532272,3.184967,-149.818314,,,
729863172.31982,0.749492,5.678412,49.840982,-0.080765,0.031143,0.944626,-0.030083,-0.000134,-0.00653,58.532272,3.184967,-149.818314,,,
729863172.323147,0.735833,5.675698,49.839502,-0.080765,0.031143,0.944626,-0.060464,-0.001,-0.022147,58.532272,3.184967,-149.818314,,,
729863172.326542,0.735833,5.675698,49.839502,-0.080765,0.031143,0.944626,-0.060464,-0.001,-0.022147,58.532272,3.184967,-149.818314,,,
729863172.329878,0.719074,5.675353,49.836588,-0.083603,0.025726,0.948654,-0.060464,-0.001,-0.022147,58.532272,3.184967,-149.818314,,,
729863172.333143,0.698375,5.670487,49.832527,-0.083603,0.025726,0.948654,-0.066347,-0.008477,-0.02288,58.532272,3.184967,-149.818314,,,
729863172.33653,0.698375,5.670487,49.832527,-0.083603,0.025726,0.948654,-0.066347,-0.008477,-0.02288,58.532272,3.184967,-149.818314,,,
729863172.339829,0.678268,5.668276,49.827902,-0.088562,0.017578,0.963135,-0.066347,-0.008477,-0.02288,58.532272,3.184967,-149.818314,,,
729863172.34315,0.657318,5.659627,49.823189,-0.088562,0.017578,0.963135,-0.062468,-0.010093,-0.027269,58.532272,3.184967,-149.818314,,,
729863172.346507,0.657318,5.659627,49.823189,-0.088562,0.017578,0.963135,-0.062468,-0.010093,-0.027269,58.532272,3.184967,-149.818314,,,
729863172.349916,0.639001,5.655812,49.817692,-0.093842,0.012802,0.981476,-0.062468,-0.010093,-0.027269,58.532272,3.184967,-149.818314,,,
729863172.353184,0.619683,5.650263,49.811608,-0.093842,0.012802,0.981476,-0.041254,0.002255,-0.027199,58.532272,3.184967,-149.818314,,,
729863172.356487,0.619683,5.650263,49.811608,-0.093842,0.012802,0.981476,-0.041254,0.002255,-0.027199,58.637955,3.22905,-149.788666,,,
729863172.359814,0.606364,5.649048,49.80557,-0.099579,0.006027,1.004547,-0.041254,0.002255,-0.027199,58.637955,3.22905,-149.788666,,,
729863172.363154,0.596081,5.650188,49.800199,-0.099579,0.006027,1.004547,-0.008719,0.01177,-0.015529,58.637955,3.22905,-149.788666,,,
729863172.366576,0.596081,5.650188,49.800199,-0.099579,0.006027,1.004547,-0.008719,0.01177,-0.015529,58.637955,3.22905,-149.788666,,,
729863172.369813,0.592807,5.652433,49.796306,-0.111191,-0.001907,1.025818,-0.008719,0.01177,-0.015529,58.637955,3.22905,-149.788666,,,
729863172.37315,0.593356,5.656847,49.794397,-0.111191,-0.001907,1.025818,0.010809,0.021997,0.003691,58.637955,3.22905,-149.788666,,,
729863172.376503,0.593356,5.656847,49.794397,-0.111191,-0.001907,1.025818,0.010809,0.021997,0.003691,58.637955,3.22905,-149.788666,,,
729863172.379901,0.59641,5.661608,49.795186,-0.117416,-0.000946,1.01619,0.010809,0.021997,0.003691,58.637955,3.22905,-149.788666,,,
729863172.383148,0.600772,5.664758,49.798256,-0.117416,-0.000946,1.01619,0.006251,0.012386,0.015584,58.637955,3.22905,-149.788666,,,
729863172.386516,0.600772,5.664758,49.798256,-0.117416,-0.000946,1.01619,0.006251,0.012386,0.015584,58.637955,3.22905,-149.788666,,,
729863172.38983,0.603216,5.667273,49.802846,-0.112503,0.007339,0.990448,0.006251,0.012386,0.015584,58.637955,3.22905,-149.788666,,,
729863172.393156,0.606603,5.665369,49.807327,-0.112503,0.007339,0.990448,-0.008502,-0.006857,0.010659,58.637955,3.22905,-149.788666,,,
729863172.396486,0.606603,5.665369,49.807327,-0.112503,0.007339,0.990448,-0.008502,-0.006857,0.010659,58.637543,3.164169,-149.681885,,,
729863172.399826,0.604702,5.6634,49.810605,-0.100143,0.015717,0.973999,-0.008502,-0.006857,0.010659,58.637543,3.164169,-149.681885,,,
729863172.403157,0.60298,5.656575,49.812732,-0.100143,0.015717,0.973999,-0.022467,-0.021341,-0.00731,58.637543,3.164169,-149.681885,,,
729863172.406489,0.60298,5.656575,49.812732,-0.100143,0.015717,0.973999,-0.022467,-0.021341,-0.00731,58.637543,3.164169,-149.681885,,,
729863172.409842,0.596669,5.650327,49.812361,-0.086365,0.019348,0.973236,-0.022467,-0.021341,-0.00731,58.637543,3.164169,-149.681885,,,
729863172.413156,0.590773,5.642228,49.810037,-0.086365,0.019348,0.973236,-0.026574,-0.015111,-0.020717,58.637543,3.164169,-149.681885,,,
729863172.416576,0.590773,5.642228,49.810037,-0.086365,0.019348,0.973236,-0.026574,-0.015111,-0.020717,58.637543,3.164169,-149.681885,,,
729863172.419824,0.582058,5.637181,49.806121,-0.081848,0.016098,0.985489,-0.026574,-0.015111,-0.020717,58.637543,3.164169,-149.681885,,,
729863172.423152,0.573437,5.633358,49.800878,-0.081848,0.016098,0.985489,-0.040347,0.006827,-0.022864,58.637543,3.164169,-149.681885,,,
729863172.426504,0.573437,5.633358,49.800878,-0.081848,0.016098,0.985489,-0.040347,0.006827,-0.022864,58.637543,3.164169,-149.681885,,,
729863172.429897,0.562726,5.633796,49.795591,-0.085739,0.01326,0.993637,-0.040347,0.006827,-0.022864,58.637543,3.164169,-149.681885,,,
729863172.433147,0.550589,5.637828,49.790615,-0.085739,0.01326,0.993637,-0.044045,0.036679,-0.022619,58.637543,3.164169,-149.681885,,,
729863172.436505,0.550589,5.637828,49.790615,-0.085739,0.01326,0.993637,-0.044045,0.036679,-0.022619,58.655472,3.075409,-149.666458,,,
729863172.439832,0.537103,5.646409,49.786001,-0.091507,0.012848,0.997238,-0.044045,0.036679,-0.022619,58.655472,3.075409,-149.666458,,,
729863172.443157,0.521882,5.65908,49.781486,-0.091507,0.012848,0.997238,-0.047364,0.056365,-0.024847,58.655472,3.075409,-149.666458,,,
729863172.446505,0.521882,5.65908,49.781486,-0.091507,0.012848,0.997238,-0.047364,0.056365,-0.024847,58.655472,3.075409,-149.666458,,,
729863172.449838,0.50819,5.673902,49.77633,-0.096542,0.011429,1.003632,-0.047364,0.056365,-0.024847,58.655472,3.075409,-149.666458,,,
729863172.453166,0.494207,5.691892,49.770467,-0.096542,0.011429,1.003632,-0.027968,0.045452,-0.02747,58.655472,3.075409,-149.666458,,,
729863172.456544,0.494207,5.691892,49.770467,-0.096542,0.011429,1.003632,-0.027968,0.045452,-0.02747,58.655472,3.075409,-149.666458,,,
729863172.45987,0.484737,5.704865,49.764329,-0.108368,0.008682,1.012512,-0.027968,0.045452,-0.02747,58.655472,3.075409,-149.666458,,,
729863172.46316,0.476668,5.717782,49.758081,-0.108368,0.008682,1.012512,-0.008061,0.015934,-0.020977,58.655472,3.075409,-149.666458,,,
