Time (sec),Pitch (deg),Roll (deg),Yaw(deg),X-Acceleration (g),Y-Acceleration (g),Z-Acceleration (g),Pitch Rate (deg/sec),Roll Rate (deg/sec),Yaw Rate (deg/sec),Magnetic Field in X direction (uT),Magnetic Field in Y direction (uT),Magnetic Field in Z Direction (uT),Latitude (deg),Longitude (deg),Altitude (m)
729860408.535872,-1.560953,-6.437568,-26.41928,0.122421,-0.028198,1.001801,-0.023014,-0.084675,-0.034501,74.899567,5.266235,-147.975327,,,
729860408.539196,-1.558023,-6.459894,-26.427501,0.123184,-0.04158,1.024994,0.011828,-0.071928,-0.030186,74.899567,5.266235,-147.975327,,,
729860408.542586,-1.558023,-6.459894,-26.427501,0.123184,-0.04158,1.024994,0.011828,-0.071928,-0.030186,74.899567,5.266235,-147.975327,,,
729860408.545865,-1.550028,-6.47555,-26.433331,0.123184,-0.04158,1.024994,0.011828,-0.071928,-0.030186,74.899567,5.266235,-147.975327,,,
729860408.549198,-1.540539,-6.485077,-26.437262,0.124329,-0.044266,1.031799,0.032735,-0.02347,-0.015695,74.899567,5.266235,-147.975327,,,
729860408.552548,-1.540539,-6.485077,-26.437262,0.124329,-0.044266,1.031799,0.032735,-0.02347,-0.015695,74.899567,5.266235,-147.975327,,,
729860408.555949,-1.529864,-6.483093,-26.439596,0.124329,-0.044266,1.031799,0.032735,-0.02347,-0.015695,74.899567,5.266235,-147.975327,,,
729860408.559215,-1.520424,-6.472851,-26.440644,0.126099,-0.039291,1.025848,0.031503,0.048695,-0.006653,74.899567,5.266235,-147.975327,,,
729860408.562524,-1.520424,-6.472851,-26.440644,0.126099,-0.039291,1.025848,0.031503,0.048695,-0.006653,74.899567,5.266235,-147.975327,,,
729860408.565877,-1.512652,-6.451817,-26.441184,0.126099,-0.039291,1.025848,0.031503,0.048695,-0.006653,74.899567,5.266235,-147.975327,,,
729860408.569199,-1.509022,-6.426305,-26.441725,0.124359,-0.03038,1.006134,0.010757,0.099128,-0.001773,74.899567,5.266235,-147.975327,,,
729860408.572574,-1.509022,-6.426305,-26.441725,0.124359,-0.03038,1.006134,0.010757,0.099128,-0.001773,74.899567,5.266235,-147.975327,,,
729860408.575863,-1.508757,-6.394996,-26.442422,0.124359,-0.03038,1.006134,0.010757,0.099128,-0.001773,75.188141,5.322525,-147.901138,,,
729860408.579194,-1.514832,-6.364149,-26.443901,0.122818,-0.025543,0.980606,-0.024207,0.109411,-0.004345,75.188141,5.322525,-147.901138,,,
729860408.582526,-1.514832,-6.364149,-26.443901,0.122818,-0.025543,0.980606,-0.024207,0.109411,-0.004345,75.188141,5.322525,-147.901138,,,
729860408.585867,-1.523199,-6.335217,-26.446303,0.122818,-0.025543,0.980606,-0.024207,0.109411,-0.004345,75.188141,5.322525,-147.901138,,,
729860408.5892,-1.535483,-6.311672,-26.449764,0.115906,-0.024277,0.96199,-0.045826,0.081744,-0.010693,75.188141,5.322525,-147.901138,,,
729860408.5926,-1.535483,-6.311672,-26.449764,0.115906,-0.024277,0.96199,-0.045826,0.081744,-0.010693,75.188141,5.322525,-147.901138,,,
729860408.595867,-1.547854,-6.295521,-26.454644,0.115906,-0.024277,0.96199,-0.045826,0.081744,-0.010693,75.188141,5.322525,-147.901138,,,
729860408.599252,-1.559718,-6.286379,-26.460915,0.11113,-0.028595,0.965637,-0.041005,0.029035,-0.019704,75.188141,5.322525,-147.901138,,,
729860408.602547,-1.559718,-6.286379,-26.460915,0.11113,-0.028595,0.965637,-0.041005,0.029035,-0.019704,75.188141,5.322525,-147.901138,,,
729860408.605933,-1.568807,-6.286556,-26.468466,0.11113,-0.028595,0.965637,-0.041005,0.029035,-0.019704,75.188141,5.322525,-147.901138,,,
729860408.609192,-1.574234,-6.293923,-26.476892,0.108826,-0.031342,0.97702,-0.018973,-0.029338,-0.027667,75.188141,5.322525,-147.901138,,,
729860408.612564,-1.574234,-6.293923,-26.476892,0.108826,-0.031342,0.97702,-0.018973,-0.029338,-0.027667,75.188141,5.322525,-147.901138,,,
729860408.615862,-1.576962,-6.310299,-26.485078,0.108826,-0.031342,0.97702,-0.018973,-0.029338,-0.027667,75.132446,5.43634,-147.919327,,,
729860408.619192,-1.575264,-6.330524,-26.493397,0.10553,-0.036133,0.986969,0.007695,-0.073542,-0.031073,75.132446,5.43634,-147.919327,,,
729860408.622537,-1.575264,-6.330524,-26.493397,0.10553,-0.036133,0.986969,0.007695,-0.073542,-0.031073,75.132446,5.43634,-147.919327,,,
729860408.625881,-1.571691,-6.354431,-26.502542,0.10553,-0.036133,0.986969,0.007695,-0.073542,-0.031073,75.132446,5.43634,-147.919327,,,
729860408.629198,-1.562841,-6.376352,-26.511548,0.107437,-0.037827,0.997986,0.032376,-0.070485,-0.033696,75.132446,5.43634,-147.919327,,,
729860408.632538,-1.562841,-6.376352,-26.511548,0.107437,-0.037827,0.997986,0.032376,-0.070485,-0.033696,75.132446,5.43634,-147.919327,,,
729860408.635858,-1.552535,-6.395192,-26.519869,0.107437,-0.037827,0.997986,0.032376,-0.070485,-0.033696,75.132446,5.43634,-147.919327,,,
729860408.639192,-1.540257,-6.405594,-26.526922,0.111008,-0.034866,1.010284,0.040912,-0.024497,-0.029978,75.132446,5.43634,-147.919327,,,
729860408.642595,-1.540257,-6.405594,-26.526922,0.111008,-0.034866,1.010284,0.040912,-0.024497,-0.029978,75.132446,5.43634,-147.919327,,,
729860408.645869,-1.529382,-6.409061,-26.532233,0.111008,-0.034866,1.010284,0.040912,-0.024497,-0.029978,75.132446,5.43634,-147.919327,,,
729860408.649193,-1.519381,-6.401651,-26.535714,0.110138,-0.033249,1.008392,0.02932,0.037236,-0.015268,75.132446,5.43634,-147.919327,,,
729860408.652535,-1.519381,-6.401651,-26.535714,0.110138,-0.033249,1.008392,0.02932,0.037236,-0.015268,75.132446,5.43634,-147.919327,,,
729860408.655857,-1.513258,-6.386685,-26.53805,0.110138,-0.033249,1.008392,0.02932,0.037236,-0.015268,75.143356,5.14827,-147.832825,,,
729860408.65919,-1.512252,-6.361857,-26.539393,0.108765,-0.030243,0.995087,0.001423,0.095607,-0.003293,75.143356,5.14827,-147.832825,,,
729860408.662543,-1.512252,-6.361857,-26.539393,0.108765,-0.030243,0.995087,0.001423,0.095607,-0.003293,75.143356,5.14827,-147.832825,,,
729860408.665867,-1.51699,-6.333015,-26.539427,0.108765,-0.030243,0.995087,0.001423,0.095607,-0.003293,75.143356,5.14827,-147.832825,,,
729860408.669192,-1.528027,-6.299656,-26.538775,0.104401,-0.026398,0.975876,-0.040268,0.120674,0.002975,75.143356,5.14827,-147.832825,,,
729860408.672542,-1.528027,-6.299656,-26.538775,0.104401,-0.026398,0.975876,-0.040268,0.120674,0.002975,75.143356,5.14827,-147.832825,,,
729860408.675864,-1.544302,-6.269223,-26.538593,0.104401,-0.026398,0.975876,-0.040268,0.120674,0.002975,75.143356,5.14827,-147.832825,,,
729860408.679368,-1.564428,-6.242961,-26.53933,0.101288,-0.024048,0.957291,-0.073888,0.092185,0.004405,75.143356,5.14827,-147.832825,,,
729860408.682608,-1.564428,-6.242961,-26.53933,0.101288,-0.024048,0.957291,-0.073888,0.092185,0.004405,75.143356,5.14827,-147.832825,,,
729860408.685866,-1.586826,-6.224949,-26.54157,0.101288,-0.024048,0.957291,-0.073888,0.092185,0.004405,75.143356,5.14827,-147.832825,,,
729860408.689209,-1.609405,-6.215203,-26.545851,0.099731,-0.023758,0.951813,-0.082056,0.030414,-0.007565,75.143356,5.14827,-147.832825,,,
729860408.692611,-1.609405,-6.215203,-26.545851,0.099731,-0.023758,0.951813,-0.082056,0.030414,-0.007565,75.143356,5.14827,-147.832825,,,
729860408.695855,-1.632173,-6.214146,-26.551576,0.099731,-0.023758,0.951813,-0.082056,0.030414,-0.007565,75.149445,5.549576,-147.736115,,,
729860408.699212,-1.651685,-6.221563,-26.558175,0.094864,-0.027603,0.966049,-0.067704,-0.029966,-0.019793,75.149445,5.549576,-147.736115,,,
729860408.702545,-1.651685,-6.221563,-26.558175,0.094864,-0.027603,0.966049,-0.067704,-0.029966,-0.019793,75.149445,5.549576,-147.736115,,,
729860408.705972,-1.668859,-6.236223,-26.565081,0.094864,-0.027603,0.966049,-0.067704,-0.029966,-0.019793,75.149445,5.549576,-147.736115,,,
729860408.709187,-1.680856,-6.256513,-26.570671,0.089584,-0.033752,0.984726,-0.041368,-0.070546,-0.017827,75.149445,5.549576,-147.736115,,,
729860408.712552,-1.680856,-6.256513,-26.570671,0.089584,-0.033752,0.984726,-0.041368,-0.070546,-0.017827,75.149445,5.549576,-147.736115,,,
729860408.715929,-1.689986,-6.278667,-26.574363,0.089584,-0.033752,0.984726,-0.041368,-0.070546,-0.017827,75.149445,5.549576,-147.736115,,,
729860408.719189,-1.694106,-6.300571,-26.575656,0.08989,-0.039276,0.998825,-0.009635,-0.07082,-0.004039,75.149445,5.549576,-147.736115,,,
729860408.722539,-1.694106,-6.300571,-26.575656,0.08989,-0.039276,0.998825,-0.009635,-0.07082,-0.004039,75.149445,5.549576,-147.736115,,,
729860408.72588,-1.696392,-6.31903,-26.574742,0.08989,-0.039276,0.998825,-0.009635,-0.07082,-0.004039,75.149445,5.549576,-147.736115,,,
729860408.729199,-1.697348,-6.33182,-26.572245,0.093277,-0.041824,1.00885,0.002478,-0.035498,0.009721,75.149445,5.549576,-147.736115,,,
729860408.73264,-1.697348,-6.33182,-26.572245,0.093277,-0.041824,1.00885,0.002478,-0.035498,0.009721,75.149445,5.549576,-147.736115,,,
729860408.735899,-1.698352,-6.337569,-26.568753,0.093277,-0.041824,1.00885,0.002478,-0.035498,0.009721,75.149445,5.549576,-147.736115,,,
729860408.739204,-1.700333,-6.336655,-26.564948,0.102524,-0.035492,1.006866,-0.004981,0.012659,0.012617,75.063934,5.346344,-147.962738,,,
729860408.742529,-1.700333,-6.336655,-26.564948,0.102524,-0.035492,1.006866,-0.004981,0.012659,0.012617,75.063934,5.346344,-147.962738,,,
729860408.745863,-1.704929,-6.328318,-26.561464,0.102524,-0.035492,1.006866,-0.004981,0.012659,0.012617,75.063934,5.346344,-147.962738,,,
729860408.749199,-1.713488,-6.315044,-26.559494,0.110245,-0.029984,0.989258,-0.032307,0.052645,0.009354,75.063934,5.346344,-147.962738,,,
729860408.75255,-1.713488,-6.315044,-26.559494,0.110245,-0.029984,0.989258,-0.032307,0.052645,0.009354,75.063934,5.346344,-147.962738,,,
729860408.755935,-1.726429,-6.297064,-26.559738,0.110245,-0.029984,0.989258,-0.032307,0.052645,0.009354,75.063934,5.346344,-147.962738,,,
729860408.759214,-1.745058,-6.278457,-26.561653,0.112366,-0.02272,0.968796,-0.069934,0.069083,-0.002604,75.063934,5.346344,-147.962738,,,
729860408.762539,-1.745058,-6.278457,-26.561653,0.112366,-0.02272,0.968796,-0.069934,0.069083,-0.002604,75.063934,5.346344,-147.962738,,,
729860408.765861,-1.766267,-6.259692,-26.563939,0.112366,-0.02272,0.968796,-0.069934,0.069083,-0.002604,75.063934,5.346344,-147.962738,,,
729860408.769198,-1.790947,-6.244506,-26.566297,0.10463,-0.025711,0.961105,-0.08611,0.05562,0.000243,75.063934,5.346344,-147.962738,,,
729860408.772541,-1.790947,-6.244506,-26.566297,0.10463,-0.025711,0.961105,-0.08611,0.05562,0.000243,75.063934,5.346344,-147.962738,,,
729860408.775861,-1.815591,-6.231828,-26.568318,0.10463,-0.025711,0.961105,-0.08611,0.05562,0.000243,75.063934,5.346344,-147.962738,,,
729860408.779191,-1.839813,-6.225462,-26.568962,0.095337,-0.034668,0.969269,-0.082211,0.020752,0.008374,75.430069,5.666229,-148.125458,,,
729860408.782535,-1.839813,-6.225462,-26.568962,0.095337,-0.034668,0.969269,-0.082211,0.020752,0.008374,75.430069,5.666229,-148.125458,,,
729860408.785935,-1.861749,-6.221986,-26.567376,0.095337,-0.034668,0.969269,-0.082211,0.020752,0.008374,75.430069,5.666229,-148.125458,,,
729860408.789206,-1.880984,-6.227447,-26.564159,0.088211,-0.04158,0.98291,-0.062512,-0.018587,0.016838,75.430069,5.666229,-148.125458,,,
729860408.792631,-1.880984,-6.227447,-26.564159,0.088211,-0.04158,0.98291,-0.062512,-0.018587,0.016838,75.430069,5.666229,-148.125458,,,
729860408.795881,-1.898932,-6.2341,-26.559952,0.088211,-0.04158,0.98291,-0.062512,-0.018587,0.016838,75.430069,5.666229,-148.125458,,,
729860408.799202,-1.91495,-6.246864,-26.555236,0.091019,-0.043137,0.990921,-0.050738,-0.043901,0.022546,75.430069,5.666229,-148.125458,,,
729860408.802543,-1.91495,-6.246864,-26.555236,0.091019,-0.043137,0.990921,-0.050738,-0.043901,0.022546,75.430069,5.666229,-148.125458,,,
729860408.805872,-1.930467,-6.257901,-26.550594,0.091019,-0.043137,0.990921,-0.050738,-0.043901,0.022546,75.430069,5.666229,-148.125458,,,
729860408.809193,-1.944371,-6.27065,-26.546338,0.1017,-0.039734,0.994034,-0.045805,-0.040191,0.020437,75.430069,5.666229,-148.125458,,,
729860408.812558,-1.944371,-6.27065,-26.546338,0.1017,-0.039734,0.994034,-0.045805,-0.040191,0.020437,75.430069,5.666229,-148.125458,,,
729860408.815887,-1.958588,-6.27857,-26.542023,0.1017,-0.039734,0.994034,-0.045805,-0.040191,0.020437,75.430069,5.666229,-148.125458,,,
729860408.819199,-1.972203,-6.284423,-26.538928,0.112411,-0.036789,1.00145,-0.044755,-0.014185,0.013087,75.24176,5.600632,-147.941101,,,
729860408.822545,-1.972203,-6.284423,-26.538928,0.112411,-0.036789,1.00145,-0.044755,-0.014185,0.013087,75.24176,5.600632,-147.941101,,,
729860408.825889,-1.985596,-6.28499,-26.536656,0.112411,-0.036789,1.00145,-0.044755,-0.014185,0.013087,75.24176,5.600632,-147.941101,,,
729860408.829197,-2.000557,-6.280629,-26.534321,0.112976,-0.033829,1.001938,-0.053225,0.024489,0.013843,75.24176,5.600632,-147.941101,,,
729860408.832637,-2.000557,-6.280629,-26.534321,0.112976,-0.033829,1.001938,-0.053225,0.024489,0.013843,75.24176,5.600632,-147.941101,,,
729860408.835859,-2.015773,-6.27276,-26.531867,0.112976,-0.033829,1.001938,-0.053225,0.024489,0.013843,75.24176,5.600632,-147.941101,,,
729860408.839197,-2.035112,-6.260882,-26.529148,0.108704,-0.032776,0.990768,-0.067784,0.046296,0.01557,75.24176,5.600632,-147.941101,,,
729860408.842545,-2.035112,-6.260882,-26.529148,0.108704,-0.032776,0.990768,-0.067784,0.046296,0.01557,75.24176,5.600632,-147.941101,,,
729860408.845929,-2.055703,-6.248285,-26.526269,0.108704,-0.032776,0.990768,-0.067784,0.046296,0.01557,75.24176,5.600632,-147.941101,,,
729860408.849213,-2.079778,-6.234108,-26.524164,0.108139,-0.03447,0.976486,-0.085001,0.053989,0.013985,75.24176,5.600632,-147.941101,,,
729860408.852555,-2.079778,-6.234108,-26.524164,0.108139,-0.03447,0.976486,-0.085001,0.053989,0.013985,75.24176,5.600632,-147.941101,,,
729860408.855868,-2.104351,-6.218825,-26.52295,0.108139,-0.03447,0.976486,-0.085001,0.053989,0.013985,75.24176,5.600632,-147.941101,,,
729860408.859301,-2.104351,-6.218825,-26.52295,0.107849,-0.035919,0.976578,-0.08665,0.042953,0.012507,75.24176,5.600632,-147.941101,,,
729860408.862529,-2.12934,-6.207069,-26.522109,0.107849,-0.035919,0.976578,-0.08665,0.042953,0.012507,75.285339,5.806412,-147.919312,,,
729860408.865862,-2.152919,-6.195871,-26.520888,0.107849,-0.035919,0.976578,-0.08665,0.042953,0.012507,75.285339,5.806412,-147.919312,,,
729860408.869245,-2.152919,-6.195871,-26.51922,0.106018,-0.041321,0.984039,-0.067073,0.011844,0.011758,75.285339,5.806412,-147.919312,,,
729860408.872602,-2.173242,-6.192321,-26.51922,0.106018,-0.041321,0.984039,-0.067073,0.011844,0.011758,75.285339,5.806412,-147.919312,,,
729860408.875866,-2.190568,-6.188913,-26.517708,0.106018,-0.041321,0.984039,-0.067073,0.011844,0.011758,75.285339,5.806412,-147.919312,,,
729860408.879241,-2.190568,-6.188913,-26.516668,0.108719,-0.044083,1.001465,-0.034857,-0.008818,0.008819,75.285339,5.806412,-147.919312,,,
729860408.882529,-2.202515,-6.191113,-26.516668,0.108719,-0.044083,1.001465,-0.034857,-0.008818,0.008819,75.285339,5.806412,-147.919312,,,
729860408.885864,-2.210672,-6.191708,-26.515461,0.108719,-0.044083,1.001465,-0.034857,-0.008818,0.008819,75.285339,5.806412,-147.919312,,,
729860408.889219,-2.210672,-6.191708,-26.515461,0.108719,-0.044083,1.001465,-0.012979,-0.002683,0.005727,75.285339,5.806412,-147.919312,,,
729860408.892544,-2.21524,-6.193476,-26.514147,0.111496,-0.043594,1.017639,-0.012979,-0.002683,0.005727,75.285339,5.806412,-147.919312,,,
729860408.895861,-2.218348,-6.193446,-26.512945,0.111496,-0.043594,1.017639,-0.012979,-0.002683,0.005727,75.285339,5.806412,-147.919312,,,
729860408.899224,-2.218348,-6.193446,-26.512945,0.114105,-0.03891,1.013916,-0.013253,0.014055,0.005795,75.285339,5.806412,-147.919312,,,
729860408.902539,-2.222319,-6.191157,-26.511584,0.114105,-0.03891,1.013916,-0.013253,0.014055,0.005795,75.253067,5.923996,-148.017151,,,
729860408.905863,-2.227578,-6.186837,-26.509991,0.114105,-0.03891,1.013916,-0.013253,0.014055,0.005795,75.253067,5.923996,-148.017151,,,
729860408.909212,-2.227578,-6.186837,-26.509991,0.114105,-0.03891,1.013916,-0.013253,0.014055,0.005795,75.253067,5.923996,-148.017151,,,
729860408.912592,-2.236144,-6.178404,-26.508401,0.114273,-0.035324,1.00119,-0.031446,0.034132,0.007949,75.253067,5.923996,-148.017151,,,
729860408.915862,-2.246961,-6.168224,-26.506663,0.114273,-0.035324,1.00119,-0.031446,0.034132,0.007949,75.253067,5.923996,-148.017151,,,
729860408.919238,-2.246961,-6.168224,-26.506663,0.114273,-0.035324,1.00119,-0.031446,0.034132,0.007949,75.253067,5.923996,-148.017151,,,
729860408.922533,-2.262198,-6.156756,-26.505251,0.108566,-0.033936,0.987,-0.055248,0.044937,0.008842,75.253067,5.923996,-148.017151,,,
729860408.925865,-2.279782,-6.14607,-26.504319,0.108566,-0.033936,0.987,-0.055248,0.044937,0.008842,75.253067,5.923996,-148.017151,,,
729860408.929275,-2.279782,-6.14607,-26.504319,0.108566,-0.033936,0.987,-0.055248,0.044937,0.008842,75.253067,5.923996,-148.017151,,,
729860408.932551,-2.29863,-6.136367,-26.503587,0.103745,-0.035187,0.982101,-0.065537,0.035554,0.006573,75.253067,5.923996,-148.017151,,,
729860408.935862,-2.31526,-6.129767,-26.502879,0.103745,-0.035187,0.982101,-0.065537,0.035554,0.006573,75.253067,5.923996,-148.017151,,,
729860408.939273,-2.31526,-6.129767,-26.502879,0.103745,-0.035187,0.982101,-0.065537,0.035554,0.006573,75.253067,5.923996,-148.017151,,,
729860408.942538,-2.330526,-6.125458,-26.502134,0.102661,-0.039215,0.991318,-0.049023,0.016172,0.005395,75.150314,5.989746,-148.078278,,,
729860408.945867,-2.341622,-6.124704,-26.501724,0.102661,-0.039215,0.991318,-0.049023,0.016172,0.005395,75.150314,5.989746,-148.078278,,,
729860408.949199,-2.341622,-6.124704,-26.501724,0.102661,-0.039215,0.991318,-0.049023,0.016172,0.005395,75.150314,5.989746,-148.078278,,,
729860408.952604,-2.34731,-6.127134,-26.501381,0.103104,-0.045532,1.009445,-0.012723,-0.009443,0.002256,75.150314,5.989746,-148.078278,,,
729860408.955856,-2.347156,-6.132891,-26.500856,0.103104,-0.045532,1.009445,-0.012723,-0.009443,0.002256,75.150314,5.989746,-148.078278,,,
729860408.959214,-2.347156,-6.132891,-26.500856,0.103104,-0.045532,1.009445,-0.012723,-0.009443,0.002256,75.150314,5.989746,-148.078278,,,
729860408.962545,-2.341384,-6.14059,-26.501011,0.107376,-0.048828,1.025543,0.029575,-0.027768,-0.00584,75.150314,5.989746,-148.078278,,,
729860408.965861,-2.33143,-6.149626,-26.502429,0.107376,-0.048828,1.025543,0.029575,-0.027768,-0.00584,75.150314,5.989746,-148.078278,,,
729860408.969253,-2.33143,-6.149626,-26.502429,0.107376,-0.048828,1.025543,0.029575,-0.027768,-0.00584,75.150314,5.989746,-148.078278,,,
729860408.972527,-2.31678,-6.157536,-26.504949,0.113159,-0.045776,1.031815,0.053758,-0.022829,-0.017985,75.150314,5.989746,-148.078278,,,
729860408.975876,-2.299006,-6.163754,-26.509061,0.113159,-0.045776,1.031815,0.053758,-0.022829,-0.017985,75.150314,5.989746,-148.078278,,,
729860408.979267,-2.299006,-6.163754,-26.509061,0.113159,-0.045776,1.031815,0.053758,-0.022829,-0.017985,75.150314,5.989746,-148.078278,,,
729860408.982526,-2.280415,-6.166405,-26.513899,0.116623,-0.038437,1.025665,0.064172,-0.002666,-0.023403,75.504623,5.95639,-148.289337,,,
729860408.985866,-2.261723,-6.167214,-26.518989,0.116623,-0.038437,1.025665,0.064172,-0.002666,-0.023403,75.504623,5.95639,-148.289337,,,
729860408.989259,-2.261723,-6.167214,-26.518989,0.116623,-0.038437,1.025665,0.064172,-0.002666,-0.023403,75.504623,5.95639,-148.289337,,,
729860408.992619,-2.245042,-6.163939,-26.524134,0.112015,-0.03624,1.010025,0.053663,0.014884,-0.024713,75.504623,5.95639,-148.289337,,,
729860408.995866,-2.231553,-6.159395,-26.528859,0.112015,-0.03624,1.010025,0.053663,0.014884,-0.024713,75.504623,5.95639,-148.289337,,,
729860408.999324,-2.231553,-6.159395,-26.528859,0.112015,-0.03624,1.010025,0.053663,0.014884,-0.024713,75.504623,5.95639,-148.289337,,,
729860409.002605,-2.223324,-6.153022,-26.532488,0.105042,-0.033035,0.990219,0.02635,0.027721,-0.016425,75.504623,5.95639,-148.289337,,,
729860409.005875,-2.220093,-6.14543,-26.535144,0.105042,-0.033035,0.990219,0.02635,0.027721,-0.016425,75.504623,5.95639,-148.289337,,,
729860409.009292,-2.220093,-6.14543,-26.535144,0.105042,-0.033035,0.990219,0.02635,0.027721,-0.016425,75.504623,5.95639,-148.289337,,,
729860409.012532,-2.224122,-6.13732,-26.537556,0.097809,-0.030075,0.971451,-0.018067,0.031569,-0.006692,75.504623,5.95639,-148.289337,,,
729860409.015876,-2.233526,-6.12877,-26.53852,0.097809,-0.030075,0.971451,-0.018067,0.031569,-0.006692,75.504623,5.95639,-148.289337,,,
729860409.019379,-2.233526,-6.12877,-26.53852,0.097809,-0.030075,0.971451,-0.018067,0.031569,-0.006692,75.504623,5.95639,-148.289337,,,
729860409.022535,-2.24736,-6.121697,-26.538167,0.095169,-0.029953,0.964508,-0.049159,0.026967,0.004278,75.504623,5.95639,-148.289337,,,
729860409.025882,-2.263986,-6.114331,-26.536924,0.095169,-0.029953,0.964508,-0.049159,0.026967,0.004278,75.310745,6.010406,-148.149582,,,
729860409.029213,-2.263986,-6.114331,-26.536924,0.095169,-0.029953,0.964508,-0.049159,0.026967,0.004278,75.310745,6.010406,-148.149582,,,
729860409.032585,-2.279733,-6.10781,-26.534235,0.093781,-0.032852,0.970856,-0.052938,0.026195,0.016005,75.310745,6.010406,-148.149582,,,
729860409.035867,-2.294405,-6.100418,-26.52959,0.093781,-0.032852,0.970856,-0.052938,0.026195,0.016005,75.310745,6.010406,-148.149582,,,
729860409.039218,-2.294405,-6.100418,-26.52959,0.093781,-0.032852,0.970856,-0.052938,0.026195,0.016005,75.310745,6.010406,-148.149582,,,
729860409.042552,-2.305598,-6.094407,-26.522679,0.08989,-0.039001,0.991425,-0.032614,0.021451,0.029579,75.310745,6.010406,-148.149582,,,
729860409.045866,-2.314394,-6.089788,-26.513795,0.08989,-0.039001,0.991425,-0.032614,0.021451,0.029579,75.310745,6.010406,-148.149582,,,
729860409.049227,-2.314394,-6.089788,-26.513795,0.08989,-0.039001,0.991425,-0.032614,0.021451,0.029579,75.310745,6.010406,-148.149582,,,
729860409.052531,-2.317987,-6.086198,-26.504162,0.092957,-0.044678,0.999496,-0.005833,0.014403,0.033561,75.310745,6.010406,-148.149582,,,
729860409.055867,-2.318033,-6.085121,-26.49493,0.092957,-0.044678,0.999496,-0.005833,0.014403,0.033561,75.310745,6.010406,-148.149582,,,
729860409.059336,-2.318033,-6.085121,-26.49493,0.092957,-0.044678,0.999496,-0.005833,0.014403,0.033561,75.310745,6.010406,-148.149582,,,
729860409.062539,-2.315951,-6.083969,-26.487167,0.10463,-0.041122,0.995316,0.010939,0.00548,0.0249,75.310745,6.010406,-148.149582,,,
729860409.065876,-2.311632,-6.085332,-26.481994,0.10463,-0.041122,0.995316,0.010939,0.00548,0.0249,75.283188,5.836594,-147.707321,,,
729860409.069256,-2.311632,-6.085332,-26.481994,0.10463,-0.041122,0.995316,0.010939,0.00548,0.0249,75.283188,5.836594,-147.707321,,,
729860409.072579,-2.306746,-6.086267,-26.479705,0.118057,-0.033554,0.990585,0.023235,0.001173,0.00038,75.283188,5.836594,-147.707321,,,
729860409.075884,-2.299997,-6.087861,-26.480908,0.118057,-0.033554,0.990585,0.023235,0.001173,0.00038,75.283188,5.836594,-147.707321,,,
729860409.079228,-2.299997,-6.087861,-26.480908,0.118057,-0.033554,0.990585,0.023235,0.001173,0.00038,75.283188,5.836594,-147.707321,,,
729860409.082629,-2.293766,-6.090047,-26.484776,0.124954,-0.033279,0.984863,0.020002,-0.005484,-0.019062,75.283188,5.836594,-147.707321,,,
729860409.085865,-2.287238,-6.09198,-26.490586,0.124954,-0.033279,0.984863,0.020002,-0.005484,-0.019062,75.283188,5.836594,-147.707321,,,
729860409.089248,-2.287238,-6.09198,-26.490586,0.124954,-0.033279,0.984863,0.020002,-0.005484,-0.019062,75.283188,5.836594,-147.707321,,,
729860409.092553,-2.28397,-6.095061,-26.498223,0.124146,-0.032791,0.977432,0.006795,-0.005951,-0.029204,75.283188,5.836594,-147.707321,,,
729860409.095873,-2.281176,-6.096084,-26.506331,0.124146,-0.032791,0.977432,0.006795,-0.005951,-0.029204,75.283188,5.836594,-147.707321,,,
729860409.099201,-2.281176,-6.096084,-26.506331,0.124146,-0.032791,0.977432,0.006795,-0.005951,-0.029204,75.283188,5.836594,-147.707321,,,
729860409.102568,-2.281988,-6.097192,-26.51398,0.118347,-0.032211,0.97052,-0.008805,0.000445,-0.026327,75.283188,5.836594,-147.707321,,,
729860409.105877,-2.284738,-6.095301,-26.519953,0.118347,-0.032211,0.97052,-0.008805,0.000445,-0.026327,75.256729,6.089951,-148.195969,,,
729860409.109292,-2.284738,-6.095301,-26.519953,0.118347,-0.032211,0.97052,-0.008805,0.000445,-0.026327,75.256729,6.089951,-148.195969,,,
729860409.11255,-2.291907,-6.09412,-26.523764,0.108124,-0.036392,0.966232,-0.029562,0.008521,-0.00925,75.256729,6.089951,-148.195969,,,
729860409.115875,-2.30192,-6.089958,-26.525223,0.108124,-0.036392,0.966232,-0.029562,0.008521,-0.00925,75.256729,6.089951,-148.195969,,,
729860409.119236,-2.30192,-6.089958,-26.525223,0.108124,-0.036392,0.966232,-0.029562,0.008521,-0.00925,75.256729,6.089951,-148.195969,,,
729860409.122615,-2.316034,-6.090103,-26.524554,0.100266,-0.040131,0.958466,-0.051024,-0.000455,0.00693,75.256729,6.089951,-148.195969,,,
729860409.125873,-2.332923,-6.090227,-26.522389,0.100266,-0.040131,0.958466,-0.051024,-0.000455,0.00693,75.256729,6.089951,-148.195969,,,
729860409.129218,-2.332923,-6.090227,-26.522389,0.100266,-0.040131,0.958466,-0.051024,-0.000455,0.00693,75.256729,6.089951,-148.195969,,,
729860409.13254,-2.351335,-6.096844,-26.520179,0.100281,-0.039429,0.952469,-0.062523,-0.0235,0.013982,75.256729,6.089951,-148.195969,,,
729860409.135876,-2.370722,-6.104662,-26.519001,0.100281,-0.039429,0.952469,-0.062523,-0.0235,0.013982,75.256729,6.089951,-148.195969,,,
729860409.139214,-2.370722,-6.104662,-26.519001,0.100281,-0.039429,0.952469,-0.062523,-0.0235,0.013982,75.256729,6.089951,-148.195969,,,
729860409.142556,-2.388855,-6.114634,-26.5197,0.110443,-0.038803,0.9608,-0.061917,-0.031684,0.001397,75.256729,6.089951,-148.195969,,,
729860409.145873,-2.404336,-6.126284,-26.521899,0.110443,-0.038803,0.9608,-0.061917,-0.031684,0.001397,75.152954,5.934769,-148.157074,,,
729860409.149277,-2.404336,-6.126284,-26.521899,0.110443,-0.038803,0.9608,-0.061917,-0.031684,0.001397,75.152954,5.934769,-148.157074,,,
729860409.152544,-2.417345,-6.137343,-26.525037,0.11734,-0.041092,0.982758,-0.044339,-0.035474,-0.008555,75.152954,5.934769,-148.157074,,,
729860409.155873,-2.426918,-6.150697,-26.5291,0.11734,-0.041092,0.982758,-0.044339,-0.035474,-0.008555,75.152954,5.934769,-148.157074,,,
729860409.159221,-2.426918,-6.150697,-26.5291,0.11734,-0.041092,0.982758,-0.044339,-0.035474,-0.008555,75.152954,5.934769,-148.157074,,,
729860409.162602,-2.434471,-6.161829,-26.533722,0.120239,-0.044281,0.996017,-0.024176,-0.033145,-0.013685,75.152954,5.934769,-148.157074,,,
729860409.165868,-2.437837,-6.173526,-26.538664,0.120239,-0.044281,0.996017,-0.024176,-0.033145,-0.013685,75.152954,5.934769,-148.157074,,,
729860409.169216,-2.437837,-6.173526,-26.538664,0.120239,-0.044281,0.996017,-0.024176,-0.033145,-0.013685,75.152954,5.934769,-148.157074,,,
729860409.172552,-2.440002,-6.180054,-26.543837,0.124039,-0.047165,1.005554,-0.008726,-0.016971,-0.020004,75.152954,5.934769,-148.157074,,,
729860409.175869,-2.439707,-6.185793,-26.550192,0.124039,-0.047165,1.005554,-0.008726,-0.016971,-0.020004,75.152954,5.934769,-148.157074,,,
729860409.179233,-2.439707,-6.185793,-26.550192,0.124039,-0.047165,1.005554,-0.008726,-0.016971,-0.020004,75.152954,5.934769,-148.157074,,,
729860409.18256,-2.439994,-6.184961,-26.557427,0.12442,-0.046082,1.006485,-0.000763,0.010655,-0.02472,75.152954,5.934769,-148.157074,,,
729860409.185874,-2.439195,-6.182105,-26.565541,0.12442,-0.046082,1.006485,-0.000763,0.010655,-0.02472,75.152954,5.934769,-148.157074,,,
729860409.189282,-2.439195,-6.182105,-26.565541,0.12442,-0.046082,1.006485,-0.000763,0.010655,-0.02472,75.270355,5.99292,-148.293274,,,
729860409.192552,-2.440109,-6.175371,-26.573872,0.118988,-0.044128,0.996994,-0.002923,0.028966,-0.03038,75.270355,5.99292,-148.293274,,,
729860409.19587,-2.44153,-6.167439,-26.582048,0.118988,-0.044128,0.996994,-0.002923,0.028966,-0.03038,75.270355,5.99292,-148.293274,,,
729860409.199228,-2.44153,-6.167439,-26.582048,0.118988,-0.044128,0.996994,-0.002923,0.028966,-0.03038,75.270355,5.99292,-148.293274,,,
729860409.202211,-2.444653,-6.159901,-26.590818,0.114548,-0.044434,0.984512,-0.014913,0.029895,-0.030762,75.270355,5.99292,-148.293274,,,
729860409.205919,-2.449313,-6.15224,-26.600389,0.114548,-0.044434,0.984512,-0.014913,0.029895,-0.030762,75.270355,5.99292,-148.293274,,,
729860409.20931,-2.449313,-6.15224,-26.600389,0.114548,-0.044434,0.984512,-0.014913,0.029895,-0.030762,75.270355,5.99292,-148.293274,,,
729860409.212553,-2.456351,-6.147063,-26.610762,0.107391,-0.042572,0.978745,-0.03186,0.022519,-0.034801,75.270355,5.99292,-148.293274,,,
729860409.21587,-2.464713,-6.143638,-26.621973,0.107391,-0.042572,0.978745,-0.03186,0.022519,-0.034801,75.270355,5.99292,-148.293274,,,
729860409.219324,-2.464713,-6.143638,-26.621973,0.107391,-0.042572,0.978745,-0.03186,0.022519,-0.034801,75.270355,5.99292,-148.293274,,,
729860409.222547,-2.474132,-6.140329,-26.633046,0.104736,-0.043747,0.975983,-0.037427,0.014279,-0.036157,75.270355,5.99292,-148.293274,,,
729860409.225883,-2.482143,-6.140186,-26.643013,0.104736,-0.043747,0.975983,-0.037427,0.014279,-0.036157,75.270355,5.99292,-148.293274,,,
729860409.229323,-2.482143,-6.140186,-26.643013,0.104736,-0.043747,0.975983,-0.037427,0.014279,-0.036157,75.285324,6.02652,-148.072357,,,
729860409.232567,-2.488448,-6.139059,-26.651195,0.098801,-0.049042,0.989624,-0.023059,0.008577,-0.024115,75.285324,6.02652,-148.072357,,,
729860409.235894,-2.492037,-6.141195,-26.657144,0.098801,-0.049042,0.989624,-0.023059,0.008577,-0.024115,75.285324,6.02652,-148.072357,,,
729860409.239305,-2.492037,-6.141195,-26.657144,0.098801,-0.049042,0.989624,-0.023059,0.008577,-0.024115,75.285324,6.02652,-148.072357,,,
729860409.242549,-2.492581,-6.142751,-26.660502,0.092804,-0.055725,1.005112,0.002425,-0.002131,-0.011489,75.285324,6.02652,-148.072357,,,
729860409.24587,-2.490489,-6.147671,-26.661869,0.092804,-0.055725,1.005112,0.002425,-0.002131,-0.011489,75.285324,6.02652,-148.072357,,,
729860409.24922,-2.490489,-6.147671,-26.661869,0.092804,-0.055725,1.005112,0.002425,-0.002131,-0.011489,75.285324,6.02652,-148.072357,,,
729860409.25261,-2.485229,-6.148977,-26.661903,0.094666,-0.055527,1.014191,0.018936,0.000396,-0.003961,75.285324,6.02652,-148.072357,,,
729860409.255874,-2.478226,-6.15274,-26.661996,0.094666,-0.055527,1.014191,0.018936,0.000396,-0.003961,75.285324,6.02652,-148.072357,,,
729860409.259218,-2.478226,-6.15274,-26.661996,0.094666,-0.055527,1.014191,0.018936,0.000396,-0.003961,75.285324,6.02652,-148.072357,,,
729860409.262551,-2.46903,-6.152962,-26.662289,0.099899,-0.051773,1.019073,0.034328,0.003384,-0.004029,75.285324,6.02652,-148.072357,,,
729860409.265869,-2.458508,-6.154777,-26.66281,0.099899,-0.051773,1.019073,0.034328,0.003384,-0.004029,75.285324,6.02652,-148.072357,,,
729860409.2692,-2.458508,-6.154777,-26.66281,0.099899,-0.051773,1.019073,0.034328,0.003384,-0.004029,75.094376,5.90416,-147.957794,,,
729860409.272556,-2.44797,-6.152706,-26.663379,0.101852,-0.047623,1.012131,0.037345,0.010469,-0.003843,75.094376,5.90416,-147.957794,,,
729860409.275875,-2.439125,-6.151553,-26.6645,0.101852,-0.047623,1.012131,0.037345,0.010469,-0.003843,75.094376,5.90416,-147.957794,,,
729860409.279278,-2.439125,-6.151553,-26.6645,0.101852,-0.047623,1.012131,0.037345,0.010469,-0.003843,75.094376,5.90416,-147.957794,,,
729860409.282651,-2.432947,-6.148378,-26.666095,0.099197,-0.044205,0.998383,0.018819,0.015209,-0.014081,75.094376,5.90416,-147.957794,,,
729860409.285878,-2.43036,-6.147418,-26.668621,0.099197,-0.044205,0.998383,0.018819,0.015209,-0.014081,75.094376,5.90416,-147.957794,,,
729860409.289229,-2.43036,-6.147418,-26.668621,0.099197,-0.044205,0.998383,0.018819,0.015209,-0.014081,75.094376,5.90416,-147.957794,,,
729860409.292619,-2.431072,-6.146757,-26.6721,0.096893,-0.038773,0.979294,-0.007784,0.006136,-0.016548,75.094376,5.90416,-147.957794,,,
729860409.295872,-2.435922,-6.147867,-26.676,0.096893,-0.038773,0.979294,-0.007784,0.006136,-0.016548,75.094376,5.90416,-147.957794,,,
729860409.29922,-2.435922,-6.147867,-26.676,0.096893,-0.038773,0.979294,-0.007784,0.006136,-0.016548,75.094376,5.90416,-147.957794,,,
729860409.302539,-2.444122,-6.150822,-26.680027,0.093674,-0.038727,0.967987,-0.032641,-0.008384,-0.012278,75.094376,5.90416,-147.957794,,,
729860409.305871,-2.455287,-6.155258,-26.684288,0.093674,-0.038727,0.967987,-0.032641,-0.008384,-0.012278,75.094376,5.90416,-147.957794,,,
729860409.309222,-2.455287,-6.155258,-26.684288,0.093674,-0.038727,0.967987,-0.032641,-0.008384,-0.012278,75.158493,6.24765,-148.40834,,,
729860409.31257,-2.465786,-6.162956,-26.687738,0.09285,-0.044342,0.967377,-0.037704,-0.028796,-0.008069,75.158493,6.24765,-148.40834,,,
729860409.315859,-2.476477,-6.170413,-26.689466,0.09285,-0.044342,0.967377,-0.037704,-0.028796,-0.008069,75.158493,6.24765,-148.40834,,,
729860409.319301,-2.476477,-6.170413,-26.689466,0.09285,-0.044342,0.967377,-0.037704,-0.028796,-0.008069,75.158493,6.24765,-148.40834,,,
729860409.322556,-2.483256,-6.18347,-26.689995,0.090683,-0.052246,0.985092,-0.018281,-0.045425,-0.000121,75.158493,6.24765,-148.40834,,,
729860409.325874,-2.489133,-6.194971,-26.68915,0.090683,-0.052246,0.985092,-0.018281,-0.045425,-0.000121,75.158493,6.24765,-148.40834,,,
729860409.329219,-2.489133,-6.194971,-26.68915,0.090683,-0.052246,0.985092,-0.018281,-0.045425,-0.000121,75.158493,6.24765,-148.40834,,,
729860409.332613,-2.490825,-6.208849,-26.687901,0.096344,-0.056244,1.001495,-0.00389,-0.042045,0.003108,75.158493,6.24765,-148.40834,,,
729860409.335932,-2.491548,-6.217044,-26.686095,0.096344,-0.056244,1.001495,-0.00389,-0.042045,0.003108,75.158493,6.24765,-148.40834,,,
729860409.339229,-2.491548,-6.217044,-26.686095,0.096344,-0.056244,1.001495,-0.00389,-0.042045,0.003108,75.158493,6.24765,-148.40834,,,
729860409.342644,-2.488943,-6.223292,-26.683764,0.106613,-0.053024,1.011765,0.009815,-0.015463,0.004449,75.158493,6.24765,-148.40834,,,
729860409.345871,-2.485929,-6.222425,-26.681065,0.106613,-0.053024,1.011765,0.009815,-0.015463,0.004449,75.158493,6.24765,-148.40834,,,
729860409.34923,-2.485929,-6.222425,-26.681065,0.106613,-0.053024,1.011765,0.009815,-0.015463,0.004449,75.158493,6.24765,-148.40834,,,
729860409.352558,-2.481576,-6.217462,-26.678306,0.11351,-0.050323,1.015915,0.015603,0.024009,0.006838,75.155518,6.115067,-148.147614,,,
729860409.355878,-2.479229,-6.205153,-26.674932,0.11351,-0.050323,1.015915,0.015603,0.024009,0.006838,75.155518,6.115067,-148.147614,,,
729860409.359259,-2.479229,-6.205153,-26.674932,0.11351,-0.050323,1.015915,0.015603,0.024009,0.006838,75.155518,6.115067,-148.147614,,,
729860409.362553,-2.479514,-6.19019,-26.671583,0.113556,-0.046738,1.004135,-0.002524,0.057244,0.009313,75.155518,6.115067,-148.147614,,,
729860409.365878,-2.48271,-6.170195,-26.669076,0.113556,-0.046738,1.004135,-0.002524,0.057244,0.009313,75.155518,6.115067,-148.147614,,,
729860409.369217,-2.48271,-6.170195,-26.669076,0.113556,-0.046738,1.004135,-0.002524,0.057244,0.009313,75.155518,6.115067,-148.147614,,,
729860409.372598,-2.490454,-6.150614,-26.667234,0.110977,-0.045502,0.985168,-0.031262,0.075273,0.007983,75.155518,6.115067,-148.147614,,,
729860409.375875,-2.501995,-6.129396,-26.66583,0.110977,-0.045502,0.985168,-0.031262,0.075273,0.007983,75.155518,6.115067,-148.147614,,,
729860409.379214,-2.501995,-6.129396,-26.66583,0.110977,-0.045502,0.985168,-0.031262,0.075273,0.007983,75.155518,6.115067,-148.147614,,,
729860409.382547,-2.516968,-6.112513,-26.665407,0.106293,-0.040863,0.967178,-0.054294,0.058984,0.002854,75.155518,6.115067,-148.147614,,,
729860409.385877,-2.533522,-6.097968,-26.665522,0.106293,-0.040863,0.967178,-0.054294,0.058984,0.002854,75.155518,6.115067,-148.147614,,,
729860409.389216,-2.533522,-6.097968,-26.665522,0.106293,-0.040863,0.967178,-0.054294,0.058984,0.002854,75.155518,6.115067,-148.147614,,,
729860409.392546,-2.551527,-6.090265,-26.665935,0.104156,-0.041367,0.956924,-0.061747,0.023102,0.00466,75.195816,6.235626,-148.44162,,,
729860409.395873,-2.570479,-6.084569,-26.666501,0.104156,-0.041367,0.956924,-0.061747,0.023102,0.00466,75.195816,6.235626,-148.44162,,,
729860409.399249,-2.570479,-6.084569,-26.666501,0.104156,-0.041367,0.956924,-0.061747,0.023102,0.00466,75.195816,6.235626,-148.44162,,,
729860409.402542,-2.588122,-6.086158,-26.667545,0.10112,-0.045105,0.96077,-0.058264,-0.007473,0.001673,75.195816,6.235626,-148.44162,,,
729860409.40588,-2.606524,-6.088646,-26.668293,0.10112,-0.045105,0.96077,-0.058264,-0.007473,0.001673,75.195816,6.235626,-148.44162,,,
729860409.409293,-2.606524,-6.088646,-26.668293,0.10112,-0.045105,0.96077,-0.058264,-0.007473,0.001673,75.195816,6.235626,-148.44162,,,
729860409.412549,-2.621576,-6.094727,-26.668634,0.100098,-0.047699,0.975479,-0.049704,-0.018053,0.001235,75.195816,6.235626,-148.44162,,,
729860409.415873,-2.636321,-6.099422,-26.668591,0.100098,-0.047699,0.975479,-0.049704,-0.018053,0.001235,75.195816,6.235626,-148.44162,,,
729860409.419226,-2.636321,-6.099422,-26.668591,0.100098,-0.047699,0.975479,-0.049704,-0.018053,0.001235,75.195816,6.235626,-148.44162,,,
729860409.42261,-2.648982,-6.104068,-26.668083,0.104874,-0.051041,0.986801,-0.039711,-0.012205,0.005947,75.195816,6.235626,-148.44162,,,
729860409.425873,-2.661485,-6.107292,-26.667408,0.104874,-0.051041,0.986801,-0.039711,-0.012205,0.005947,75.195816,6.235626,-148.44162,,,
729860409.429223,-2.661485,-6.107292,-26.667408,0.104874,-0.051041,0.986801,-0.039711,-0.012205,0.005947,75.195816,6.235626,-148.44162,,,
729860409.432546,-2.672764,-6.107116,-26.666905,0.112137,-0.051544,0.992477,-0.038981,0.004979,0.00562,75.194519,6.33754,-148.348831,,,
729860409.43592,-2.684522,-6.105353,-26.667516,0.112137,-0.051544,0.992477,-0.038981,0.004979,0.00562,75.194519,6.33754,-148.348831,,,
729860409.439228,-2.684522,-6.105353,-26.667516,0.112137,-0.051544,0.992477,-0.038981,0.004979,0.00562,75.194519,6.33754,-148.348831,,,
729860409.442555,-2.696636,-6.099263,-26.669976,0.116379,-0.049744,0.993774,-0.044389,0.028691,-0.007529,75.194519,6.33754,-148.348831,,,
729860409.445881,-2.70881,-6.091327,-26.673625,0.116379,-0.049744,0.993774,-0.044389,0.028691,-0.007529,75.194519,6.33754,-148.348831,,,
729860409.449274,-2.70881,-6.091327,-26.673625,0.116379,-0.049744,0.993774,-0.044389,0.028691,-0.007529,75.194519,6.33754,-148.348831,,,
729860409.452581,-2.721975,-6.080255,-26.677689,0.115906,-0.047653,0.99295,-0.046985,0.043956,-0.00926,75.194519,6.33754,-148.348831,,,
729860409.455879,-2.734168,-6.069755,-26.682137,0.115906,-0.047653,0.99295,-0.046985,0.043956,-0.00926,75.194519,6.33754,-148.348831,,,
729860409.459215,-2.734168,-6.069755,-26.682137,0.115906,-0.047653,0.99295,-0.046985,0.043956,-0.00926,75.194519,6.33754,-148.348831,,,
729860409.462615,-2.746905,-6.059193,-26.686792,0.110687,-0.048157,0.987183,-0.045121,0.038968,-0.013501,75.194519,6.33754,-148.348831,,,
729860409.465863,-2.758661,-6.050629,-26.690981,0.110687,-0.048157,0.987183,-0.045121,0.038968,-0.013501,75.194519,6.33754,-148.348831,,,
729860409.469215,-2.758661,-6.050629,-26.690981,0.110687,-0.048157,0.987183,-0.045121,0.038968,-0.013501,75.194519,6.33754,-148.348831,,,
729860409.47255,-2.770829,-6.043078,-26.694549,0.102905,-0.048691,0.984741,-0.040927,0.028553,-0.009001,75.194519,6.33754,-148.348831,,,
729860409.47591,-2.782197,-6.037913,-26.697773,0.102905,-0.048691,0.984741,-0.040927,0.028553,-0.009001,75.303558,6.292938,-148.344894,,,
729860409.479208,-2.782197,-6.037913,-26.697773,0.102905,-0.048691,0.984741,-0.040927,0.028553,-0.009001,75.303558,6.292938,-148.344894,,,
729860409.482547,-2.793155,-6.034726,-26.700057,0.094925,-0.050262,0.982239,-0.03632,0.012504,-0.005984,75.303558,6.292938,-148.344894,,,
729860409.485873,-2.802744,-6.033053,-26.70121,0.094925,-0.050262,0.982239,-0.03632,0.012504,-0.005984,75.303558,6.292938,-148.344894,,,
729860409.489263,-2.802744,-6.033053,-26.70121,0.094925,-0.050262,0.982239,-0.03632,0.012504,-0.005984,75.303558,6.292938,-148.344894,,,
729860409.492551,-2.811789,-6.033899,-26.701356,0.092865,-0.052673,0.982346,-0.030414,-0.000283,0.003592,75.303558,6.292938,-148.344894,,,
729860409.495885,-2.821712,-6.035347,-26.700467,0.092865,-0.052673,0.982346,-0.030414,-0.000283,0.003592,75.303558,6.292938,-148.344894,,,
729860409.499214,-2.821712,-6.035347,-26.700467,0.092865,-0.052673,0.982346,-0.030414,-0.000283,0.003592,75.303558,6.292938,-148.344894,,,
729860409.502628,-2.832927,-6.036514,-26.699194,0.095657,-0.053802,0.982605,-0.037409,-0.000793,0.007641,75.303558,6.292938,-148.344894,,,
729860409.505892,-2.846406,-6.036984,-26.698156,0.095657,-0.053802,0.982605,-0.037409,-0.000793,0.007641,75.303558,6.292938,-148.344894,,,
729860409.509206,-2.846406,-6.036984,-26.698156,0.095657,-0.053802,0.982605,-0.037409,-0.000793,0.007641,75.303558,6.292938,-148.344894,,,
729860409.512542,-2.861112,-6.034639,-26.696942,0.096237,-0.050842,0.988846,-0.051837,0.010548,0.013929,75.303558,6.292938,-148.344894,,,
729860409.515886,-2.876983,-6.032013,-26.695796,0.096237,-0.050842,0.988846,-0.051837,0.010548,0.013929,75.527679,6.618073,-148.324066,,,
729860409.519216,-2.876983,-6.032013,-26.695796,0.096237,-0.050842,0.988846,-0.051837,0.010548,0.013929,75.527679,6.618073,-148.324066,,,
729860409.522559,-2.893582,-6.025564,-26.695175,0.099808,-0.050308,0.995255,-0.057245,0.024672,0.004731,75.527679,6.618073,-148.324066,,,
729860409.525924,-2.909631,-6.020786,-26.695156,0.099808,-0.050308,0.995255,-0.057245,0.024672,0.004731,75.527679,6.618073,-148.324066,,,
729860409.529277,-2.909631,-6.020786,-26.695156,0.099808,-0.050308,0.995255,-0.057245,0.024672,0.004731,75.527679,6.618073,-148.324066,,,
729860409.532537,-2.925762,-6.014439,-26.695369,0.101685,-0.051071,0.997208,-0.055934,0.021993,0.002402,75.527679,6.618073,-148.324066,,,
729860409.535972,-2.941124,-6.011739,-26.696028,0.101685,-0.051071,0.997208,-0.055934,0.021993,0.002402,75.527679,6.618073,-148.324066,,,
729860409.539202,-2.941124,-6.011739,-26.696028,0.101685,-0.051071,0.997208,-0.055934,0.021993,0.002402,75.527679,6.618073,-148.324066,,,
729860409.542556,-2.95603,-6.009942,-26.696682,0.095291,-0.051575,0.99646,-0.051087,0.006278,0.001823,75.527679,6.618073,-148.324066,,,
729860409.545916,-2.969045,-6.010669,-26.696973,0.095291,-0.051575,0.99646,-0.051087,0.006278,0.001823,75.527679,6.618073,-148.324066,,,
729860409.549217,-2.969045,-6.010669,-26.696973,0.095291,-0.051575,0.99646,-0.051087,0.006278,0.001823,75.527679,6.618073,-148.324066,,,
729860409.552621,-2.979578,-6.011804,-26.696053,0.092316,-0.054352,0.998337,-0.031096,-0.001822,0.006155,75.527679,6.618073,-148.324066,,,
729860409.555907,-2.986253,-6.011735,-26.693621,0.092316,-0.054352,0.998337,-0.031096,-0.001822,0.006155,75.424637,6.632645,-148.84079,,,
729860409.55923,-2.986253,-6.011735,-26.693621,0.092316,-0.054352,0.998337,-0.031096,-0.001822,0.006155,75.424637,6.632645,-148.84079,,,
729860409.562554,-2.989075,-6.013236,-26.689758,0.090103,-0.060455,1.011856,-0.001379,-0.004519,0.015405,75.424637,6.632645,-148.84079,,,
729860409.565928,-2.989162,-6.012978,-26.684439,0.090103,-0.060455,1.011856,-0.001379,-0.004519,0.015405,75.424637,6.632645,-148.84079,,,
729860409.569214,-2.989162,-6.012978,-26.684439,0.090103,-0.060455,1.011856,-0.001379,-0.004519,0.015405,75.424637,6.632645,-148.84079,,,
729860409.572547,-2.987732,-6.014923,-26.677779,0.088058,-0.06282,1.018829,0.009215,-0.005096,0.022213,75.424637,6.632645,-148.84079,,,
729860409.575927,-2.98542,-6.016483,-26.669679,0.088058,-0.06282,1.018829,0.009215,-0.005096,0.022213,75.424637,6.632645,-148.84079,,,
729860409.579256,-2.98542,-6.016483,-26.669679,0.088058,-0.06282,1.018829,0.009215,-0.005096,0.022213,75.424637,6.632645,-148.84079,,,
729860409.582539,-2.982,-6.020596,-26.661466,0.094574,-0.059601,1.00975,0.017729,-0.011882,0.023122,75.424637,6.632645,-148.84079,,,
729860409.585881,-2.977746,-6.022869,-26.654153,0.094574,-0.059601,1.00975,0.017729,-0.011882,0.023122,75.424637,6.632645,-148.84079,,,
729860409.589222,-2.977746,-6.022869,-26.654153,0.094574,-0.059601,1.00975,0.017729,-0.011882,0.023122,75.424637,6.632645,-148.84079,,,
729860409.592605,-2.97285,-6.026488,-26.648449,0.102386,-0.052139,1.003235,0.018974,-0.011036,0.014015,75.424637,6.632645,-148.84079,,,
729860409.595867,-2.97285,-6.026488,-26.648449,0.102386,-0.052139,1.003235,0.018974,-0.011036,0.014015,75.33432,6.50499,-148.179596,,,
729860409.599221,-2.967512,-6.028628,-26.64391,0.102386,-0.052139,1.003235,0.018974,-0.011036,0.014015,75.33432,6.50499,-148.179596,,,
729860409.602547,-2.963098,-6.032158,-26.639551,0.103317,-0.048233,1.000595,0.016525,-0.009643,0.010399,75.33432,6.50499,-148.179596,,,
729860409.605991,-2.959271,-6.036091,-26.63497,0.103317,-0.048233,1.000595,0.016525,-0.009643,0.010399,75.33432,6.50499,-148.179596,,,
729860409.60921,-2.959271,-6.036091,-26.63497,0.103317,-0.048233,1.000595,0.016525,-0.009643,0.010399,75.33432,6.50499,-148.179596,,,
729860409.612552,-2.956789,-6.042013,-26.630417,0.101257,-0.048737,0.989075,0.00905,-0.019404,0.01263,75.33432,6.50499,-148.179596,,,
729860409.615881,-2.956789,-6.042013,-26.630417,0.101257,-0.048737,0.989075,0.00905,-0.019404,0.01263,75.33432,6.50499,-148.179596,,,
729860409.619279,-2.956405,-6.046652,-26.625644,0.101257,-0.048737,0.989075,0.00905,-0.019404,0.01263,75.33432,6.50499,-148.179596,,,
729860409.622543,-2.958573,-6.052728,-26.620873,0.101242,-0.049179,0.97966,-0.005012,-0.019158,0.015586,75.33432,6.50499,-148.179596,,,
729860409.625872,-2.958573,-6.056418,-26.616089,0.101242,-0.049179,0.97966,-0.005012,-0.019158,0.015586,75.33432,6.50499,-148.179596,,,
729860409.629204,-2.963525,-6.056418,-26.616089,0.101242,-0.049179,0.97966,-0.005012,-0.019158,0.015586,75.33432,6.50499,-148.179596,,,
729860409.632545,-2.970092,-6.0627,-26.611884,0.100403,-0.04805,0.977982,-0.023403,-0.020094,0.01694,75.33432,6.50499,-148.179596,,,
729860409.635875,-2.970092,-6.0627,-26.611884,0.100403,-0.04805,0.977982,-0.023403,-0.020094,0.01694,75.33432,6.50499,-148.179596,,,
729860409.639275,-2.97803,-6.065997,-26.607793,0.100403,-0.04805,0.977982,-0.023403,-0.020094,0.01694,75.305191,6.672562,-148.881409,,,
729860409.642549,-2.983496,-6.073478,-26.604071,0.105057,-0.049988,0.980728,-0.017572,-0.02396,0.01269,75.305191,6.672562,-148.881409,,,
729860409.646055,-2.988112,-6.078437,-26.600002,0.105057,-0.049988,0.980728,-0.017572,-0.02396,0.01269,75.305191,6.672562,-148.881409,,,
729860409.649211,-2.988112,-6.078437,-26.600002,0.105057,-0.049988,0.980728,-0.017572,-0.02396,0.01269,75.305191,6.672562,-148.881409,,,
729860409.652588,-2.988737,-6.088504,-26.596203,0.104813,-0.054794,0.99144,0.002475,-0.034925,0.012376,75.305191,6.672562,-148.881409,,,
729860409.655913,-2.988737,-6.088504,-26.596203,0.104813,-0.054794,0.99144,0.002475,-0.034925,0.012376,75.305191,6.672562,-148.881409,,,
729860409.659224,-2.987623,-6.096077,-26.592254,0.104813,-0.054794,0.99144,0.002475,-0.034925,0.012376,75.305191,6.672562,-148.881409,,,
729860409.66258,-2.982847,-6.107218,-26.588514,0.108459,-0.057541,0.99794,0.020359,-0.037115,0.009362,75.305191,6.672562,-148.881409,,,
729860409.665892,-2.982847,-6.107218,-26.588514,0.108459,-0.057541,0.99794,0.020359,-0.037115,0.009362,75.305191,6.672562,-148.881409,,,
729860409.669229,-2.976072,-6.116119,-26.58506,0.108459,-0.057541,0.99794,0.020359,-0.037115,0.009362,75.305191,6.672562,-148.881409,,,
729860409.67255,-2.967197,-6.123874,-26.582073,0.11319,-0.056213,1.00293,0.035576,-0.023193,0.003869,75.305191,6.672562,-148.881409,,,
729860409.675879,-2.967197,-6.123874,-26.582073,0.11319,-0.056213,1.00293,0.035576,-0.023193,0.003869,75.305191,6.672562,-148.881409,,,
729860409.679254,-2.957291,-6.127386,-26.579837,0.11319,-0.056213,1.00293,0.035576,-0.023193,0.003869,75.18959,6.828842,-148.635513,,,
729860409.68254,-2.946979,-6.12811,-26.576969,0.116409,-0.055817,1.003555,0.039364,0.004672,0.005777,75.18959,6.828842,-148.635513,,,
729860409.685872,-2.946979,-6.12811,-26.576969,0.116409,-0.055817,1.003555,0.039364,0.004672,0.005777,75.18959,6.828842,-148.635513,,,
729860409.689208,-2.935652,-6.124046,-26.573068,0.116409,-0.055817,1.003555,0.039364,0.004672,0.005777,75.18959,6.828842,-148.635513,,,
729860409.692573,-2.925957,-6.118291,-26.568715,0.112701,-0.054001,1.002136,0.03422,0.024611,0.012457,75.18959,6.828842,-148.635513,,,
729860409.695872,-2.925957,-6.118291,-26.568715,0.112701,-0.054001,1.002136,0.03422,0.024611,0.012457,75.18959,6.828842,-148.635513,,,
729860409.69921,-2.917562,-6.110297,-26.563617,0.112701,-0.054001,1.002136,0.03422,0.024611,0.012457,75.18959,6.828842,-148.635513,,,
729860409.702542,-2.910865,-6.102777,-26.558043,0.111465,-0.052887,0.991119,0.025009,0.02954,0.015601,75.18959,6.828842,-148.635513,,,
729860409.705931,-2.910865,-6.102777,-26.558043,0.111465,-0.052887,0.991119,0.025009,0.02954,0.015601,75.18959,6.828842,-148.635513,,,
729860409.709211,-2.905749,-6.095048,-26.552695,0.111465,-0.052887,0.991119,0.025009,0.02954,0.015601,75.18959,6.828842,-148.635513,,,
729860409.712557,-2.903135,-6.090188,-26.548871,0.108765,-0.046661,0.976288,0.010064,0.015665,0.010171,75.18959,6.828842,-148.635513,,,
729860409.715877,-2.903135,-6.090188,-26.548871,0.108765,-0.046661,0.976288,0.010064,0.015665,0.010171,75.18959,6.828842,-148.635513,,,
729860409.719258,-2.901613,-6.08831,-26.54643,0.108765,-0.046661,0.976288,0.010064,0.015665,0.010171,75.339386,6.446442,-148.389496,,,
729860409.722536,-2.901342,-6.090243,-26.545614,0.113144,-0.044556,0.965546,0.002303,-0.008146,0.000919,75.339386,6.446442,-148.389496,,,
729860409.725905,-2.901342,-6.090243,-26.545614,0.113144,-0.044556,0.965546,0.002303,-0.008146,0.000919,75.339386,6.446442,-148.389496,,,
729860409.729211,-2.902107,-6.095563,-26.547483,0.113144,-0.044556,0.965546,0.002303,-0.008146,0.000919,75.339386,6.446442,-148.389496,,,
729860409.732545,-2.902848,-6.103884,-26.551577,0.114014,-0.044464,0.969208,-0.001443,-0.028233,-0.016178,75.339386,6.446442,-148.389496,,,
729860409.735891,-2.902848,-6.103884,-26.551577,0.114014,-0.044464,0.969208,-0.001443,-0.028233,-0.016178,75.339386,6.446442,-148.389496,,,
729860409.739218,-2.905309,-6.113823,-26.556895,0.114014,-0.044464,0.969208,-0.001443,-0.028233,-0.016178,75.339386,6.446442,-148.389496,,,
729860409.742549,-2.906894,-6.124055,-26.562634,0.112869,-0.044708,0.975586,-0.005554,-0.030401,-0.018661,75.339386,6.446442,-148.389496,,,
729860409.745949,-2.906894,-6.124055,-26.562634,0.112869,-0.044708,0.975586,-0.005554,-0.030401,-0.018661,75.339386,6.446442,-148.389496,,,
729860409.749222,-2.909624,-6.133433,-26.567794,0.112869,-0.044708,0.975586,-0.005554,-0.030401,-0.018661,75.339386,6.446442,-148.389496,,,
729860409.752546,-2.912039,-6.138237,-26.571355,0.105484,-0.050308,0.986862,-0.00701,-0.009649,-0.011113,75.339386,6.446442,-148.389496,,,
729860409.755891,-2.912039,-6.138237,-26.571355,0.105484,-0.050308,0.986862,-0.00701,-0.009649,-0.011113,75.339386,6.446442,-148.389496,,,
729860409.759246,-2.914906,-6.140159,-26.572838,0.105484,-0.050308,0.986862,-0.00701,-0.009649,-0.011113,75.501205,6.570587,-148.47818,,,
729860409.762544,-2.917024,-6.136026,-26.572584,0.101471,-0.052734,0.996857,-0.004363,0.020766,0.002133,75.501205,6.570587,-148.47818,,,
729860409.765895,-2.917024,-6.136026,-26.572584,0.101471,-0.052734,0.996857,-0.004363,0.020766,0.002133,75.501205,6.570587,-148.47818,,,
729860409.769214,-2.920356,-6.129417,-26.571211,0.101471,-0.052734,0.996857,-0.004363,0.020766,0.002133,75.501205,6.570587,-148.47818,,,
729860409.772548,-2.925425,-6.119883,-26.56955,0.102997,-0.050476,0.995987,-0.020658,0.038769,0.006175,75.501205,6.570587,-148.47818,,,
729860409.775879,-2.925425,-6.119883,-26.56955,0.102997,-0.050476,0.995987,-0.020658,0.038769,0.006175,75.501205,6.570587,-148.47818,,,
729860409.779225,-2.934133,-6.110742,-26.569125,0.102997,-0.050476,0.995987,-0.020658,0.038769,0.006175,75.501205,6.570587,-148.47818,,,
729860409.782562,-2.946177,-6.100896,-26.571036,0.107758,-0.041779,0.978912,-0.047682,0.036851,-0.008205,75.501205,6.570587,-148.47818,,,
729860409.785933,-2.946177,-6.100896,-26.571036,0.107758,-0.041779,0.978912,-0.047682,0.036851,-0.008205,75.501205,6.570587,-148.47818,,,
729860409.789219,-2.96213,-6.092305,-26.575838,0.107758,-0.041779,0.978912,-0.047682,0.036851,-0.008205,75.501205,6.570587,-148.47818,,,
729860409.792547,-2.982226,-6.084342,-26.582638,0.107956,-0.036789,0.967514,-0.076752,0.030211,-0.018523,75.501205,6.570587,-148.47818,,,
729860409.79589,-2.982226,-6.084342,-26.582638,0.107956,-0.036789,0.967514,-0.076752,0.030211,-0.018523,75.501205,6.570587,-148.47818,,,
729860409.799323,-3.005389,-6.080167,-26.590605,0.107956,-0.036789,0.967514,-0.076752,0.030211,-0.018523,75.501205,6.570587,-148.47818,,,
729860409.802547,-3.032982,-6.077279,-26.598475,0.101608,-0.041138,0.966003,-0.100887,0.009531,-0.01496,75.527298,6.657639,-148.409988,,,
729860409.805875,-3.032982,-6.077279,-26.598475,0.101608,-0.041138,0.966003,-0.100887,0.009531,-0.01496,75.527298,6.657639,-148.409988,,,
729860409.809238,-3.060665,-6.080877,-26.604983,0.101608,-0.041138,0.966003,-0.100887,0.009531,-0.01496,75.527298,6.657639,-148.409988,,,
729860409.812548,-3.088387,-6.086133,-26.609387,0.091537,-0.050369,0.975922,-0.096291,-0.018188,-0.005081,75.527298,6.657639,-148.409988,,,
729860409.815893,-3.088387,-6.086133,-26.609387,0.091537,-0.050369,0.975922,-0.096291,-0.018188,-0.005081,75.527298,6.657639,-148.409988,,,
729860409.819223,-3.111686,-6.096602,-26.612332,0.091537,-0.050369,0.975922,-0.096291,-0.018188,-0.005081,75.527298,6.657639,-148.409988,,,
729860409.822544,-3.132307,-6.106586,-26.613161,0.089722,-0.059235,0.992432,-0.065419,-0.034102,0.004756,75.527298,6.657639,-148.409988,,,
729860409.825947,-3.132307,-6.106586,-26.613161,0.089722,-0.059235,0.992432,-0.065419,-0.034102,0.004756,75.527298,6.657639,-148.409988,,,
729860409.829225,-3.146946,-6.117673,-26.611636,0.089722,-0.059235,0.992432,-0.065419,-0.034102,0.004756,75.527298,6.657639,-148.409988,,,
729860409.832545,-3.1573,-6.127044,-26.608554,0.093567,-0.065979,1.016739,-0.028488,-0.02888,0.011868,75.527298,6.657639,-148.409988,,,
729860409.835888,-3.1573,-6.127044,-26.608554,0.093567,-0.065979,1.016739,-0.028488,-0.02888,0.011868,75.527298,6.657639,-148.409988,,,
729860409.839273,-3.16228,-6.133026,-26.603605,0.093567,-0.065979,1.016739,-0.028488,-0.02888,0.011868,75.527298,6.657639,-148.409988,,,
729860409.842539,-3.163953,-6.137317,-26.596937,0.09964,-0.06752,1.023102,0.000316,-0.012512,0.021789,75.577011,6.675385,-148.306046,,,
729860409.845898,-3.163953,-6.137317,-26.596937,0.09964,-0.06752,1.023102,0.000316,-0.012512,0.021789,75.577011,6.675385,-148.306046,,,
729860409.849228,-3.162421,-6.13728,-26.589654,0.09964,-0.06752,1.023102,0.000316,-0.012512,0.021789,75.577011,6.675385,-148.306046,,,
729860409.852546,-3.160012,-6.133474,-26.58191,0.109711,-0.064224,1.016449,0.010057,0.016826,0.022305,75.577011,6.675385,-148.306046,,,
729860409.85588,-3.160012,-6.133474,-26.58191,0.109711,-0.064224,1.016449,0.010057,0.016826,0.022305,75.577011,6.675385,-148.306046,,,
729860409.859246,-3.156411,-6.125386,-26.574627,0.109711,-0.064224,1.016449,0.010057,0.016826,0.022305,75.577011,6.675385,-148.306046,,,
729860409.862549,-3.156139,-6.113868,-26.568572,0.118271,-0.057678,1.008453,0.003819,0.04567,0.019539,75.577011,6.675385,-148.306046,,,
729860409.865968,-3.156139,-6.113868,-26.568572,0.118271,-0.057678,1.008453,0.003819,0.04567,0.019539,75.577011,6.675385,-148.306046,,,
729860409.869237,-3.154477,-6.101096,-26.564064,0.118271,-0.057678,1.008453,0.003819,0.04567,0.019539,75.577011,6.675385,-148.306046,,,
729860409.872555,-3.156572,-6.086633,-26.560988,0.120514,-0.053085,0.996506,-0.006735,0.053423,0.010988,75.577011,6.675385,-148.306046,,,
729860409.875897,-3.156572,-6.086633,-26.560988,0.120514,-0.053085,0.996506,-0.006735,0.053423,0.010988,75.577011,6.675385,-148.306046,,,
729860409.879286,-3.157891,-6.074149,-26.559377,0.120514,-0.053085,0.996506,-0.006735,0.053423,0.010988,75.577011,6.675385,-148.306046,,,
729860409.882551,-3.162945,-6.064726,-26.559063,0.116074,-0.053101,0.985184,-0.019284,0.034976,0.001931,75.615402,6.705063,-148.060272,,,
729860409.885902,-3.162945,-6.064726,-26.559063,0.116074,-0.053101,0.985184,-0.019284,0.034976,0.001931,75.615402,6.705063,-148.060272,,,
729860409.889235,-3.167638,-6.05758,-26.559763,0.116074,-0.053101,0.985184,-0.019284,0.034976,0.001931,75.615402,6.705063,-148.060272,,,
729860409.892547,-3.172878,-6.057476,-26.561142,0.111176,-0.053345,0.97702,-0.018663,-0.001454,-0.004631,75.615402,6.705063,-148.060272,,,
729860409.8959,-3.172878,-6.057476,-26.561142,0.111176,-0.053345,0.97702,-0.018663,-0.001454,-0.004631,75.615402,6.705063,-148.060272,,,
729860409.899241,-3.177315,-6.059741,-26.562723,0.111176,-0.053345,0.97702,-0.018663,-0.001454,-0.004631,75.615402,6.705063,-148.060272,,,
729860409.902551,-3.180482,-6.069342,-26.564887,0.106918,-0.058563,0.981186,-0.013105,-0.036354,-0.007933,75.615402,6.705063,-148.060272,,,
729860409.905921,-3.180482,-6.069342,-26.564887,0.106918,-0.058563,0.981186,-0.013105,-0.036354,-0.007933,75.615402,6.705063,-148.060272,,,
729860409.909221,-3.182605,-6.080238,-26.566269,0.106918,-0.058563,0.981186,-0.013105,-0.036354,-0.007933,75.615402,6.705063,-148.060272,,,
729860409.912549,-3.180997,-6.096308,-26.567174,0.10553,-0.062393,0.98996,0.006469,-0.052895,-0.006217,75.615402,6.705063,-148.060272,,,
729860409.915901,-3.180997,-6.096308,-26.567174,0.10553,-0.062393,0.98996,0.006469,-0.052895,-0.006217,75.615402,6.705063,-148.060272,,,
729860409.919277,-3.177559,-6.110607,-26.567188,0.10553,-0.062393,0.98996,0.006469,-0.052895,-0.006217,75.615402,6.705063,-148.060272,,,
729860409.922542,-3.167553,-6.12654,-26.566515,0.108795,-0.068008,1.004974,0.039894,-0.050037,-0.003778,75.615402,6.705063,-148.060272,,,
729860409.925898,-3.167553,-6.12654,-26.566515,0.108795,-0.068008,1.004974,0.039894,-0.050037,-0.003778,75.445724,6.953583,-148.206863,,,
729860409.929217,-3.154756,-6.139714,-26.565656,0.108795,-0.068008,1.004974,0.039894,-0.050037,-0.003778,75.445724,6.953583,-148.206863,,,
729860409.932576,-3.137212,-6.150692,-26.564463,0.116013,-0.06813,1.014832,0.066524,-0.031992,-0.002661,75.445724,6.953583,-148.206863,,,
729860409.935896,-3.137212,-6.150692,-26.564463,0.116013,-0.06813,1.014832,0.066524,-0.031992,-0.002661,75.445724,6.953583,-148.206863,,,
729860409.939226,-3.117545,-6.15834,-26.563411,0.116013,-0.06813,1.014832,0.066524,-0.031992,-0.002661,75.445724,6.953583,-148.206863,,,
729860409.942547,-3.09531,-6.159312,-26.563231,0.122345,-0.064789,1.018677,0.081214,0.002398,-0.010838,75.445724,6.953583,-148.206863,,,
729860409.945948,-3.09531,-6.159312,-26.563231,0.122345,-0.064789,1.018677,0.081214,0.002398,-0.010838,75.445724,6.953583,-148.206863,,,
729860409.949225,-3.072947,-6.157054,-26.56395,0.122345,-0.064789,1.018677,0.081214,0.002398,-0.010838,75.445724,6.953583,-148.206863,,,
729860409.952553,-3.051534,-6.146963,-26.56602,0.120346,-0.057755,1.012375,0.071359,0.045511,-0.019795,75.445724,6.953583,-148.206863,,,
729860409.955879,-3.051534,-6.146963,-26.56602,0.120346,-0.057755,1.012375,0.071359,0.045511,-0.019795,75.445724,6.953583,-148.206863,,,
729860409.959252,-3.03181,-6.135745,-26.569497,0.120346,-0.057755,1.012375,0.071359,0.045511,-0.019795,75.445724,6.953583,-148.206863,,,
729860409.962544,-3.01479,-6.120654,-26.572812,0.115723,-0.052536,0.994629,0.05692,0.058172,-0.019499,75.445724,6.953583,-148.206863,,,
729860409.965878,-3.01479,-6.120654,-26.572812,0.115723,-0.052536,0.994629,0.05692,0.058172,-0.019499,75.446609,6.635086,-148.203522,,,
729860409.969224,-3.001414,-6.107347,-26.576149,0.115723,-0.052536,0.994629,0.05692,0.058172,-0.019499,75.446609,6.635086,-148.203522,,,
729860409.972553,-2.99138,-6.094562,-26.579176,0.103104,-0.051743,0.973541,0.032899,0.045354,-0.015414,75.446609,6.635086,-148.203522,,,
729860409.975892,-2.99138,-6.094562,-26.579176,0.103104,-0.051743,0.973541,0.032899,0.045354,-0.015414,75.446609,6.635086,-148.203522,,,
729860409.979245,-2.985699,-6.08664,-26.581682,0.103104,-0.051743,0.973541,0.032899,0.045354,-0.015414,75.446609,6.635086,-148.203522,,,
729860409.982546,-2.98409,-6.083561,-26.583824,0.091019,-0.047974,0.955841,3.4e-05,0.011059,-0.008663,75.446609,6.635086,-148.203522,,,
