Time (sec),Pitch (deg),Roll (deg),Yaw(deg),X-Acceleration (g),Y-Acceleration (g),Z-Acceleration (g),Pitch Rate (deg/sec),Roll Rate (deg/sec),Yaw Rate (deg/sec),Magnetic Field in X direction (uT),Magnetic Field in Y direction (uT),Magnetic Field in Z Direction (uT),Latitude (deg),Longitude (deg),Altitude (m)
729862827.481644,-1.517293,-2.646117,-161.786874,0.052292,-0.037888,1.006332,0.033952,0.033578,-0.010609,51.571274,32.382111,-142.529709,,,
729862827.484959,-1.507539,-2.637134,-161.788769,0.048218,-0.038757,0.998734,0.033952,0.033578,-0.010609,51.571274,32.382111,-142.529709,,,
729862827.488308,-1.507539,-2.637134,-161.788769,0.048218,-0.038757,0.998734,0.033952,0.033578,-0.010609,51.571274,32.382111,-142.529709,,,
729862827.49162,-1.499596,-2.628971,-161.790415,0.048218,-0.038757,0.998734,0.024636,0.034247,-0.008248,51.571274,32.382111,-142.529709,,,
729862827.494957,-1.492491,-2.619621,-161.79218,0.046494,-0.030334,0.990723,0.024636,0.034247,-0.008248,51.571274,32.382111,-142.529709,,,
729862827.498293,-1.492491,-2.619621,-161.79218,0.046494,-0.030334,0.990723,0.024636,0.034247,-0.008248,51.834885,32.245193,-142.694412,,,
729862827.501651,-1.488271,-2.612857,-161.794247,0.046494,-0.030334,0.990723,0.011794,0.016296,-0.012183,51.834885,32.245193,-142.694412,,,
729862827.50496,-1.484569,-2.60796,-161.79689,0.044449,-0.021362,0.977966,0.011794,0.016296,-0.012183,51.834885,32.245193,-142.694412,,,
729862827.508286,-1.484569,-2.60796,-161.79689,0.044449,-0.021362,0.977966,0.011794,0.016296,-0.012183,51.834885,32.245193,-142.694412,,,
729862827.51164,-1.485343,-2.606316,-161.80041,0.044449,-0.021362,0.977966,-0.012678,-0.000928,-0.017451,51.834885,32.245193,-142.694412,,,
729862827.51496,-1.487557,-2.607013,-161.804568,0.046783,-0.014496,0.967804,-0.012678,-0.000928,-0.017451,51.834885,32.245193,-142.694412,,,
729862827.518356,-1.487557,-2.607013,-161.804568,0.046783,-0.014496,0.967804,-0.012678,-0.000928,-0.017451,51.834885,32.245193,-142.694412,,,
729862827.521629,-1.494577,-2.609544,-161.809599,0.046783,-0.014496,0.967804,-0.028424,-0.01229,-0.01621,51.834885,32.245193,-142.694412,,,
729862827.525015,-1.501615,-2.613405,-161.814895,0.047241,-0.014969,0.968719,-0.028424,-0.01229,-0.01621,51.834885,32.245193,-142.694412,,,
729862827.528042,-1.501615,-2.613405,-161.814895,0.047241,-0.014969,0.968719,-0.028424,-0.01229,-0.01621,51.834885,32.245193,-142.694412,,,
729862827.53173,-1.514956,-2.617784,-161.819323,0.047241,-0.014969,0.968719,-0.037691,-0.013368,-0.006288,51.834885,32.245193,-142.694412,,,
729862827.535026,-1.525457,-2.621919,-161.821841,0.039078,-0.018677,0.973526,-0.037691,-0.013368,-0.006288,51.834885,32.245193,-142.694412,,,
729862827.538314,-1.525457,-2.621919,-161.821841,0.039078,-0.018677,0.973526,-0.037691,-0.013368,-0.006288,51.834885,32.245193,-142.694412,,,
729862827.541655,-1.541525,-2.627684,-161.82189,0.039078,-0.018677,0.973526,-0.038743,-0.010092,0.006863,51.898956,32.218597,-142.628937,,,
729862827.544957,-1.553472,-2.631144,-161.820076,0.034103,-0.021652,0.978806,-0.038743,-0.010092,0.006863,51.898956,32.218597,-142.628937,,,
729862827.548325,-1.553472,-2.631144,-161.820076,0.034103,-0.021652,0.978806,-0.038743,-0.010092,0.006863,51.898956,32.218597,-142.628937,,,
729862827.551628,-1.568527,-2.635083,-161.817096,0.034103,-0.021652,0.978806,-0.036603,0.001211,0.013355,51.898956,32.218597,-142.628937,,,
729862827.554961,-1.579576,-2.635643,-161.813413,0.041336,-0.024155,0.992081,-0.036603,0.001211,0.013355,51.898956,32.218597,-142.628937,,,
729862827.558408,-1.579576,-2.635643,-161.813413,0.041336,-0.024155,0.992081,-0.036603,0.001211,0.013355,51.898956,32.218597,-142.628937,,,
729862827.561632,-1.590299,-2.636313,-161.809678,0.041336,-0.024155,0.992081,-0.008817,0.001599,0.007848,51.898956,32.218597,-142.628937,,,
729862827.565012,-1.594364,-2.636491,-161.806776,0.054733,-0.025177,1.008392,-0.008817,0.001599,0.007848,51.898956,32.218597,-142.628937,,,
729862827.568292,-1.594364,-2.636491,-161.806776,0.054733,-0.025177,1.008392,-0.008817,0.001599,0.007848,51.898956,32.218597,-142.628937,,,
729862827.571732,-1.594731,-2.638544,-161.805566,0.054733,-0.025177,1.008392,0.029522,-0.007732,-0.005139,51.898956,32.218597,-142.628937,,,
729862827.574965,-1.587693,-2.641228,-161.805893,0.057877,-0.023224,1.018539,0.029522,-0.007732,-0.005139,51.898956,32.218597,-142.628937,,,
729862827.578318,-1.587693,-2.641228,-161.805893,0.057877,-0.023224,1.018539,0.029522,-0.007732,-0.005139,51.898956,32.218597,-142.628937,,,
729862827.581647,-1.57673,-2.645192,-161.806684,0.057877,-0.023224,1.018539,0.049373,-0.013151,-0.005474,51.767197,32.172318,-142.7677,,,
729862827.584961,-1.563179,-2.650022,-161.80723,0.048309,-0.023178,1.011703,0.049373,-0.013151,-0.005474,51.767197,32.172318,-142.7677,,,
729862827.588311,-1.563179,-2.650022,-161.80723,0.048309,-0.023178,1.011703,0.049373,-0.013151,-0.005474,51.767197,32.172318,-142.7677,,,
729862827.591629,-1.548228,-2.653662,-161.807711,0.048309,-0.023178,1.011703,0.039255,-0.001072,-0.000491,51.767197,32.172318,-142.7677,,,
729862827.594963,-1.537072,-2.655326,-161.807671,0.046402,-0.019943,0.997925,0.039255,-0.001072,-0.000491,51.767197,32.172318,-142.7677,,,
729862827.598284,-1.537072,-2.655326,-161.807671,0.046402,-0.019943,0.997925,0.039255,-0.001072,-0.000491,51.767197,32.172318,-142.7677,,,
729862827.601627,-1.52517,-2.65452,-161.807247,0.046402,-0.019943,0.997925,0.017245,0.017392,-0.004932,51.767197,32.172318,-142.7677,,,
729862827.604957,-1.519301,-2.650498,-161.807458,0.048691,-0.014755,0.988632,0.017245,0.017392,-0.004932,51.767197,32.172318,-142.7677,,,
729862827.608288,-1.519301,-2.650498,-161.807458,0.048691,-0.014755,0.988632,0.017245,0.017392,-0.004932,51.767197,32.172318,-142.7677,,,
729862827.611722,-1.516365,-2.645412,-161.808873,0.048691,-0.014755,0.988632,-0.01808,0.026206,-0.007948,51.767197,32.172318,-142.7677,,,
729862827.614954,-1.520415,-2.638662,-161.811283,0.046005,-0.011017,0.977371,-0.01808,0.026206,-0.007948,51.767197,32.172318,-142.7677,,,
729862827.618307,-1.520415,-2.638662,-161.811283,0.046005,-0.011017,0.977371,-0.01808,0.026206,-0.007948,51.767197,32.172318,-142.7677,,,
729862827.621645,-1.526463,-2.628278,-161.814301,0.046005,-0.011017,0.977371,-0.032956,0.040188,-0.011311,51.699768,32.159012,-142.68042,,,
729862827.624995,-1.535443,-2.618381,-161.817441,0.037918,-0.020401,0.989777,-0.032956,0.040188,-0.011311,51.699768,32.159012,-142.68042,,,
729862827.628298,-1.535443,-2.618381,-161.817441,0.037918,-0.020401,0.989777,-0.032956,0.040188,-0.011311,51.699768,32.159012,-142.68042,,,
729862827.631635,-1.543722,-2.605196,-161.819387,0.037918,-0.020401,0.989777,-0.023057,0.034053,-0.005166,51.699768,32.159012,-142.68042,,,
729862827.634957,-1.551017,-2.59576,-161.820121,0.034485,-0.03096,1.006195,-0.023057,0.034053,-0.005166,51.699768,32.159012,-142.68042,,,
729862827.63835,-1.551017,-2.59576,-161.820121,0.034485,-0.03096,1.006195,-0.023057,0.034053,-0.005166,51.699768,32.159012,-142.68042,,,
729862827.641618,-1.554338,-2.588228,-161.820922,0.034485,-0.03096,1.006195,0.00433,0.015126,-0.00658,51.699768,32.159012,-142.68042,,,
729862827.644961,-1.554754,-2.583606,-161.822292,0.038651,-0.035583,1.011795,0.00433,0.015126,-0.00658,51.699768,32.159012,-142.68042,,,
729862827.648301,-1.554754,-2.583606,-161.822292,0.038651,-0.035583,1.011795,0.00433,0.015126,-0.00658,51.699768,32.159012,-142.68042,,,
729862827.651524,-1.550769,-2.585812,-161.824324,0.038651,-0.035583,1.011795,0.023197,-0.011803,-0.010267,51.699768,32.159012,-142.68042,,,
729862827.654977,-1.544789,-2.588639,-161.826702,0.0383,-0.033493,1.010605,0.023197,-0.011803,-0.010267,51.699768,32.159012,-142.68042,,,
729862827.658313,-1.544789,-2.588639,-161.826702,0.0383,-0.033493,1.010605,0.023197,-0.011803,-0.010267,51.699768,32.159012,-142.68042,,,
729862827.661635,-1.536672,-2.59615,-161.82883,0.0383,-0.033493,1.010605,0.029959,-0.017933,-0.007252,51.597626,32.340652,-142.441895,,,
729862827.664961,-1.528293,-2.601837,-161.830283,0.040421,-0.03125,1.003616,0.029959,-0.017933,-0.007252,51.597626,32.340652,-142.441895,,,
729862827.668304,-1.528293,-2.601837,-161.830283,0.040421,-0.03125,1.003616,0.029959,-0.017933,-0.007252,51.597626,32.340652,-142.441895,,,
729862827.671638,-1.518436,-2.607169,-161.831273,0.040421,-0.03125,1.003616,0.031517,-0.010215,-0.004288,51.597626,32.340652,-142.441895,,,
729862827.67496,-1.509658,-2.611307,-161.831797,0.044373,-0.028809,1.000305,0.031517,-0.010215,-0.004288,51.597626,32.340652,-142.441895,,,
729862827.678372,-1.509658,-2.611307,-161.831797,0.044373,-0.028809,1.000305,0.031517,-0.010215,-0.004288,51.597626,32.340652,-142.441895,,,
729862827.681637,-1.499235,-2.613414,-161.832165,0.044373,-0.028809,1.000305,0.033639,0.004955,-0.002318,51.597626,32.340652,-142.441895,,,
729862827.684958,-1.490496,-2.611862,-161.832537,0.047302,-0.024857,1.001266,0.033639,0.004955,-0.002318,51.597626,32.340652,-142.441895,,,
729862827.688316,-1.490496,-2.611862,-161.832537,0.047302,-0.024857,1.001266,0.033639,0.004955,-0.002318,51.597626,32.340652,-142.441895,,,
729862827.69162,-1.478007,-2.608377,-161.832074,0.047302,-0.024857,1.001266,0.040824,0.03035,0.002513,51.597626,32.340652,-142.441895,,,
729862827.694954,-1.466521,-2.601297,-161.830345,0.044861,-0.02652,1.006332,0.040824,0.03035,0.002513,51.597626,32.340652,-142.441895,,,
729862827.698301,-1.466521,-2.601297,-161.830345,0.044861,-0.02652,1.006332,0.040824,0.03035,0.002513,51.597626,32.340652,-142.441895,,,
729862827.701637,-1.451301,-2.591801,-161.828181,0.044861,-0.02652,1.006332,0.044502,0.04004,0.002561,51.597626,32.340652,-142.441895,,,
729862827.704954,-1.439211,-2.580595,-161.826035,0.045303,-0.023682,1.002762,0.044502,0.04004,0.002561,51.450546,32.283264,-142.460037,,,
729862827.708315,-1.439211,-2.580595,-161.826035,0.045303,-0.023682,1.002762,0.044502,0.04004,0.002561,51.450546,32.283264,-142.460037,,,
729862827.711672,-1.427732,-2.567322,-161.824528,0.045303,-0.023682,1.002762,0.031704,0.038597,-0.001999,51.450546,32.283264,-142.460037,,,
729862827.715091,-1.418148,-2.557348,-161.823923,0.044861,-0.015076,0.988373,0.031704,0.038597,-0.001999,51.450546,32.283264,-142.460037,,,
729862827.718317,-1.418148,-2.557348,-161.823923,0.044861,-0.015076,0.988373,0.031704,0.038597,-0.001999,51.450546,32.283264,-142.460037,,,
729862827.721656,-1.413306,-2.546897,-161.823926,0.044861,-0.015076,0.988373,0.009438,0.011866,-0.002553,51.450546,32.283264,-142.460037,,,
729862827.72507,-1.409998,-2.542529,-161.824349,0.041672,-0.014313,0.974045,0.009438,0.011866,-0.002553,51.450546,32.283264,-142.460037,,,
729862827.728359,-1.409998,-2.542529,-161.824349,0.041672,-0.014313,0.974045,0.009438,0.011866,-0.002553,51.450546,32.283264,-142.460037,,,
729862827.731641,-1.411806,-2.540893,-161.82486,0.041672,-0.014313,0.974045,-0.009574,-0.014913,-0.005406,51.450546,32.283264,-142.460037,,,
729862827.734976,-1.414623,-2.544594,-161.825618,0.037003,-0.013046,0.967453,-0.009574,-0.014913,-0.005406,51.450546,32.283264,-142.460037,,,
729862827.738317,-1.414623,-2.544594,-161.825618,0.037003,-0.013046,0.967453,-0.009574,-0.014913,-0.005406,51.450546,32.283264,-142.460037,,,
729862827.741638,-1.421463,-2.55012,-161.825788,0.037003,-0.013046,0.967453,-0.021556,-0.030951,-0.000713,51.450546,32.283264,-142.460037,,,
729862827.744967,-1.427594,-2.559475,-161.825508,0.038559,-0.016251,0.977005,-0.021556,-0.030951,-0.000713,51.451065,32.349213,-142.509613,,,
729862827.74831,-1.427594,-2.559475,-161.825508,0.038559,-0.016251,0.977005,-0.021556,-0.030951,-0.000713,51.451065,32.349213,-142.509613,,,
729862827.751634,-1.435506,-2.569166,-161.825156,0.038559,-0.016251,0.977005,-0.02252,-0.034199,0.004539,51.451065,32.349213,-142.509613,,,
729862827.754965,-1.442208,-2.579594,-161.824071,0.041428,-0.019806,0.989655,-0.02252,-0.034199,0.004539,51.451065,32.349213,-142.509613,,,
729862827.758291,-1.442208,-2.579594,-161.824071,0.041428,-0.019806,0.989655,-0.02252,-0.034199,0.004539,51.451065,32.349213,-142.509613,,,
729862827.761663,-1.448452,-2.588349,-161.822226,0.041428,-0.019806,0.989655,-0.013023,-0.019729,0.006036,51.451065,32.349213,-142.509613,,,
729862827.764969,-1.452566,-2.594935,-161.820193,0.045303,-0.026138,1.005783,-0.013023,-0.019729,0.006036,51.451065,32.349213,-142.509613,,,
729862827.768356,-1.452566,-2.594935,-161.820193,0.045303,-0.026138,1.005783,-0.013023,-0.019729,0.006036,51.451065,32.349213,-142.509613,,,
729862827.771636,-1.454954,-2.600003,-161.818246,0.045303,-0.026138,1.005783,0.00715,-0.000959,0.007134,51.451065,32.349213,-142.509613,,,
729862827.774967,-1.454632,-2.601928,-161.816036,0.047379,-0.029312,1.017197,0.00715,-0.000959,0.007134,51.451065,32.349213,-142.509613,,,
729862827.778288,-1.454632,-2.601928,-161.816036,0.047379,-0.029312,1.017197,0.00715,-0.000959,0.007134,51.451065,32.349213,-142.509613,,,
729862827.78172,-1.451177,-2.600398,-161.813107,0.047379,-0.029312,1.017197,0.019808,0.02283,0.010196,51.451065,32.349213,-142.509613,,,
729862827.78495,-1.445529,-2.595695,-161.809705,0.048569,-0.030716,1.01825,0.019808,0.02283,0.010196,51.563187,32.204865,-142.192673,,,
729862827.788311,-1.445529,-2.595695,-161.809705,0.048569,-0.030716,1.01825,0.019808,0.02283,0.010196,51.563187,32.204865,-142.192673,,,
729862827.791624,-1.437892,-2.587778,-161.80591,0.048569,-0.030716,1.01825,0.030681,0.038969,0.012714,51.563187,32.204865,-142.192673,,,
729862827.794957,-1.430226,-2.577764,-161.801677,0.044586,-0.031631,1.011902,0.030681,0.038969,0.012714,51.563187,32.204865,-142.192673,,,
729862827.798304,-1.430226,-2.577764,-161.801677,0.044586,-0.031631,1.011902,0.030681,0.038969,0.012714,51.563187,32.204865,-142.192673,,,
729862827.801635,-1.419623,-2.567414,-161.797058,0.044586,-0.031631,1.011902,0.029022,0.033225,0.014644,51.563187,32.204865,-142.192673,,,
729862827.804956,-1.41117,-2.558414,-161.792191,0.044357,-0.027939,0.995407,0.029022,0.033225,0.014644,51.563187,32.204865,-142.192673,,,
729862827.80829,-1.41117,-2.558414,-161.792191,0.044357,-0.027939,0.995407,0.029022,0.033225,0.014644,51.563187,32.204865,-142.192673,,,
729862827.811634,-1.401461,-2.550684,-161.787465,0.044357,-0.027939,0.995407,0.022507,0.017637,0.009725,51.563187,32.204865,-142.192673,,,
729862827.814962,-1.395175,-2.545846,-161.78356,0.043594,-0.025452,0.985504,0.022507,0.017637,0.009725,51.563187,32.204865,-142.192673,,,
729862827.81829,-1.395175,-2.545846,-161.78356,0.043594,-0.025452,0.985504,0.022507,0.017637,0.009725,51.563187,32.204865,-142.192673,,,
729862827.821708,-1.387325,-2.542241,-161.780214,0.043594,-0.025452,0.985504,0.018951,-0.004451,0.011374,51.563187,32.204865,-142.192673,,,
729862827.824957,-1.382078,-2.543114,-161.776531,0.04129,-0.026474,0.983719,0.018951,-0.004451,0.011374,51.439163,32.2146,-142.365265,,,
729862827.828301,-1.382078,-2.543114,-161.776531,0.04129,-0.026474,0.983719,0.018951,-0.004451,0.011374,51.439163,32.2146,-142.365265,,,
729862827.831644,-1.375797,-2.544758,-161.772869,0.04129,-0.026474,0.983719,0.018792,-0.009417,0.00602,51.439163,32.2146,-142.365265,,,
729862827.834953,-1.371026,-2.548073,-161.770053,0.04451,-0.022751,0.985626,0.018792,-0.009417,0.00602,51.439163,32.2146,-142.365265,,,
729862827.838294,-1.371026,-2.548073,-161.770053,0.04451,-0.022751,0.985626,0.018792,-0.009417,0.00602,51.439163,32.2146,-142.365265,,,
729862827.841625,-1.365344,-2.550812,-161.767735,0.04451,-0.022751,0.985626,0.017936,-0.00308,0.003356,51.439163,32.2146,-142.365265,,,
729862827.844958,-1.360241,-2.552923,-161.766019,0.047791,-0.021317,0.986618,0.017936,-0.00308,0.003356,51.439163,32.2146,-142.365265,,,
729862827.848374,-1.360241,-2.552923,-161.766019,0.047791,-0.021317,0.986618,0.017936,-0.00308,0.003356,51.439163,32.2146,-142.365265,,,
729862827.85164,-1.356556,-2.553409,-161.764482,0.047791,-0.021317,0.986618,0.010329,0.0068,0.005813,51.439163,32.2146,-142.365265,,,
729862827.854962,-1.353664,-2.552124,-161.762877,0.048401,-0.02359,0.987213,0.010329,0.0068,0.005813,51.439163,32.2146,-142.365265,,,
729862827.85829,-1.353664,-2.552124,-161.762877,0.048401,-0.02359,0.987213,0.010329,0.0068,0.005813,51.439163,32.2146,-142.365265,,,
729862827.86164,-1.353903,-2.550216,-161.761455,0.048401,-0.02359,0.987213,-0.004086,0.020545,0.004102,51.439163,32.2146,-142.365265,,,
729862827.864962,-1.354421,-2.545994,-161.759612,0.044769,-0.019852,0.983032,-0.004086,0.020545,0.004102,51.439163,32.2146,-142.365265,,,
729862827.868068,-1.354421,-2.545994,-161.759612,0.044769,-0.019852,0.983032,-0.004086,0.020545,0.004102,51.518402,32.223099,-142.395065,,,
729862827.871732,-1.358672,-2.540542,-161.757558,0.044769,-0.019852,0.983032,-0.020452,0.02517,0.003963,51.518402,32.223099,-142.395065,,,
729862827.874973,-1.364412,-2.533883,-161.755848,0.042908,-0.020111,0.983093,-0.020452,0.02517,0.003963,51.518402,32.223099,-142.395065,,,
729862827.878321,-1.364412,-2.533883,-161.755848,0.042908,-0.020111,0.983093,-0.020452,0.02517,0.003963,51.518402,32.223099,-142.395065,,,
729862827.881653,-1.373682,-2.527733,-161.754169,0.042908,-0.020111,0.983093,-0.032816,0.020347,0.005692,51.518402,32.223099,-142.395065,,,
729862827.884959,-1.382948,-2.522533,-161.752637,0.036911,-0.023361,0.986786,-0.032816,0.020347,0.005692,51.518402,32.223099,-142.395065,,,
729862827.888371,-1.382948,-2.522533,-161.752637,0.036911,-0.023361,0.986786,-0.032816,0.020347,0.005692,51.518402,32.223099,-142.395065,,,
729862827.89162,-1.39314,-2.517929,-161.75114,0.036911,-0.023361,0.986786,-0.02825,0.012317,0.007048,51.518402,32.223099,-142.395065,,,
729862827.894966,-1.401407,-2.514282,-161.748833,0.036591,-0.029968,0.999252,-0.02825,0.012317,0.007048,51.518402,32.223099,-142.395065,,,
729862827.898312,-1.401407,-2.514282,-161.748833,0.036591,-0.029968,0.999252,-0.02825,0.012317,0.007048,51.518402,32.223099,-142.395065,,,
729862827.901693,-1.408372,-2.511622,-161.746359,0.036591,-0.029968,0.999252,-0.012836,0.008376,0.003543,51.518402,32.223099,-142.395065,,,
729862827.90496,-1.412566,-2.509845,-161.744262,0.042236,-0.030792,1.01033,-0.012836,0.008376,0.003543,51.518402,32.223099,-142.395065,,,
729862827.908295,-1.412566,-2.509845,-161.744262,0.042236,-0.030792,1.01033,-0.012836,0.008376,0.003543,51.599548,32.248779,-142.412308,,,
729862827.91162,-1.414415,-2.509195,-161.741951,0.042236,-0.030792,1.01033,0.004011,0.002974,0.008836,51.599548,32.248779,-142.412308,,,
729862827.915,-1.41415,-2.508993,-161.738865,0.041397,-0.030899,1.0121,0.004011,0.002974,0.008836,51.599548,32.248779,-142.412308,,,
729862827.918305,-1.41415,-2.508993,-161.738865,0.041397,-0.030899,1.0121,0.004011,0.002974,0.008836,51.599548,32.248779,-142.412308,,,
729862827.921689,-1.411396,-2.508803,-161.734991,0.041397,-0.030899,1.0121,0.015202,0.00837,0.017312,51.599548,32.248779,-142.412308,,,
729862827.924956,-1.408,-2.50678,-161.729977,0.036926,-0.029755,1.012848,0.015202,0.00837,0.017312,51.599548,32.248779,-142.412308,,,
729862827.928353,-1.408,-2.50678,-161.729977,0.036926,-0.029755,1.012848,0.015202,0.00837,0.017312,51.599548,32.248779,-142.412308,,,
729862827.931627,-1.403536,-2.50577,-161.723494,0.036926,-0.029755,1.012848,0.013966,0.007192,0.020398,51.599548,32.248779,-142.412308,,,
729862827.93496,-1.399433,-2.503873,-161.716865,0.039291,-0.02623,1.004028,0.013966,0.007192,0.020398,51.599548,32.248779,-142.412308,,,
729862827.938298,-1.399433,-2.503873,-161.716865,0.039291,-0.02623,1.004028,0.013966,0.007192,0.020398,51.599548,32.248779,-142.412308,,,
729862827.941625,-1.396085,-2.504035,-161.711119,0.039291,-0.02623,1.004028,0.007451,0.000168,0.015471,51.599548,32.248779,-142.412308,,,
729862827.944956,-1.394242,-2.503852,-161.706407,0.045944,-0.018005,0.990234,0.007451,0.000168,0.015471,51.599548,32.248779,-142.412308,,,
729862827.948291,-1.394242,-2.503852,-161.706407,0.045944,-0.018005,0.990234,0.007451,0.000168,0.015471,51.573151,32.21286,-142.51123,,,
729862827.951624,-1.393638,-2.504627,-161.702456,0.045944,-0.018005,0.990234,-0.012659,-5.7e-05,0.014084,51.573151,32.21286,-142.51123,,,
729862827.954956,-1.396854,-2.505324,-161.698258,0.049423,-0.018616,0.988876,-0.012659,-5.7e-05,0.014084,51.573151,32.21286,-142.51123,,,
729862827.958289,-1.396854,-2.505324,-161.698258,0.049423,-0.018616,0.988876,-0.012659,-5.7e-05,0.014084,51.573151,32.21286,-142.51123,,,
729862827.961626,-1.401231,-2.505004,-161.693234,0.049423,-0.018616,0.988876,-0.014869,0.008214,0.023522,51.573151,32.21286,-142.51123,,,
729862827.964957,-1.406549,-2.503983,-161.686955,0.047653,-0.02446,0.99556,-0.014869,0.008214,0.023522,51.573151,32.21286,-142.51123,,,
729862827.968376,-1.406549,-2.503983,-161.686955,0.047653,-0.02446,0.99556,-0.014869,0.008214,0.023522,51.573151,32.21286,-142.51123,,,
729862827.971646,-1.411443,-2.500111,-161.680254,0.047653,-0.02446,0.99556,-0.01041,0.012918,0.014596,51.573151,32.21286,-142.51123,,,
729862827.974965,-1.414771,-2.496812,-161.674904,0.05397,-0.024078,1.003983,-0.01041,0.012918,0.014596,51.573151,32.21286,-142.51123,,,
729862827.978309,-1.414771,-2.496812,-161.674904,0.05397,-0.024078,1.003983,-0.01041,0.012918,0.014596,51.573151,32.21286,-142.51123,,,
729862827.981694,-1.418409,-2.491838,-161.671584,0.05397,-0.024078,1.003983,-0.00452,0.01128,0.00186,51.573151,32.21286,-142.51123,,,
729862827.984996,-1.420465,-2.488912,-161.670434,0.061523,-0.020828,1.001877,-0.00452,0.01128,0.00186,51.573151,32.21286,-142.51123,,,
729862827.988352,-1.420465,-2.488912,-161.670434,0.061523,-0.020828,1.001877,-0.00452,0.01128,0.00186,51.573151,32.21286,-142.51123,,,
729862827.991627,-1.423036,-2.486076,-161.670958,0.061523,-0.020828,1.001877,0.000305,0.006078,-0.003738,51.684158,32.109604,-142.606979,,,
729862827.994965,-1.423523,-2.484071,-161.672047,0.056717,-0.022125,0.997604,0.000305,0.006078,-0.003738,51.684158,32.109604,-142.606979,,,
729862827.998306,-1.423523,-2.484071,-161.672047,0.056717,-0.022125,0.997604,0.000305,0.006078,-0.003738,51.684158,32.109604,-142.606979,,,
729862828.001525,-1.424192,-2.481911,-161.672688,0.056717,-0.022125,0.997604,0.006672,0.002364,-0.001988,51.684158,32.109604,-142.606979,,,
729862828.005007,-1.422768,-2.482179,-161.67307,0.048981,-0.026367,0.997467,0.006672,0.002364,-0.001988,51.684158,32.109604,-142.606979,,,
729862828.008296,-1.422768,-2.482179,-161.67307,0.048981,-0.026367,0.997467,0.006672,0.002364,-0.001988,51.684158,32.109604,-142.606979,,,
729862828.011641,-1.42236,-2.482199,-161.67306,0.048981,-0.026367,0.997467,0.002768,-0.010019,-0.002778,51.684158,32.109604,-142.606979,,,
729862828.014999,-1.421942,-2.485262,-161.67334,0.05101,-0.022552,0.991653,0.002768,-0.010019,-0.002778,51.684158,32.109604,-142.606979,,,
729862828.018401,-1.421942,-2.485262,-161.67334,0.05101,-0.022552,0.991653,0.002768,-0.010019,-0.002778,51.684158,32.109604,-142.606979,,,
729862828.02165,-1.42225,-2.488351,-161.674633,0.05101,-0.022552,0.991653,-0.001672,-0.014781,-0.009942,51.684158,32.109604,-142.606979,,,
729862828.02505,-1.422898,-2.492921,-161.676821,0.056122,-0.020279,0.994537,-0.001672,-0.014781,-0.009942,51.684158,32.109604,-142.606979,,,
729862828.028289,-1.422898,-2.492921,-161.676821,0.056122,-0.020279,0.994537,-0.001672,-0.014781,-0.009942,51.684158,32.109604,-142.606979,,,
729862828.031699,-1.420957,-2.49988,-161.680131,0.056122,-0.020279,0.994537,0.006258,-0.019182,-0.018443,51.782745,32.083603,-142.263535,,,
729862828.035013,-1.420092,-2.505818,-161.684618,0.055374,-0.025253,1.003296,0.006258,-0.019182,-0.018443,51.782745,32.083603,-142.263535,,,
729862828.038295,-1.420092,-2.505818,-161.684618,0.055374,-0.025253,1.003296,0.006258,-0.019182,-0.018443,51.782745,32.083603,-142.263535,,,
729862828.041625,-1.417244,-2.511935,-161.689573,0.055374,-0.025253,1.003296,0.013363,-0.003694,-0.01597,51.782745,32.083603,-142.263535,,,
729862828.044972,-1.414563,-2.514197,-161.694005,0.04985,-0.031479,1.012405,0.013363,-0.003694,-0.01597,51.782745,32.083603,-142.263535,,,
729862828.048306,-1.414563,-2.514197,-161.694005,0.04985,-0.031479,1.012405,0.013363,-0.003694,-0.01597,51.782745,32.083603,-142.263535,,,
729862828.051638,-1.41198,-2.51398,-161.697413,0.04985,-0.031479,1.012405,0.009299,0.023013,-0.007261,51.782745,32.083603,-142.263535,,,
729862828.054964,-1.409275,-2.509166,-161.699531,0.045685,-0.032623,1.011887,0.009299,0.023013,-0.007261,51.782745,32.083603,-142.263535,,,
729862828.058294,-1.409275,-2.509166,-161.699531,0.045685,-0.032623,1.011887,0.009299,0.023013,-0.007261,51.782745,32.083603,-142.263535,,,
729862828.06163,-1.40609,-2.506101,-161.701068,0.045685,-0.032623,1.011887,0.003086,0.02337,-0.00774,51.782745,32.083603,-142.263535,,,
729862828.064957,-1.404078,-2.500373,-161.702816,0.047058,-0.029755,0.998581,0.003086,0.02337,-0.00774,51.782745,32.083603,-142.263535,,,
729862828.068327,-1.404078,-2.500373,-161.702816,0.047058,-0.029755,0.998581,0.003086,0.02337,-0.00774,51.782745,32.083603,-142.263535,,,
729862828.071627,-1.403261,-2.499945,-161.705726,0.047058,-0.029755,0.998581,-0.01025,0.024603,-0.0165,51.672531,32.269379,-142.221207,,,
729862828.074965,-1.405532,-2.49453,-161.709479,0.049622,-0.021622,0.984894,-0.01025,0.024603,-0.0165,51.672531,32.269379,-142.221207,,,
729862828.078312,-1.405532,-2.49453,-161.709479,0.049622,-0.021622,0.984894,-0.01025,0.024603,-0.0165,51.672531,32.269379,-142.221207,,,
729862828.081705,-1.408939,-2.489983,-161.71343,0.049622,-0.021622,0.984894,-0.018576,0.03792,-0.0108,51.672531,32.269379,-142.221207,,,
729862828.08497,-1.413603,-2.480369,-161.717139,0.043396,-0.025772,0.987534,-0.018576,0.03792,-0.0108,51.672531,32.269379,-142.221207,,,
729862828.088302,-1.413603,-2.480369,-161.717139,0.043396,-0.025772,0.987534,-0.018576,0.03792,-0.0108,51.672531,32.269379,-142.221207,,,
729862828.091623,-1.418849,-2.470961,-161.72022,0.043396,-0.025772,0.987534,-0.010875,0.038907,-0.005581,51.672531,32.269379,-142.221207,,,
729862828.094997,-1.422408,-2.460683,-161.722028,0.034866,-0.029785,0.989517,-0.010875,0.038907,-0.005581,51.672531,32.269379,-142.221207,,,
729862828.098303,-1.422408,-2.460683,-161.722028,0.034866,-0.029785,0.989517,-0.010875,0.038907,-0.005581,51.672531,32.269379,-142.221207,,,
729862828.101654,-1.424319,-2.454075,-161.723249,0.034866,-0.029785,0.989517,-0.01421,0.025791,-0.009949,51.672531,32.269379,-142.221207,,,
729862828.105002,-1.427427,-2.44749,-161.72527,0.037354,-0.025681,0.9814,-0.01421,0.025791,-0.009949,51.672531,32.269379,-142.221207,,,
729862828.1083,-1.427427,-2.44749,-161.72527,0.037354,-0.025681,0.9814,-0.01421,0.025791,-0.009949,51.672531,32.269379,-142.221207,,,
729862828.111629,-1.430182,-2.447221,-161.729115,0.037354,-0.025681,0.9814,-0.015575,0.009566,-0.020405,51.606186,32.30722,-142.405716,,,
729862828.115045,-1.434319,-2.445368,-161.73422,0.039642,-0.018463,0.97261,-0.015575,0.009566,-0.020405,51.606186,32.30722,-142.405716,,,
729862828.118326,-1.434319,-2.445368,-161.73422,0.039642,-0.018463,0.97261,-0.015575,0.009566,-0.020405,51.606186,32.30722,-142.405716,,,
729862828.121638,-1.439703,-2.448488,-161.739861,0.039642,-0.018463,0.97261,-0.014794,-0.004209,-0.0199,51.606186,32.30722,-142.405716,,,
729862828.125008,-1.439703,-2.448488,-161.739861,0.039642,-0.018463,0.97261,-0.014794,-0.004209,-0.0199,51.606186,32.30722,-142.405716,,,
729862828.128307,-1.444485,-2.450347,-161.74541,0.035477,-0.023132,0.972488,-0.014794,-0.004209,-0.0199,51.606186,32.30722,-142.405716,,,
729862828.131635,-1.450103,-2.45381,-161.75066,0.035477,-0.023132,0.972488,-0.014271,-0.004769,-0.015487,51.606186,32.30722,-142.405716,,,
729862828.135066,-1.454081,-2.455904,-161.754962,0.033707,-0.027634,0.979385,-0.014271,-0.004769,-0.015487,51.606186,32.30722,-142.405716,,,
729862828.138305,-1.454081,-2.455904,-161.754962,0.033707,-0.027634,0.979385,-0.014271,-0.004769,-0.015487,51.606186,32.30722,-142.405716,,,
729862828.141627,-1.459717,-2.457634,-161.758205,0.033707,-0.027634,0.979385,-0.011351,0.005681,-0.006041,51.606186,32.30722,-142.405716,,,
729862828.144961,-1.459717,-2.457634,-161.758205,0.033707,-0.027634,0.979385,-0.011351,0.005681,-0.006041,51.606186,32.30722,-142.405716,,,
729862828.14838,-1.463794,-2.457234,-161.760392,0.030518,-0.028641,0.988144,-0.011351,0.005681,-0.006041,51.606186,32.30722,-142.405716,,,
729862828.151633,-1.467146,-2.456812,-161.761469,0.030518,-0.028641,0.988144,-0.001418,0.011345,0.004093,51.606186,32.30722,-142.405716,,,
729862828.155038,-1.467146,-2.456812,-161.761469,0.030518,-0.028641,0.988144,-0.001418,0.011345,0.004093,51.614716,32.171982,-142.511017,,,
729862828.158291,-1.467982,-2.454322,-161.761302,0.027893,-0.033173,0.996658,-0.001418,0.011345,0.004093,51.614716,32.171982,-142.511017,,,
729862828.16163,-1.466428,-2.453716,-161.75987,0.027893,-0.033173,0.996658,0.001131,0.013375,0.006257,51.614716,32.171982,-142.511017,,,
729862828.164984,-1.466428,-2.453716,-161.75987,0.027893,-0.033173,0.996658,0.001131,0.013375,0.006257,51.614716,32.171982,-142.511017,,,
729862828.168302,-1.466198,-2.450995,-161.75727,0.032806,-0.030121,0.992462,0.001131,0.013375,0.006257,51.614716,32.171982,-142.511017,,,
729862828.171694,-1.467888,-2.44628,-161.754361,0.032806,-0.030121,0.992462,-0.010608,0.020718,0.01,51.614716,32.171982,-142.511017,,,
729862828.17507,-1.467888,-2.44628,-161.751624,0.032806,-0.030121,0.992462,-0.010608,0.020718,0.01,51.614716,32.171982,-142.511017,,,
729862828.178287,-1.470861,-2.440979,-161.751624,0.03421,-0.021484,0.985153,-0.010608,0.020718,0.01,51.614716,32.171982,-142.511017,,,
729862828.181639,-1.477343,-2.43389,-161.748469,0.03421,-0.021484,0.985153,-0.03072,0.013757,0.012312,51.614716,32.171982,-142.511017,,,
729862828.185025,-1.477343,-2.43389,-161.748469,0.03421,-0.021484,0.985153,-0.03072,0.013757,0.012312,51.614716,32.171982,-142.511017,,,
729862828.18829,-1.485669,-2.42942,-161.744943,0.031464,-0.021866,0.979401,-0.03072,0.013757,0.012312,51.614716,32.171982,-142.511017,,,
729862828.19163,-1.495916,-2.425409,-161.741158,0.031464,-0.021866,0.979401,-0.047116,0.008467,0.015627,51.614716,32.171982,-142.511017,,,
729862828.194992,-1.495916,-2.425409,-161.741158,0.031464,-0.021866,0.979401,-0.047116,0.008467,0.015627,51.658127,32.319412,-142.402008,,,
729862828.198361,-1.509065,-2.423081,-161.737144,0.03743,-0.021942,0.981979,-0.047116,0.008467,0.015627,51.658127,32.319412,-142.402008,,,
729862828.201624,-1.523044,-2.420889,-161.733564,0.03743,-0.021942,0.981979,-0.058917,0.003411,0.011167,51.658127,32.319412,-142.402008,,,
729862828.205016,-1.523044,-2.420889,-161.733564,0.03743,-0.021942,0.981979,-0.058917,0.003411,0.011167,51.658127,32.319412,-142.402008,,,
729862828.208291,-1.540086,-2.419786,-161.730845,0.043106,-0.017609,0.990433,-0.058917,0.003411,0.011167,51.658127,32.319412,-142.402008,,,
729862828.21163,-1.557069,-2.419282,-161.728639,0.043106,-0.017609,0.990433,-0.057215,-0.011555,0.003754,51.658127,32.319412,-142.402008,,,
729862828.214994,-1.557069,-2.419282,-161.728639,0.043106,-0.017609,0.990433,-0.057215,-0.011555,0.003754,51.658127,32.319412,-142.402008,,,
729862828.218307,-1.573471,-2.422626,-161.726857,0.044357,-0.023041,0.996643,-0.057215,-0.011555,0.003754,51.658127,32.319412,-142.402008,,,
729862828.22163,-1.588876,-2.42593,-161.725123,0.044357,-0.023041,0.996643,-0.045981,-0.02033,0.008701,51.658127,32.319412,-142.402008,,,
729862828.225,-1.588876,-2.42593,-161.725123,0.044357,-0.023041,0.996643,-0.045981,-0.02033,0.008701,51.658127,32.319412,-142.402008,,,
729862828.228305,-1.60217,-2.43171,-161.722928,0.043304,-0.030548,1.008102,-0.045981,-0.02033,0.008701,51.658127,32.319412,-142.402008,,,
729862828.23163,-1.613927,-2.435066,-161.720493,0.043304,-0.030548,1.008102,-0.034457,-0.013247,0.006704,51.658127,32.319412,-142.402008,,,
729862828.234998,-1.613927,-2.435066,-161.720493,0.043304,-0.030548,1.008102,-0.034457,-0.013247,0.006704,51.459946,32.388199,-142.580139,,,
729862828.238373,-1.624382,-2.43977,-161.718552,0.049606,-0.029755,1.014465,-0.034457,-0.013247,0.006704,51.459946,32.388199,-142.580139,,,
729862828.241625,-1.633525,-2.43867,-161.716728,0.049606,-0.029755,1.014465,-0.012157,0.005805,0.007033,51.459946,32.388199,-142.580139,,,
729862828.244977,-1.633525,-2.43867,-161.716728,0.049606,-0.029755,1.014465,-0.012157,0.005805,0.007033,51.459946,32.388199,-142.580139,,,
729862828.24829,-1.637696,-2.4382,-161.714627,0.054108,-0.029907,1.022461,-0.012157,0.005805,0.007033,51.459946,32.388199,-142.580139,,,
729862828.251629,-1.637298,-2.432283,-161.711604,0.054108,-0.029907,1.022461,0.024352,0.024211,0.007608,51.459946,32.388199,-142.580139,,,
729862828.254952,-1.637298,-2.432283,-161.711604,0.054108,-0.029907,1.022461,0.024352,0.024211,0.007608,51.459946,32.388199,-142.580139,,,
729862828.258296,-1.632121,-2.42624,-161.709018,0.055267,-0.037399,1.03537,0.024352,0.024211,0.007608,51.459946,32.388199,-142.580139,,,
729862828.261659,-1.621409,-2.417052,-161.707243,0.055267,-0.037399,1.03537,0.040027,0.035125,0.001736,51.459946,32.388199,-142.580139,,,
729862828.265007,-1.621409,-2.417052,-161.707243,0.055267,-0.037399,1.03537,0.040027,0.035125,0.001736,51.459946,32.388199,-142.580139,,,
729862828.268278,-1.610192,-2.408418,-161.705847,0.057892,-0.032196,1.025696,0.040027,0.035125,0.001736,51.459946,32.388199,-142.580139,,,
729862828.271634,-1.597369,-2.395083,-161.704918,0.057892,-0.032196,1.025696,0.038582,0.054562,0.002445,51.459946,32.388199,-142.580139,,,
729862828.27497,-1.597369,-2.395083,-161.704918,0.057892,-0.032196,1.025696,0.038582,0.054562,0.002445,51.587067,32.438034,-142.850616,,,
729862828.278296,-1.586297,-2.381421,-161.703843,0.050247,-0.024155,1.015366,0.038582,0.054562,0.002445,51.587067,32.438034,-142.850616,,,
729862828.281632,-1.574662,-2.36527,-161.702019,0.050247,-0.024155,1.015366,0.029876,0.056033,0.004959,51.587067,32.438034,-142.850616,,,
729862828.28497,-1.574662,-2.36527,-161.702019,0.050247,-0.024155,1.015366,0.029876,0.056033,0.004959,51.587067,32.438034,-142.850616,,,
729862828.288319,-1.566292,-2.349684,-161.699937,0.048111,-0.023285,1.004517,0.029876,0.056033,0.004959,51.587067,32.438034,-142.850616,,,
729862828.291629,-1.558002,-2.336347,-161.698478,0.048111,-0.023285,1.004517,0.01031,0.036853,-0.00321,51.587067,32.438034,-142.850616,,,
729862828.294972,-1.558002,-2.336347,-161.698478,0.048111,-0.023285,1.004517,0.01031,0.036853,-0.00321,51.587067,32.438034,-142.850616,,,
729862828.298309,-1.554362,-2.324973,-161.698418,0.048538,-0.016418,0.990585,0.01031,0.036853,-0.00321,51.587067,32.438034,-142.850616,,,
729862828.301629,-1.553308,-2.31806,-161.699631,0.048538,-0.016418,0.990585,-0.005122,0.013992,-0.0076,51.587067,32.438034,-142.850616,,,
729862828.305039,-1.553308,-2.31806,-161.699631,0.048538,-0.016418,0.990585,-0.005122,0.013992,-0.0076,51.587067,32.438034,-142.850616,,,
729862828.30829,-1.554759,-2.313851,-161.701362,0.04306,-0.013504,0.987396,-0.005122,0.013992,-0.0076,51.587067,32.438034,-142.850616,,,
729862828.311638,-1.558417,-2.314705,-161.703282,0.04306,-0.013504,0.987396,-0.005652,-0.022709,-0.006984,51.587067,32.438034,-142.850616,,,
729862828.314981,-1.558417,-2.314705,-161.703282,0.04306,-0.013504,0.987396,-0.005652,-0.022709,-0.006984,51.587067,32.438034,-142.850616,,,
729862828.318367,-1.560628,-2.320253,-161.705308,0.041412,-0.021118,0.995239,-0.005652,-0.022709,-0.006984,51.751755,32.320374,-142.775894,,,
729862828.321622,-1.561113,-2.334242,-161.707664,0.041412,-0.021118,0.995239,0.007159,-0.056176,-0.013859,51.751755,32.320374,-142.775894,,,
729862828.324954,-1.561113,-2.334242,-161.707664,0.041412,-0.021118,0.995239,0.007159,-0.056176,-0.013859,51.751755,32.320374,-142.775894,,,
729862828.328307,-1.55931,-2.350309,-161.710765,0.044296,-0.02121,1.002213,0.007159,-0.056176,-0.013859,51.751755,32.320374,-142.775894,,,
729862828.33164,-1.557138,-2.37188,-161.714514,0.044296,-0.02121,1.002213,0.013402,-0.057953,-0.014269,51.751755,32.320374,-142.775894,,,
729862828.334972,-1.557138,-2.37188,-161.714514,0.044296,-0.02121,1.002213,0.013402,-0.057953,-0.014269,51.751755,32.320374,-142.775894,,,
729862828.33831,-1.553192,-2.390031,-161.717566,0.043091,-0.024353,1.006989,0.013402,-0.057953,-0.014269,51.751755,32.320374,-142.775894,,,
729862828.341626,-1.549763,-2.408652,-161.719601,0.043091,-0.024353,1.006989,0.023351,-0.029235,-0.006217,51.751755,32.320374,-142.775894,,,
729862828.345027,-1.549763,-2.408652,-161.719601,0.043091,-0.024353,1.006989,0.023351,-0.029235,-0.006217,51.751755,32.320374,-142.775894,,,
729862828.348292,-1.543075,-2.419444,-161.72013,0.045059,-0.030899,1.018219,0.023351,-0.029235,-0.006217,51.751755,32.320374,-142.775894,,,
729862828.351631,-1.535247,-2.428706,-161.719963,0.045059,-0.030899,1.018219,0.034248,0.005823,-0.002377,51.751755,32.320374,-142.775894,,,
729862828.355014,-1.535247,-2.428706,-161.719963,0.045059,-0.030899,1.018219,0.034248,0.005823,-0.002377,51.751755,32.320374,-142.775894,,,
729862828.35829,-1.525891,-2.42924,-161.719724,0.051605,-0.030151,1.019821,0.034248,0.005823,-0.002377,51.695358,32.390457,-142.46347,,,
729862828.361623,-1.515951,-2.425072,-161.719811,0.051605,-0.030151,1.019821,0.033273,0.044976,-0.00686,51.695358,32.390457,-142.46347,,,
729862828.364975,-1.515951,-2.425072,-161.719811,0.051605,-0.030151,1.019821,0.033273,0.044976,-0.00686,51.695358,32.390457,-142.46347,,,
729862828.368296,-1.50641,-2.414102,-161.720522,0.053024,-0.025436,1.021194,0.033273,0.044976,-0.00686,51.695358,32.390457,-142.46347,,,
729862828.37167,-1.495773,-2.400303,-161.721661,0.053024,-0.025436,1.021194,0.037069,0.063214,-0.007548,51.695358,32.390457,-142.46347,,,
729862828.374985,-1.495773,-2.400303,-161.721661,0.053024,-0.025436,1.021194,0.037069,0.063214,-0.007548,51.695358,32.390457,-142.46347,,,
729862828.378319,-1.485148,-2.383519,-161.7231,0.050613,-0.027573,1.017044,0.037069,0.063214,-0.007548,51.695358,32.390457,-142.46347,,,
729862828.381632,-1.471813,-2.368474,-161.725302,0.050613,-0.027573,1.017044,0.040853,0.048783,-0.013423,51.695358,32.390457,-142.46347,,,
729862828.385055,-1.471813,-2.368474,-161.725302,0.050613,-0.027573,1.017044,0.040853,0.048783,-0.013423,51.695358,32.390457,-142.46347,,,
729862828.388348,-1.459935,-2.354424,-161.728365,0.046204,-0.026352,1.005341,0.040853,0.048783,-0.013423,51.695358,32.390457,-142.46347,,,
729862828.391629,-1.446687,-2.344617,-161.732662,0.046204,-0.026352,1.005341,0.037716,0.020106,-0.017091,51.695358,32.390457,-142.46347,,,
729862828.394982,-1.446687,-2.344617,-161.732662,0.046204,-0.026352,1.005341,0.037716,0.020106,-0.017091,51.695358,32.390457,-142.46347,,,
729862828.3983,-1.435904,-2.338871,-161.737644,0.036484,-0.023575,0.994293,0.037716,0.020106,-0.017091,51.612076,32.447586,-142.564178,,,
729862828.401627,-1.425141,-2.337643,-161.741929,0.036484,-0.023575,0.994293,0.033674,-0.006234,-0.012584,51.612076,32.447586,-142.564178,,,
729862828.404978,-1.425141,-2.337643,-161.741929,0.036484,-0.023575,0.994293,0.033674,-0.006234,-0.012584,51.612076,32.447586,-142.564178,,,
729862828.408299,-1.415603,-2.339553,-161.744926,0.028275,-0.027679,0.990906,0.033674,-0.006234,-0.012584,51.612076,32.447586,-142.564178,,,
729862828.411634,-1.405498,-2.344556,-161.747094,0.028275,-0.027679,0.990906,0.031909,-0.023323,-0.007992,51.612076,32.447586,-142.564178,,,
729862828.41504,-1.405498,-2.344556,-161.747094,0.028275,-0.027679,0.990906,0.031909,-0.023323,-0.007992,51.612076,32.447586,-142.564178,,,
729862828.418311,-1.396128,-2.350611,-161.7491,0.031143,-0.02832,0.992355,0.031909,-0.023323,-0.007992,51.612076,32.447586,-142.564178,,,
729862828.42163,-1.387907,-2.358561,-161.751158,0.031143,-0.02832,0.992355,0.023264,-0.029171,-0.01182,51.612076,32.447586,-142.564178,,,
729862828.424961,-1.387907,-2.358561,-161.751158,0.031143,-0.02832,0.992355,0.023264,-0.029171,-0.01182,51.612076,32.447586,-142.564178,,,
729862828.428319,-1.380634,-2.367362,-161.753395,0.039078,-0.023178,0.984634,0.023264,-0.029171,-0.01182,51.612076,32.447586,-142.564178,,,
729862828.431629,-1.376414,-2.377002,-161.755394,0.039078,-0.023178,0.984634,0.013248,-0.023424,-0.006668,51.612076,32.447586,-142.564178,,,
729862828.43497,-1.376414,-2.377002,-161.755394,0.039078,-0.023178,0.984634,0.013248,-0.023424,-0.006668,51.612076,32.447586,-142.564178,,,
729862828.43834,-1.372572,-2.384207,-161.756393,0.038422,-0.022614,0.981934,0.013248,-0.023424,-0.006668,51.840103,32.302292,-142.44017,,,
729862828.441625,-1.37105,-2.393585,-161.756354,0.038422,-0.022614,0.981934,0.007414,-0.016381,0.003531,51.840103,32.302292,-142.44017,,,
729862828.444975,-1.37105,-2.393585,-161.756354,0.038422,-0.022614,0.981934,0.007414,-0.016381,0.003531,51.840103,32.302292,-142.44017,,,
729862828.448304,-1.368913,-2.399459,-161.755491,0.034058,-0.026321,0.984238,0.007414,-0.016381,0.003531,51.840103,32.302292,-142.44017,,,
729862828.451627,-1.367756,-2.406017,-161.753562,0.034058,-0.026321,0.984238,0.006922,-0.002119,0.009052,51.840103,32.302292,-142.44017,,,
729862828.454974,-1.367756,-2.406017,-161.753562,0.034058,-0.026321,0.984238,0.006922,-0.002119,0.009052,51.840103,32.302292,-142.44017,,,
729862828.458351,-1.366424,-2.40775,-161.750548,0.038132,-0.027664,0.988159,0.006922,-0.002119,0.009052,51.840103,32.302292,-142.44017,,,
729862828.461655,-1.364959,-2.408718,-161.746921,0.038132,-0.027664,0.988159,0.007713,0.012123,0.013045,51.840103,32.302292,-142.44017,,,
729862828.465075,-1.364959,-2.408718,-161.746921,0.038132,-0.027664,0.988159,0.007713,0.012123,0.013045,51.840103,32.302292,-142.44017,,,
729862828.468326,-1.362187,-2.405911,-161.742718,0.040237,-0.025558,0.993546,0.007713,0.012123,0.013045,51.840103,32.302292,-142.44017,,,
729862828.471635,-1.359117,-2.403162,-161.739006,0.040237,-0.025558,0.993546,0.015103,0.012183,0.009773,51.840103,32.302292,-142.44017,,,
729862828.47498,-1.359117,-2.403162,-161.739006,0.040237,-0.025558,0.993546,0.015103,0.012183,0.009773,51.840103,32.302292,-142.44017,,,
729862828.478396,-1.354671,-2.400337,-161.736231,0.041473,-0.027863,0.992996,0.015103,0.012183,0.009773,51.840103,32.302292,-142.44017,,,
729862828.481621,-1.349651,-2.395219,-161.734451,0.041473,-0.027863,0.992996,0.015911,0.018801,0.001926,51.847992,32.170639,-142.533157,,,
729862828.484978,-1.349651,-2.395219,-161.734451,0.041473,-0.027863,0.992996,0.015911,0.018801,0.001926,51.847992,32.170639,-142.533157,,,
729862828.488307,-1.345271,-2.391038,-161.733331,0.040359,-0.024323,0.991409,0.015911,0.018801,0.001926,51.847992,32.170639,-142.533157,,,
729862828.491631,-1.344647,-2.382378,-161.731942,0.040359,-0.024323,0.991409,-0.012072,0.020912,0.001675,51.847992,32.170639,-142.533157,,,
729862828.494975,-1.344647,-2.382378,-161.731942,0.040359,-0.024323,0.991409,-0.012072,0.020912,0.001675,51.847992,32.170639,-142.533157,,,
729862828.49832,-1.347233,-2.377276,-161.7305,0.036209,-0.019501,0.976364,-0.012072,0.020912,0.001675,51.847992,32.170639,-142.533157,,,
729862828.501625,-1.354449,-2.371161,-161.729171,0.036209,-0.019501,0.976364,-0.031637,0.014869,0.001343,51.847992,32.170639,-142.533157,,,
729862828.505051,-1.354449,-2.371161,-161.729171,0.036209,-0.019501,0.976364,-0.031637,0.014869,0.001343,51.847992,32.170639,-142.533157,,,
729862828.508283,-1.363151,-2.367925,-161.727961,0.033112,-0.022797,0.972672,-0.031637,0.014869,0.001343,51.847992,32.170639,-142.533157,,,
729862828.511629,-1.373337,-2.365394,-161.7268,0.033112,-0.022797,0.972672,-0.038058,0.006734,0.007392,51.847992,32.170639,-142.533157,,,
729862828.514973,-1.373337,-2.365394,-161.7268,0.033112,-0.022797,0.972672,-0.038058,0.006734,0.007392,51.847992,32.170639,-142.533157,,,
729862828.518377,-1.384994,-2.364144,-161.725434,0.034286,-0.029602,0.983261,-0.038058,0.006734,0.007392,51.847992,32.170639,-142.533157,,,
729862828.521625,-1.396734,-2.363446,-161.723803,0.034286,-0.029602,0.983261,-0.036085,-0.004198,0.01018,51.779236,32.218002,-142.762741,,,
729862828.525037,-1.396734,-2.363446,-161.723803,0.034286,-0.029602,0.983261,-0.036085,-0.004198,0.01018,51.779236,32.218002,-142.762741,,,
729862828.528292,-1.407783,-2.365421,-161.721629,0.034729,-0.030304,0.990143,-0.036085,-0.004198,0.01018,51.779236,32.218002,-142.762741,,,
729862828.531628,-1.417555,-2.366999,-161.718491,0.034729,-0.030304,0.990143,-0.021427,-0.010608,0.014178,51.779236,32.218002,-142.762741,,,
729862828.534984,-1.417555,-2.366999,-161.718491,0.034729,-0.030304,0.990143,-0.021427,-0.010608,0.014178,51.779236,32.218002,-142.762741,,,
729862828.538294,-1.42452,-2.370457,-161.714478,0.030884,-0.033936,0.999313,-0.021427,-0.010608,0.014178,51.779236,32.218002,-142.762741,,,
729862828.541633,-1.429803,-2.373475,-161.709643,0.030884,-0.033936,0.999313,-0.002994,-0.010967,0.020527,51.779236,32.218002,-142.762741,,,
729862828.545047,-1.429803,-2.373475,-161.709643,0.030884,-0.033936,0.999313,-0.002994,-0.010967,0.020527,51.779236,32.218002,-142.762741,,,
729862828.548303,-1.432147,-2.377129,-161.703882,0.033203,-0.037643,1.004532,-0.002994,-0.010967,0.020527,51.779236,32.218002,-142.762741,,,
729862828.551639,-1.432889,-2.380999,-161.696964,0.033203,-0.037643,1.004532,0.011759,-0.018796,0.022539,51.779236,32.218002,-142.762741,,,
729862828.554983,-1.432889,-2.380999,-161.696964,0.033203,-0.037643,1.004532,0.011759,-0.018796,0.022539,51.779236,32.218002,-142.762741,,,
729862828.558376,-1.431467,-2.386363,-161.689714,0.037247,-0.034897,1.002548,0.011759,-0.018796,0.022539,51.779236,32.218002,-142.762741,,,
729862828.561627,-1.428718,-2.392548,-161.682842,0.037247,-0.034897,1.002548,0.012547,-0.025536,0.021298,51.623184,32.316803,-142.747421,,,
729862828.564977,-1.428718,-2.392548,-161.682842,0.037247,-0.034897,1.002548,0.012547,-0.025536,0.021298,51.623184,32.316803,-142.747421,,,
729862828.568368,-1.425092,-2.399644,-161.676592,0.046082,-0.031143,0.999603,0.012547,-0.025536,0.021298,51.623184,32.316803,-142.747421,,,
729862828.571629,-1.421467,-2.407302,-161.671139,0.046082,-0.031143,0.999603,0.015371,-0.026172,0.012713,51.623184,32.316803,-142.747421,,,
729862828.574959,-1.421467,-2.407302,-161.671139,0.046082,-0.031143,0.999603,0.015371,-0.026172,0.012713,51.623184,32.316803,-142.747421,,,
729862828.578319,-1.418086,-2.415154,-161.666229,0.05014,-0.024445,0.995865,0.015371,-0.026172,0.012713,51.623184,32.316803,-142.747421,,,
729862828.581637,-1.414009,-2.420029,-161.662052,0.05014,-0.024445,0.995865,0.007574,-0.012548,0.011266,51.623184,32.316803,-142.747421,,,
729862828.584985,-1.414009,-2.420029,-161.662052,0.05014,-0.024445,0.995865,0.007574,-0.012548,0.011266,51.623184,32.316803,-142.747421,,,
729862828.588318,-1.411707,-2.424943,-161.658596,0.053268,-0.02359,0.995712,0.007574,-0.012548,0.011266,51.623184,32.316803,-142.747421,,,
729862828.591632,-1.410934,-2.42567,-161.656049,0.053268,-0.02359,0.995712,-0.009024,-0.000145,0.003064,51.623184,32.316803,-142.747421,,,
729862828.595045,-1.410934,-2.42567,-161.656049,0.053268,-0.02359,0.995712,-0.009024,-0.000145,0.003064,51.623184,32.316803,-142.747421,,,
729862828.598294,-1.412027,-2.426761,-161.654955,0.061264,-0.019028,0.988586,-0.009024,-0.000145,0.003064,51.623184,32.316803,-142.747421,,,
729862828.601661,-1.417406,-2.4251,-161.655434,0.061264,-0.019028,0.988586,-0.020812,0.005999,-0.01233,51.623184,32.316803,-142.747421,,,
729862828.604968,-1.417406,-2.4251,-161.655434,0.061264,-0.019028,0.988586,-0.020812,0.005999,-0.01233,51.806061,32.193329,-142.515381,,,
729862828.608293,-1.423491,-2.424109,-161.658398,0.065079,-0.014053,0.987366,-0.020812,0.005999,-0.01233,51.806061,32.193329,-142.515381,,,
729862828.611626,-1.431904,-2.420482,-161.662954,0.065079,-0.014053,0.987366,-0.026217,0.009668,-0.018216,51.806061,32.193329,-142.515381,,,
729862828.614969,-1.431904,-2.420482,-161.662954,0.065079,-0.014053,0.987366,-0.026217,0.009668,-0.018216,51.806061,32.193329,-142.515381,,,
729862828.618298,-1.439534,-2.418178,-161.668098,0.058548,-0.016556,0.996063,-0.026217,0.009668,-0.018216,51.806061,32.193329,-142.515381,,,
729862828.621714,-1.44947,-2.412349,-161.673259,0.058548,-0.016556,0.996063,-0.025335,0.010014,-0.016222,51.806061,32.193329,-142.515381,,,
729862828.624974,-1.44947,-2.412349,-161.673259,0.058548,-0.016556,0.996063,-0.025335,0.010014,-0.016222,51.806061,32.193329,-142.515381,,,
729862828.628322,-1.456789,-2.410391,-161.678027,0.049973,-0.024033,1.000946,-0.025335,0.010014,-0.016222,51.806061,32.193329,-142.515381,,,
729862828.631628,-1.465008,-2.407657,-161.68279,0.049973,-0.024033,1.000946,-0.015146,0.00045,-0.017856,51.806061,32.193329,-142.515381,,,
729862828.635039,-1.465008,-2.407657,-161.68279,0.049973,-0.024033,1.000946,-0.015146,0.00045,-0.017856,51.806061,32.193329,-142.515381,,,
729862828.63831,-1.468923,-2.408077,-161.687955,0.044479,-0.027908,1.008133,-0.015146,0.00045,-0.017856,51.806061,32.193329,-142.515381,,,
729862828.641632,-1.472938,-2.408576,-161.692352,0.044479,-0.027908,1.008133,0.002603,-0.00115,-0.012772,51.806061,32.193329,-142.515381,,,
729862828.644961,-1.472938,-2.408576,-161.692352,0.044479,-0.027908,1.008133,0.002603,-0.00115,-0.012772,51.859009,32.199585,-142.863861,,,
729862828.648372,-1.473061,-2.410095,-161.695703,0.037933,-0.033386,1.018143,0.002603,-0.00115,-0.012772,51.859009,32.199585,-142.863861,,,
729862828.651623,-1.471306,-2.413263,-161.697499,0.037933,-0.033386,1.018143,0.017094,-0.003358,-0.000924,51.859009,32.199585,-142.863861,,,
729862828.654961,-1.471306,-2.413263,-161.697499,0.037933,-0.033386,1.018143,0.017094,-0.003358,-0.000924,51.859009,32.199585,-142.863861,,,
729862828.658317,-1.466453,-2.414871,-161.697502,0.034286,-0.037933,1.020767,0.017094,-0.003358,-0.000924,51.859009,32.199585,-142.863861,,,
729862828.661626,-1.458712,-2.417551,-161.696608,0.034286,-0.037933,1.020767,0.033761,0.00511,0.002632,51.859009,32.199585,-142.863861,,,
729862828.664974,-1.458712,-2.417551,-161.696608,0.034286,-0.037933,1.020767,0.033761,0.00511,0.002632,51.859009,32.199585,-142.863861,,,
729862828.6683,-1.449471,-2.416641,-161.695434,0.037613,-0.036026,1.021118,0.033761,0.00511,0.002632,51.859009,32.199585,-142.863861,,,
729862828.67163,-1.439091,-2.417302,-161.694762,0.037613,-0.036026,1.021118,0.038165,0.018006,-0.006292,51.859009,32.199585,-142.863861,,,
729862828.675038,-1.439091,-2.417302,-161.694762,0.037613,-0.036026,1.021118,0.038165,0.018006,-0.006292,51.859009,32.199585,-142.863861,,,
729862828.678429,-1.428672,-2.412822,-161.694878,0.044815,-0.030243,1.020172,0.038165,0.018006,-0.006292,51.859009,32.199585,-142.863861,,,
729862828.681646,-1.41589,-2.412825,-161.696214,0.044815,-0.030243,1.020172,0.0424,0.023738,-0.010482,51.859009,32.199585,-142.863861,,,
729862828.685046,-1.41589,-2.412825,-161.696214,0.044815,-0.030243,1.020172,0.0424,0.023738,-0.010482,51.758926,31.979309,-142.730179,,,
729862828.688319,-1.404093,-2.406816,-161.698137,0.046768,-0.026566,1.013351,0.0424,0.023738,-0.010482,51.758926,31.979309,-142.730179,,,
729862828.691629,-1.389458,-2.406387,-161.700117,0.046768,-0.026566,1.013351,0.044351,0.019689,-0.009966,51.758926,31.979309,-142.730179,,,
729862828.694982,-1.389458,-2.406387,-161.700117,0.046768,-0.026566,1.013351,0.044351,0.019689,-0.009966,51.758926,31.979309,-142.730179,,,
729862828.698375,-1.376936,-2.401,-161.701891,0.041916,-0.025635,1.005524,0.044351,0.019689,-0.009966,51.758926,31.979309,-142.730179,,,
729862828.701627,-1.363982,-2.40045,-161.703619,0.041916,-0.025635,1.005524,0.038056,0.002495,-0.008976,51.758926,31.979309,-142.730179,,,
729862828.704986,-1.363982,-2.40045,-161.703619,0.041916,-0.025635,1.005524,0.038056,0.002495,-0.008976,51.758926,31.979309,-142.730179,,,
729862828.708301,-1.353471,-2.399143,-161.705327,0.038818,-0.022949,0.994415,0.038056,0.002495,-0.008976,51.758926,31.979309,-142.730179,,,
729862828.711634,-1.343895,-2.402917,-161.708358,0.038818,-0.022949,0.994415,0.035769,-0.018024,-0.015484,51.758926,31.979309,-142.730179,,,
729862828.714982,-1.343895,-2.402917,-161.708358,0.038818,-0.022949,0.994415,0.035769,-0.018024,-0.015484,51.758926,31.979309,-142.730179,,,
729862828.718311,-1.333879,-2.407898,-161.712215,0.043427,-0.017639,0.987823,0.035769,-0.018024,-0.015484,51.758926,31.979309,-142.730179,,,
729862828.721632,-1.325941,-2.415912,-161.71676,0.043427,-0.017639,0.987823,0.028137,-0.033797,-0.022364,51.758926,31.979309,-142.730179,,,
729862828.725069,-1.325941,-2.415912,-161.71676,0.043427,-0.017639,0.987823,0.028137,-0.033797,-0.022364,51.634521,32.097336,-142.810196,,,
729862828.72836,-1.317811,-2.425617,-161.722229,0.045441,-0.016022,0.986969,0.028137,-0.033797,-0.022364,51.634521,32.097336,-142.810196,,,
729862828.731623,-1.313039,-2.434664,-161.727866,0.045441,-0.016022,0.986969,0.013442,-0.03591,-0.021303,51.634521,32.097336,-142.810196,,,
729862828.734975,-1.313039,-2.434664,-161.727866,0.045441,-0.016022,0.986969,0.013442,-0.03591,-0.021303,51.634521,32.097336,-142.810196,,,
729862828.738373,-1.308015,-2.445785,-161.733258,0.043549,-0.015305,0.981491,0.013442,-0.03591,-0.021303,51.634521,32.097336,-142.810196,,,
729862828.741633,-1.309262,-2.454368,-161.738233,0.043549,-0.015305,0.981491,-0.005576,-0.031803,-0.01152,51.634521,32.097336,-142.810196,,,
729862828.744972,-1.309262,-2.454368,-161.738233,0.043549,-0.015305,0.981491,-0.005576,-0.031803,-0.01152,51.634521,32.097336,-142.810196,,,
729862828.748309,-1.310026,-2.46461,-161.741863,0.040207,-0.014557,0.977615,-0.005576,-0.031803,-0.01152,51.634521,32.097336,-142.810196,,,
729862828.751626,-1.315004,-2.471938,-161.743836,0.040207,-0.014557,0.977615,-0.012726,-0.016885,-0.006883,51.634521,32.097336,-142.810196,,,
729862828.754971,-1.315004,-2.471938,-161.743836,0.040207,-0.014557,0.977615,-0.012726,-0.016885,-0.006883,51.634521,32.097336,-142.810196,,,
729862828.758306,-1.318715,-2.477706,-161.745535,0.042282,-0.017899,0.981476,-0.012726,-0.016885,-0.006883,51.634521,32.097336,-142.810196,,,
729862828.761625,-1.323724,-2.481099,-161.747184,0.042282,-0.017899,0.981476,-0.012815,0.003396,-0.004204,51.634521,32.097336,-142.810196,,,
729862828.765051,-1.323724,-2.481099,-161.747184,0.042282,-0.017899,0.981476,-0.012815,0.003396,-0.004204,51.634521,32.097336,-142.810196,,,
729862828.768319,-1.327659,-2.481127,-161.748517,0.050125,-0.020935,0.995926,-0.012815,0.003396,-0.004204,51.565857,32.443985,-142.553009,,,
729862828.771634,-1.331575,-2.479583,-161.749752,0.050125,-0.020935,0.995926,-0.008591,0.014265,-0.00528,51.565857,32.443985,-142.553009,,,
729862828.774959,-1.331575,-2.479583,-161.749752,0.050125,-0.020935,0.995926,-0.008591,0.014265,-0.00528,51.565857,32.443985,-142.553009,,,
729862828.778304,-1.334563,-2.476596,-161.751068,0.044861,-0.022934,1.000656,-0.008591,0.014265,-0.00528,51.565857,32.443985,-142.553009,,,
729862828.781629,-1.337236,-2.472819,-161.75244,0.044861,-0.022934,1.000656,-0.001525,0.011206,-0.003135,51.565857,32.443985,-142.553009,,,
729862828.784967,-1.337236,-2.472819,-161.75244,0.044861,-0.022934,1.000656,-0.001525,0.011206,-0.003135,51.565857,32.443985,-142.553009,,,
729862828.788378,-1.33781,-2.469705,-161.753531,0.041,-0.02739,0.998215,-0.001525,0.011206,-0.003135,51.565857,32.443985,-142.553009,,,
729862828.791619,-1.336945,-2.465788,-161.753957,0.041,-0.02739,0.998215,0.006833,0.009971,-0.000456,51.565857,32.443985,-142.553009,,,
729862828.79496,-1.336945,-2.465788,-161.753957,0.041,-0.02739,0.998215,0.006833,0.009971,-0.000456,51.565857,32.443985,-142.553009,,,
729862828.798309,-1.335789,-2.463119,-161.753934,0.038879,-0.03038,1.000229,0.006833,0.009971,-0.000456,51.565857,32.443985,-142.553009,,,
729862828.801628,-1.332234,-2.463312,-161.753081,0.038879,-0.03038,1.000229,0.018327,-0.012416,0.002041,51.565857,32.443985,-142.553009,,,
729862828.804973,-1.332234,-2.463312,-161.753081,0.038879,-0.03038,1.000229,0.018327,-0.012416,0.002041,51.565857,32.443985,-142.553009,,,
729862828.808292,-1.327939,-2.467282,-161.751122,0.037537,-0.033661,1.000656,0.018327,-0.012416,0.002041,51.596786,32.132233,-142.50473,,,
729862828.81162,-1.327939,-2.467282,-161.749274,0.037537,-0.033661,1.000656,0.033887,-0.032095,0.000221,51.596786,32.132233,-142.50473,,,
729862828.815036,-1.320206,-2.475277,-161.749274,0.037537,-0.033661,1.000656,0.033887,-0.032095,0.000221,51.596786,32.132233,-142.50473,,,
729862828.818294,-1.311934,-2.484729,-161.748056,0.038849,-0.029755,1.000336,0.033887,-0.032095,0.000221,51.596786,32.132233,-142.50473,,,
729862828.821619,-1.301034,-2.494226,-161.748001,0.038849,-0.029755,1.000336,0.027661,-0.021648,-0.008411,51.596786,32.132233,-142.50473,,,
729862828.82496,-1.301034,-2.494226,-161.748001,0.038849,-0.029755,1.000336,0.027661,-0.021648,-0.008411,51.596786,32.132233,-142.50473,,,
729862828.828293,-1.29298,-2.501936,-161.749057,0.047073,-0.024841,0.996002,0.027661,-0.021648,-0.008411,51.596786,32.132233,-142.50473,,,
729862828.831631,-1.29298,-2.501936,-161.749057,0.047073,-0.024841,0.996002,0.004054,-0.003985,-0.004199,51.596786,32.132233,-142.50473,,,
729862828.834977,-1.286214,-2.506339,-161.750317,0.047073,-0.024841,0.996002,0.004054,-0.003985,-0.004199,51.596786,32.132233,-142.50473,,,
729862828.83838,-1.284423,-2.509307,-161.751492,0.049438,-0.017273,0.983917,0.004054,-0.003985,-0.004199,51.596786,32.132233,-142.50473,,,
729862828.841644,-1.284423,-2.509307,-161.752447,0.049438,-0.017273,0.983917,-0.026653,0.012848,-0.00545,51.596786,32.132233,-142.50473,,,
729862828.844985,-1.285821,-2.509948,-161.752447,0.049438,-0.017273,0.983917,-0.026653,0.012848,-0.00545,51.596786,32.132233,-142.50473,,,
729862828.848301,-1.292502,-2.507373,-161.753585,0.045593,-0.015106,0.973053,-0.026653,0.012848,-0.00545,51.730927,32.212784,-142.323914,,,
729862828.851659,-1.302629,-2.504942,-161.755123,0.045593,-0.015106,0.973053,-0.044379,0.017754,-0.006434,51.730927,32.212784,-142.323914,,,
729862828.854981,-1.302629,-2.504942,-161.755123,0.045593,-0.015106,0.973053,-0.044379,0.017754,-0.006434,51.730927,32.212784,-142.323914,,,
729862828.8583,-1.314712,-2.500745,-161.757491,0.046127,-0.016464,0.97403,-0.044379,0.017754,-0.006434,51.730927,32.212784,-142.323914,,,
729862828.861629,-1.326831,-2.497192,-161.760657,0.046127,-0.016464,0.97403,-0.039733,0.005663,-0.014485,51.730927,32.212784,-142.323914,,,
729862828.865029,-1.326831,-2.497192,-161.760657,0.046127,-0.016464,0.97403,-0.039733,0.005663,-0.014485,51.730927,32.212784,-142.323914,,,
729862828.868303,-1.337646,-2.495742,-161.764519,0.050201,-0.020966,0.983871,-0.039733,0.005663,-0.014485,51.730927,32.212784,-142.323914,,,
729862828.871722,-1.337646,-2.495742,-161.764519,0.050201,-0.020966,0.983871,-0.018993,-0.013674,-0.014709,51.730927,32.212784,-142.323914,,,
729862828.874981,-1.347502,-2.49597,-161.769185,0.050201,-0.020966,0.983871,-0.018993,-0.013674,-0.014709,51.730927,32.212784,-142.323914,,,
729862828.878393,-1.353526,-2.49948,-161.773575,0.044922,-0.028061,0.996353,-0.018993,-0.013674,-0.014709,51.730927,32.212784,-142.323914,,,
729862828.881638,-1.353526,-2.49948,-161.773575,0.044922,-0.028061,0.996353,-0.018993,-0.013674,-0.014709,51.730927,32.212784,-142.323914,,,
729862828.884976,-1.358012,-2.504906,-161.777432,0.044922,-0.028061,0.996353,0.004436,-0.028907,-0.010856,51.730927,32.212784,-142.323914,,,
729862828.888312,-1.357905,-2.513811,-161.780734,0.039139,-0.032562,1.003586,0.004436,-0.028907,-0.010856,51.633499,32.258575,-142.639236,,,
729862828.891638,-1.357905,-2.513811,-161.780734,0.039139,-0.032562,1.003586,0.004436,-0.028907,-0.010856,51.633499,32.258575,-142.639236,,,
729862828.89499,-1.357254,-2.521224,-161.783387,0.039139,-0.032562,1.003586,0.015259,-0.019768,-0.006061,51.633499,32.258575,-142.639236,,,
729862828.8983,-1.353407,-2.528573,-161.785189,0.039261,-0.032562,1.005249,0.015259,-0.019768,-0.006061,51.633499,32.258575,-142.639236,,,
729862828.901639,-1.353407,-2.528573,-161.785189,0.039261,-0.032562,1.005249,0.015259,-0.019768,-0.006061,51.633499,32.258575,-142.639236,,,
729862828.905016,-1.349329,-2.532905,-161.785479,0.039261,-0.032562,1.005249,0.025881,-0.008828,0.00712,51.633499,32.258575,-142.639236,,,
729862828.908295,-1.342518,-2.536667,-161.783721,0.034927,-0.033157,1.007797,0.025881,-0.008828,0.00712,51.633499,32.258575,-142.639236,,,
