Time (sec),Pitch (deg),Roll (deg),Yaw(deg),X-Acceleration (g),Y-Acceleration (g),Z-Acceleration (g),Pitch Rate (deg/sec),Roll Rate (deg/sec),Yaw Rate (deg/sec),Magnetic Field in X direction (uT),Magnetic Field in Y direction (uT),Magnetic Field in Z Direction (uT),Latitude (deg),Longitude (deg),Altitude (m)
729863191.589902,1.265897,4.103122,47.057509,-0.068253,0.011963,1.011597,-0.004853,-0.008597,-0.022008,56.779572,1.335251,-148.824112,,,
729863191.593235,1.265897,4.103122,47.057509,-0.068253,0.011963,1.011597,0.00987,-0.005284,-0.019787,56.779572,1.335251,-148.824112,,,
729863191.59663,1.264694,4.102781,47.051332,-0.068253,0.011963,1.011597,0.00987,-0.005284,-0.019787,56.779572,1.335251,-148.824112,,,
729863191.599905,1.266545,4.100704,47.045718,-0.071121,0.013138,1.010452,0.00987,-0.005284,-0.019787,56.779572,1.335251,-148.824112,,,
729863191.603236,1.266684,4.098738,47.041018,-0.071121,0.013138,1.010452,0.004914,0.006493,-0.015421,56.779572,1.335251,-148.824112,,,
729863191.606579,1.266684,4.098738,47.041018,-0.071121,0.013138,1.010452,0.004914,0.006493,-0.015421,56.779572,1.335251,-148.824112,,,
729863191.609986,1.268147,4.09946,47.03677,-0.073929,0.018677,0.996445,0.004914,0.006493,-0.015421,56.779572,1.335251,-148.824112,,,
729863191.613262,1.268147,4.100396,47.033099,-0.073929,0.018677,0.996445,-0.002787,0.019177,-0.011971,56.779572,1.335251,-148.824112,,,
729863191.616586,1.268825,4.100396,47.033099,-0.073929,0.018677,0.996445,-0.002787,0.019177,-0.011971,56.779572,1.335251,-148.824112,,,
729863191.619921,1.268755,4.104931,47.029832,-0.073044,0.019089,0.989853,-0.002787,0.019177,-0.011971,56.897141,1.501526,-148.973923,,,
729863191.623256,1.267538,4.110118,47.026557,-0.073044,0.019089,0.989853,-0.011596,0.039196,-0.01775,56.897141,1.501526,-148.973923,,,
729863191.626591,1.267538,4.110118,47.026557,-0.073044,0.019089,0.989853,-0.011596,0.039196,-0.01775,56.897141,1.501526,-148.973923,,,
729863191.629922,1.264274,4.119815,47.022696,-0.073898,0.021957,0.990265,-0.011596,0.039196,-0.01775,56.897141,1.501526,-148.973923,,,
729863191.633242,1.264274,4.119815,47.022696,-0.073898,0.021957,0.990265,-0.011596,0.039196,-0.01775,56.897141,1.501526,-148.973923,,,
729863191.636643,1.261862,4.128576,47.018658,-0.073898,0.021957,0.990265,-0.023536,0.051744,-0.014391,56.897141,1.501526,-148.973923,,,
729863191.639862,1.255842,4.142642,47.014994,-0.08017,0.02449,0.989792,-0.023536,0.051744,-0.014391,56.897141,1.501526,-148.973923,,,
729863191.643292,1.255842,4.151929,47.012505,-0.08017,0.02449,0.989792,-0.040421,0.033273,-0.008197,56.897141,1.501526,-148.973923,,,
729863191.64659,1.247856,4.151929,47.012505,-0.08017,0.02449,0.989792,-0.040421,0.033273,-0.008197,56.897141,1.501526,-148.973923,,,
729863191.64991,1.236869,4.161534,47.010986,-0.088882,0.022675,0.978912,-0.040421,0.033273,-0.008197,56.897141,1.501526,-148.973923,,,
729863191.653121,1.236869,4.161534,47.010986,-0.088882,0.022675,0.978912,-0.040421,0.033273,-0.008197,56.897141,1.501526,-148.973923,,,
729863191.656587,1.226281,4.164105,47.009675,-0.088882,0.022675,0.978912,-0.035508,-0.00858,-0.011491,56.897141,1.501526,-148.973923,,,
729863191.659991,1.215686,4.162223,47.007619,-0.089783,0.02356,0.980392,-0.035508,-0.00858,-0.011491,56.922119,1.520905,-148.797211,,,
729863191.663226,1.215686,4.162223,47.007619,-0.089783,0.02356,0.980392,-0.035508,-0.00858,-0.011491,56.922119,1.520905,-148.797211,,,
729863191.666587,1.207637,4.152968,47.004678,-0.089783,0.02356,0.980392,-0.013656,-0.045732,-0.016158,56.922119,1.520905,-148.797211,,,
729863191.669925,1.203199,4.139984,47.001237,-0.089264,0.015594,0.999023,-0.013656,-0.045732,-0.016158,56.922119,1.520905,-148.797211,,,
729863191.673302,1.203199,4.139984,47.001237,-0.089264,0.015594,0.999023,-0.013656,-0.045732,-0.016158,56.922119,1.520905,-148.797211,,,
729863191.676568,1.199473,4.122289,46.998124,-0.089264,0.015594,0.999023,0.010786,-0.052751,-0.004163,56.922119,1.520905,-148.797211,,,
729863191.679909,1.20071,4.106338,46.996007,-0.086014,0.013504,1.010742,0.010786,-0.052751,-0.004163,56.922119,1.520905,-148.797211,,,
729863191.683241,1.20071,4.106338,46.996007,-0.086014,0.013504,1.010742,0.016659,-0.013735,0.006816,56.922119,1.520905,-148.797211,,,
729863191.686572,1.202101,4.093985,46.995673,-0.086014,0.013504,1.010742,0.016659,-0.013735,0.006816,56.922119,1.520905,-148.797211,,,
729863191.689914,1.206232,4.087279,46.997293,-0.077393,0.01506,1.018448,0.016659,-0.013735,0.006816,56.922119,1.520905,-148.797211,,,
729863191.693273,1.206232,4.087279,46.997293,-0.077393,0.01506,1.018448,0.016659,-0.013735,0.006816,56.922119,1.520905,-148.797211,,,
729863191.696627,1.209716,4.088519,47.000265,-0.077393,0.01506,1.018448,0.013171,0.029933,0.017413,56.922119,1.520905,-148.797211,,,
729863191.699895,1.213071,4.095205,47.004872,-0.072754,0.016922,1.012817,0.013171,0.029933,0.017413,56.743652,1.522446,-148.549988,,,
729863191.703237,1.213071,4.095205,47.004872,-0.072754,0.016922,1.012817,0.013171,0.054235,0.024941,56.743652,1.522446,-148.549988,,,
729863191.70658,1.215218,4.107315,47.010672,-0.072754,0.016922,1.012817,0.008703,0.054235,0.024941,56.743652,1.522446,-148.549988,,,
729863191.709899,1.218124,4.121542,47.017525,-0.070084,0.018082,1.006821,0.008703,0.054235,0.024941,56.743652,1.522446,-148.549988,,,
729863191.713284,1.218124,4.121542,47.017525,-0.070084,0.018082,1.006821,0.008703,0.054235,0.024941,56.743652,1.522446,-148.549988,,,
729863191.716559,1.222398,4.137763,47.024579,-0.070084,0.018082,1.006821,0.019014,0.050019,0.019432,56.743652,1.522446,-148.549988,,,
729863191.719902,1.22759,4.151587,47.030777,-0.071671,0.020508,1.012146,0.019014,0.050019,0.019432,56.743652,1.522446,-148.549988,,,
729863191.723287,1.22759,4.151587,47.030777,-0.071671,0.020508,1.012146,0.019014,0.050019,0.019432,56.743652,1.522446,-148.549988,,,
729863191.726562,1.236555,4.166395,47.036156,-0.071671,0.020508,1.012146,0.040044,0.02508,0.020398,56.743652,1.522446,-148.549988,,,
729863191.729903,1.247813,4.173664,47.041269,-0.074203,0.017075,1.01149,0.040044,0.02508,0.020398,56.743652,1.522446,-148.549988,,,
729863191.733277,1.247813,4.173664,47.041269,-0.074203,0.017075,1.01149,0.040044,0.02508,0.020398,56.743652,1.522446,-148.549988,,,
729863191.736566,1.260848,4.183204,47.046149,-0.074203,0.017075,1.01149,0.042749,-0.002682,0.016961,56.743652,1.522446,-148.549988,,,
729863191.739955,1.273076,4.182769,47.050742,-0.073105,0.022339,0.998337,0.042749,-0.002682,0.016961,56.743652,1.522446,-148.549988,,,
729863191.743301,1.273076,4.182769,47.050742,-0.073105,0.022339,0.998337,0.042749,-0.002682,0.016961,56.811218,1.434525,-149.095078,,,
729863191.746656,1.283038,4.18565,47.054356,-0.073105,0.022339,0.998337,0.016543,-0.013173,0.008097,56.811218,1.434525,-149.095078,,,
729863191.749904,1.288721,4.180998,47.056743,-0.062836,0.031204,0.978561,0.016543,-0.013173,0.008097,56.811218,1.434525,-149.095078,,,
729863191.753263,1.288721,4.180998,47.056743,-0.062836,0.031204,0.978561,0.016543,-0.013173,0.008097,56.811218,1.434525,-149.095078,,,
729863191.756572,1.287744,4.18103,47.057858,-0.062836,0.031204,0.978561,-0.016356,-0.014079,-0.001669,56.811218,1.434525,-149.095078,,,
729863191.759911,1.284401,4.17622,47.057901,-0.056976,0.033096,0.968872,-0.016356,-0.014079,-0.001669,56.811218,1.434525,-149.095078,,,
729863191.763271,1.284401,4.17622,47.057901,-0.056976,0.033096,0.968872,-0.016356,-0.014079,-0.001669,56.811218,1.434525,-149.095078,,,
729863191.766573,1.275357,4.175623,47.056652,-0.056976,0.033096,0.968872,-0.029795,-0.009409,-0.012306,56.811218,1.434525,-149.095078,,,
729863191.769908,1.267097,4.172295,47.054432,-0.056793,0.029922,0.973755,-0.029795,-0.009409,-0.012306,56.811218,1.434525,-149.095078,,,
729863191.773309,1.267097,4.172295,47.054432,-0.056793,0.029922,0.973755,-0.029795,-0.009409,-0.012306,56.811218,1.434525,-149.095078,,,
729863191.776571,1.256418,4.170618,47.051194,-0.056793,0.029922,0.973755,-0.027049,0.003125,-0.015605,56.811218,1.434525,-149.095078,,,
729863191.779942,1.247644,4.170352,47.047538,-0.06311,0.022324,0.989334,-0.027049,0.003125,-0.015605,56.811218,1.434525,-149.095078,,,
729863191.783235,1.247644,4.170352,47.047538,-0.06311,0.022324,0.989334,-0.027049,0.003125,-0.015605,57.046112,1.222565,-148.622696,,,
729863191.78665,1.238911,4.17211,47.044401,-0.06311,0.022324,0.989334,-0.009174,0.019959,-0.005161,57.046112,1.222565,-148.622696,,,
729863191.789893,1.234912,4.176921,47.042667,-0.069687,0.013351,1.006653,-0.009174,0.019959,-0.005161,57.046112,1.222565,-148.622696,,,
729863191.793251,1.234912,4.176921,47.042667,-0.069687,0.013351,1.006653,-0.009174,0.019959,-0.005161,57.046112,1.222565,-148.622696,,,
729863191.79658,1.234634,4.182423,47.042468,-0.069687,0.013351,1.006653,0.022471,0.032397,0.001826,57.046112,1.222565,-148.622696,,,
729863191.7999,1.239692,4.190996,47.042752,-0.074631,0.011887,1.018829,0.022471,0.032397,0.001826,57.046112,1.222565,-148.622696,,,
729863191.803358,1.239692,4.190996,47.042752,-0.074631,0.011887,1.018829,0.022471,0.032397,0.001826,57.046112,1.222565,-148.622696,,,
729863191.806582,1.247639,4.200031,47.043042,-0.074631,0.011887,1.018829,0.039647,0.03587,0.000147,57.046112,1.222565,-148.622696,,,
729863191.809909,1.258773,4.209713,47.042806,-0.073578,0.015167,1.013412,0.039647,0.03587,0.000147,57.046112,1.222565,-148.622696,,,
729863191.813325,1.258773,4.209713,47.042806,-0.073578,0.015167,1.013412,0.039647,0.03587,0.000147,57.046112,1.222565,-148.622696,,,
729863191.816589,1.270415,4.217828,47.041672,-0.073578,0.015167,1.013412,0.044648,0.019063,-0.001673,57.046112,1.222565,-148.622696,,,
729863191.819908,1.282899,4.223161,47.04071,-0.078308,0.019455,0.995621,0.044648,0.019063,-0.001673,57.046112,1.222565,-148.622696,,,
729863191.823235,1.282899,4.223161,47.04071,-0.078308,0.019455,0.995621,0.044648,0.019063,-0.001673,57.098511,1.13266,-148.447571,,,
729863191.826642,1.294191,4.224188,47.040449,-0.078308,0.019455,0.995621,0.026275,5e-06,0.002562,57.098511,1.13266,-148.447571,,,
729863191.829901,1.302177,4.223458,47.040872,-0.083481,0.028137,0.973602,0.026275,5e-06,0.002562,57.098511,1.13266,-148.447571,,,
729863191.833247,1.302177,4.223458,47.040872,-0.083481,0.028137,0.973602,0.026275,5e-06,0.002562,57.098511,1.13266,-148.447571,,,
729863191.836586,1.308722,4.215674,47.042482,-0.083481,0.028137,0.973602,-0.006131,-0.029901,0.006217,57.098511,1.13266,-148.447571,,,
729863191.83991,1.308519,4.207323,47.0449,-0.080292,0.030472,0.959213,-0.006131,-0.029901,0.006217,57.098511,1.13266,-148.447571,,,
729863191.843245,1.308519,4.207323,47.0449,-0.080292,0.030472,0.959213,-0.006131,-0.029901,0.006217,57.098511,1.13266,-148.447571,,,
729863191.846591,1.306879,4.190757,47.047849,-0.080292,0.030472,0.959213,-0.028895,-0.045892,0.006681,57.098511,1.13266,-148.447571,,,
729863191.849907,1.298761,4.176882,47.050821,-0.073975,0.032059,0.961899,-0.028895,-0.045892,0.006681,57.098511,1.13266,-148.447571,,,
729863191.853238,1.298761,4.176882,47.050821,-0.073975,0.032059,0.961899,-0.028895,-0.045892,0.006681,57.098511,1.13266,-148.447571,,,
729863191.856593,1.289641,4.157529,47.053304,-0.073975,0.032059,0.961899,-0.045681,-0.042176,-0.002711,57.098511,1.13266,-148.447571,,,
729863191.859909,1.276949,4.144178,47.054625,-0.063049,0.03125,0.972458,-0.045681,-0.042176,-0.002711,57.098511,1.13266,-148.447571,,,
729863191.863242,1.276949,4.144178,47.054625,-0.063049,0.03125,0.972458,-0.045681,-0.042176,-0.002711,56.800659,1.434769,-148.444,,,
729863191.866575,1.261822,4.132481,47.05395,-0.063049,0.03125,0.972458,-0.051451,-0.008503,-0.014885,56.800659,1.434769,-148.444,,,
729863191.869911,1.246315,4.128216,47.051002,-0.04985,0.030838,0.986511,-0.051451,-0.008503,-0.014885,56.800659,1.434769,-148.444,,,
729863191.87325,1.246315,4.128216,47.051002,-0.04985,0.030838,0.986511,-0.051451,-0.008503,-0.014885,56.800659,1.434769,-148.444,,,
729863191.876638,1.228317,4.128401,47.046143,-0.04985,0.030838,0.986511,-0.042039,0.025678,-0.026571,56.800659,1.434769,-148.444,,,
729863191.879907,1.214573,4.133772,47.039944,-0.049759,0.023956,1.00029,-0.042039,0.025678,-0.026571,56.800659,1.434769,-148.444,,,
729863191.883263,1.214573,4.133772,47.039944,-0.049759,0.023956,1.00029,-0.042039,0.025678,-0.026571,56.800659,1.434769,-148.444,,,
729863191.886584,1.20261,4.143291,47.03288,-0.049759,0.023956,1.00029,-0.004099,0.049042,-0.02461,56.800659,1.434769,-148.444,,,
729863191.88991,1.198874,4.155787,47.025843,-0.065521,0.011429,1.018799,-0.004099,0.049042,-0.02461,56.800659,1.434769,-148.444,,,
729863191.893251,1.198874,4.155787,47.025843,-0.065521,0.011429,1.018799,-0.004099,0.049042,-0.02461,56.800659,1.434769,-148.444,,,
729863191.896587,1.199619,4.170009,47.020095,-0.065521,0.011429,1.018799,0.024301,0.053134,-0.012594,56.800659,1.434769,-148.444,,,
729863191.899905,1.204891,4.18512,47.015764,-0.081131,0.009598,1.017624,0.024301,0.053134,-0.012594,56.800659,1.434769,-148.444,,,
729863191.903232,1.204891,4.18512,47.015764,-0.081131,0.009598,1.017624,0.024301,0.053134,-0.012594,56.800659,1.434769,-148.444,,,
729863191.906596,1.211907,4.203051,47.012687,-0.081131,0.009598,1.017624,0.022617,0.052403,-0.00898,57.00528,1.440842,-148.816971,,,
729863191.909907,1.218718,4.217973,47.010208,-0.083847,0.016251,0.999344,0.022617,0.052403,-0.00898,57.00528,1.440842,-148.816971,,,
729863191.913304,1.218718,4.217973,47.010208,-0.083847,0.016251,0.999344,0.022617,0.052403,-0.00898,57.00528,1.440842,-148.816971,,,
729863191.916597,1.226613,4.235051,47.007311,-0.083847,0.016251,0.999344,0.012415,0.033341,-0.013354,57.00528,1.440842,-148.816971,,,
729863191.919904,1.230103,4.245091,47.003955,-0.082993,0.019913,0.988007,0.012415,0.033341,-0.013354,57.00528,1.440842,-148.816971,,,
729863191.92325,1.230103,4.245091,47.003955,-0.082993,0.019913,0.988007,0.012415,0.033341,-0.013354,57.00528,1.440842,-148.816971,,,
729863191.926632,1.23352,4.253078,47.000567,-0.082993,0.019913,0.988007,-0.003596,-7.5e-05,-0.009831,57.00528,1.440842,-148.816971,,,
729863191.929904,1.232755,4.253613,46.997912,-0.094147,0.021149,0.979919,-0.003596,-7.5e-05,-0.009831,57.00528,1.440842,-148.816971,,,
729863191.933318,1.232755,4.253613,46.997912,-0.094147,0.021149,0.979919,-0.003596,-7.5e-05,-0.009831,57.00528,1.440842,-148.816971,,,
729863191.936605,1.234905,4.249349,46.997122,-0.094147,0.021149,0.979919,0.001229,-0.037605,0.012351,57.00528,1.440842,-148.816971,,,
729863191.939909,1.235169,4.239517,46.99944,-0.102478,0.018417,0.989563,0.001229,-0.037605,0.012351,57.00528,1.440842,-148.816971,,,
729863191.943261,1.235169,4.239517,46.99944,-0.102478,0.018417,0.989563,0.001229,-0.037605,0.012351,57.00528,1.440842,-148.816971,,,
729863191.946623,1.239445,4.221684,47.004897,-0.102478,0.018417,0.989563,0.014441,-0.04582,0.024485,56.92984,1.307083,-149.136002,,,
729863191.949904,1.243285,4.207384,47.012208,-0.096603,0.016708,1.005585,0.014441,-0.04582,0.024485,56.92984,1.307083,-149.136002,,,
729863191.953238,1.243285,4.207384,47.012208,-0.096603,0.016708,1.005585,0.014441,-0.04582,0.024485,56.92984,1.307083,-149.136002,,,
729863191.956594,1.251206,4.185931,47.021407,-0.096603,0.016708,1.005585,0.016848,-0.035396,0.035672,56.92984,1.307083,-149.136002,,,
729863191.959908,1.256793,4.174026,47.031558,-0.082825,0.019669,1.005005,0.016848,-0.035396,0.035672,56.92984,1.307083,-149.136002,,,
729863191.963336,1.256793,4.174026,47.031558,-0.082825,0.019669,1.005005,0.016848,-0.035396,0.035672,56.92984,1.307083,-149.136002,,,
729863191.96658,1.260546,4.15724,47.041915,-0.082825,0.019669,1.005005,0.003616,-0.015902,0.02917,56.92984,1.307083,-149.136002,,,
729863191.969905,1.262277,4.150622,47.050843,-0.056931,0.025665,0.992569,0.003616,-0.015902,0.02917,56.92984,1.307083,-149.136002,,,
729863191.973246,1.262277,4.150622,47.050843,-0.056931,0.025665,0.992569,0.003616,-0.015902,0.02917,56.92984,1.307083,-149.136002,,,
729863191.976624,1.258398,4.14836,47.056647,-0.056931,0.025665,0.992569,-0.015562,0.027052,0.004825,56.92984,1.307083,-149.136002,,,
729863191.979904,1.255068,4.154186,47.059151,-0.043655,0.029251,0.988785,-0.015562,0.027052,0.004825,56.92984,1.307083,-149.136002,,,
729863191.983249,1.255068,4.154186,47.059151,-0.043655,0.029251,0.988785,-0.015562,0.027052,0.004825,56.92984,1.307083,-149.136002,,,
729863191.986594,1.245916,4.166894,47.059405,-0.043655,0.029251,0.988785,-0.030054,0.041148,-0.008357,56.873093,1.402527,-148.980072,,,
729863191.9899,1.237124,4.177606,47.058217,-0.049789,0.026535,0.984146,-0.030054,0.041148,-0.008357,56.873093,1.402527,-148.980072,,,
729863191.99327,1.237124,4.177606,47.058217,-0.049789,0.026535,0.984146,-0.030054,0.041148,-0.008357,56.873093,1.402527,-148.980072,,,
729863191.996654,1.226797,4.19273,47.056267,-0.049789,0.026535,0.984146,-0.025584,0.045046,-0.011456,56.873093,1.402527,-148.980072,,,
729863191.999897,1.218799,4.204934,47.054515,-0.066803,0.022385,0.992691,-0.025584,0.045046,-0.011456,56.873093,1.402527,-148.980072,,,
729863192.003245,1.218799,4.204934,47.054515,-0.066803,0.022385,0.992691,-0.025584,0.045046,-0.011456,56.873093,1.402527,-148.980072,,,
729863192.00657,1.213452,4.220412,47.053703,-0.066803,0.022385,0.992691,-0.000668,0.029138,-0.002547,56.873093,1.402527,-148.980072,,,
729863192.009906,1.211673,4.229205,47.053722,-0.077454,0.014465,1.01474,-0.000668,0.029138,-0.002547,56.873093,1.402527,-148.980072,,,
729863192.013301,1.211673,4.229205,47.053722,-0.077454,0.014465,1.01474,-0.000668,0.029138,-0.002547,56.873093,1.402527,-148.980072,,,
729863192.016574,1.212443,4.246668,47.052946,-0.077454,0.014465,1.01474,0.014313,0.046454,-0.010089,56.873093,1.402527,-148.980072,,,
729863192.01997,1.215757,4.257725,47.051023,-0.075058,0.017014,1.016144,0.014313,0.046454,-0.010089,56.873093,1.402527,-148.980072,,,
729863192.023281,1.215757,4.257725,47.051023,-0.075058,0.017014,1.016144,0.014313,0.046454,-0.010089,56.873093,1.402527,-148.980072,,,
729863192.02668,1.221317,4.272901,47.047938,-0.075058,0.017014,1.016144,0.030435,-0.001732,-0.008657,56.873093,1.402527,-148.980072,,,
729863192.029906,1.229793,4.273178,47.044902,-0.075027,0.018738,1.00499,0.030435,-0.001732,-0.008657,57.043533,1.384964,-148.966522,,,
729863192.033262,1.229793,4.273178,47.044902,-0.075027,0.018738,1.00499,0.030435,-0.001732,-0.008657,57.043533,1.384964,-148.966522,,,
729863192.036587,1.237929,4.276652,47.041295,-0.075027,0.018738,1.00499,0.03831,-0.023171,-0.011955,57.043533,1.384964,-148.966522,,,
729863192.039908,1.248157,4.270324,47.038037,-0.08931,0.023239,1.006073,0.03831,-0.023171,-0.011955,57.043533,1.384964,-148.966522,,,
729863192.043249,1.248157,4.270324,47.038037,-0.08931,0.023239,1.006073,0.03831,-0.023171,-0.011955,57.043533,1.384964,-148.966522,,,
729863192.046582,1.260165,4.25958,47.036384,-0.08931,0.023239,1.006073,0.044308,-0.05409,0.006415,57.043533,1.384964,-148.966522,,,
729863192.049906,1.273505,4.244551,47.036725,-0.088654,0.022156,1.001953,0.044308,-0.05409,0.006415,57.043533,1.384964,-148.966522,,,
729863192.053239,1.273505,4.244551,47.036725,-0.088654,0.022156,1.001953,0.044308,-0.05409,0.006415,57.043533,1.384964,-148.966522,,,
729863192.056602,1.287868,4.220639,47.039403,-0.088654,0.022156,1.001953,0.038225,-0.052035,0.015037,57.043533,1.384964,-148.966522,,,
729863192.0599,1.299807,4.20442,47.043239,-0.082153,0.02417,1.00119,0.038225,-0.052035,0.015037,57.043533,1.384964,-148.966522,,,
729863192.063348,1.299807,4.20442,47.043239,-0.082153,0.02417,1.00119,0.038225,-0.052035,0.015037,57.043533,1.384964,-148.966522,,,
729863192.066593,1.312126,4.181635,47.047704,-0.082153,0.02417,1.00119,0.036012,-0.023142,0.017438,57.043533,1.384964,-148.966522,,,
729863192.069915,1.322545,4.173047,47.052122,-0.06308,0.028137,1.009537,0.036012,-0.023142,0.017438,56.920563,1.305435,-148.856567,,,
729863192.073254,1.322545,4.173047,47.052122,-0.06308,0.028137,1.009537,0.036012,-0.023142,0.017438,56.920563,1.305435,-148.856567,,,
729863192.076651,1.333585,4.163278,47.056603,-0.06308,0.028137,1.009537,0.034523,0.010723,0.014847,56.920563,1.305435,-148.856567,,,
729863192.079917,1.343862,4.164357,47.060863,-0.056564,0.026306,1.010208,0.034523,0.010723,0.014847,56.920563,1.305435,-148.856567,,,
729863192.083256,1.343862,4.164357,47.060863,-0.056564,0.026306,1.010208,0.034523,0.010723,0.014847,56.920563,1.305435,-148.856567,,,
729863192.086603,1.353546,4.16934,47.064642,-0.056564,0.026306,1.010208,0.032585,0.036978,0.008584,56.920563,1.305435,-148.856567,,,
729863192.089902,1.363574,4.178491,47.067338,-0.051926,0.029037,1.007401,0.032585,0.036978,0.008584,56.920563,1.305435,-148.856567,,,
729863192.093237,1.363574,4.178491,47.067338,-0.051926,0.029037,1.007401,0.032585,0.036978,0.008584,56.920563,1.305435,-148.856567,,,
729863192.096593,1.370369,4.189896,47.068154,-0.051926,0.029037,1.007401,0.034589,0.023059,-0.007242,56.920563,1.305435,-148.856567,,,
729863192.099906,1.380207,4.197062,47.06632,-0.048309,0.029968,0.998047,0.034589,0.023059,-0.007242,56.920563,1.305435,-148.856567,,,
729863192.103238,1.380207,4.197062,47.06632,-0.048309,0.029968,0.998047,0.034589,0.023059,-0.007242,56.920563,1.305435,-148.856567,,,
729863192.106597,1.38978,4.198472,47.061662,-0.048309,0.029968,0.998047,0.041746,-0.014911,-0.024038,56.920563,1.305435,-148.856567,,,
729863192.109917,1.401591,4.195023,47.054841,-0.04866,0.026321,0.987213,0.041746,-0.014911,-0.024038,57.030289,1.431595,-148.908157,,,
729863192.113297,1.401591,4.195023,47.054841,-0.04866,0.026321,0.987213,0.041746,-0.014911,-0.024038,57.030289,1.431595,-148.908157,,,
729863192.11657,1.412115,4.189021,47.04585,-0.04866,0.026321,0.987213,0.042832,-0.034022,-0.035978,57.030289,1.431595,-148.908157,,,
729863192.11991,1.423766,4.17877,47.034977,-0.052094,0.024399,0.989853,0.042832,-0.034022,-0.035978,57.030289,1.431595,-148.908157,,,
729863192.123252,1.423766,4.17877,47.034977,-0.052094,0.024399,0.989853,0.042832,-0.034022,-0.035978,57.030289,1.431595,-148.908157,,,
729863192.126628,1.434991,4.174412,47.023684,-0.052094,0.024399,0.989853,0.038143,-0.018651,-0.031932,57.030289,1.431595,-148.908157,,,
729863192.129943,1.445078,4.167875,47.013518,-0.058884,0.022369,1.001434,0.038143,-0.018651,-0.031932,57.030289,1.431595,-148.908157,,,
729863192.133251,1.445078,4.167875,47.013518,-0.058884,0.022369,1.001434,0.038143,-0.018651,-0.031932,57.030289,1.431595,-148.908157,,,
729863192.136596,1.452876,4.170188,47.005052,-0.058884,0.022369,1.001434,0.036455,0.01203,-0.020808,57.030289,1.431595,-148.908157,,,
729863192.139913,1.462507,4.171873,46.998129,-0.061905,0.020554,1.006897,0.036455,0.01203,-0.020808,57.030289,1.431595,-148.908157,,,
729863192.143255,1.462507,4.171873,46.998129,-0.061905,0.020554,1.006897,0.036455,0.01203,-0.020808,57.030289,1.431595,-148.908157,,,
729863192.146587,1.474877,4.178903,46.991746,-0.061905,0.020554,1.006897,0.059352,0.029938,-0.015676,57.030289,1.431595,-148.908157,,,
729863192.149912,1.490592,4.18651,46.985684,-0.067749,0.016235,1.024796,0.059352,0.029938,-0.015676,56.958511,0.923141,-148.979477,,,
729863192.153238,1.490592,4.18651,46.985684,-0.067749,0.016235,1.024796,0.059352,0.029938,-0.015676,56.958511,0.923141,-148.979477,,,
729863192.156597,1.509967,4.189779,46.980228,-0.067749,0.016235,1.024796,0.079356,0.028798,-0.011934,56.958511,0.923141,-148.979477,,,
729863192.15991,1.531833,4.197243,46.97532,-0.077148,0.013351,1.022736,0.079356,0.028798,-0.011934,56.958511,0.923141,-148.979477,,,
729863192.163331,1.531833,4.197243,46.97532,-0.077148,0.013351,1.022736,0.079356,0.028798,-0.011934,56.958511,0.923141,-148.979477,,,
729863192.166587,1.555573,4.198136,46.971091,-0.077148,0.013351,1.022736,0.094454,0.021148,-0.00715,56.958511,0.923141,-148.979477,,,
729863192.169913,1.581167,4.20352,46.967164,-0.080688,0.018127,1.010483,0.094454,0.021148,-0.00715,56.958511,0.923141,-148.979477,,,
729863192.173256,1.581167,4.20352,46.967164,-0.080688,0.018127,1.010483,0.094454,0.021148,-0.00715,56.958511,0.923141,-148.979477,,,
729863192.17664,1.607994,4.199431,46.963387,-0.080688,0.018127,1.010483,0.093447,0.010198,-0.015335,56.958511,0.923141,-148.979477,,,
729863192.179905,1.634705,4.201389,46.958076,-0.074509,0.025528,1.000916,0.093447,0.010198,-0.015335,56.958511,0.923141,-148.979477,,,
729863192.183238,1.634705,4.201389,46.958076,-0.074509,0.025528,1.000916,0.093447,0.010198,-0.015335,56.958511,0.923141,-148.979477,,,
729863192.186577,1.662292,4.194036,46.950644,-0.074509,0.025528,1.000916,0.09507,0.005658,-0.033243,56.958511,0.923141,-148.979477,,,
729863192.189903,1.688631,4.194626,46.940809,-0.071411,0.029175,0.992676,0.09507,0.005658,-0.033243,56.958511,0.923141,-148.979477,,,
729863192.193241,1.688631,4.194626,46.940809,-0.071411,0.029175,0.992676,0.09507,0.005658,-0.033243,57.025696,1.024277,-148.611313,,,
729863192.196588,1.709962,4.18779,46.930477,-0.071411,0.029175,0.992676,0.049729,0.009201,-0.031204,57.025696,1.024277,-148.611313,,,
729863192.199902,1.725205,4.189507,46.920654,-0.084915,0.030151,0.964523,0.049729,0.009201,-0.031204,57.025696,1.024277,-148.611313,,,
729863192.203235,1.725205,4.189507,46.920654,-0.084915,0.030151,0.964523,0.049729,0.009201,-0.031204,57.025696,1.024277,-148.611313,,,
729863192.206573,1.731447,4.185367,46.912994,-0.084915,0.030151,0.964523,-0.006297,0.004471,-0.014353,57.025696,1.024277,-148.611313,,,
729863192.209907,1.731809,4.186571,46.908308,-0.100159,0.045258,0.948639,-0.006297,0.004471,-0.014353,57.025696,1.024277,-148.611313,,,
729863192.213298,1.731809,4.186571,46.908308,-0.100159,0.045258,0.948639,-0.006297,0.004471,-0.014353,57.025696,1.024277,-148.611313,,,
729863192.216574,1.724467,4.181144,46.906851,-0.100159,0.045258,0.948639,-0.034032,-0.011423,-0.000874,57.025696,1.024277,-148.611313,,,
729863192.219904,1.715574,4.17782,46.90726,-0.098724,0.038803,0.957199,-0.034032,-0.011423,-0.000874,57.025696,1.024277,-148.611313,,,
729863192.223251,1.715574,4.17782,46.90726,-0.098724,0.038803,0.957199,-0.034032,-0.011423,-0.000874,57.025696,1.024277,-148.611313,,,
729863192.226636,1.703341,4.170409,46.908431,-0.098724,0.038803,0.957199,-0.03247,-0.014976,0.004823,57.025696,1.024277,-148.611313,,,
729863192.229899,1.694038,4.16569,46.909875,-0.095856,0.031815,0.978287,-0.03247,-0.014976,0.004823,57.025696,1.024277,-148.611313,,,
729863192.233258,1.694038,4.16569,46.909875,-0.095856,0.031815,0.978287,-0.03247,-0.014976,0.004823,56.983994,0.922531,-148.550781,,,
729863192.236581,1.682223,4.159664,46.912233,-0.095856,0.031815,0.978287,-0.018643,-0.008589,0.010271,56.983994,0.922531,-148.550781,,,
729863192.239911,1.675723,4.1559,46.915322,-0.088608,0.029343,0.989136,-0.018643,-0.008589,0.010271,56.983994,0.922531,-148.550781,,,
729863192.243249,1.675723,4.1559,46.915322,-0.088608,0.029343,0.989136,-0.018643,-0.008589,0.010271,56.983994,0.922531,-148.550781,,,
729863192.24657,1.668738,4.155568,46.919441,-0.088608,0.029343,0.989136,-0.000234,0.007352,0.019417,56.983994,0.922531,-148.550781,,,
729863192.249902,1.667943,4.156181,46.924864,-0.083679,0.026672,1.002533,-0.000234,0.007352,0.019417,56.983994,0.922531,-148.550781,,,
729863192.253236,1.667943,4.156181,46.924864,-0.083679,0.026672,1.002533,-0.000234,0.007352,0.019417,56.983994,0.922531,-148.550781,,,
729863192.25657,1.667067,4.162136,46.931053,-0.083679,0.026672,1.002533,0.008314,0.027343,0.027093,56.983994,0.922531,-148.550781,,,
729863192.259904,1.670135,4.168848,46.938352,-0.083557,0.022705,1.002136,0.008314,0.027343,0.027093,56.983994,0.922531,-148.550781,,,
729863192.263337,1.670135,4.168848,46.938352,-0.083557,0.022705,1.002136,0.008314,0.027343,0.027093,56.983994,0.922531,-148.550781,,,
729863192.266588,1.673552,4.176729,46.945869,-0.083557,0.022705,1.002136,0.01594,0.032232,0.024394,56.983994,0.922531,-148.550781,,,
729863192.269908,1.677915,4.18458,46.952596,-0.072418,0.028137,0.994705,0.01594,0.032232,0.024394,56.983994,0.922531,-148.550781,,,
729863192.27325,1.677915,4.18458,46.952596,-0.072418,0.028137,0.994705,0.01594,0.032232,0.024394,57.021378,1.053421,-148.728836,,,
729863192.276579,1.682057,4.192321,46.958187,-0.072418,0.028137,0.994705,0.01031,0.027401,0.010006,57.021378,1.053421,-148.728836,,,
729863192.279729,1.685183,4.199784,46.961693,-0.064011,0.027679,0.991119,0.01031,0.027401,0.010006,57.021378,1.053421,-148.728836,,,
729863192.283292,1.685183,4.199784,46.961693,-0.064011,0.027679,0.991119,0.01031,0.027401,0.010006,57.021378,1.053421,-148.728836,,,
729863192.286585,1.688561,4.212969,46.962905,-0.064011,0.027679,0.991119,-0.001969,0.020725,-0.003482,57.021378,1.053421,-148.728836,,,
729863192.2899,1.688619,4.218319,46.962826,-0.064117,0.029282,0.989548,-0.001969,0.020725,-0.003482,57.021378,1.053421,-148.728836,,,
729863192.293257,1.688619,4.218319,46.962826,-0.064117,0.029282,0.989548,-0.001969,0.020725,-0.003482,57.021378,1.053421,-148.728836,,,
729863192.29659,1.690313,4.231859,46.961833,-0.064117,0.029282,0.989548,-0.021479,0.001869,-0.003568,57.021378,1.053421,-148.728836,,,
729863192.299942,1.684165,4.232738,46.961316,-0.069321,0.028412,0.987091,-0.021479,0.001869,-0.003568,57.021378,1.053421,-148.728836,,,
729863192.303348,1.684165,4.232738,46.961316,-0.069321,0.028412,0.987091,-0.021479,0.001869,-0.003568,57.021378,1.053421,-148.728836,,,
729863192.306578,1.677724,4.239816,46.961283,-0.069321,0.028412,0.987091,-0.035343,-0.014996,-0.003125,57.021378,1.053421,-148.728836,,,
729863192.309901,1.667441,4.235266,46.961633,-0.070251,0.030975,0.984085,-0.035343,-0.014996,-0.003125,57.021378,1.053421,-148.728836,,,
729863192.313239,1.667441,4.235266,46.961633,-0.070251,0.030975,0.984085,-0.035343,-0.014996,-0.003125,57.070496,0.985275,-148.557358,,,
729863192.316679,1.656097,4.235816,46.961155,-0.070251,0.030975,0.984085,-0.043818,-0.026425,-0.012277,57.070496,0.985275,-148.557358,,,
729863192.319951,1.643527,4.227613,46.959987,-0.064835,0.030304,0.991821,-0.043818,-0.026425,-0.012277,57.070496,0.985275,-148.557358,,,
729863192.32325,1.643527,4.227613,46.959987,-0.064835,0.030304,0.991821,-0.043818,-0.026425,-0.012277,57.070496,0.985275,-148.557358,,,
729863192.326583,1.631274,4.223005,46.957791,-0.064835,0.030304,0.991821,-0.037376,-0.025308,-0.012441,57.070496,0.985275,-148.557358,,,
729863192.32997,1.620464,4.214645,46.955591,-0.062454,0.027649,1.000336,-0.037376,-0.025308,-0.012441,57.070496,0.985275,-148.557358,,,
729863192.333242,1.620464,4.214645,46.955591,-0.062454,0.027649,1.000336,-0.037376,-0.025308,-0.012441,57.070496,0.985275,-148.557358,,,
729863192.336596,1.611519,4.213144,46.952781,-0.062454,0.027649,1.000336,-0.012103,0.00945,-0.011092,57.070496,0.985275,-148.557358,,,
729863192.34002,1.606705,4.213625,46.949821,-0.060837,0.024231,1.016571,-0.012103,0.00945,-0.011092,57.070496,0.985275,-148.557358,,,
729863192.343276,1.606705,4.213625,46.949821,-0.060837,0.024231,1.016571,-0.012103,0.00945,-0.011092,57.070496,0.985275,-148.557358,,,
729863192.346599,1.604183,4.221688,46.947235,-0.060837,0.024231,1.016571,0.003575,0.043561,-0.007933,57.070496,0.985275,-148.557358,,,
729863192.349955,1.604879,4.231702,46.945117,-0.064621,0.022003,1.019836,0.003575,0.043561,-0.007933,57.070496,0.985275,-148.557358,,,
729863192.353342,1.604879,4.231702,46.945117,-0.064621,0.022003,1.019836,0.003575,0.043561,-0.007933,57.070496,0.985275,-148.557358,,,
729863192.356578,1.606379,4.24473,46.943449,-0.064621,0.022003,1.019836,0.003191,0.066469,-0.000257,56.998962,1.105637,-148.396515,,,
729863192.359914,1.607122,4.262397,46.942753,-0.07196,0.026978,1.002319,0.003191,0.066469,-0.000257,56.998962,1.105637,-148.396515,,,
729863192.363244,1.607122,4.262397,46.942753,-0.07196,0.026978,1.002319,0.003191,0.066469,-0.000257,56.998962,1.105637,-148.396515,,,
729863192.366625,1.606477,4.278538,46.943627,-0.07196,0.026978,1.002319,-0.008644,0.070225,0.004714,56.998962,1.105637,-148.396515,,,
729863192.370008,1.604463,4.298252,46.945318,-0.074203,0.031662,0.985718,-0.008644,0.070225,0.004714,56.998962,1.105637,-148.396515,,,
729863192.373244,1.604463,4.298252,46.945318,-0.074203,0.031662,0.985718,-0.008644,0.070225,0.004714,56.998962,1.105637,-148.396515,,,
729863192.37658,1.600776,4.312677,46.947482,-0.074203,0.031662,0.985718,-0.02375,0.040732,0.004019,56.998962,1.105637,-148.396515,,,
729863192.379906,1.593669,4.324905,46.949287,-0.072647,0.0354,0.966812,-0.02375,0.040732,0.004019,56.998962,1.105637,-148.396515,,,
729863192.383242,1.593669,4.324905,46.949287,-0.072647,0.0354,0.966812,-0.02375,0.040732,0.004019,56.998962,1.105637,-148.396515,,,
729863192.386583,1.584518,4.329119,46.950297,-0.072647,0.0354,0.966812,-0.038499,-0.001524,-0.005863,56.998962,1.105637,-148.396515,,,
729863192.389926,1.573476,4.328715,46.950456,-0.07811,0.034073,0.964249,-0.038499,-0.001524,-0.005863,56.998962,1.105637,-148.396515,,,
729863192.393303,1.573476,4.328715,46.950456,-0.07811,0.034073,0.964249,-0.038499,-0.001524,-0.005863,56.998962,1.105637,-148.396515,,,
729863192.396574,1.562695,4.321494,46.950419,-0.07811,0.034073,0.964249,-0.038758,-0.026266,-0.003846,57.336212,0.880753,-148.472885,,,
729863192.39992,1.550584,4.313957,46.950615,-0.078445,0.030273,0.976501,-0.038758,-0.026266,-0.003846,57.336212,0.880753,-148.472885,,,
729863192.403254,1.550584,4.313957,46.950615,-0.078445,0.030273,0.976501,-0.038758,-0.026266,-0.003846,57.336212,0.880753,-148.472885,,,
729863192.406652,1.539176,4.302399,46.951231,-0.078445,0.030273,0.976501,-0.0426,-0.018512,-0.007181,57.336212,0.880753,-148.472885,,,
729863192.409969,1.526986,4.295766,46.951153,-0.067337,0.027985,0.990036,-0.0426,-0.018512,-0.007181,57.336212,0.880753,-148.472885,,,
729863192.413262,1.526986,4.295766,46.951153,-0.067337,0.027985,0.990036,-0.0426,-0.018512,-0.007181,57.336212,0.880753,-148.472885,,,
729863192.416584,1.514934,4.287436,46.949557,-0.067337,0.027985,0.990036,-0.039864,0.005669,-0.021008,57.336212,0.880753,-148.472885,,,
729863192.419903,1.503374,4.286939,46.945822,-0.06279,0.025711,1.004608,-0.039864,0.005669,-0.021008,57.336212,0.880753,-148.472885,,,
729863192.423247,1.503374,4.286939,46.945822,-0.06279,0.025711,1.004608,-0.039864,0.005669,-0.021008,57.336212,0.880753,-148.472885,,,
729863192.426575,1.493092,4.285925,46.940565,-0.06279,0.025711,1.004608,-0.014907,0.034386,-0.02544,57.336212,0.880753,-148.472885,,,
729863192.429942,1.487893,4.293767,46.9343,-0.070023,0.019943,1.021774,-0.014907,0.034386,-0.02544,57.336212,0.880753,-148.472885,,,
729863192.433279,1.487893,4.293767,46.9343,-0.070023,0.019943,1.021774,-0.014907,0.034386,-0.02544,57.336212,0.880753,-148.472885,,,
729863192.436634,1.486249,4.301139,46.928553,-0.070023,0.019943,1.021774,0.010166,0.037735,-0.012229,57.225342,0.970016,-148.614014,,,
729863192.439947,1.487853,4.311416,46.924386,-0.087997,0.017227,1.019226,0.010166,0.037735,-0.012229,57.225342,0.970016,-148.614014,,,
729863192.443252,1.487853,4.311416,46.924386,-0.087997,0.017227,1.019226,0.010166,0.037735,-0.012229,57.225342,0.970016,-148.614014,,,
729863192.446574,1.491097,4.319688,46.922273,-0.087997,0.017227,1.019226,0.010465,0.023403,-0.000358,57.225342,0.970016,-148.614014,,,
729863192.44991,1.491097,4.319688,46.922273,-0.087997,0.017227,1.019226,0.010465,0.023403,-0.000358,57.225342,0.970016,-148.614014,,,
729863192.453249,1.493885,4.325947,46.922124,-0.095627,0.023438,1.003357,0.010465,0.023403,-0.000358,57.225342,0.970016,-148.614014,,,
729863192.456578,1.49923,4.329301,46.923277,-0.095627,0.023438,1.003357,0.015078,0.006584,0.005741,57.225342,0.970016,-148.614014,,,
729863192.459982,1.503546,4.331033,46.92482,-0.092133,0.02243,1.000473,0.015078,0.006584,0.005741,57.225342,0.970016,-148.614014,,,
729863192.463248,1.503546,4.331033,46.92482,-0.092133,0.02243,1.000473,0.015078,0.006584,0.005741,57.225342,0.970016,-148.614014,,,
729863192.466591,1.511426,4.330336,46.926143,-0.092133,0.02243,1.000473,0.021161,-0.012745,0.002944,57.225342,0.970016,-148.614014,,,
729863192.470026,1.511426,4.330336,46.927238,-0.092133,0.02243,1.000473,0.021161,-0.012745,0.002944,57.225342,0.970016,-148.614014,,,
729863192.473311,1.517184,4.326624,46.927238,-0.086441,0.027054,1.000366,0.021161,-0.012745,0.002944,57.225342,0.970016,-148.614014,,,
729863192.476581,1.525106,4.322038,46.927938,-0.086441,0.027054,1.000366,0.028635,-0.025745,0.002226,57.225342,0.970016,-148.614014,,,
729863192.479962,1.525106,4.314442,46.928521,-0.086441,0.027054,1.000366,0.028635,-0.025745,0.002226,57.101669,0.807159,-148.92244,,,
729863192.483243,1.532405,4.314442,46.928521,-0.078812,0.027664,1.006119,0.028635,-0.025745,0.002226,57.101669,0.807159,-148.92244,,,
729863192.486585,1.541725,4.308522,46.929093,-0.078812,0.027664,1.006119,0.034238,-0.007719,0.00218,57.101669,0.807159,-148.92244,,,
729863192.489906,1.541725,4.308522,46.929093,-0.078812,0.027664,1.006119,0.034238,-0.007719,0.00218,57.101669,0.807159,-148.92244,,,
729863192.493246,1.550628,4.304529,46.92989,-0.073502,0.022888,1.015152,0.034238,-0.007719,0.00218,57.101669,0.807159,-148.92244,,,
729863192.496583,1.55928,4.300357,46.930588,-0.073502,0.022888,1.015152,0.016951,0.011641,0.002535,57.101669,0.807159,-148.92244,,,
729863192.499952,1.55928,4.300357,46.930588,-0.073502,0.022888,1.015152,0.016951,0.011641,0.002535,57.101669,0.807159,-148.92244,,,
729863192.503232,1.565151,4.301791,46.931844,-0.068207,0.029785,1.003983,0.016951,0.011641,0.002535,57.101669,0.807159,-148.92244,,,
729863192.506588,1.567106,4.301967,46.934304,-0.068207,0.029785,1.003983,-0.003257,0.028323,0.005702,57.101669,0.807159,-148.92244,,,
729863192.509936,1.567106,4.301967,46.934304,-0.068207,0.029785,1.003983,-0.003257,0.028323,0.005702,57.101669,0.807159,-148.92244,,,
729863192.513234,1.566881,4.308174,46.936483,-0.069977,0.032074,0.993378,-0.003257,0.028323,0.005702,57.101669,0.807159,-148.92244,,,
729863192.516571,1.561534,4.314975,46.938468,-0.069977,0.032074,0.993378,-0.020992,0.026659,0.00562,57.101669,0.807159,-148.92244,,,
729863192.520041,1.561534,4.322407,46.940421,-0.069977,0.032074,0.993378,-0.020992,0.026659,0.00562,57.313858,1.026474,-148.555893,,,
729863192.523296,1.556257,4.322407,46.940421,-0.074997,0.032104,0.988205,-0.020992,0.026659,0.00562,57.313858,1.026474,-148.555893,,,
729863192.526591,1.546871,4.333391,46.942612,-0.074997,0.032104,0.988205,-0.034734,0.022717,0.009866,57.313858,1.026474,-148.555893,,,
729863192.529705,1.546871,4.333391,46.942612,-0.074997,0.032104,0.988205,-0.034734,0.022717,0.009866,57.313858,1.026474,-148.555893,,,
729863192.533275,1.53794,4.338899,46.946407,-0.084824,0.032181,0.986389,-0.034734,0.022717,0.009866,57.313858,1.026474,-148.555893,,,
729863192.536655,1.527471,4.348894,46.951794,-0.084824,0.032181,0.986389,-0.034214,0.007094,0.020458,57.313858,1.026474,-148.555893,,,
729863192.539962,1.527471,4.348894,46.951794,-0.084824,0.032181,0.986389,-0.034214,0.007094,0.020458,57.313858,1.026474,-148.555893,,,
729863192.543241,1.517998,4.350491,46.958575,-0.0914,0.032486,0.986816,-0.034214,0.007094,0.020458,57.313858,1.026474,-148.555893,,,
729863192.546578,1.50876,4.354598,46.966303,-0.0914,0.032486,0.986816,-0.02021,-0.006822,0.023023,57.313858,1.026474,-148.555893,,,
729863192.549928,1.50876,4.354598,46.966303,-0.0914,0.032486,0.986816,-0.02021,-0.006822,0.023023,57.313858,1.026474,-148.555893,,,
729863192.553241,1.502706,4.352145,46.973978,-0.084915,0.027939,0.998199,-0.02021,-0.006822,0.023023,57.313858,1.026474,-148.555893,,,
729863192.556579,1.500126,4.352323,46.980116,-0.084915,0.027939,0.998199,0.007507,-0.004003,0.015347,57.313858,1.026474,-148.555893,,,
729863192.559947,1.500126,4.352323,46.980116,-0.084915,0.027939,0.998199,0.007507,-0.004003,0.015347,57.154633,1.266266,-148.901611,,,
729863192.563301,1.501594,4.350035,46.984896,-0.074631,0.022293,1.020691,0.007507,-0.004003,0.015347,57.154633,1.266266,-148.901611,,,
729863192.566572,1.507527,4.349006,46.987889,-0.074631,0.022293,1.020691,0.03535,0.005213,0.005822,57.154633,1.266266,-148.901611,,,
729863192.569924,1.507527,4.349006,46.987889,-0.074631,0.022293,1.020691,0.03535,0.005213,0.005822,57.154633,1.266266,-148.901611,,,
729863192.573249,1.517191,4.349532,46.989423,-0.069916,0.018448,1.027863,0.03535,0.005213,0.005822,57.154633,1.266266,-148.901611,,,
729863192.576578,1.529437,4.350273,46.990724,-0.069916,0.018448,1.027863,0.061806,0.019148,0.012185,57.154633,1.266266,-148.901611,,,
729863192.579917,1.529437,4.350273,46.990724,-0.069916,0.018448,1.027863,0.061806,0.019148,0.012185,57.154633,1.266266,-148.901611,,,
729863192.583259,1.545705,4.354456,46.992766,-0.074432,0.016113,1.027252,0.061806,0.019148,0.012185,57.154633,1.266266,-148.901611,,,
729863192.586586,1.565634,4.3569,46.996074,-0.074432,0.016113,1.027252,0.07069,0.019015,0.019315,57.154633,1.266266,-148.901611,,,
729863192.590001,1.565634,4.3569,46.996074,-0.074432,0.016113,1.027252,0.07069,0.019015,0.019315,57.154633,1.266266,-148.901611,,,
729863192.593243,1.586157,4.362001,47.0,-0.07637,0.019638,1.01326,0.07069,0.019015,0.019315,57.154633,1.266266,-148.901611,,,
729863192.59658,1.607385,4.364066,47.003916,-0.07637,0.019638,1.01326,0.059761,0.00313,0.013078,57.154633,1.266266,-148.901611,,,
729863192.599909,1.607385,4.364066,47.003916,-0.07637,0.019638,1.01326,0.059761,0.00313,0.013078,57.236389,0.990051,-148.670044,,,
729863192.603327,1.625392,4.364872,47.007302,-0.069366,0.028427,0.988434,0.059761,0.00313,0.013078,57.236389,0.990051,-148.670044,,,
729863192.606586,1.641274,4.363172,47.009649,-0.069366,0.028427,0.988434,0.036991,-0.020894,0.006195,57.236389,0.990051,-148.670044,,,
729863192.609932,1.641274,4.363172,47.009649,-0.069366,0.028427,0.988434,0.036991,-0.020894,0.006195,57.236389,0.990051,-148.670044,,,
729863192.613318,1.652998,4.357141,47.010859,-0.063766,0.034668,0.96701,0.036991,-0.020894,0.006195,57.236389,0.990051,-148.670044,,,
729863192.616613,1.661428,4.351334,47.0113,-0.063766,0.034668,0.96701,0.003183,-0.043149,-0.006049,57.236389,0.990051,-148.670044,,,
729863192.619918,1.661428,4.351334,47.0113,-0.063766,0.034668,0.96701,0.003183,-0.043149,-0.006049,57.236389,0.990051,-148.670044,,,
729863192.623255,1.663653,4.338879,47.010358,-0.058304,0.039398,0.951401,0.003183,-0.043149,-0.006049,57.236389,0.990051,-148.670044,,,
729863192.626573,1.660448,4.330006,47.007675,-0.058304,0.039398,0.951401,-0.035364,-0.040716,-0.014863,57.236389,0.990051,-148.670044,,,
729863192.629936,1.660448,4.330006,47.007675,-0.058304,0.039398,0.951401,-0.035364,-0.040716,-0.014863,57.236389,0.990051,-148.670044,,,
729863192.633248,1.650629,4.316918,47.004811,-0.056732,0.040726,0.947861,-0.035364,-0.040716,-0.014863,57.236389,0.990051,-148.670044,,,
729863192.636573,1.635539,4.306419,47.00252,-0.056732,0.040726,0.947861,-0.062748,-0.034419,-0.005992,57.236389,0.990051,-148.670044,,,
729863192.639978,1.635539,4.306419,47.00252,-0.056732,0.040726,0.947861,-0.062748,-0.034419,-0.005992,57.236389,0.990051,-148.670044,,,
729863192.64324,1.617439,4.295834,47.001649,-0.061661,0.035431,0.956223,-0.062748,-0.034419,-0.005992,57.143738,1.026062,-148.681732,,,
729863192.646597,1.596838,4.286311,47.002088,-0.061661,0.035431,0.956223,-0.069414,-0.017761,-0.006199,57.143738,1.026062,-148.681732,,,
729863192.64993,1.596838,4.286311,47.002088,-0.061661,0.035431,0.956223,-0.069414,-0.017761,-0.006199,57.143738,1.026062,-148.681732,,,
729863192.653307,1.577452,4.280083,47.002389,-0.056747,0.033646,0.975754,-0.069414,-0.017761,-0.006199,57.143738,1.026062,-148.681732,,,
729863192.656568,1.558877,4.274814,47.001317,-0.056747,0.033646,0.975754,-0.030068,-0.002024,-0.015098,57.143738,1.026062,-148.681732,,,
729863192.659906,1.558877,4.274814,47.001317,-0.056747,0.033646,0.975754,-0.030068,-0.002024,-0.015098,57.143738,1.026062,-148.681732,,,
729863192.663252,1.547718,4.272999,46.998231,-0.048218,0.020233,1.004517,-0.030068,-0.002024,-0.015098,57.143738,1.026062,-148.681732,,,
729863192.666577,1.541716,4.274223,46.993447,-0.048218,0.020233,1.004517,0.013509,0.024238,-0.022607,57.143738,1.026062,-148.681732,,,
729863192.669907,1.541716,4.274223,46.993447,-0.048218,0.020233,1.004517,0.013509,0.024238,-0.022607,57.143738,1.026062,-148.681732,,,
729863192.673253,1.543411,4.279495,46.987179,-0.052505,0.009506,1.028397,0.013509,0.024238,-0.022607,57.143738,1.026062,-148.681732,,,
729863192.676573,1.5478,4.288772,46.980866,-0.052505,0.009506,1.028397,0.026263,0.052897,-0.020149,57.143738,1.026062,-148.681732,,,
729863192.679973,1.5478,4.288772,46.980866,-0.052505,0.009506,1.028397,0.026263,0.052897,-0.020149,57.143738,1.026062,-148.681732,,,
729863192.683237,1.554542,4.30162,46.975402,-0.057877,0.014771,1.015366,0.026263,0.052897,-0.020149,57.291962,1.150116,-148.830505,,,
729863192.686694,1.560785,4.316256,46.969926,-0.057877,0.014771,1.015366,0.006185,0.061756,-0.023075,57.291962,1.150116,-148.830505,,,
729863192.689925,1.560785,4.316256,46.969926,-0.057877,0.014771,1.015366,0.006185,0.061756,-0.023075,57.291962,1.150116,-148.830505,,,
729863192.693344,1.562576,4.333221,46.963771,-0.057983,0.02272,0.985947,0.006185,0.061756,-0.023075,57.291962,1.150116,-148.830505,,,
729863192.696573,1.560575,4.347417,46.955891,-0.057983,0.02272,0.985947,-0.024713,0.045921,-0.036656,57.291962,1.150116,-148.830505,,,
729863192.699929,1.560575,4.347417,46.955891,-0.057983,0.02272,0.985947,-0.024713,0.045921,-0.036656,57.291962,1.150116,-148.830505,,,
729863192.703267,1.553309,4.3611,46.945782,-0.065506,0.02887,0.968826,-0.024713,0.045921,-0.036656,57.291962,1.150116,-148.830505,,,
729863192.706575,1.545458,4.367832,46.93458,-0.065506,0.02887,0.968826,-0.034414,0.007132,-0.04012,57.291962,1.150116,-148.830505,,,
729863192.709916,1.545458,4.367832,46.93458,-0.065506,0.02887,0.968826,-0.034414,0.007132,-0.04012,57.291962,1.150116,-148.830505,,,
729863192.713247,1.534275,4.371089,46.923378,-0.083054,0.027878,0.971191,-0.034414,0.007132,-0.04012,57.291962,1.150116,-148.830505,,,
729863192.716581,1.524953,4.365693,46.913706,-0.083054,0.027878,0.971191,-0.031244,-0.029338,-0.027706,57.291962,1.150116,-148.830505,,,
729863192.719976,1.524953,4.365693,46.913706,-0.083054,0.027878,0.971191,-0.031244,-0.029338,-0.027706,57.291962,1.150116,-148.830505,,,
729863192.723236,1.514481,4.357477,46.906077,-0.102921,0.024216,0.987213,-0.031244,-0.029338,-0.027706,57.258163,1.253952,-148.567032,,,
729863192.726575,1.507251,4.344325,46.901065,-0.102921,0.024216,0.987213,-0.025048,-0.03761,-0.011171,57.258163,1.253952,-148.567032,,,
729863192.729917,1.507251,4.344325,46.901065,-0.102921,0.024216,0.987213,-0.025048,-0.03761,-0.011171,57.258163,1.253952,-148.567032,,,
729863192.73329,1.499503,4.332952,46.898621,-0.104294,0.023148,0.996078,-0.025048,-0.03761,-0.011171,57.258163,1.253952,-148.567032,,,
729863192.736574,1.493287,4.318974,46.898229,-0.104294,0.023148,0.996078,-0.020561,-0.017206,0.001377,57.258163,1.253952,-148.567032,,,
729863192.739924,1.493287,4.318974,46.898229,-0.104294,0.023148,0.996078,-0.020561,-0.017206,0.001377,57.258163,1.253952,-148.567032,,,
729863192.743242,1.487014,4.31299,46.898937,-0.0952,0.025558,1.001511,-0.020561,-0.017206,0.001377,57.258163,1.253952,-148.567032,,,
729863192.746577,1.480138,4.303163,46.900169,-0.0952,0.025558,1.001511,-0.007583,0.007041,0.000248,57.258163,1.253952,-148.567032,,,
729863192.749909,1.480138,4.303163,46.900169,-0.0952,0.025558,1.001511,-0.007583,0.007041,0.000248,57.258163,1.253952,-148.567032,,,
729863192.753254,1.476869,4.303838,46.900743,-0.085266,0.029541,1.009018,-0.007583,0.007041,0.000248,57.258163,1.253952,-148.567032,,,
729863192.756576,1.472199,4.301301,46.900691,-0.085266,0.029541,1.009018,0.000985,0.016284,-0.00114,57.258163,1.253952,-148.567032,,,
729863192.759962,1.472199,4.301301,46.900691,-0.085266,0.029541,1.009018,0.000985,0.016284,-0.00114,57.258163,1.253952,-148.567032,,,
729863192.763239,1.47234,4.30509,46.900979,-0.087265,0.027863,1.008759,0.000985,0.016284,-0.00114,57.389557,1.149734,-148.801529,,,
729863192.766574,1.4717,4.303886,46.902283,-0.087265,0.027863,1.008759,0.003463,0.011632,0.008121,57.389557,1.149734,-148.801529,,,
729863192.769922,1.4717,4.303886,46.902283,-0.087265,0.027863,1.008759,0.003463,0.011632,0.008121,57.389557,1.149734,-148.801529,,,
729863192.773298,1.473141,4.306137,46.904655,-0.092972,0.027466,0.999756,0.003463,0.011632,0.008121,57.389557,1.149734,-148.801529,,,
729863192.776572,1.4756,4.304372,46.908842,-0.092972,0.027466,0.999756,0.013971,0.010282,0.021517,57.389557,1.149734,-148.801529,,,
729863192.779911,1.4756,4.304372,46.908842,-0.092972,0.027466,0.999756,0.013971,0.010282,0.021517,57.389557,1.149734,-148.801529,,,
729863192.783262,1.479469,4.307014,46.91393,-0.083878,0.024002,1.006058,0.013971,0.010282,0.021517,57.389557,1.149734,-148.801529,,,
729863192.786573,1.485837,4.308201,46.919355,-0.083878,0.024002,1.006058,0.022118,0.006756,0.018199,57.389557,1.149734,-148.801529,,,
729863192.789927,1.485837,4.308201,46.919355,-0.083878,0.024002,1.006058,0.022118,0.006756,0.018199,57.389557,1.149734,-148.801529,,,
729863192.793246,1.491582,4.309644,46.924718,-0.078094,0.023697,1.010529,0.022118,0.006756,0.018199,57.389557,1.149734,-148.801529,,,
729863192.796578,1.497301,4.31496,46.929534,-0.078094,0.023697,1.010529,0.013587,-0.001581,0.015915,57.389557,1.149734,-148.801529,,,
729863192.799996,1.497301,4.31496,46.929534,-0.078094,0.023697,1.010529,0.013587,-0.001581,0.015915,57.389557,1.149734,-148.801529,,,
729863192.803256,1.501627,4.314079,46.93373,-0.076462,0.027023,1.00322,0.013587,-0.001581,0.015915,57.389557,1.149734,-148.801529,,,
729863192.806582,1.504017,4.322614,46.938175,-0.076462,0.027023,1.00322,0.005618,-5.5e-05,0.020505,57.236557,0.822784,-148.62912,,,
729863192.809925,1.504017,4.322614,46.938175,-0.076462,0.027023,1.00322,0.005618,-5.5e-05,0.020505,57.236557,0.822784,-148.62912,,,
729863192.813314,1.505462,4.321793,46.944087,-0.074203,0.029053,1.002762,0.005618,-5.5e-05,0.020505,57.236557,0.822784,-148.62912,,,
729863192.816576,1.503839,4.329403,46.950105,-0.074203,0.029053,1.002762,-0.00988,-0.007008,0.018674,57.236557,0.822784,-148.62912,,,
729863192.819922,1.503839,4.329403,46.950105,-0.074203,0.029053,1.002762,-0.00988,-0.007008,0.018674,57.236557,0.822784,-148.62912,,,
729863192.823258,1.501093,4.326696,46.956035,-0.072311,0.028763,0.996155,-0.00988,-0.007008,0.018674,57.236557,0.822784,-148.62912,,,
729863192.826583,1.497669,4.327318,46.961151,-0.072311,0.028763,0.996155,-0.011854,-0.02451,0.010529,57.236557,0.822784,-148.62912,,,
729863192.829905,1.497669,4.327318,46.961151,-0.072311,0.028763,0.996155,-0.011854,-0.02451,0.010529,57.236557,0.822784,-148.62912,,,
729863192.833264,1.49439,4.320136,46.965623,-0.065094,0.028183,0.994034,-0.011854,-0.02451,0.010529,57.236557,0.822784,-148.62912,,,
729863192.836578,1.492445,4.313538,46.968452,-0.065094,0.028183,0.994034,-0.008924,-0.033433,0.002839,57.236557,0.822784,-148.62912,,,
729863192.839911,1.492445,4.313538,46.968452,-0.065094,0.028183,0.994034,-0.008924,-0.033433,0.002839,57.236557,0.822784,-148.62912,,,
729863192.843267,1.489943,4.303379,46.969913,-0.06131,0.029968,0.99675,-0.008924,-0.033433,0.002839,57.236557,0.822784,-148.62912,,,
729863192.846588,1.488338,4.297275,46.97055,-0.06131,0.029968,0.99675,-0.007576,-0.032019,-0.003308,57.2957,1.024384,-148.822128,,,
729863192.849927,1.488338,4.297275,46.97055,-0.06131,0.029968,0.99675,-0.007576,-0.032019,-0.003308,57.2957,1.024384,-148.822128,,,
729863192.853301,1.486254,4.287286,46.970611,-0.058685,0.030197,0.991592,-0.007576,-0.032019,-0.003308,57.2957,1.024384,-148.822128,,,
729863192.856575,1.484509,4.284949,46.969862,-0.058685,0.030197,0.991592,-0.001888,-0.007886,-0.003923,57.2957,1.024384,-148.822128,,,
729863192.859926,1.484509,4.284949,46.969862,-0.058685,0.030197,0.991592,-0.001888,-0.007886,-0.003923,57.2957,1.024384,-148.822128,,,
729863192.863251,1.483798,4.280505,46.968871,-0.056992,0.030487,0.998703,-0.001888,-0.007886,-0.003923,57.2957,1.024384,-148.822128,,,
729863192.86658,1.482359,4.280594,46.967607,-0.056992,0.030487,0.998703,0.00202,0.005695,-0.007202,57.2957,1.024384,-148.822128,,,
729863192.869922,1.482359,4.280594,46.967607,-0.056992,0.030487,0.998703,0.00202,0.005695,-0.007202,57.2957,1.024384,-148.822128,,,
729863192.873249,1.482058,4.28124,46.965813,-0.054764,0.024734,1.001831,0.00202,0.005695,-0.007202,57.2957,1.024384,-148.822128,,,
729863192.876581,1.482936,4.285269,46.96241,-0.054764,0.024734,1.001831,0.014227,0.023089,-0.019696,57.2957,1.024384,-148.822128,,,
729863192.879903,1.482936,4.285269,46.96241,-0.054764,0.024734,1.001831,0.014227,0.023089,-0.019696,57.2957,1.024384,-148.822128,,,
729863192.883274,1.485657,4.291002,46.957406,-0.053787,0.025848,1.009644,0.014227,0.023089,-0.019696,57.2957,1.024384,-148.822128,,,
729863192.886581,1.49043,4.298481,46.951635,-0.053787,0.025848,1.009644,0.022486,0.033089,-0.021153,57.190811,1.207809,-148.337051,,,
729863192.889922,1.49043,4.298481,46.951635,-0.053787,0.025848,1.009644,0.022486,0.033089,-0.021153,57.190811,1.207809,-148.337051,,,
729863192.893279,1.495788,4.306925,46.94462,-0.062286,0.021103,1.012253,0.022486,0.033089,-0.021153,57.190811,1.207809,-148.337051,,,
729863192.896609,1.502133,4.31548,46.936549,-0.062286,0.021103,1.012253,0.022262,0.034936,-0.029807,57.190811,1.207809,-148.337051,,,
729863192.899925,1.502133,4.31548,46.936549,-0.062286,0.021103,1.012253,0.022262,0.034936,-0.029807,57.190811,1.207809,-148.337051,,,
729863192.90327,1.507308,4.324288,46.928202,-0.069061,0.020721,1.002731,0.022262,0.034936,-0.029807,57.190811,1.207809,-148.337051,,,
729863192.906581,1.511563,4.332139,46.919984,-0.069061,0.020721,1.002731,0.005848,0.040984,-0.029466,57.190811,1.207809,-148.337051,,,
729863192.909937,1.511563,4.332139,46.919984,-0.069061,0.020721,1.002731,0.005848,0.040984,-0.029466,57.190811,1.207809,-148.337051,,,
729863192.913256,1.51276,4.342671,46.911994,-0.08287,0.025803,0.993011,0.005848,0.040984,-0.029466,57.190811,1.207809,-148.337051,,,
729863192.91661,1.512121,4.350513,46.905214,-0.08287,0.025803,0.993011,-0.002337,0.040644,-0.015216,57.190811,1.207809,-148.337051,,,
729863192.919925,1.512121,4.350513,46.905214,-0.08287,0.025803,0.993011,-0.002337,0.040644,-0.015216,57.190811,1.207809,-148.337051,,,
729863192.92326,1.510497,4.361778,46.900711,-0.100815,0.025818,0.994919,-0.002337,0.040644,-0.015216,57.190811,1.207809,-148.337051,,,
729863192.926576,1.509999,4.365729,46.899636,-0.100815,0.025818,0.994919,-0.000782,0.019189,0.007633,57.202332,1.005829,-148.239243,,,
729863192.930016,1.509999,4.365729,46.899636,-0.100815,0.025818,0.994919,-0.000782,0.019189,0.007633,57.202332,1.005829,-148.239243,,,
729863192.933309,1.509479,4.371564,46.90161,-0.115158,0.024582,0.996033,-0.000782,0.019189,0.007633,57.202332,1.005829,-148.239243,,,
729863192.936581,1.511764,4.368021,46.905795,-0.115158,0.024582,0.996033,0.007949,-0.003281,0.016564,57.202332,1.005829,-148.239243,,,
729863192.939927,1.511764,4.368021,46.905795,-0.115158,0.024582,0.996033,0.007949,-0.003281,0.016564,57.202332,1.005829,-148.239243,,,
729863192.943339,1.514448,4.367014,46.910857,-0.108185,0.024002,0.993698,0.007949,-0.003281,0.016564,57.202332,1.005829,-148.239243,,,
729863192.946574,1.518156,4.357747,46.916536,-0.108185,0.024002,0.993698,0.009929,-0.009103,0.019469,57.202332,1.005829,-148.239243,,,
729863192.949928,1.518156,4.357747,46.916536,-0.108185,0.024002,0.993698,0.009929,-0.009103,0.019469,57.202332,1.005829,-148.239243,,,
729863192.953261,1.521333,4.353965,46.922366,-0.097321,0.025543,0.990372,0.009929,-0.009103,0.019469,57.202332,1.005829,-148.239243,,,
729863192.956581,1.524109,4.343106,46.928796,-0.097321,0.025543,0.990372,0.00622,-0.01322,0.02156,57.202332,1.005829,-148.239243,,,
729863192.959931,1.524109,4.343106,46.928796,-0.097321,0.025543,0.990372,0.00622,-0.01322,0.02156,57.202332,1.005829,-148.239243,,,
729863192.963257,1.526452,4.339183,46.935153,-0.087219,0.029251,0.987671,0.00622,-0.01322,0.02156,57.202332,1.005829,-148.239243,,,
729863192.96658,1.526811,4.329097,46.941735,-0.087219,0.029251,0.987671,-0.001961,0.003601,0.018328,57.202332,1.005829,-148.239243,,,
729863192.969986,1.526811,4.329097,46.941735,-0.087219,0.029251,0.987671,-0.001961,0.003601,0.018328,57.395676,1.064728,-148.466354,,,
729863192.973258,1.526405,4.328366,46.947402,-0.076355,0.029068,0.990356,-0.001961,0.003601,0.018328,57.395676,1.064728,-148.466354,,,
729863192.976583,1.522929,4.326572,46.95195,-0.076355,0.029068,0.990356,-0.014397,0.017925,0.005735,57.395676,1.064728,-148.466354,,,
729863192.979924,1.522929,4.326572,46.95195,-0.076355,0.029068,0.990356,-0.014397,0.017925,0.005735,57.395676,1.064728,-148.466354,,,
729863192.983322,1.519146,4.330621,46.955142,-0.067123,0.030884,0.990067,-0.014397,0.017925,0.005735,57.395676,1.064728,-148.466354,,,
729863192.986569,1.513161,4.334165,46.957113,-0.067123,0.030884,0.990067,-0.011292,0.020186,0.003179,57.395676,1.064728,-148.466354,,,
729863192.989923,1.513161,4.334165,46.957113,-0.067123,0.030884,0.990067,-0.011292,0.020186,0.003179,57.395676,1.064728,-148.466354,,,
729863192.993266,1.509342,4.339007,46.958476,-0.068115,0.026184,0.991623,-0.011292,0.020186,0.003179,57.395676,1.064728,-148.466354,,,
729863192.99658,1.506775,4.347075,46.960374,-0.068115,0.026184,0.991623,-0.003181,0.016784,0.011573,57.395676,1.064728,-148.466354,,,
729863192.999996,1.506775,4.347075,46.960374,-0.068115,0.026184,0.991623,-0.003181,0.016784,0.011573,57.395676,1.064728,-148.466354,,,
729863193.003312,1.504986,4.351039,46.963923,-0.077377,0.021774,0.996643,-0.003181,0.016784,0.011573,57.395676,1.064728,-148.466354,,,
729863193.006568,1.503391,4.364303,46.968494,-0.077377,0.021774,0.996643,-0.003639,0.015116,0.019135,57.395676,1.064728,-148.466354,,,
729863193.009975,1.503391,4.364303,46.968494,-0.077377,0.021774,0.996643,-0.003639,0.015116,0.019135,57.085251,1.215485,-148.279205,,,
729863193.013247,1.502188,4.367643,46.974082,-0.074936,0.023254,0.992432,-0.003639,0.015116,0.019135,57.085251,1.215485,-148.279205,,,
729863193.016578,1.500963,4.38346,46.979084,-0.074936,0.023254,0.992432,-0.001232,0.003712,0.010471,57.085251,1.215485,-148.279205,,,
729863193.019917,1.500963,4.38346,46.979084,-0.074936,0.023254,0.992432,-0.001232,0.003712,0.010471,57.085251,1.215485,-148.279205,,,
729863193.023302,1.501236,4.383993,46.983297,-0.064972,0.026672,0.993362,-0.001232,0.003712,0.010471,57.085251,1.215485,-148.279205,,,
729863193.026573,1.502583,4.391867,46.985331,-0.064972,0.026672,0.993362,0.01827,-0.008273,-0.004553,57.085251,1.215485,-148.279205,,,
729863193.029908,1.502583,4.391867,46.985331,-0.064972,0.026672,0.993362,0.01827,-0.008273,-0.004553,57.085251,1.215485,-148.279205,,,
729863193.033251,1.507149,4.389275,46.98517,-0.05928,0.022385,1.0047,0.01827,-0.008273,-0.004553,57.085251,1.215485,-148.279205,,,
729863193.036575,1.514243,4.391563,46.982812,-0.05928,0.022385,1.0047,0.032413,-0.015758,-0.011048,57.085251,1.215485,-148.279205,,,
729863193.039911,1.514243,4.391563,46.982812,-0.05928,0.022385,1.0047,0.032413,-0.015758,-0.011048,57.085251,1.215485,-148.279205,,,
729863193.043253,1.522549,4.386979,46.97945,-0.059647,0.022003,1.005463,0.032413,-0.015758,-0.011048,57.085251,1.215485,-148.279205,,,
729863193.046582,1.532169,4.386244,46.975896,-0.059647,0.022003,1.005463,0.03589,-0.004351,-0.009658,57.085251,1.215485,-148.279205,,,
729863193.049904,1.532169,4.386244,46.975896,-0.059647,0.022003,1.005463,0.03589,-0.004351,-0.009658,57.355881,0.959412,-148.290039,,,
729863193.053241,1.541473,4.384614,46.973056,-0.060471,0.024475,1.003052,0.03589,-0.004351,-0.009658,57.355881,0.959412,-148.290039,,,
729863193.056574,1.551363,4.38309,46.970869,-0.060471,0.024475,1.003052,0.025894,0.003353,-0.005315,57.355881,0.959412,-148.290039,,,
729863193.059921,1.551363,4.38309,46.970869,-0.060471,0.024475,1.003052,0.025894,0.003353,-0.005315,57.355881,0.959412,-148.290039,,,
729863193.063303,1.559013,4.383137,46.968917,-0.062653,0.02652,0.99379,0.025894,0.003353,-0.005315,57.355881,0.959412,-148.290039,,,
729863193.066564,1.56464,4.380244,46.966866,-0.062653,0.02652,0.99379,-0.000118,0.003002,-0.010297,57.355881,0.959412,-148.290039,,,
