Time (sec),Pitch (deg),Roll (deg),Yaw(deg),X-Acceleration (g),Y-Acceleration (g),Z-Acceleration (g),Pitch Rate (deg/sec),Roll Rate (deg/sec),Yaw Rate (deg/sec),Magnetic Field in X direction (uT),Magnetic Field in Y direction (uT),Magnetic Field in Z Direction (uT),Latitude (deg),Longitude (deg),Altitude (m)
729860319.967587,3.689705,-5.073387,-24.08341,0.084579,0.009949,1.122665,1.410613,-0.367186,-0.055628,75.679871,0.169205,-146.393234,,,
729860319.970977,3.689705,-5.073387,-24.08341,0.084579,0.009949,1.122665,1.410613,-0.367186,-0.055628,75.679871,0.169205,-146.393234,,,
729860319.974262,4.122879,-5.180985,-24.061675,0.086182,0.017899,1.121994,1.525801,-0.366373,-0.059659,75.679871,0.169205,-146.393234,,,
729860319.977588,4.583679,-5.289151,-24.036961,0.086182,0.017899,1.121994,1.525801,-0.366373,-0.059659,75.679871,0.169205,-146.393234,,,
729860319.980982,4.583679,-5.289151,-24.036961,0.086182,0.017899,1.121994,1.525801,-0.366373,-0.059659,75.679871,0.169205,-146.393234,,,
729860319.984244,5.082864,-5.401727,-24.006374,0.07814,0.001587,1.199646,1.778631,-0.38365,-0.056732,75.679871,0.169205,-146.393234,,,
729860319.987591,5.630766,-5.523301,-23.967826,0.07814,0.001587,1.199646,1.778631,-0.38365,-0.056732,75.679871,0.169205,-146.393234,,,
729860319.991006,5.630766,-5.523301,-23.967826,0.07814,0.001587,1.199646,1.778631,-0.38365,-0.056732,75.679871,0.169205,-146.393234,,,
729860319.994258,6.235828,-5.65903,-23.920067,0.065659,-0.029907,1.30954,2.169649,-0.463979,-0.038967,75.679871,0.169205,-146.393234,,,
729860319.997603,6.898624,-5.812676,-23.861836,0.065659,-0.029907,1.30954,2.169649,-0.463979,-0.038967,75.679871,0.169205,-146.393234,,,
729860320.000969,6.898624,-5.812676,-23.861836,0.065659,-0.029907,1.30954,2.169649,-0.463979,-0.038967,75.679871,0.169205,-146.393234,,,
729860320.004318,7.610771,-5.982881,-23.792634,0.061874,-0.041855,1.376373,2.534677,-0.574089,-0.014735,75.679871,0.169205,-146.393234,,,
729860320.0076,8.361425,-6.165034,-23.712354,0.061874,-0.041855,1.376373,2.534677,-0.574089,-0.014735,74.77681,-4.328079,-144.484207,,,
729860320.010939,8.361425,-6.165034,-23.712354,0.061874,-0.041855,1.376373,2.534677,-0.574089,-0.014735,74.77681,-4.328079,-144.484207,,,
729860320.014257,9.138053,-6.352107,-23.622637,0.064835,-0.03421,1.327591,2.74156,-0.600608,0.013005,74.77681,-4.328079,-144.484207,,,
729860320.01759,9.926358,-6.535866,-23.5263,0.064835,-0.03421,1.327591,2.74156,-0.600608,0.013005,74.77681,-4.328079,-144.484207,,,
729860320.020935,9.926358,-6.535866,-23.5263,0.064835,-0.03421,1.327591,2.74156,-0.600608,0.013005,74.77681,-4.328079,-144.484207,,,
729860320.024254,10.715437,-6.709492,-23.427501,0.090179,0.033127,1.2164,2.769511,-0.531369,0.017374,74.77681,-4.328079,-144.484207,,,
729860320.027647,11.497798,-6.868331,-23.330792,0.090179,0.033127,1.2164,2.769511,-0.531369,0.017374,74.77681,-4.328079,-144.484207,,,
729860320.030916,11.497798,-6.868331,-23.330792,0.090179,0.033127,1.2164,2.769511,-0.531369,0.017374,74.77681,-4.328079,-144.484207,,,
729860320.034271,12.26898,-7.007357,-23.239081,0.131531,0.107834,1.098709,2.693463,-0.396466,-0.021612,74.77681,-4.328079,-144.484207,,,
729860320.037593,13.027218,-7.124404,-23.155354,0.131531,0.107834,1.098709,2.693463,-0.396466,-0.021612,74.77681,-4.328079,-144.484207,,,
729860320.040978,13.027218,-7.124404,-23.155354,0.131531,0.107834,1.098709,2.693463,-0.396466,-0.021612,74.77681,-4.328079,-144.484207,,,
729860320.044262,13.771529,-7.220136,-23.081982,0.154373,0.179031,1.039093,2.588572,-0.253523,-0.087988,74.77681,-4.328079,-144.484207,,,
729860320.047591,14.501475,-7.297855,-23.018993,0.154373,0.179031,1.039093,2.588572,-0.253523,-0.087988,74.008911,-9.06929,-141.644348,,,
729860320.050929,14.501475,-7.297855,-23.018993,0.154373,0.179031,1.039093,2.588572,-0.253523,-0.087988,74.008911,-9.06929,-141.644348,,,
729860320.054318,15.21989,-7.360849,-22.964523,0.163483,0.225906,1.001968,2.49448,-0.158868,-0.142316,74.008911,-9.06929,-141.644348,,,
729860320.057585,15.930373,-7.412609,-22.915245,0.163483,0.225906,1.001968,2.49448,-0.158868,-0.142316,74.008911,-9.06929,-141.644348,,,
729860320.060926,15.930373,-7.412609,-22.915245,0.163483,0.225906,1.001968,2.49448,-0.158868,-0.142316,74.008911,-9.06929,-141.644348,,,
729860320.064272,16.637717,-7.455032,-22.866037,0.14798,0.229874,1.003052,2.465718,-0.090704,-0.154494,74.008911,-9.06929,-141.644348,,,
729860320.067589,17.343785,-7.491315,-22.81209,0.14798,0.229874,1.003052,2.465718,-0.090704,-0.154494,74.008911,-9.06929,-141.644348,,,
729860320.070933,17.343785,-7.491315,-22.81209,0.14798,0.229874,1.003052,2.465718,-0.090704,-0.154494,74.008911,-9.06929,-141.644348,,,
729860320.074269,18.048178,-7.523428,-22.75198,0.119995,0.224365,1.026306,2.458246,-0.039084,-0.121481,74.008911,-9.06929,-141.644348,,,
729860320.077597,18.748029,-7.555155,-22.684866,0.119995,0.224365,1.026306,2.458246,-0.039084,-0.121481,74.008911,-9.06929,-141.644348,,,
729860320.080988,18.748029,-7.555155,-22.684866,0.119995,0.224365,1.026306,2.458246,-0.039084,-0.121481,74.008911,-9.06929,-141.644348,,,
729860320.084272,19.439366,-7.587919,-22.611679,0.101624,0.235428,0.987366,2.413438,-0.027779,-0.074387,74.008911,-9.06929,-141.644348,,,
729860320.08759,20.118381,-7.622299,-22.534518,0.101624,0.235428,0.987366,2.413438,-0.027779,-0.074387,74.008911,-9.06929,-141.644348,,,
729860320.090943,20.118381,-7.622299,-22.534518,0.101624,0.235428,0.987366,2.413438,-0.027779,-0.074387,74.197067,-13.192581,-138.488754,,,
729860320.094328,20.782933,-7.656827,-22.457511,0.103394,0.265442,0.911911,2.313085,-0.023547,-0.060447,74.197067,-13.192581,-138.488754,,,
729860320.097577,21.433122,-7.694395,-22.383921,0.103394,0.265442,0.911911,2.313085,-0.023547,-0.060447,74.197067,-13.192581,-138.488754,,,
729860320.100939,21.433122,-7.694395,-22.383921,0.103394,0.265442,0.911911,2.313085,-0.023547,-0.060447,74.197067,-13.192581,-138.488754,,,
729860320.104264,22.076504,-7.739019,-22.314987,0.116592,0.282257,0.861633,2.246076,-0.073211,-0.084923,74.197067,-13.192581,-138.488754,,,
729860320.107592,22.720657,-7.795275,-22.2498,0.116592,0.282257,0.861633,2.246076,-0.073211,-0.084923,74.197067,-13.192581,-138.488754,,,
729860320.110922,22.720657,-7.795275,-22.2498,0.116592,0.282257,0.861633,2.246076,-0.073211,-0.084923,74.197067,-13.192581,-138.488754,,,
729860320.114271,23.369949,-7.863395,-22.187503,0.129623,0.316467,0.885483,2.272678,-0.15952,-0.115029,74.197067,-13.192581,-138.488754,,,
729860320.11759,24.022837,-7.941507,-22.127112,0.129623,0.316467,0.885483,2.272678,-0.15952,-0.115029,74.197067,-13.192581,-138.488754,,,
729860320.121032,24.022837,-7.941507,-22.127112,0.129623,0.316467,0.885483,2.272678,-0.15952,-0.115029,74.197067,-13.192581,-138.488754,,,
729860320.124282,24.67523,-8.024418,-22.069022,0.130035,0.354584,0.905319,2.28045,-0.20756,-0.138981,74.197067,-13.192581,-138.488754,,,
729860320.127603,25.322613,-8.107566,-22.012582,0.130035,0.354584,0.905319,2.28045,-0.20756,-0.138981,74.197067,-13.192581,-138.488754,,,
729860320.130731,25.322613,-8.107566,-22.012582,0.130035,0.354584,0.905319,2.28045,-0.20756,-0.138981,74.172455,-16.633133,-135.165619,,,
729860320.134359,25.96054,-8.187755,-21.956667,0.131927,0.362534,0.870331,2.215607,-0.189876,-0.142273,74.172455,-16.633133,-135.165619,,,
729860320.137585,26.58361,-8.262947,-21.900928,0.131927,0.362534,0.870331,2.215607,-0.189876,-0.142273,74.172455,-16.633133,-135.165619,,,
729860320.140937,26.58361,-8.262947,-21.900928,0.131927,0.362534,0.870331,2.215607,-0.189876,-0.142273,74.172455,-16.633133,-135.165619,,,
729860320.144269,27.189338,-8.329929,-21.846278,0.131989,0.373077,0.809311,2.094729,-0.134885,-0.137488,74.172455,-16.633133,-135.165619,,,
729860320.14759,27.778383,-8.387426,-21.793027,0.131989,0.373077,0.809311,2.094729,-0.134885,-0.137488,74.172455,-16.633133,-135.165619,,,
729860320.150932,27.778383,-8.387426,-21.793027,0.131989,0.373077,0.809311,2.094729,-0.134885,-0.137488,74.172455,-16.633133,-135.165619,,,
729860320.154267,28.355805,-8.434986,-21.740255,0.133408,0.405609,0.769501,2.002725,-0.067812,-0.136705,74.172455,-16.633133,-135.165619,,,
729860320.157596,28.927081,-8.473058,-21.687365,0.133408,0.405609,0.769501,2.002725,-0.067812,-0.136705,74.172455,-16.633133,-135.165619,,,
729860320.16099,28.927081,-8.473058,-21.687365,0.133408,0.405609,0.769501,2.002725,-0.067812,-0.136705,74.172455,-16.633133,-135.165619,,,
729860320.164308,29.495749,-8.502571,-21.633493,0.135941,0.43988,0.808792,1.982632,-0.001173,-0.130504,74.172455,-16.633133,-135.165619,,,
729860320.167607,30.063073,-8.525801,-21.576979,0.135941,0.43988,0.808792,1.982632,-0.001173,-0.130504,74.172455,-16.633133,-135.165619,,,
729860320.170936,30.063073,-8.525801,-21.576979,0.135941,0.43988,0.808792,1.982632,-0.001173,-0.130504,74.063217,-19.548126,-132.073517,,,
729860320.174289,30.629951,-8.545311,-21.517838,0.133606,0.435806,0.825562,1.979363,0.044412,-0.117295,74.063217,-19.548126,-132.073517,,,
729860320.177712,31.196862,-8.56382,-21.456553,0.133606,0.435806,0.825562,1.979363,0.044412,-0.117295,74.063217,-19.548126,-132.073517,,,
729860320.180928,31.196862,-8.56382,-21.456553,0.133606,0.435806,0.825562,1.979363,0.044412,-0.117295,74.063217,-19.548126,-132.073517,,,
729860320.184343,31.765089,-8.583259,-21.393575,0.134766,0.421768,0.807877,1.988289,0.048942,-0.109831,74.063217,-19.548126,-132.073517,,,
729860320.187611,32.334756,-8.605657,-21.330505,0.134766,0.421768,0.807877,1.988289,0.048942,-0.109831,74.063217,-19.548126,-132.073517,,,
729860320.19095,32.334756,-8.605657,-21.330505,0.134766,0.421768,0.807877,1.988289,0.048942,-0.109831,74.063217,-19.548126,-132.073517,,,
729860320.194277,32.904817,-8.633421,-21.270045,0.13736,0.433289,0.784042,1.989036,0.014175,-0.123148,74.063217,-19.548126,-132.073517,,,
729860320.1976,33.476316,-8.673232,-21.213621,0.13736,0.433289,0.784042,1.989036,0.014175,-0.123148,74.063217,-19.548126,-132.073517,,,
729860320.200944,33.476316,-8.673232,-21.213621,0.13736,0.433289,0.784042,1.989036,0.014175,-0.123148,74.063217,-19.548126,-132.073517,,,
729860320.204289,34.053562,-8.732924,-21.163521,0.141251,0.450851,0.751816,2.016309,-0.132953,-0.167643,74.063217,-19.548126,-132.073517,,,
729860320.207627,34.64186,-8.816726,-21.121924,0.141251,0.450851,0.751816,2.016309,-0.132953,-0.167643,74.063217,-19.548126,-132.073517,,,
729860320.210966,34.64186,-8.816726,-21.121924,0.141251,0.450851,0.751816,2.016309,-0.132953,-0.167643,74.063217,-19.548126,-132.073517,,,
729860320.214288,35.244299,-8.925007,-21.090321,0.154999,0.457916,0.746353,2.099042,-0.337215,-0.244722,74.227356,-22.351883,-128.51358,,,
729860320.217591,35.861043,-9.055301,-21.069447,0.154999,0.457916,0.746353,2.099042,-0.337215,-0.244722,74.227356,-22.351883,-128.51358,,,
729860320.220926,35.861043,-9.055301,-21.069447,0.154999,0.457916,0.746353,2.099042,-0.337215,-0.244722,74.227356,-22.351883,-128.51358,,,
729860320.224282,36.492594,-9.202957,-21.06019,0.159485,0.466415,0.760162,2.187741,-0.512038,-0.338642,74.227356,-22.351883,-128.51358,,,
729860320.227598,37.142895,-9.364207,-21.061123,0.159485,0.466415,0.760162,2.187741,-0.512038,-0.338642,74.227356,-22.351883,-128.51358,,,
729860320.230953,37.142895,-9.364207,-21.061123,0.159485,0.466415,0.760162,2.187741,-0.512038,-0.338642,74.227356,-22.351883,-128.51358,,,
729860320.234325,37.814291,-9.531552,-21.067425,0.169434,0.466202,0.787292,2.321005,-0.596917,-0.411602,74.227356,-22.351883,-128.51358,,,
729860320.237603,38.502452,-9.697555,-21.074664,0.169434,0.466202,0.787292,2.321005,-0.596917,-0.411602,74.227356,-22.351883,-128.51358,,,
729860320.240926,38.502452,-9.697555,-21.074664,0.169434,0.466202,0.787292,2.321005,-0.596917,-0.411602,74.227356,-22.351883,-128.51358,,,
729860320.24428,39.195336,-9.859018,-21.080348,0.159714,0.467682,0.817596,2.37789,-0.567379,-0.424873,74.227356,-22.351883,-128.51358,,,
729860320.247666,39.878382,-10.012412,-21.082852,0.159714,0.467682,0.817596,2.37789,-0.567379,-0.424873,74.227356,-22.351883,-128.51358,,,
729860320.250938,39.878382,-10.012412,-21.082852,0.159714,0.467682,0.817596,2.37789,-0.567379,-0.424873,74.227356,-22.351883,-128.51358,,,
729860320.254287,40.542582,-10.152443,-21.082289,0.152069,0.501755,0.721664,2.262462,-0.470513,-0.403343,74.340897,-25.120453,-124.58371,,,
729860320.257591,41.182674,-10.275265,-21.080107,0.152069,0.501755,0.721664,2.262462,-0.470513,-0.403343,74.340897,-25.120453,-124.58371,,,
729860320.260929,41.182674,-10.275265,-21.080107,0.152069,0.501755,0.721664,2.262462,-0.470513,-0.403343,74.340897,-25.120453,-124.58371,,,
729860320.264303,41.792876,-10.376435,-21.07996,0.15065,0.572968,0.605072,2.06533,-0.333792,-0.382165,74.340897,-25.120453,-124.58371,,,
729860320.267596,42.367031,-10.452964,-21.085612,0.15065,0.572968,0.605072,2.06533,-0.333792,-0.382165,74.340897,-25.120453,-124.58371,,,
729860320.270983,42.367031,-10.452964,-21.085612,0.15065,0.572968,0.605072,2.06533,-0.333792,-0.382165,74.340897,-25.120453,-124.58371,,,
729860320.274269,42.89922,-10.503961,-21.100554,0.15123,0.65593,0.505463,1.779156,-0.192488,-0.375632,74.340897,-25.120453,-124.58371,,,
729860320.277601,43.387486,-10.531296,-21.127068,0.15123,0.65593,0.505463,1.779156,-0.192488,-0.375632,74.340897,-25.120453,-124.58371,,,
729860320.280947,43.387486,-10.531296,-21.127068,0.15123,0.65593,0.505463,1.779156,-0.192488,-0.375632,74.340897,-25.120453,-124.58371,,,
729860320.28436,43.835661,-10.540599,-21.165348,0.149567,0.724747,0.408905,1.482817,-0.112494,-0.384163,74.340897,-25.120453,-124.58371,,,
729860320.287594,44.250702,-10.541208,-21.214,0.149567,0.724747,0.408905,1.482817,-0.112494,-0.384163,74.340897,-25.120453,-124.58371,,,
729860320.290951,44.250702,-10.541208,-21.214,0.149567,0.724747,0.408905,1.482817,-0.112494,-0.384163,74.340897,-25.120453,-124.58371,,,
729860320.294283,44.642189,-10.542732,-21.271157,0.146484,0.746704,0.416901,1.295678,-0.145733,-0.39081,74.87558,-26.814484,-121.480316,,,
729860320.297604,45.018899,-10.553435,-21.335847,0.146484,0.746704,0.416901,1.295678,-0.145733,-0.39081,74.87558,-26.814484,-121.480316,,,
729860320.300931,45.018899,-10.553435,-21.335847,0.146484,0.746704,0.416901,1.295678,-0.145733,-0.39081,74.87558,-26.814484,-121.480316,,,
729860320.304266,45.386742,-10.579044,-21.406886,0.138931,0.717865,0.479904,1.221849,-0.278285,-0.410294,74.87558,-26.814484,-121.480316,,,
729860320.307604,45.74925,-10.620339,-21.482973,0.138931,0.717865,0.479904,1.221849,-0.278285,-0.410294,74.87558,-26.814484,-121.480316,,,
729860320.310931,45.74925,-10.620339,-21.482973,0.138931,0.717865,0.479904,1.221849,-0.278285,-0.410294,74.87558,-26.814484,-121.480316,,,
729860320.314262,46.107731,-10.672823,-21.564022,0.133194,0.683685,0.535172,1.188535,-0.395228,-0.427562,74.87558,-26.814484,-121.480316,,,
729860320.317602,46.461058,-10.731103,-21.648528,0.133194,0.683685,0.535172,1.188535,-0.395228,-0.427562,74.87558,-26.814484,-121.480316,,,
729860320.321008,46.461058,-10.731103,-21.648528,0.133194,0.683685,0.535172,1.188535,-0.395228,-0.427562,74.87558,-26.814484,-121.480316,,,
729860320.324279,46.805707,-10.790451,-21.734812,0.12178,0.678345,0.57515,1.13233,-0.424757,-0.428876,74.87558,-26.814484,-121.480316,,,
729860320.327599,47.137358,-10.850954,-21.819925,0.12178,0.678345,0.57515,1.13233,-0.424757,-0.428876,74.87558,-26.814484,-121.480316,,,
729860320.330946,47.137358,-10.850954,-21.819925,0.12178,0.678345,0.57515,1.13233,-0.424757,-0.428876,74.87558,-26.814484,-121.480316,,,
729860320.334344,47.450648,-10.913777,-21.901133,0.113068,0.693192,0.557373,1.022613,-0.422055,-0.392592,75.470978,-27.826141,-119.674973,,,
729860320.337592,47.738042,-10.979022,-21.978317,0.113068,0.693192,0.557373,1.022613,-0.422055,-0.392592,75.470978,-27.826141,-119.674973,,,
729860320.34095,47.738042,-10.979022,-21.978317,0.113068,0.693192,0.557373,1.022613,-0.422055,-0.392592,75.470978,-27.826141,-119.674973,,,
729860320.34428,47.990147,-11.04577,-22.054013,0.096954,0.728241,0.476593,0.798667,-0.424588,-0.336268,75.470978,-27.826141,-119.674973,,,
729860320.347597,48.196205,-11.110808,-22.131808,0.096954,0.728241,0.476593,0.798667,-0.424588,-0.336268,75.470978,-27.826141,-119.674973,,,
729860320.350941,48.196205,-11.110808,-22.131808,0.096954,0.728241,0.476593,0.798667,-0.424588,-0.336268,75.470978,-27.826141,-119.674973,,,
729860320.354275,48.34524,-11.16922,-22.216068,0.083984,0.785629,0.340302,0.419678,-0.419118,-0.286141,75.470978,-27.826141,-119.674973,,,
729860320.357599,48.427368,-11.215016,-22.310187,0.083984,0.785629,0.340302,0.419678,-0.419118,-0.286141,75.470978,-27.826141,-119.674973,,,
729860320.360996,48.427368,-11.215016,-22.310187,0.083984,0.785629,0.340302,0.419678,-0.419118,-0.286141,75.470978,-27.826141,-119.674973,,,
729860320.364271,48.435077,-11.241483,-22.416321,0.070374,0.859802,0.185837,-0.086469,-0.358265,-0.241712,75.470978,-27.826141,-119.674973,,,
729860320.367602,48.364969,-11.24246,-22.535238,0.070374,0.859802,0.185837,-0.086469,-0.358265,-0.241712,75.470978,-27.826141,-119.674973,,,
729860320.370929,48.364969,-11.24246,-22.535238,0.070374,0.859802,0.185837,-0.086469,-0.358265,-0.241712,75.470978,-27.826141,-119.674973,,,
729860320.374318,48.219582,-11.214357,-22.664256,0.056427,0.928436,0.098999,-0.621734,-0.213752,-0.187926,75.470978,-27.826141,-119.674973,,,
729860320.377683,48.007113,-11.157607,-22.797929,0.056427,0.928436,0.098999,-0.621734,-0.213752,-0.187926,75.629684,-27.658249,-119.620438,,,
729860320.38092,48.007113,-11.157607,-22.797929,0.056427,0.928436,0.098999,-0.621734,-0.213752,-0.187926,75.629684,-27.658249,-119.620438,,,
729860320.384267,47.738436,-11.07969,-22.927485,0.045349,0.925659,0.158829,-1.025455,-0.039866,-0.106004,75.629684,-27.658249,-119.620438,,,
729860320.387596,47.424284,-10.990093,-23.044521,0.045349,0.925659,0.158829,-1.025455,-0.039866,-0.106004,75.629684,-27.658249,-119.620438,,,
729860320.390945,47.424284,-10.990093,-23.044521,0.045349,0.925659,0.158829,-1.025455,-0.039866,-0.106004,75.629684,-27.658249,-119.620438,,,
729860320.394283,47.075321,-10.896315,-23.142964,0.031235,0.83783,0.30455,-1.263096,0.092869,0.017514,75.629684,-27.658249,-119.620438,,,
729860320.397596,46.702583,-10.80699,-23.21864,0.031235,0.83783,0.30455,-1.263096,0.092869,0.017514,75.629684,-27.658249,-119.620438,,,
729860320.400992,46.702583,-10.80699,-23.21864,0.031235,0.83783,0.30455,-1.263096,0.092869,0.017514,75.629684,-27.658249,-119.620438,,,
729860320.404265,46.317741,-10.729457,-23.270479,0.020004,0.724609,0.453217,-1.342774,0.143103,0.142087,75.629684,-27.658249,-119.620438,,,
729860320.407599,45.93092,-10.671097,-23.299657,0.020004,0.724609,0.453217,-1.342774,0.143103,0.142087,75.629684,-27.658249,-119.620438,,,
729860320.41093,45.93092,-10.671097,-23.299657,0.020004,0.724609,0.453217,-1.342774,0.143103,0.142087,75.629684,-27.658249,-119.620438,,,
729860320.414286,45.548713,-10.636756,-23.309616,0.028214,0.652847,0.577545,-1.304601,0.091581,0.230096,75.629684,-27.658249,-119.620438,,,
729860320.417594,45.173439,-10.628228,-23.304618,0.028214,0.652847,0.577545,-1.304601,0.091581,0.230096,75.435028,-26.615982,-121.888351,,,
729860320.420937,45.173439,-10.628228,-23.304618,0.028214,0.652847,0.577545,-1.304601,0.091581,0.230096,75.435028,-26.615982,-121.888351,,,
729860320.424349,44.801388,-10.645653,-23.289388,0.035507,0.617157,0.637878,-1.261013,-0.036374,0.278901,75.435028,-26.615982,-121.888351,,,
729860320.427589,44.424568,-10.688257,-23.269377,0.035507,0.617157,0.637878,-1.261013,-0.036374,0.278901,75.435028,-26.615982,-121.888351,,,
729860320.430943,44.424568,-10.688257,-23.269377,0.035507,0.617157,0.637878,-1.261013,-0.036374,0.278901,75.435028,-26.615982,-121.888351,,,
729860320.434263,44.030349,-10.754123,-23.250231,0.043365,0.629364,0.586517,-1.352437,-0.197503,0.305526,75.435028,-26.615982,-121.888351,,,
729860320.437619,43.603473,-10.839566,-23.236841,0.043365,0.629364,0.586517,-1.352437,-0.197503,0.305526,75.435028,-26.615982,-121.888351,,,
729860320.44095,43.603473,-10.839566,-23.236841,0.043365,0.629364,0.586517,-1.352437,-0.197503,0.305526,75.435028,-26.615982,-121.888351,,,
729860320.444345,43.131094,-10.936184,-23.235136,0.053787,0.68718,0.428528,-1.6543,-0.346543,0.312076,75.435028,-26.615982,-121.888351,,,
729860320.447617,42.60109,-11.028838,-23.250172,0.053787,0.68718,0.428528,-1.6543,-0.346543,0.312076,75.435028,-26.615982,-121.888351,,,
729860320.451001,42.60109,-11.028838,-23.250172,0.053787,0.68718,0.428528,-1.6543,-0.346543,0.312076,75.435028,-26.615982,-121.888351,,,
729860320.454267,42.002209,-11.102585,-23.283479,0.074402,0.744415,0.291046,-2.123789,-0.324485,0.315751,75.435028,-26.615982,-121.888351,,,
729860320.457605,41.326438,-11.1468,-23.334201,0.074402,0.744415,0.291046,-2.123789,-0.324485,0.315751,74.819031,-25.016129,-124.863449,,,
729860320.460932,41.326438,-11.1468,-23.334201,0.074402,0.744415,0.291046,-2.123789,-0.324485,0.315751,74.819031,-25.016129,-124.863449,,,
729860320.464283,40.575151,-11.154668,-23.398821,0.080215,0.776093,0.243347,-2.668093,-0.147236,0.339862,74.819031,-25.016129,-124.863449,,,
729860320.467614,39.766977,-11.129984,-23.468618,0.080215,0.776093,0.243347,-2.668093,-0.147236,0.339862,74.819031,-25.016129,-124.863449,,,
729860320.470951,39.766977,-11.129984,-23.468618,0.080215,0.776093,0.243347,-2.668093,-0.147236,0.339862,74.819031,-25.016129,-124.863449,,,
729860320.474335,38.929251,-11.088704,-23.531676,0.078766,0.709503,0.348984,-2.917185,0.024594,0.402088,74.819031,-25.016129,-124.863449,,,
729860320.477646,38.08706,-11.0487,-23.577256,0.078766,0.709503,0.348984,-2.917185,0.024594,0.402088,74.819031,-25.016129,-124.863449,,,
729860320.480937,38.08706,-11.0487,-23.577256,0.078766,0.709503,0.348984,-2.917185,0.024594,0.402088,74.819031,-25.016129,-124.863449,,,
729860320.484275,37.255673,-11.017981,-23.600597,0.074936,0.572067,0.644272,-2.840022,0.064087,0.499347,74.819031,-25.016129,-124.863449,,,
729860320.487655,36.44186,-10.996,-23.600685,0.074936,0.572067,0.644272,-2.840022,0.064087,0.499347,74.819031,-25.016129,-124.863449,,,
729860320.490936,36.44186,-10.996,-23.600685,0.074936,0.572067,0.644272,-2.840022,0.064087,0.499347,74.819031,-25.016129,-124.863449,,,
729860320.494297,35.645383,-10.97934,-23.578266,0.089035,0.451706,0.814011,-2.688278,0.112265,0.602083,74.819031,-25.016129,-124.863449,,,
729860320.49762,34.859105,-10.963715,-23.537425,0.089035,0.451706,0.814011,-2.688278,0.112265,0.602083,73.916672,-21.459457,-129.878403,,,
729860320.501011,34.859105,-10.963715,-23.537425,0.089035,0.451706,0.814011,-2.688278,0.112265,0.602083,73.916672,-21.459457,-129.878403,,,
729860320.504314,34.071,-10.946992,-23.482825,0.078003,0.38826,0.83606,-2.663713,0.178877,0.68515,73.916672,-21.459457,-129.878403,,,
729860320.50766,33.265869,-10.930198,-23.419258,0.078003,0.38826,0.83606,-2.663713,0.178877,0.68515,73.916672,-21.459457,-129.878403,,,
729860320.510939,33.265869,-10.930198,-23.419258,0.078003,0.38826,0.83606,-2.663713,0.178877,0.68515,73.916672,-21.459457,-129.878403,,,
729860320.514271,32.427876,-10.917973,-23.352084,0.082947,0.424805,0.711533,-2.85893,0.168628,0.753633,73.916672,-21.459457,-129.878403,,,
729860320.5177,31.547698,-10.916997,-23.28647,0.082947,0.424805,0.711533,-2.85893,0.168628,0.753633,73.916672,-21.459457,-129.878403,,,
729860320.520968,31.547698,-10.916997,-23.28647,0.082947,0.424805,0.711533,-2.85893,0.168628,0.753633,73.916672,-21.459457,-129.878403,,,
729860320.524368,30.623991,-10.93173,-23.226999,0.095627,0.483459,0.555389,-3.162617,0.041158,0.785501,73.916672,-21.459457,-129.878403,,,
729860320.527615,29.660595,-10.962474,-23.177082,0.095627,0.483459,0.555389,-3.162617,0.041158,0.785501,73.916672,-21.459457,-129.878403,,,
729860320.530953,29.660595,-10.962474,-23.177082,0.095627,0.483459,0.555389,-3.162617,0.041158,0.785501,73.916672,-21.459457,-129.878403,,,
729860320.534101,28.664231,-11.006639,-23.140551,0.133453,0.459702,0.536911,-3.413327,-0.109683,0.76556,73.916672,-21.459457,-129.878403,,,
729860320.537695,27.646057,-11.059558,-23.12067,0.133453,0.459702,0.536911,-3.413327,-0.109683,0.76556,73.916672,-21.459457,-129.878403,,,
729860320.540931,27.646057,-11.059558,-23.12067,0.133453,0.459702,0.536911,-3.413327,-0.109683,0.76556,72.538528,-17.073395,-134.645416,,,
729860320.544275,26.626006,-11.114983,-23.117146,0.168213,0.401917,0.608841,-3.484779,-0.191893,0.679474,72.538528,-17.073395,-134.645416,,,
729860320.547624,25.63179,-11.172302,-23.125092,0.168213,0.401917,0.608841,-3.484779,-0.191893,0.679474,72.538528,-17.073395,-134.645416,,,
729860320.551026,25.63179,-11.172302,-23.125092,0.168213,0.401917,0.608841,-3.484779,-0.191893,0.679474,72.538528,-17.073395,-134.645416,,,
729860320.554271,24.693646,-11.24659,-23.135545,0.183273,0.31311,0.831528,-3.154478,-0.294467,0.590854,72.538528,-17.073395,-134.645416,,,
729860320.557628,23.830112,-11.344909,-23.141762,0.183273,0.31311,0.831528,-3.154478,-0.294467,0.590854,72.538528,-17.073395,-134.645416,,,
729860320.56093,23.830112,-11.344909,-23.141762,0.183273,0.31311,0.831528,-3.154478,-0.294467,0.590854,72.538528,-17.073395,-134.645416,,,
729860320.564339,23.041785,-11.454629,-23.139014,0.187515,0.185745,1.124695,-2.622127,-0.3744,0.546862,72.538528,-17.073395,-134.645416,,,
729860320.567629,22.323181,-11.570112,-23.120879,0.187515,0.185745,1.124695,-2.622127,-0.3744,0.546862,72.538528,-17.073395,-134.645416,,,
729860320.570931,22.323181,-11.570112,-23.120879,0.187515,0.185745,1.124695,-2.622127,-0.3744,0.546862,72.538528,-17.073395,-134.645416,,,
729860320.574284,21.662764,-11.691571,-23.084775,0.194046,0.093338,1.206192,-2.175288,-0.371998,0.584679,72.538528,-17.073395,-134.645416,,,
729860320.577697,21.046108,-11.81613,-23.033128,0.194046,0.093338,1.206192,-2.175288,-0.371998,0.584679,72.538528,-17.073395,-134.645416,,,
729860320.580953,21.046108,-11.81613,-23.033128,0.194046,0.093338,1.206192,-2.175288,-0.371998,0.584679,71.094452,-12.988876,-138.354126,,,
729860320.58428,20.458628,-11.936064,-22.970941,0.189987,0.085892,1.166672,-1.936861,-0.328809,0.621057,71.094452,-12.988876,-138.354126,,,
729860320.58764,19.885282,-12.041325,-22.904282,0.189987,0.085892,1.166672,-1.936861,-0.328809,0.621057,71.094452,-12.988876,-138.354126,,,
729860320.591008,19.885282,-12.041325,-22.904282,0.189987,0.085892,1.166672,-1.936861,-0.328809,0.621057,71.094452,-12.988876,-138.354126,,,
729860320.594312,19.31376,-12.126463,-22.839081,0.215729,0.196411,1.078232,-1.902266,-0.201737,0.624894,71.094452,-12.988876,-138.354126,,,
729860320.597615,19.31376,-12.126463,-22.839081,0.215729,0.196411,1.078232,-1.902266,-0.201737,0.624894,71.094452,-12.988876,-138.354126,,,
729860320.600931,18.736688,-12.189846,-22.781722,0.215729,0.196411,1.078232,-1.902266,-0.201737,0.624894,71.094452,-12.988876,-138.354126,,,
729860320.60436,18.150005,-12.230962,-22.738233,0.243851,0.263229,0.96579,-1.976629,-0.078221,0.562708,71.094452,-12.988876,-138.354126,,,
729860320.607602,18.150005,-12.230962,-22.738233,0.243851,0.263229,0.96579,-1.976629,-0.078221,0.562708,71.094452,-12.988876,-138.354126,,,
729860320.610932,17.551751,-12.248045,-22.713122,0.243851,0.263229,0.96579,-1.976629,-0.078221,0.562708,71.094452,-12.988876,-138.354126,,,
729860320.614276,16.939326,-12.239606,-22.709133,0.285278,0.291992,0.893463,-2.097028,0.054132,0.44919,71.094452,-12.988876,-138.354126,,,
729860320.617596,16.939326,-12.239606,-22.709133,0.285278,0.291992,0.893463,-2.097028,0.054132,0.44919,71.094452,-12.988876,-138.354126,,,
729860320.620936,16.310948,-12.208393,-22.726779,0.285278,0.291992,0.893463,-2.097028,0.054132,0.44919,70.435043,-9.356339,-140.840942,,,
729860320.624271,15.668886,-12.162208,-22.763499,0.287003,0.302567,0.850845,-2.225242,0.134607,0.338892,70.435043,-9.356339,-140.840942,,,
729860320.627636,15.668886,-12.162208,-22.763499,0.287003,0.302567,0.850845,-2.225242,0.134607,0.338892,70.435043,-9.356339,-140.840942,,,
729860320.63093,15.018184,-12.110053,-22.814632,0.287003,0.302567,0.850845,-2.225242,0.134607,0.338892,70.435043,-9.356339,-140.840942,,,
729860320.634285,14.366317,-12.057002,-22.875538,0.271332,0.258148,0.854309,-2.268251,0.132769,0.264709,70.435043,-9.356339,-140.840942,,,
729860320.63762,14.366317,-12.057002,-22.875538,0.271332,0.258148,0.854309,-2.268251,0.132769,0.264709,70.435043,-9.356339,-140.840942,,,
729860320.640989,13.720729,-12.002564,-22.941674,0.271332,0.258148,0.854309,-2.268251,0.132769,0.264709,70.435043,-9.356339,-140.840942,,,
729860320.644264,13.087752,-11.94065,-23.007736,0.244919,0.188934,0.939896,-2.192257,0.175687,0.23412,70.435043,-9.356339,-140.840942,,,
729860320.647621,13.087752,-11.94065,-23.007736,0.244919,0.188934,0.939896,-2.192257,0.175687,0.23412,70.435043,-9.356339,-140.840942,,,
729860320.65096,12.472067,-11.866748,-23.068819,0.244919,0.188934,0.939896,-2.192257,0.175687,0.23412,70.435043,-9.356339,-140.840942,,,
729860320.654259,11.874884,-11.781796,-23.120485,0.211044,0.136169,1.058823,-2.052996,0.274089,0.258135,70.435043,-9.356339,-140.840942,,,
729860320.657593,11.874884,-11.781796,-23.120485,0.211044,0.136169,1.058823,-2.052996,0.274089,0.258135,70.435043,-9.356339,-140.840942,,,
729860320.661082,11.294218,-11.689708,-23.158804,0.211044,0.136169,1.058823,-2.052996,0.274089,0.258135,70.435043,-9.356339,-140.840942,,,
729860320.664301,10.72854,-11.592764,-23.181957,0.186295,0.079346,1.104126,-1.929011,0.331202,0.330255,70.517639,-5.593964,-143.777359,,,
729860320.6676,10.72854,-11.592764,-23.181957,0.186295,0.079346,1.104126,-1.929011,0.331202,0.330255,70.517639,-5.593964,-143.777359,,,
729860320.670948,10.178277,-11.490685,-23.191247,0.186295,0.079346,1.104126,-1.929011,0.331202,0.330255,70.517639,-5.593964,-143.777359,,,
729860320.674275,9.644711,-11.385516,-23.191223,0.182785,0.047623,1.090576,-1.806183,0.373896,0.372833,70.517639,-5.593964,-143.777359,,,
729860320.677652,9.644711,-11.385516,-23.191223,0.182785,0.047623,1.090576,-1.806183,0.373896,0.372833,70.517639,-5.593964,-143.777359,,,
729860320.680943,9.129762,-11.280277,-23.188369,0.182785,0.047623,1.090576,-1.806183,0.373896,0.372833,70.517639,-5.593964,-143.777359,,,
729860320.684274,8.636982,-11.177095,-23.18903,0.212357,0.06044,1.097198,-1.666201,0.360849,0.32007,70.517639,-5.593964,-143.777359,,,
729860320.687611,8.636982,-11.177095,-23.18903,0.212357,0.06044,1.097198,-1.666201,0.360849,0.32007,70.517639,-5.593964,-143.777359,,,
729860320.691022,8.169364,-11.076955,-23.198258,0.212357,0.06044,1.097198,-1.666201,0.360849,0.32007,70.517639,-5.593964,-143.777359,,,
729860320.694259,7.726788,-10.981061,-23.21926,0.251694,0.077835,1.104065,-1.50573,0.322351,0.207343,70.517639,-5.593964,-143.777359,,,
729860320.697618,7.726788,-10.981061,-23.21926,0.251694,0.077835,1.104065,-1.50573,0.322351,0.207343,70.517639,-5.593964,-143.777359,,,
729860320.700954,7.30756,-10.892315,-23.253424,0.251694,0.077835,1.104065,-1.50573,0.322351,0.207343,70.517639,-5.593964,-143.777359,,,
729860320.704332,6.909882,-10.81512,-23.299775,0.260223,0.084808,1.082565,-1.373865,0.240056,0.089676,71.098022,-2.570862,-145.326965,,,
729860320.707616,6.909882,-10.81512,-23.299775,0.260223,0.084808,1.082565,-1.373865,0.240056,0.089676,71.098022,-2.570862,-145.326965,,,
729860320.710982,6.533807,-10.752583,-23.355214,0.260223,0.084808,1.082565,-1.373865,0.240056,0.089676,71.098022,-2.570862,-145.326965,,,
729860320.714265,6.179507,-10.703071,-23.416808,0.257339,0.076065,1.055176,-1.235056,0.137355,0.010531,71.098022,-2.570862,-145.326965,,,
729860320.717684,6.179507,-10.703071,-23.416808,0.257339,0.076065,1.055176,-1.235056,0.137355,0.010531,71.098022,-2.570862,-145.326965,,,
729860320.720939,5.844466,-10.662058,-23.481591,0.257339,0.076065,1.055176,-1.235056,0.137355,0.010531,71.098022,-2.570862,-145.326965,,,
729860320.724274,5.526633,-10.624919,-23.546965,0.231644,0.05928,1.062119,-1.117477,0.106527,-0.023364,71.098022,-2.570862,-145.326965,,,
729860320.727607,5.526633,-10.624919,-23.546965,0.231644,0.05928,1.062119,-1.117477,0.106527,-0.023364,71.098022,-2.570862,-145.326965,,,
729860320.731011,5.22671,-10.587452,-23.61079,0.231644,0.05928,1.062119,-1.117477,0.106527,-0.023364,71.098022,-2.570862,-145.326965,,,
729860320.734262,4.949689,-10.546374,-23.669777,0.215225,0.045181,1.076309,-0.96562,0.129385,-0.025356,71.098022,-2.570862,-145.326965,,,
729860320.7376,4.949689,-10.546374,-23.669777,0.215225,0.045181,1.076309,-0.96562,0.129385,-0.025356,71.098022,-2.570862,-145.326965,,,
729860320.740948,4.700963,-10.497935,-23.720642,0.215225,0.045181,1.076309,-0.96562,0.129385,-0.025356,71.098022,-2.570862,-145.326965,,,
729860320.744274,4.483681,-10.438265,-23.76101,0.194778,0.013565,1.165115,-0.741017,0.210384,0.000888,71.166687,-0.611694,-145.595367,,,
729860320.747612,4.483681,-10.438265,-23.76101,0.194778,0.013565,1.165115,-0.741017,0.210384,0.000888,71.166687,-0.611694,-145.595367,,,
729860320.750943,4.297265,-10.367332,-23.789067,0.194778,0.013565,1.165115,-0.741017,0.210384,0.000888,71.166687,-0.611694,-145.595367,,,
729860320.754272,4.135066,-10.287803,-23.803782,0.1754,-0.010223,1.225815,-0.540112,0.283178,0.056525,71.166687,-0.611694,-145.595367,,,
729860320.757683,4.135066,-10.287803,-23.803782,0.1754,-0.010223,1.225815,-0.540112,0.283178,0.056525,71.166687,-0.611694,-145.595367,,,
729860320.760952,3.988461,-10.204159,-23.806188,0.1754,-0.010223,1.225815,-0.540112,0.283178,0.056525,71.166687,-0.611694,-145.595367,,,
729860320.764268,3.848564,-10.121439,-23.79944,0.168289,-0.000183,1.172287,-0.471254,0.287515,0.115473,71.166687,-0.611694,-145.595367,,,
729860320.767615,3.848564,-10.121439,-23.79944,0.168289,-0.000183,1.172287,-0.471254,0.287515,0.115473,71.166687,-0.611694,-145.595367,,,
729860320.770987,3.705043,-10.041908,-23.788703,0.168289,-0.000183,1.172287,-0.471254,0.287515,0.115473,71.166687,-0.611694,-145.595367,,,
729860320.774281,3.549222,-9.964193,-23.779989,0.17981,0.042313,1.069031,-0.538485,0.275715,0.124439,71.166687,-0.611694,-145.595367,,,
729860320.777608,3.549222,-9.964193,-23.779989,0.17981,0.042313,1.069031,-0.538485,0.275715,0.124439,71.166687,-0.611694,-145.595367,,,
729860320.780957,3.374091,-9.886268,-23.778581,0.17981,0.042313,1.069031,-0.538485,0.275715,0.124439,71.166687,-0.611694,-145.595367,,,
729860320.784267,3.174943,-9.80804,-23.788162,0.192902,0.083786,0.971817,-0.7115,0.271612,0.081368,71.499756,0.625412,-146.37149,,,
729860320.787615,3.174943,-9.80804,-23.788162,0.192902,0.083786,0.971817,-0.7115,0.271612,0.081368,71.499756,0.625412,-146.37149,,,
729860320.790934,2.95278,-9.730667,-23.810571,0.192902,0.083786,0.971817,-0.7115,0.271612,0.081368,71.499756,0.625412,-146.37149,,,
729860320.794283,2.714993,-9.654794,-23.845432,0.209656,0.102325,0.908951,-0.85018,0.258355,0.011963,71.499756,0.625412,-146.37149,,,
729860320.79771,2.714993,-9.654794,-23.845432,0.209656,0.102325,0.908951,-0.85018,0.258355,0.011963,71.499756,0.625412,-146.37149,,,
729860320.800955,2.472855,-9.581076,-23.88908,0.209656,0.102325,0.908951,-0.85018,0.258355,0.011963,71.499756,0.625412,-146.37149,,,
729860320.80428,2.235587,-9.509816,-23.93616,0.203552,0.070435,0.961334,-0.839571,0.240717,-0.030022,71.499756,0.625412,-146.37149,,,
729860320.807619,2.235587,-9.509816,-23.93616,0.203552,0.070435,0.961334,-0.839571,0.240717,-0.030022,71.499756,0.625412,-146.37149,,,
729860320.811019,2.009043,-9.441497,-23.981821,0.203552,0.070435,0.961334,-0.839571,0.240717,-0.030022,71.499756,0.625412,-146.37149,,,
729860320.81427,1.796127,-9.377131,-24.021089,0.167267,0.028015,1.055771,-0.741945,0.219399,-0.007746,71.499756,0.625412,-146.37149,,,
729860320.817619,1.796127,-9.377131,-24.021089,0.167267,0.028015,1.055771,-0.741945,0.219399,-0.007746,71.499756,0.625412,-146.37149,,,
729860320.820963,1.595732,-9.317914,-24.050421,0.167267,0.028015,1.055771,-0.741945,0.219399,-0.007746,71.499756,0.625412,-146.37149,,,
729860320.824276,1.404825,-9.264087,-24.068297,0.138153,-0.003113,1.084137,-0.656451,0.182721,0.05444,71.499756,0.625412,-146.37149,,,
729860320.827601,1.404825,-9.264087,-24.068297,0.138153,-0.003113,1.084137,-0.656451,0.182721,0.05444,72.007889,1.93396,-147.383667,,,
729860320.830959,1.220817,-9.21391,-24.074186,0.138153,-0.003113,1.084137,-0.656451,0.182721,0.05444,72.007889,1.93396,-147.383667,,,
729860320.834274,1.041029,-9.16494,-24.06968,0.122726,-0.012512,1.066925,-0.608567,0.174115,0.1225,72.007889,1.93396,-147.383667,,,
729860320.837679,1.041029,-9.16494,-24.06968,0.122726,-0.012512,1.066925,-0.608567,0.174115,0.1225,72.007889,1.93396,-147.383667,,,
729860320.840953,0.862592,-9.11455,-24.057028,0.122726,-0.012512,1.066925,-0.608567,0.174115,0.1225,72.007889,1.93396,-147.383667,,,
729860320.844278,0.68273,-9.061634,-24.03895,0.126099,-0.008179,1.046875,-0.610813,0.187914,0.166041,72.007889,1.93396,-147.383667,,,
729860320.847605,0.68273,-9.061634,-24.03895,0.126099,-0.008179,1.046875,-0.610813,0.187914,0.166041,72.007889,1.93396,-147.383667,,,
729860320.851022,0.497816,-9.007848,-24.018334,0.126099,-0.008179,1.046875,-0.610813,0.187914,0.166041,72.007889,1.93396,-147.383667,,,
729860320.854263,0.302283,-8.955655,-23.999231,0.140671,0.011337,1.002792,-0.672898,0.181956,0.171324,72.007889,1.93396,-147.383667,,,
729860320.857616,0.302283,-8.955655,-23.999231,0.140671,0.011337,1.002792,-0.672898,0.181956,0.171324,72.007889,1.93396,-147.383667,,,
729860320.860959,0.091855,-8.906459,-23.986761,0.140671,0.011337,1.002792,-0.672898,0.181956,0.171324,72.007889,1.93396,-147.383667,,,
729860320.864276,-0.13105,-8.862058,-23.984859,0.170563,0.031525,0.934143,-0.778285,0.149852,0.118038,72.007889,1.93396,-147.383667,,,
729860320.867627,-0.13105,-8.862058,-23.984859,0.170563,0.031525,0.934143,-0.778285,0.149852,0.118038,72.067825,3.639252,-147.924713,,,
729860320.870957,-0.358359,-8.824008,-23.995792,0.170563,0.031525,0.934143,-0.778285,0.149852,0.118038,72.067825,3.639252,-147.924713,,,
729860320.874346,-0.581056,-8.79134,-24.018862,0.200302,0.028595,0.942535,-0.774495,0.112536,0.028227,72.067825,3.639252,-147.924713,,,
729860320.877664,-0.581056,-8.79134,-24.018862,0.200302,0.028595,0.942535,-0.774495,0.112536,0.028227,72.067825,3.639252,-147.924713,,,
729860320.880956,-0.791472,-8.762355,-24.050929,0.200302,0.028595,0.942535,-0.774495,0.112536,0.028227,72.067825,3.639252,-147.924713,,,
729860320.884283,-0.985014,-8.735604,-24.087944,0.196548,-0.007385,1.035721,-0.667956,0.098733,-0.033618,72.067825,3.639252,-147.924713,,,
729860320.887628,-0.985014,-8.735604,-24.087944,0.196548,-0.007385,1.035721,-0.667956,0.098733,-0.033618,72.067825,3.639252,-147.924713,,,
729860320.891023,-1.160534,-8.711527,-24.125114,0.196548,-0.007385,1.035721,-0.667956,0.098733,-0.033618,72.067825,3.639252,-147.924713,,,
729860320.894272,-1.319706,-8.690224,-24.15863,0.175308,-0.033936,1.092743,-0.551849,0.07728,-0.029565,72.067825,3.639252,-147.924713,,,
729860320.897618,-1.319706,-8.690224,-24.15863,0.175308,-0.033936,1.092743,-0.551849,0.07728,-0.029565,72.067825,3.639252,-147.924713,,,
729860320.901005,-1.465389,-8.670507,-24.185565,0.175308,-0.033936,1.092743,-0.551849,0.07728,-0.029565,72.067825,3.639252,-147.924713,,,
729860320.904266,-1.600497,-8.649916,-24.204575,0.155182,-0.050461,1.092941,-0.465245,0.076922,0.009129,72.067825,3.639252,-147.924713,,,
729860320.907605,-1.600497,-8.649916,-24.204575,0.155182,-0.050461,1.092941,-0.465245,0.076922,0.009129,72.268036,4.924744,-147.891769,,,
729860320.910963,-1.72875,-8.625764,-24.216427,0.155182,-0.050461,1.092941,-0.465245,0.076922,0.009129,72.268036,4.924744,-147.891769,,,
729860320.914273,-1.854276,-8.596091,-24.222276,0.144485,-0.056534,1.070679,-0.430279,0.112438,0.049534,72.268036,4.924744,-147.891769,,,
729860320.917686,-1.854276,-8.596091,-24.222276,0.144485,-0.056534,1.070679,-0.430279,0.112438,0.049534,72.268036,4.924744,-147.891769,,,
729860320.920956,-1.980946,-8.561235,-24.224401,0.144485,-0.056534,1.070679,-0.430279,0.112438,0.049534,72.268036,4.924744,-147.891769,,,
729860320.924277,-2.11205,-8.521649,-24.22563,0.150879,-0.042191,1.03392,-0.452913,0.14676,0.063822,72.268036,4.924744,-147.891769,,,
729860320.927602,-2.11205,-8.521649,-24.22563,0.150879,-0.042191,1.03392,-0.452913,0.14676,0.063822,72.268036,4.924744,-147.891769,,,
729860320.931017,-2.248643,-8.477537,-24.228791,0.150879,-0.042191,1.03392,-0.452913,0.14676,0.063822,72.268036,4.924744,-147.891769,,,
729860320.934272,-2.390069,-8.43009,-24.236169,0.166245,-0.029404,0.989273,-0.496201,0.171682,0.043012,72.268036,4.924744,-147.891769,,,
729860320.937632,-2.390069,-8.43009,-24.236169,0.166245,-0.029404,0.989273,-0.496201,0.171682,0.043012,72.268036,4.924744,-147.891769,,,
729860320.940951,-2.532252,-8.380336,-24.24806,0.166245,-0.029404,0.989273,-0.496201,0.171682,0.043012,72.268036,4.924744,-147.891769,,,
729860320.944275,-2.668534,-8.329527,-24.263527,0.174637,-0.033981,0.982727,-0.470165,0.182904,0.008185,72.268036,4.924744,-147.891769,,,
729860320.94761,-2.668534,-8.329527,-24.263527,0.174637,-0.033981,0.982727,-0.470165,0.182904,0.008185,72.4823,5.862717,-148.417542,,,
729860320.950971,-2.792481,-8.280674,-24.281158,0.174637,-0.033981,0.982727,-0.470165,0.182904,0.008185,72.4823,5.862717,-148.417542,,,
729860320.954273,-2.900811,-8.237057,-24.298454,0.163849,-0.053787,1.04303,-0.366584,0.15296,-0.006662,72.4823,5.862717,-148.417542,,,
729860320.957679,-2.900811,-8.237057,-24.298454,0.163849,-0.053787,1.04303,-0.366584,0.15296,-0.006662,72.4823,5.862717,-148.417542,,,
729860320.96096,-2.992998,-8.201007,-24.313188,0.163849,-0.053787,1.04303,-0.366584,0.15296,-0.006662,72.4823,5.862717,-148.417542,,,
729860320.96433,-3.070057,-8.172472,-24.324239,0.153656,-0.073563,1.080246,-0.256983,0.096147,-0.000574,72.4823,5.862717,-148.417542,,,
729860320.967637,-3.070057,-8.172472,-24.324239,0.153656,-0.073563,1.080246,-0.256983,0.096147,-0.000574,72.4823,5.862717,-148.417542,,,
729860320.971044,-3.134326,-8.149529,-24.331292,0.153656,-0.073563,1.080246,-0.256983,0.096147,-0.000574,72.4823,5.862717,-148.417542,,,
729860320.974266,-3.187311,-8.129393,-24.334337,0.149048,-0.082565,1.084229,-0.175642,0.072272,0.013676,72.4823,5.862717,-148.417542,,,
729860320.977613,-3.187311,-8.129393,-24.334337,0.149048,-0.082565,1.084229,-0.175642,0.072272,0.013676,72.4823,5.862717,-148.417542,,,
729860320.980964,-3.230795,-8.109517,-24.333841,0.149048,-0.082565,1.084229,-0.175642,0.072272,0.013676,72.4823,5.862717,-148.417542,,,
729860320.984276,-3.267075,-8.089076,-24.330153,0.145065,-0.078354,1.084122,-0.116112,0.071273,0.030355,72.4823,5.862717,-148.417542,,,
729860320.987619,-3.267075,-8.089076,-24.330153,0.145065,-0.078354,1.084122,-0.116112,0.071273,0.030355,72.4823,5.862717,-148.417542,,,
729860320.990961,-3.29799,-8.067696,-24.324554,0.145065,-0.078354,1.084122,-0.116112,0.071273,0.030355,72.703232,6.174866,-148.315628,,,
729860320.994294,-3.324892,-8.046099,-24.318469,0.146622,-0.068161,1.058624,-0.08702,0.075945,0.030647,72.703232,6.174866,-148.315628,,,
729860320.997659,-3.324892,-8.046099,-24.318469,0.146622,-0.068161,1.058624,-0.08702,0.075945,0.030647,72.703232,6.174866,-148.315628,,,
729860321.001008,-3.349024,-8.02621,-24.31308,0.146622,-0.068161,1.058624,-0.08702,0.075945,0.030647,72.703232,6.174866,-148.315628,,,
729860321.004382,-3.37089,-8.009361,-24.309827,0.152313,-0.058701,1.027054,-0.072542,0.055002,0.020369,72.703232,6.174866,-148.315628,,,
729860321.007617,-3.37089,-8.009361,-24.309827,0.152313,-0.058701,1.027054,-0.072542,0.055002,0.020369,72.703232,6.174866,-148.315628,,,
729860321.010958,-3.389438,-7.996696,-24.310093,0.152313,-0.058701,1.027054,-0.072542,0.055002,0.020369,72.703232,6.174866,-148.315628,,,
729860321.014283,-3.402854,-7.988133,-24.31503,0.159195,-0.051651,1.013153,-0.043863,0.028284,-0.016977,72.703232,6.174866,-148.315628,,,
729860321.01762,-3.402854,-7.988133,-24.31503,0.159195,-0.051651,1.013153,-0.043863,0.028284,-0.016977,72.703232,6.174866,-148.315628,,,
729860321.021045,-3.408816,-7.982202,-24.324961,0.159195,-0.051651,1.013153,-0.043863,0.028284,-0.016977,72.703232,6.174866,-148.315628,,,
729860321.024282,-3.404733,-7.977728,-24.33905,0.165298,-0.057358,1.028137,0.018203,0.021076,-0.056572,72.703232,6.174866,-148.315628,,,
729860321.027636,-3.404733,-7.977728,-24.33905,0.165298,-0.057358,1.028137,0.018203,0.021076,-0.056572,72.703232,6.174866,-148.315628,,,
729860321.030962,-3.389014,-7.974208,-24.355156,0.165298,-0.057358,1.028137,0.018203,0.021076,-0.056572,72.655075,6.382446,-148.473114,,,
729860321.034274,-3.36096,-7.971664,-24.371167,0.161362,-0.067627,1.056747,0.101351,0.013213,-0.072079,72.655075,6.382446,-148.473114,,,
729860321.037607,-3.36096,-7.971664,-24.371167,0.161362,-0.067627,1.056747,0.101351,0.013213,-0.072079,72.655075,6.382446,-148.473114,,,
729860321.040956,-3.319947,-7.970777,-24.385817,0.161362,-0.067627,1.056747,0.101351,0.013213,-0.072079,72.655075,6.382446,-148.473114,,,
729860321.044283,-3.266495,-7.971738,-24.398408,0.155991,-0.077438,1.074799,0.189007,0.000335,-0.070492,72.655075,6.382446,-148.473114,,,
729860321.04767,-3.266495,-7.971738,-24.398408,0.155991,-0.077438,1.074799,0.189007,0.000335,-0.070492,72.655075,6.382446,-148.473114,,,
729860321.050942,-3.204334,-7.973981,-24.409361,0.155991,-0.077438,1.074799,0.189007,0.000335,-0.070492,72.655075,6.382446,-148.473114,,,
729860321.054274,-3.138435,-7.976473,-24.419938,0.151779,-0.072403,1.060974,0.22524,-0.004613,-0.069703,72.655075,6.382446,-148.473114,,,
729860321.057619,-3.138435,-7.976473,-24.419938,0.151779,-0.072403,1.060974,0.22524,-0.004613,-0.069703,72.655075,6.382446,-148.473114,,,
729860321.061037,-3.072546,-7.977897,-24.430621,0.151779,-0.072403,1.060974,0.22524,-0.004613,-0.069703,72.655075,6.382446,-148.473114,,,
729860321.064267,-3.009904,-7.977037,-24.442117,0.150558,-0.056351,1.021835,0.207476,0.01089,-0.071114,72.655075,6.382446,-148.473114,,,
729860321.067628,-3.009904,-7.977037,-24.442117,0.150558,-0.056351,1.021835,0.207476,0.01089,-0.071114,72.655075,6.382446,-148.473114,,,
729860321.070956,-2.952218,-7.973842,-24.454622,0.150558,-0.056351,1.021835,0.207476,0.01089,-0.071114,72.863678,5.915634,-147.964188,,,
729860321.074279,-2.900239,-7.96881,-24.467835,0.146118,-0.044464,0.987167,0.1701,0.022329,-0.07026,72.863678,5.915634,-147.964188,,,
729860321.077616,-2.900239,-7.96881,-24.467835,0.146118,-0.044464,0.987167,0.1701,0.022329,-0.07026,72.863678,5.915634,-147.964188,,,
729860321.080956,-2.856667,-7.96303,-24.482185,0.146118,-0.044464,0.987167,0.1701,0.022329,-0.07026,72.863678,5.915634,-147.964188,,,
729860321.084277,-2.824124,-7.95803,-24.498851,0.140732,-0.036606,0.955338,0.093235,0.022766,-0.073611,72.863678,5.915634,-147.964188,,,
729860321.087708,-2.824124,-7.95803,-24.498851,0.140732,-0.036606,0.955338,0.093235,0.022766,-0.073611,72.863678,5.915634,-147.964188,,,
729860321.090958,-2.804787,-7.954398,-24.518833,0.140732,-0.036606,0.955338,0.093235,0.022766,-0.073611,72.863678,5.915634,-147.964188,,,
729860321.094279,-2.798362,-7.949952,-24.54243,0.143738,-0.026855,0.921875,0.003142,0.022709,-0.08722,72.863678,5.915634,-147.964188,,,
729860321.097636,-2.798362,-7.949952,-24.54243,0.143738,-0.026855,0.921875,0.003142,0.022709,-0.08722,72.863678,5.915634,-147.964188,,,
729860321.101014,-2.804504,-7.944904,-24.5697,0.143738,-0.026855,0.921875,0.003142,0.022709,-0.08722,72.863678,5.915634,-147.964188,,,
729860321.104269,-2.821202,-7.93819,-24.599992,0.14064,-0.026123,0.914215,-0.080093,0.033938,-0.098201,72.863678,5.915634,-147.964188,,,
729860321.107621,-2.821202,-7.93819,-24.599992,0.14064,-0.026123,0.914215,-0.080093,0.033938,-0.098201,72.863678,5.915634,-147.964188,,,
729860321.11096,-2.846425,-7.930998,-24.631342,0.14064,-0.026123,0.914215,-0.080093,0.033938,-0.098201,72.863678,5.915634,-147.964188,,,
729860321.114275,-2.877188,-7.922717,-24.661535,0.128662,-0.034821,0.929214,-0.12226,0.038414,-0.089591,72.950531,6.022064,-148.358841,,,
729860321.117634,-2.877188,-7.922717,-24.661535,0.128662,-0.034821,0.929214,-0.12226,0.038414,-0.089591,72.950531,6.022064,-148.358841,,,
729860321.120956,-2.909669,-7.914775,-24.689528,0.128662,-0.034821,0.929214,-0.12226,0.038414,-0.089591,72.950531,6.022064,-148.358841,,,
729860321.124282,-2.940087,-7.906318,-24.713493,0.119675,-0.052216,0.955826,-0.113874,0.038164,-0.063942,72.950531,6.022064,-148.358841,,,
729860321.127621,-2.940087,-7.906318,-24.713493,0.119675,-0.052216,0.955826,-0.113874,0.038164,-0.063942,72.950531,6.022064,-148.358841,,,
729860321.13094,-2.967182,-7.897734,-24.732347,0.119675,-0.052216,0.955826,-0.113874,0.038164,-0.063942,72.950531,6.022064,-148.358841,,,
729860321.134273,-2.988017,-7.888656,-24.74627,0.112976,-0.064255,0.989365,-0.071552,0.03913,-0.035248,72.950531,6.022064,-148.358841,,,
729860321.137603,-2.988017,-7.888656,-24.74627,0.112976,-0.064255,0.989365,-0.071552,0.03913,-0.035248,72.950531,6.022064,-148.358841,,,
729860321.14094,-3.002189,-7.879903,-24.75588,0.112976,-0.064255,0.989365,-0.071552,0.03913,-0.035248,72.950531,6.022064,-148.358841,,,
729860321.144276,-3.008667,-7.872777,-24.762106,0.111481,-0.065689,1.013214,-0.018562,0.026799,-0.016681,72.950531,6.022064,-148.358841,,,
729860321.147625,-3.008667,-7.872777,-24.762106,0.111481,-0.065689,1.013214,-0.018562,0.026799,-0.016681,72.950531,6.022064,-148.358841,,,
729860321.150977,-3.006747,-7.869102,-24.76589,0.111481,-0.065689,1.013214,-0.018562,0.026799,-0.016681,72.950531,6.022064,-148.358841,,,
729860321.154277,-2.998598,-7.86826,-24.769052,0.120438,-0.063248,1.015884,0.034832,0.00361,-0.015975,72.982132,6.103653,-148.537079,,,
729860321.157615,-2.998598,-7.86826,-24.769052,0.120438,-0.063248,1.015884,0.034832,0.00361,-0.015975,72.982132,6.103653,-148.537079,,,
729860321.16095,-2.985768,-7.870264,-24.773063,0.120438,-0.063248,1.015884,0.034832,0.00361,-0.015975,72.982132,6.103653,-148.537079,,,
729860321.164277,-2.971009,-7.873997,-24.779202,0.129944,-0.053833,0.999695,0.048841,-0.013065,-0.032275,72.982132,6.103653,-148.537079,,,
729860321.167632,-2.971009,-7.873997,-24.779202,0.129944,-0.053833,0.999695,0.048841,-0.013065,-0.032275,72.982132,6.103653,-148.537079,,,
729860321.170966,-2.956075,-7.879222,-24.788787,0.129944,-0.053833,0.999695,0.048841,-0.013065,-0.032275,72.982132,6.103653,-148.537079,,,
729860321.174278,-2.942367,-7.882933,-24.802056,0.139374,-0.040985,0.978241,0.042554,-0.009375,-0.058141,72.982132,6.103653,-148.537079,,,
729860321.177612,-2.942367,-7.882933,-24.802056,0.139374,-0.040985,0.978241,0.042554,-0.009375,-0.058141,72.982132,6.103653,-148.537079,,,
729860321.180944,-2.928193,-7.885326,-24.818828,0.139374,-0.040985,0.978241,0.042554,-0.009375,-0.058141,72.982132,6.103653,-148.537079,,,
729860321.184277,-2.915032,-7.884312,-24.838104,0.143417,-0.041367,0.975876,0.034316,0.012769,-0.075247,72.982132,6.103653,-148.537079,,,
729860321.187673,-2.915032,-7.884312,-24.838104,0.143417,-0.041367,0.975876,0.034316,0.012769,-0.075247,72.982132,6.103653,-148.537079,,,
729860321.190953,-2.902674,-7.880061,-24.858639,0.143417,-0.041367,0.975876,0.034316,0.012769,-0.075247,72.982132,6.103653,-148.537079,,,
729860321.194284,-2.892801,-7.871689,-24.878587,0.135284,-0.047104,0.982788,0.021448,0.040291,-0.074785,72.89946,5.841949,-148.550461,,,
729860321.197606,-2.892801,-7.871689,-24.878587,0.135284,-0.047104,0.982788,0.021448,0.040291,-0.074785,72.89946,5.841949,-148.550461,,,
729860321.200988,-2.885892,-7.858822,-24.896995,0.135284,-0.047104,0.982788,0.021448,0.040291,-0.074785,72.89946,5.841949,-148.550461,,,
729860321.204277,-2.882323,-7.842239,-24.913217,0.125336,-0.051834,0.978592,0.005598,0.067206,-0.05455,72.89946,5.841949,-148.550461,,,
729860321.207623,-2.882323,-7.842239,-24.913217,0.125336,-0.051834,0.978592,0.005598,0.067206,-0.05455,72.89946,5.841949,-148.550461,,,
729860321.210962,-2.882557,-7.819576,-24.92634,0.125336,-0.051834,0.978592,0.005598,0.067206,-0.05455,72.89946,5.841949,-148.550461,,,
729860321.214282,-2.886098,-7.795204,-24.936405,0.115753,-0.05455,0.975311,-0.019557,0.089843,-0.030792,72.89946,5.841949,-148.550461,,,
729860321.217706,-2.886098,-7.795204,-24.936405,0.115753,-0.05455,0.975311,-0.019557,0.089843,-0.030792,72.89946,5.841949,-148.550461,,,
729860321.220943,-2.895457,-7.765793,-24.943585,0.115753,-0.05455,0.975311,-0.019557,0.089843,-0.030792,72.89946,5.841949,-148.550461,,,
729860321.224277,-2.90966,-7.737729,-24.94809,0.110138,-0.053635,0.964279,-0.056379,0.103143,-0.008083,72.89946,5.841949,-148.550461,,,
729860321.227609,-2.90966,-7.737729,-24.94809,0.110138,-0.053635,0.964279,-0.056379,0.103143,-0.008083,72.89946,5.841949,-148.550461,,,
729860321.230943,-2.931183,-7.707582,-24.95073,0.110138,-0.053635,0.964279,-0.056379,0.103143,-0.008083,72.89946,5.841949,-148.550461,,,
729860321.234286,-2.95813,-7.680313,-24.952789,0.108322,-0.049911,0.948395,-0.09984,0.097182,0.006423,73.208939,6.239487,-148.505798,,,
729860321.237608,-2.95813,-7.680313,-24.952789,0.108322,-0.049911,0.948395,-0.09984,0.097182,0.006423,73.208939,6.239487,-148.505798,,,
729860321.240952,-2.990488,-7.65429,-24.954341,0.108322,-0.049911,0.948395,-0.09984,0.097182,0.006423,73.208939,6.239487,-148.505798,,,
729860321.244284,-3.026059,-7.63145,-24.956508,0.113083,-0.047379,0.942032,-0.129006,0.081839,0.005289,73.208939,6.239487,-148.505798,,,
729860321.247631,-3.026059,-7.63145,-24.956508,0.113083,-0.047379,0.942032,-0.129006,0.081839,0.005289,73.208939,6.239487,-148.505798,,,
729860321.250961,-3.06188,-7.611171,-24.959901,0.113083,-0.047379,0.942032,-0.129006,0.081839,0.005289,73.208939,6.239487,-148.505798,,,
729860321.254321,-3.097304,-7.593043,-24.964205,0.116562,-0.051132,0.956894,-0.123979,0.064437,-0.000129,73.208939,6.239487,-148.505798,,,
729860321.257613,-3.097304,-7.593043,-24.964205,0.116562,-0.051132,0.956894,-0.123979,0.064437,-0.000129,73.208939,6.239487,-148.505798,,,
729860321.260967,-3.129503,-7.580205,-24.96938,0.116562,-0.051132,0.956894,-0.123979,0.064437,-0.000129,73.208939,6.239487,-148.505798,,,
729860321.26427,-3.158537,-7.570277,-24.975255,0.11969,-0.057983,0.981277,-0.099263,0.036532,-0.00891,73.208939,6.239487,-148.505798,,,
729860321.267623,-3.158537,-7.570277,-24.975255,0.11969,-0.057983,0.981277,-0.099263,0.036532,-0.00891,73.208939,6.239487,-148.505798,,,
729860321.270961,-3.181943,-7.566126,-24.981644,0.11969,-0.057983,0.981277,-0.099263,0.036532,-0.00891,73.208939,6.239487,-148.505798,,,
729860321.274304,-3.201359,-7.564432,-24.987954,0.128769,-0.063751,1.001755,-0.062484,0.006153,-0.016374,73.208939,6.239487,-148.505798,,,
729860321.277617,-3.201359,-7.564432,-24.987954,0.128769,-0.063751,1.001755,-0.062484,0.006153,-0.016374,73.481766,6.435287,-148.777878,,,
729860321.280955,-3.214825,-7.564812,-24.99433,0.128769,-0.063751,1.001755,-0.062484,0.006153,-0.016374,73.481766,6.435287,-148.777878,,,
729860321.284311,-3.224093,-7.565695,-25.001629,0.132935,-0.068542,1.01564,-0.027426,0.002471,-0.021599,73.481766,6.435287,-148.777878,,,
729860321.287643,-3.224093,-7.565695,-25.001629,0.132935,-0.068542,1.01564,-0.027426,0.002471,-0.021599,73.481766,6.435287,-148.777878,,,
729860321.290959,-3.229731,-7.563929,-25.00965,0.132935,-0.068542,1.01564,-0.027426,0.002471,-0.021599,73.481766,6.435287,-148.777878,,,
729860321.294341,-3.23349,-7.562718,-25.018757,0.139908,-0.063644,1.015686,-0.016165,0.00957,-0.030907,73.481766,6.435287,-148.777878,,,
729860321.297619,-3.23349,-7.562718,-25.018757,0.139908,-0.063644,1.015686,-0.016165,0.00957,-0.030907,73.481766,6.435287,-148.777878,,,
729860321.300949,-3.234971,-7.555501,-25.028776,0.139908,-0.063644,1.015686,-0.016165,0.00957,-0.030907,73.481766,6.435287,-148.777878,,,
729860321.304284,-3.2345,-7.545625,-25.039333,0.144714,-0.062607,1.011963,-0.001307,0.044447,-0.037631,73.481766,6.435287,-148.777878,,,
729860321.307632,-3.2345,-7.545625,-25.039333,0.144714,-0.062607,1.011963,-0.001307,0.044447,-0.037631,73.481766,6.435287,-148.777878,,,
729860321.310953,-3.231832,-7.526174,-25.049087,0.144714,-0.062607,1.011963,-0.001307,0.044447,-0.037631,73.481766,6.435287,-148.777878,,,
729860321.314288,-3.228534,-7.504135,-25.057274,0.135651,-0.066498,1.016266,0.007364,0.085149,-0.02906,73.481766,6.435287,-148.777878,,,
729860321.317698,-3.228534,-7.504135,-25.057274,0.135651,-0.066498,1.016266,0.007364,0.085149,-0.02906,73.61116,6.340897,-148.879135,,,
729860321.320938,-3.224193,-7.473092,-25.062777,0.135651,-0.066498,1.016266,0.007364,0.085149,-0.02906,73.61116,6.340897,-148.879135,,,
729860321.324283,-3.220945,-7.438678,-25.065361,0.122849,-0.071671,1.011475,0.008799,0.1284,-0.007596,73.61116,6.340897,-148.879135,,,
729860321.327626,-3.220945,-7.438678,-25.065361,0.122849,-0.071671,1.011475,0.008799,0.1284,-0.007596,73.61116,6.340897,-148.879135,,,
729860321.330896,-3.218104,-7.398418,-25.064479,0.122849,-0.071671,1.011475,0.008799,0.1284,-0.007596,73.61116,6.340897,-148.879135,,,
729860321.334366,-3.215738,-7.354894,-25.060416,0.116684,-0.07225,1.010803,0.010926,0.158541,0.014164,73.61116,6.340897,-148.879135,,,
729860321.337619,-3.215738,-7.354894,-25.060416,0.116684,-0.07225,1.010803,0.010926,0.158541,0.014164,73.61116,6.340897,-148.879135,,,
729860321.340954,-3.212626,-7.305612,-25.053692,0.116684,-0.07225,1.010803,0.010926,0.158541,0.014164,73.61116,6.340897,-148.879135,,,
729860321.344416,-3.20787,-7.254729,-25.044416,0.115829,-0.07045,1.013519,0.024357,0.178348,0.030541,73.61116,6.340897,-148.879135,,,
729860321.347621,-3.20787,-7.254729,-25.044416,0.115829,-0.07045,1.013519,0.024357,0.178348,0.030541,73.61116,6.340897,-148.879135,,,
729860321.350949,-3.20095,-7.202899,-25.033455,0.115829,-0.07045,1.013519,0.024357,0.178348,0.030541,73.61116,6.340897,-148.879135,,,
729860321.35434,-3.20095,-7.202899,-25.02211,0.121521,-0.066162,1.014771,0.038387,0.181535,0.035629,73.61116,6.340897,-148.879135,,,
729860321.357618,-3.191223,-7.151124,-25.02211,0.121521,-0.066162,1.014771,0.038387,0.181535,0.035629,73.904572,6.169846,-148.570923,,,
729860321.360974,-3.180877,-7.101766,-25.010913,0.121521,-0.066162,1.014771,0.038387,0.181535,0.035629,73.904572,6.169846,-148.570923,,,
729860321.364308,-3.180877,-7.101766,-25.010913,0.125839,-0.06041,1.008057,0.04428,0.148944,0.021994,73.904572,6.169846,-148.570923,,,
729860321.367694,-3.169481,-7.057228,-25.0019,0.125839,-0.06041,1.008057,0.04428,0.148944,0.021994,73.904572,6.169846,-148.570923,,,
729860321.370945,-3.159345,-7.023099,-24.996692,0.125839,-0.06041,1.008057,0.04428,0.148944,0.021994,73.904572,6.169846,-148.570923,,,
729860321.374327,-3.159345,-7.023099,-24.996692,0.125839,-0.06041,1.008057,0.039611,0.083559,-0.006163,73.904572,6.169846,-148.570923,,,
729860321.377696,-3.147793,-6.997623,-24.995812,0.134277,-0.050003,0.983246,0.039611,0.083559,-0.006163,73.904572,6.169846,-148.570923,,,
729860321.380939,-3.136757,-6.984647,-24.999938,0.134277,-0.050003,0.983246,0.039611,0.083559,-0.006163,73.904572,6.169846,-148.570923,,,
729860321.384287,-3.136757,-6.984647,-24.999938,0.134277,-0.050003,0.983246,0.039311,0.024635,-0.039025,73.904572,6.169846,-148.570923,,,
729860321.387629,-3.125101,-6.977323,-25.008445,0.139984,-0.046387,0.969742,0.039311,0.024635,-0.039025,73.904572,6.169846,-148.570923,,,
729860321.390945,-3.114148,-6.97843,-25.020272,0.139984,-0.046387,0.969742,0.039311,0.024635,-0.039025,73.904572,6.169846,-148.570923,,,
729860321.394307,-3.114148,-6.97843,-25.020272,0.139984,-0.046387,0.969742,0.03687,-0.006519,-0.053111,73.904572,6.169846,-148.570923,,,
729860321.397614,-3.102195,-6.980846,-25.033297,0.130035,-0.049423,0.975479,0.03687,-0.006519,-0.053111,74.141403,6.121429,-148.739456,,,
729860321.400941,-3.091956,-6.986517,-25.045524,0.130035,-0.049423,0.975479,0.03687,-0.006519,-0.053111,74.141403,6.121429,-148.739456,,,
729860321.404342,-3.091956,-6.986517,-25.045524,0.130035,-0.049423,0.975479,0.044367,-0.019149,-0.036539,74.141403,6.121429,-148.739456,,,
729860321.407625,-3.078654,-6.992883,-25.054857,0.116379,-0.05603,0.9841,0.044367,-0.019149,-0.036539,74.141403,6.121429,-148.739456,,,
