Time (sec),Pitch (deg),Roll (deg),Yaw(deg),X-Acceleration (g),Y-Acceleration (g),Z-Acceleration (g),Pitch Rate (deg/sec),Roll Rate (deg/sec),Yaw Rate (deg/sec),Magnetic Field in X direction (uT),Magnetic Field in Y direction (uT),Magnetic Field in Z Direction (uT),Latitude (deg),Longitude (deg),Altitude (m)
729862240.859858,-0.253963,5.936576,49.437756,-0.093414,0.001373,0.988174,0.024626,0.010514,-0.025258,62.972519,18.367905,-152.841217,,,
729862240.86314,-0.253963,5.936576,49.437756,-0.093414,0.001373,0.988174,0.024626,0.010514,-0.025258,62.972519,18.367905,-152.841217,,,
729862240.866485,-0.251392,5.937116,49.432048,-0.105087,0.000793,0.984406,0.001934,0.007429,-0.019532,62.972519,18.367905,-152.841217,,,
729862240.869812,-0.252617,5.937364,49.42786,-0.105087,0.000793,0.984406,0.001934,0.007429,-0.019532,62.972519,18.367905,-152.841217,,,
729862240.873145,-0.252617,5.937364,49.42786,-0.105087,0.000793,0.984406,0.001934,0.007429,-0.019532,62.997116,18.116196,-153.216187,,,
729862240.876474,-0.25657,5.930461,49.425852,-0.112305,0.0009,0.975876,-0.015566,-0.006003,-0.005979,62.997116,18.116196,-153.216187,,,
729862240.879874,-0.262755,5.927389,49.425567,-0.112305,0.0009,0.975876,-0.015566,-0.006003,-0.005979,62.997116,18.116196,-153.216187,,,
729862240.884884,-0.273916,5.917979,49.425951,-0.111038,0.004303,0.969772,-0.03716,-0.008852,-0.003244,62.997116,18.116196,-153.216187,,,
729862240.886287,-0.273916,5.917979,49.425951,-0.111038,0.004303,0.969772,-0.03716,-0.008852,-0.003244,62.997116,18.116196,-153.216187,,,
729862240.889851,-0.285289,5.914749,49.426228,-0.111038,0.004303,0.969772,-0.03716,-0.008852,-0.003244,62.997116,18.116196,-153.216187,,,
729862240.89314,-0.285289,5.914749,49.426228,-0.111038,0.004303,0.969772,-0.03716,-0.008852,-0.003244,62.997116,18.116196,-153.216187,,,
729862240.896477,-0.299925,5.906011,49.426045,-0.103592,-0.000153,0.977753,-0.038136,-0.005667,-0.006335,62.997116,18.116196,-153.216187,,,
729862240.899897,-0.309946,5.903478,49.424644,-0.103592,-0.000153,0.977753,-0.038136,-0.005667,-0.006335,62.997116,18.116196,-153.216187,,,
729862240.903165,-0.309946,5.903478,49.424644,-0.103592,-0.000153,0.977753,-0.038136,-0.005667,-0.006335,62.997116,18.116196,-153.216187,,,
729862240.906475,-0.319644,5.892895,49.42163,-0.102631,-0.009918,0.996994,-0.01614,-0.00595,-0.015102,62.997116,18.116196,-153.216187,,,
729862240.909863,-0.32209,5.891455,49.417538,-0.102631,-0.009918,0.996994,-0.01614,-0.00595,-0.015102,62.997116,18.116196,-153.216187,,,
729862240.913191,-0.32209,5.891455,49.417538,-0.102631,-0.009918,0.996994,-0.01614,-0.00595,-0.015102,62.997116,18.116196,-153.216187,,,
729862240.916484,-0.321641,5.882829,49.413014,-0.105453,-0.014954,1.015182,0.016335,0.009139,-0.014412,62.874817,17.847565,-153.543381,,,
729862240.919853,-0.315026,5.885365,49.408584,-0.105453,-0.014954,1.015182,0.016335,0.009139,-0.014412,62.874817,17.847565,-153.543381,,,
729862240.923151,-0.315026,5.885365,49.408584,-0.105453,-0.014954,1.015182,0.016335,0.009139,-0.014412,62.874817,17.847565,-153.543381,,,
729862240.926583,-0.303853,5.880279,49.404095,-0.10762,-0.01976,1.019363,0.054148,0.012075,-0.010651,62.874817,17.847565,-153.543381,,,
729862240.929859,-0.286859,5.883197,49.399636,-0.10762,-0.01976,1.019363,0.054148,0.012075,-0.010651,62.874817,17.847565,-153.543381,,,
729862240.933239,-0.286859,5.883197,49.399636,-0.10762,-0.01976,1.019363,0.054148,0.012075,-0.010651,62.874817,17.847565,-153.543381,,,
729862240.936562,-0.266029,5.881818,49.394631,-0.109818,-0.018372,1.019577,0.073661,0.015602,-0.012325,62.874817,17.847565,-153.543381,,,
729862240.939704,-0.266029,5.881818,49.394631,-0.109818,-0.018372,1.019577,0.073661,0.015602,-0.012325,62.874817,17.847565,-153.543381,,,
729862240.943228,-0.24582,5.885931,49.388897,-0.109818,-0.018372,1.019577,0.073661,0.015602,-0.012325,62.874817,17.847565,-153.543381,,,
729862240.946423,-0.225728,5.890747,49.383286,-0.110794,-0.01207,1.002701,0.065152,0.019239,-0.012284,62.874817,17.847565,-153.543381,,,
729862240.949887,-0.210187,5.895313,49.378786,-0.110794,-0.01207,1.002701,0.065152,0.019239,-0.012284,62.874817,17.847565,-153.543381,,,
729862240.953101,-0.210187,5.895313,49.378786,-0.110794,-0.01207,1.002701,0.065152,0.019239,-0.012284,62.874817,17.847565,-153.543381,,,
729862240.956428,-0.198986,5.903475,49.376057,-0.1129,-0.005981,0.972794,0.027675,0.013574,-0.003829,63.055542,17.782471,-153.386627,,,
729862240.959839,-0.194436,5.905393,49.37491,-0.1129,-0.005981,0.972794,0.027675,0.013574,-0.003829,63.055542,17.782471,-153.386627,,,
729862240.963145,-0.194436,5.905393,49.37491,-0.1129,-0.005981,0.972794,0.027675,0.013574,-0.003829,63.055542,17.782471,-153.386627,,,
729862240.966445,-0.195,5.909923,49.374586,-0.115219,0.004379,0.951675,-0.0182,-0.006825,-0.00292,63.055542,17.782471,-153.386627,,,
729862240.969741,-0.195,5.909923,49.375063,-0.115219,0.004379,0.951675,-0.0182,-0.006825,-0.00292,63.055542,17.782471,-153.386627,,,
729862240.973191,-0.20437,5.905657,49.375063,-0.115219,0.004379,0.951675,-0.0182,-0.006825,-0.00292,63.055542,17.782471,-153.386627,,,
729862240.976474,-0.219291,5.899895,49.376621,-0.112289,0.006104,0.944077,-0.064554,-0.026324,-0.000136,63.055542,17.782471,-153.386627,,,
729862240.979943,-0.239456,5.891017,49.378566,-0.112289,0.006104,0.944077,-0.064554,-0.026324,-0.000136,63.055542,17.782471,-153.386627,,,
729862240.983133,-0.239456,5.891017,49.378566,-0.112289,0.006104,0.944077,-0.064554,-0.026324,-0.000136,63.055542,17.782471,-153.386627,,,
729862240.986493,-0.263314,5.88242,49.379662,-0.100967,0.003891,0.959473,-0.085893,-0.02472,-0.008213,63.055542,17.782471,-153.386627,,,
729862240.989844,-0.263314,5.875809,49.380096,-0.100967,0.003891,0.959473,-0.085893,-0.02472,-0.008213,63.055542,17.782471,-153.386627,,,
729862240.993214,-0.288518,5.875809,49.380096,-0.100967,0.003891,0.959473,-0.085893,-0.02472,-0.008213,63.055542,17.782471,-153.386627,,,
729862240.996467,-0.314668,5.872221,49.379782,-0.095215,-0.003952,0.983337,-0.081777,-0.002601,-0.01297,63.206345,17.794632,-153.091156,,,
729862240.999824,-0.314668,5.872221,49.379782,-0.095215,-0.003952,0.983337,-0.081777,-0.002601,-0.01297,63.206345,17.794632,-153.091156,,,
729862241.003171,-0.335604,5.872744,49.378239,-0.095215,-0.003952,0.983337,-0.081777,-0.002601,-0.01297,63.206345,17.794632,-153.091156,,,
729862241.006478,-0.351938,5.878819,49.375346,-0.090698,-0.01329,1.020126,-0.034403,0.028162,-0.017656,63.206345,17.794632,-153.091156,,,
729862241.009827,-0.351938,5.878819,49.375346,-0.090698,-0.01329,1.020126,-0.034403,0.028162,-0.017656,63.206345,17.794632,-153.091156,,,
729862241.013152,-0.358715,5.888671,49.370961,-0.090698,-0.01329,1.020126,-0.034403,0.028162,-0.017656,63.206345,17.794632,-153.091156,,,
729862241.016474,-0.3605,5.903613,49.36561,-0.096542,-0.023361,1.041183,0.012411,0.058099,-0.019646,63.206345,17.794632,-153.091156,,,
729862241.019808,-0.3605,5.903613,49.36561,-0.096542,-0.023361,1.041183,0.012411,0.058099,-0.019646,63.206345,17.794632,-153.091156,,,
729862241.023146,-0.355125,5.921096,49.359806,-0.096542,-0.023361,1.041183,0.012411,0.058099,-0.019646,63.206345,17.794632,-153.091156,,,
729862241.026473,-0.345988,5.942306,49.35439,-0.104584,-0.022598,1.031006,0.043296,0.07523,-0.01373,63.206345,17.794632,-153.091156,,,
729862241.02995,-0.345988,5.942306,49.350577,-0.104584,-0.022598,1.031006,0.043296,0.07523,-0.01373,63.206345,17.794632,-153.091156,,,
729862241.03313,-0.333411,5.962314,49.350577,-0.104584,-0.022598,1.031006,0.043296,0.07523,-0.01373,63.206345,17.794632,-153.091156,,,
729862241.036494,-0.320385,5.982468,49.348035,-0.112366,-0.01738,1.008896,0.047811,0.060709,-0.004391,63.282761,17.895996,-153.26474,,,
729862241.03982,-0.320385,5.982468,49.348035,-0.112366,-0.01738,1.008896,0.047811,0.060709,-0.004391,63.282761,17.895996,-153.26474,,,
729862241.043243,-0.308277,5.997227,49.346375,-0.112366,-0.01738,1.008896,0.047811,0.060709,-0.004391,63.282761,17.895996,-153.26474,,,
729862241.046478,-0.299161,6.011574,49.344995,-0.111786,-0.006821,0.976685,0.020985,0.033818,-0.005339,63.282761,17.895996,-153.26474,,,
729862241.049919,-0.299161,6.011574,49.344995,-0.111786,-0.006821,0.976685,0.020985,0.033818,-0.005339,63.282761,17.895996,-153.26474,,,
729862241.053176,-0.29627,6.018647,49.343559,-0.111786,-0.006821,0.976685,0.020985,0.033818,-0.005339,63.282761,17.895996,-153.26474,,,
729862241.056488,-0.298078,6.024393,49.342926,-0.110779,0.000458,0.95871,-0.020942,0.002267,-0.004244,63.282761,17.895996,-153.26474,,,
729862241.05983,-0.298078,6.024393,49.342926,-0.110779,0.000458,0.95871,-0.020942,0.002267,-0.004244,63.282761,17.895996,-153.26474,,,
729862241.063143,-0.306731,6.022131,49.342987,-0.110779,0.000458,0.95871,-0.020942,0.002267,-0.004244,63.282761,17.895996,-153.26474,,,
729862241.066515,-0.318428,6.01707,49.343626,-0.107483,0.000687,0.955551,-0.048844,-0.022932,-0.003173,63.282761,17.895996,-153.26474,,,
729862241.069863,-0.318428,6.01707,49.343626,-0.107483,0.000687,0.955551,-0.048844,-0.022932,-0.003173,63.282761,17.895996,-153.26474,,,
729862241.073171,-0.333512,6.009198,49.344504,-0.107483,0.000687,0.955551,-0.048844,-0.022932,-0.003173,63.282761,17.895996,-153.26474,,,
729862241.076483,-0.349372,6.000491,49.344906,-0.100861,-0.001205,0.979691,-0.057043,-0.0198,-0.007302,63.282761,17.895996,-153.26474,,,
729862241.079845,-0.349372,6.000491,49.344906,-0.100861,-0.001205,0.979691,-0.057043,-0.0198,-0.007302,63.235657,17.806213,-152.867889,,,
729862241.083238,-0.365886,5.995199,49.344639,-0.100861,-0.001205,0.979691,-0.057043,-0.0198,-0.007302,63.235657,17.806213,-152.867889,,,
729862241.086515,-0.380935,5.989433,49.343321,-0.095093,-0.007599,1.003372,-0.043471,-0.000895,-0.013108,63.235657,17.806213,-152.867889,,,
729862241.089816,-0.380935,5.989433,49.343321,-0.095093,-0.007599,1.003372,-0.043471,-0.000895,-0.013108,63.235657,17.806213,-152.867889,,,
729862241.093159,-0.391775,5.990019,49.341115,-0.095093,-0.007599,1.003372,-0.043471,-0.000895,-0.013108,63.235657,17.806213,-152.867889,,,
729862241.096486,-0.399644,5.991225,49.338394,-0.09523,-0.011063,1.02002,-0.012651,0.023826,-0.013342,63.235657,17.806213,-152.867889,,,
729862241.099829,-0.399644,5.991225,49.338394,-0.09523,-0.011063,1.02002,-0.012651,0.023826,-0.013342,63.235657,17.806213,-152.867889,,,
729862241.103196,-0.401962,5.999046,49.334753,-0.09523,-0.011063,1.02002,-0.012651,0.023826,-0.013342,63.235657,17.806213,-152.867889,,,
729862241.106501,-0.402006,6.009247,49.330558,-0.10202,-0.014297,1.029877,0.013197,0.049031,-0.014465,63.235657,17.806213,-152.867889,,,
729862241.109833,-0.402006,6.009247,49.330558,-0.10202,-0.014297,1.029877,0.013197,0.049031,-0.014465,63.235657,17.806213,-152.867889,,,
729862241.11316,-0.397715,6.02343,49.327124,-0.10202,-0.014297,1.029877,0.013197,0.049031,-0.014465,63.235657,17.806213,-152.867889,,,
729862241.116508,-0.392869,6.039824,49.325087,-0.112183,-0.013611,1.018082,0.023364,0.060313,-0.003715,63.235657,17.806213,-152.867889,,,
729862241.1199,-0.392869,6.039824,49.325087,-0.112183,-0.013611,1.018082,0.023364,0.060313,-0.003715,63.443634,17.856903,-153.365585,,,
729862241.123171,-0.386674,6.055708,49.323729,-0.112183,-0.013611,1.018082,0.023364,0.060313,-0.003715,63.443634,17.856903,-153.365585,,,
729862241.126529,-0.381625,6.071322,49.322626,-0.115387,-0.006882,0.999039,0.017497,0.046819,-0.002665,63.443634,17.856903,-153.365585,,,
729862241.129866,-0.381625,6.071322,49.322626,-0.115387,-0.006882,0.999039,0.017497,0.046819,-0.002665,63.443634,17.856903,-153.365585,,,
729862241.133208,-0.378282,6.082099,49.321993,-0.115387,-0.006882,0.999039,0.017497,0.046819,-0.002665,63.443634,17.856903,-153.365585,,,
729862241.136553,-0.376604,6.090729,49.320926,-0.117645,-0.001144,0.978195,0.00144,0.016376,-0.007513,63.443634,17.856903,-153.365585,,,
729862241.139825,-0.376604,6.090729,49.320926,-0.117645,-0.001144,0.978195,0.00144,0.016376,-0.007513,63.443634,17.856903,-153.365585,,,
729862241.143145,-0.377685,6.092188,49.319919,-0.117645,-0.001144,0.978195,0.00144,0.016376,-0.007513,63.443634,17.856903,-153.365585,,,
729862241.146632,-0.380202,6.090717,49.320271,-0.121552,-0.002289,0.974213,-0.016609,-0.016884,-0.000112,63.443634,17.856903,-153.365585,,,
729862241.149888,-0.380202,6.090717,49.320271,-0.121552,-0.002289,0.974213,-0.016609,-0.016884,-0.000112,63.443634,17.856903,-153.365585,,,
729862241.153215,-0.385276,6.083273,49.322106,-0.121552,-0.002289,0.974213,-0.016609,-0.016884,-0.000112,63.443634,17.856903,-153.365585,,,
729862241.156581,-0.39024,6.072688,49.326197,-0.117859,-0.002594,0.976974,-0.022804,-0.037319,0.015067,63.443634,17.856903,-153.365585,,,
729862241.159808,-0.39024,6.072688,49.326197,-0.117859,-0.002594,0.976974,-0.022804,-0.037319,0.015067,63.279297,18.266846,-153.484116,,,
729862241.163156,-0.39667,6.061092,49.331619,-0.117859,-0.002594,0.976974,-0.022804,-0.037319,0.015067,63.279297,18.266846,-153.484116,,,
729862241.166581,-0.403499,6.047738,49.336941,-0.102417,-0.001709,0.989349,-0.026256,-0.030236,0.01411,63.279297,18.266846,-153.484116,,,
729862241.169821,-0.403499,6.047738,49.336941,-0.102417,-0.001709,0.989349,-0.026256,-0.030236,0.01411,63.279297,18.266846,-153.484116,,,
729862241.173157,-0.410613,6.040351,49.341272,-0.102417,-0.001709,0.989349,-0.026256,-0.030236,0.01411,63.279297,18.266846,-153.484116,,,
729862241.17651,-0.418134,6.032703,49.34407,-0.090668,-0.005753,0.999084,-0.024628,-0.002481,0.003764,63.279297,18.266846,-153.484116,,,
729862241.179828,-0.418134,6.032703,49.34407,-0.090668,-0.005753,0.999084,-0.024628,-0.002481,0.003764,63.279297,18.266846,-153.484116,,,
729862241.183151,-0.424826,6.033341,49.345017,-0.090668,-0.005753,0.999084,-0.024628,-0.002481,0.003764,63.279297,18.266846,-153.484116,,,
729862241.186512,-0.430706,6.03448,49.34403,-0.084808,-0.010239,1.00856,-0.008232,0.02656,-0.007877,63.279297,18.266846,-153.484116,,,
729862241.18981,-0.430706,6.03448,49.34403,-0.084808,-0.010239,1.00856,-0.008232,0.02656,-0.007877,63.279297,18.266846,-153.484116,,,
729862241.193179,-0.431929,6.043442,49.342094,-0.084808,-0.010239,1.00856,-0.008232,0.02656,-0.007877,63.279297,18.266846,-153.484116,,,
729862241.196477,-0.431114,6.056166,49.339594,-0.091812,-0.017151,1.019836,0.016174,0.04827,-0.009359,63.279297,18.266846,-153.484116,,,
729862241.199979,-0.431114,6.056166,49.339594,-0.091812,-0.017151,1.019836,0.016174,0.04827,-0.009359,62.980743,18.034988,-152.840698,,,
729862241.203162,-0.426039,6.070168,49.337142,-0.091812,-0.017151,1.019836,0.016174,0.04827,-0.009359,62.980743,18.034988,-152.840698,,,
729862241.206484,-0.419267,6.088836,49.335217,-0.100281,-0.016739,1.009766,0.028752,0.056166,-0.004572,62.980743,18.034988,-152.840698,,,
729862241.209817,-0.419267,6.088836,49.335217,-0.100281,-0.016739,1.009766,0.028752,0.056166,-0.004572,62.980743,18.034988,-152.840698,,,
729862241.213151,-0.411201,6.104078,49.333452,-0.100281,-0.016739,1.009766,0.028752,0.056166,-0.004572,62.980743,18.034988,-152.840698,,,
729862241.216574,-0.401456,6.124147,49.331665,-0.103546,-0.010834,0.993301,0.031933,0.051596,-0.004621,62.980743,18.034988,-152.840698,,,
729862241.219818,-0.401456,6.124147,49.331665,-0.103546,-0.010834,0.993301,0.031933,0.051596,-0.004621,62.980743,18.034988,-152.840698,,,
729862241.223168,-0.393263,6.136598,49.329676,-0.103546,-0.010834,0.993301,0.031933,0.051596,-0.004621,62.980743,18.034988,-152.840698,,,
729862241.226482,-0.385844,6.153472,49.327203,-0.105865,-0.0065,0.978317,0.020344,0.030007,-0.00959,62.980743,18.034988,-152.840698,,,
729862241.22991,-0.385844,6.153472,49.327203,-0.105865,-0.0065,0.978317,0.020344,0.030007,-0.00959,62.980743,18.034988,-152.840698,,,
729862241.233152,-0.381966,6.159128,49.323951,-0.105865,-0.0065,0.978317,0.020344,0.030007,-0.00959,62.980743,18.034988,-152.840698,,,
729862241.236504,-0.380884,6.16784,49.319999,-0.106888,-0.002075,0.962585,-0.004286,0.00457,-0.017462,62.980743,18.034988,-152.840698,,,
729862241.239823,-0.380884,6.16784,49.319999,-0.106888,-0.002075,0.962585,-0.004286,0.00457,-0.017462,62.980743,18.034988,-152.840698,,,
729862241.243226,-0.384666,6.165976,49.316211,-0.106888,-0.002075,0.962585,-0.004286,0.00457,-0.017462,63.295929,18.117523,-152.879089,,,
729862241.246478,-0.391847,6.161118,49.313265,-0.108429,0.001526,0.951996,-0.03606,-0.019811,-0.0151,63.295929,18.117523,-152.879089,,,
729862241.249821,-0.391847,6.161118,49.313265,-0.108429,0.001526,0.951996,-0.03606,-0.019811,-0.0151,63.295929,18.117523,-152.879089,,,
729862241.253172,-0.404233,6.153541,49.311003,-0.108429,0.001526,0.951996,-0.03606,-0.019811,-0.0151,63.295929,18.117523,-152.879089,,,
729862241.25648,-0.418168,6.138209,49.309041,-0.109665,0.000366,0.959869,-0.049415,-0.033763,-0.014073,63.295929,18.117523,-152.879089,,,
729862241.259806,-0.418168,6.138209,49.309041,-0.109665,0.000366,0.959869,-0.049415,-0.033763,-0.014073,63.295929,18.117523,-152.879089,,,
729862241.263173,-0.43289,6.127956,49.307624,-0.109665,0.000366,0.959869,-0.049415,-0.033763,-0.014073,63.295929,18.117523,-152.879089,,,
729862241.266484,-0.447519,6.109123,49.306533,-0.106888,-0.006744,0.978592,-0.047881,-0.023772,-0.010942,63.295929,18.117523,-152.879089,,,
729862241.269838,-0.447519,6.109123,49.306533,-0.106888,-0.006744,0.978592,-0.047881,-0.023772,-0.010942,63.295929,18.117523,-152.879089,,,
729862241.273145,-0.461756,6.103023,49.305025,-0.106888,-0.006744,0.978592,-0.047881,-0.023772,-0.010942,63.295929,18.117523,-152.879089,,,
729862241.276478,-0.477466,6.093066,49.303025,-0.096497,-0.008331,0.993912,-0.046725,0.009397,-0.013725,63.295929,18.117523,-152.879089,,,
729862241.279874,-0.477466,6.093066,49.303025,-0.096497,-0.008331,0.993912,-0.046725,0.009397,-0.013725,63.295929,18.117523,-152.879089,,,
729862241.283135,-0.490277,6.097609,49.301193,-0.096497,-0.008331,0.993912,-0.046725,0.009397,-0.013725,63.31575,17.85495,-153.127197,,,
729862241.28647,-0.501975,6.103758,49.299169,-0.101074,-0.008286,1.014038,-0.02501,0.050653,-0.012527,63.31575,17.85495,-153.127197,,,
729862241.289816,-0.501975,6.103758,49.299169,-0.101074,-0.008286,1.014038,-0.02501,0.050653,-0.012527,63.31575,17.85495,-153.127197,,,
729862241.293199,-0.507895,6.119474,49.296903,-0.101074,-0.008286,1.014038,-0.02501,0.050653,-0.012527,63.31575,17.85495,-153.127197,,,
729862241.296471,-0.5109,6.135733,49.294773,-0.10939,-0.015335,1.019104,0.001442,0.065616,-0.008692,63.31575,17.85495,-153.127197,,,
729862241.299911,-0.5109,6.135733,49.294773,-0.10939,-0.015335,1.019104,0.001442,0.065616,-0.008692,63.31575,17.85495,-153.127197,,,
729862241.303165,-0.510065,6.152845,49.292753,-0.10939,-0.015335,1.019104,0.001442,0.065616,-0.008692,63.31575,17.85495,-153.127197,,,
729862241.306484,-0.506952,6.166476,49.29092,-0.118027,-0.014206,1.004822,0.015562,0.043227,-0.005858,63.31575,17.85495,-153.127197,,,
729862241.309806,-0.506952,6.166476,49.29092,-0.118027,-0.014206,1.004822,0.015562,0.043227,-0.005858,63.31575,17.85495,-153.127197,,,
729862241.31317,-0.501409,6.174626,49.289583,-0.118027,-0.014206,1.004822,0.015562,0.043227,-0.005858,63.31575,17.85495,-153.127197,,,
729862241.31648,-0.492816,6.176494,49.289125,-0.120102,-0.010803,0.984909,0.026673,-0.008153,0.00143,63.31575,17.85495,-153.127197,,,
729862241.319866,-0.492816,6.176494,49.289125,-0.120102,-0.010803,0.984909,0.026673,-0.008153,0.00143,63.31575,17.85495,-153.127197,,,
729862241.323142,-0.48567,6.16872,49.28882,-0.120102,-0.010803,0.984909,0.026673,-0.008153,0.00143,63.512268,17.875641,-152.966766,,,
729862241.32648,-0.477911,6.154945,49.287665,-0.117691,-0.009445,0.97171,0.017417,-0.065155,-0.005628,63.512268,17.875641,-152.966766,,,
729862241.329819,-0.477911,6.154945,49.287665,-0.117691,-0.009445,0.97171,0.017417,-0.065155,-0.005628,63.512268,17.875641,-152.966766,,,
729862241.333168,-0.47452,6.133346,49.28547,-0.117691,-0.009445,0.97171,0.017417,-0.065155,-0.005628,63.512268,17.875641,-152.966766,,,
729862241.336492,-0.471662,6.112312,49.283242,-0.111191,-0.007751,0.972076,-0.000149,-0.082506,-0.007894,63.512268,17.875641,-152.966766,,,
729862241.339825,-0.471662,6.112312,49.283242,-0.111191,-0.007751,0.972076,-0.000149,-0.082506,-0.007894,63.512268,17.875641,-152.966766,,,
729862241.343165,-0.472673,6.089367,49.281365,-0.111191,-0.007751,0.972076,-0.000149,-0.082506,-0.007894,63.512268,17.875641,-152.966766,,,
729862241.346486,-0.473438,6.072389,49.279746,-0.105331,-0.00972,0.993759,-0.002596,-0.054396,-0.006459,63.512268,17.875641,-152.966766,,,
729862241.349821,-0.473438,6.072389,49.279746,-0.105331,-0.00972,0.993759,-0.002596,-0.054396,-0.006459,63.512268,17.875641,-152.966766,,,
729862241.353213,-0.47453,6.058943,49.279378,-0.105331,-0.00972,0.993759,-0.002596,-0.054396,-0.006459,63.512268,17.875641,-152.966766,,,
729862241.356478,-0.475791,6.048627,49.279874,-0.103409,-0.015045,1.009705,-0.004206,-0.011364,-0.000417,63.512268,17.875641,-152.966766,,,
729862241.359883,-0.475791,6.048627,49.279874,-0.103409,-0.015045,1.009705,-0.004206,-0.011364,-0.000417,63.512268,17.875641,-152.966766,,,
729862241.363151,-0.476438,6.048781,49.280284,-0.103409,-0.015045,1.009705,-0.004206,-0.011364,-0.000417,63.512268,17.875641,-152.966766,,,
729862241.366593,-0.474989,6.052771,49.280596,-0.105011,-0.015564,1.023819,0.009994,0.038524,0.000669,63.458694,18.047226,-153.44371,,,
729862241.369816,-0.474989,6.052771,49.280596,-0.105011,-0.015564,1.023819,0.009994,0.038524,0.000669,63.458694,18.047226,-153.44371,,,
729862241.373251,-0.47123,6.065929,49.280342,-0.105011,-0.015564,1.023819,0.009994,0.038524,0.000669,63.458694,18.047226,-153.44371,,,
729862241.377139,-0.466309,6.082016,49.279549,-0.110519,-0.017319,1.024216,0.025245,0.060656,-0.001499,63.458694,18.047226,-153.44371,,,
729862241.379767,-0.466309,6.082016,49.279549,-0.110519,-0.017319,1.024216,0.025245,0.060656,-0.001499,63.458694,18.047226,-153.44371,,,
729862241.383167,-0.458598,6.097506,49.278579,-0.110519,-0.017319,1.024216,0.025245,0.060656,-0.001499,63.458694,18.047226,-153.44371,,,
729862241.386474,-0.45014,6.112118,49.277251,-0.119186,-0.012283,1.007889,0.038808,0.036014,-0.002686,63.458694,18.047226,-153.44371,,,
729862241.389809,-0.45014,6.112118,49.277251,-0.119186,-0.012283,1.007889,0.038808,0.036014,-0.002686,63.458694,18.047226,-153.44371,,,
729862241.39314,-0.438532,6.118237,49.275784,-0.119186,-0.012283,1.007889,0.038808,0.036014,-0.002686,63.458694,18.047226,-153.44371,,,
729862241.396475,-0.426336,6.122738,49.274526,-0.126877,-0.010147,0.991959,0.047033,-0.013501,-0.000641,63.458694,18.047226,-153.44371,,,
729862241.399671,-0.426336,6.122738,49.274526,-0.126877,-0.010147,0.991959,0.047033,-0.013501,-0.000641,63.458694,18.047226,-153.44371,,,
729862241.403207,-0.412171,6.11355,49.27397,-0.126877,-0.010147,0.991959,0.047033,-0.013501,-0.000641,63.458694,18.047226,-153.44371,,,
729862241.406481,-0.397404,6.103005,49.274078,-0.131973,-0.008377,0.983002,0.055131,-0.070354,0.004542,63.4935,18.105408,-153.166199,,,
729862241.409819,-0.397404,6.103005,49.274078,-0.131973,-0.008377,0.983002,0.055131,-0.070354,0.004542,63.4935,18.105408,-153.166199,,,
729862241.413145,-0.381541,6.079484,49.274868,-0.131973,-0.008377,0.983002,0.055131,-0.070354,0.004542,63.4935,18.105408,-153.166199,,,
729862241.416488,-0.365159,6.057005,49.277128,-0.125229,-0.003937,0.991028,0.061084,-0.094005,0.015155,63.4935,18.105408,-153.166199,,,
729862241.419809,-0.365159,6.057005,49.277128,-0.125229,-0.003937,0.991028,0.061084,-0.094005,0.015155,63.4935,18.105408,-153.166199,,,
729862241.4232,-0.347497,6.029518,49.280053,-0.125229,-0.003937,0.991028,0.061084,-0.094005,0.015155,63.4935,18.105408,-153.166199,,,
729862241.426563,-0.330605,6.00538,49.283751,-0.115982,-0.003769,1.003143,0.05994,-0.079577,0.020291,63.4935,18.105408,-153.166199,,,
729862241.429817,-0.330605,6.00538,49.283751,-0.115982,-0.003769,1.003143,0.05994,-0.079577,0.020291,63.4935,18.105408,-153.166199,,,
729862241.433225,-0.312913,5.983642,49.288272,-0.115982,-0.003769,1.003143,0.05994,-0.079577,0.020291,63.4935,18.105408,-153.166199,,,
729862241.436475,-0.297517,5.965792,49.29298,-0.104202,0.000473,1.004623,0.05839,-0.045827,0.021406,63.4935,18.105408,-153.166199,,,
729862241.439824,-0.297517,5.965792,49.29298,-0.104202,0.000473,1.004623,0.05839,-0.045827,0.021406,63.4935,18.105408,-153.166199,,,
729862241.442975,-0.281677,5.95487,49.297751,-0.104202,0.000473,1.004623,0.05839,-0.045827,0.021406,63.4935,18.105408,-153.166199,,,
729862241.446506,-0.270252,5.948579,49.301993,-0.094498,0.004898,0.996796,0.043345,-0.004556,0.016176,63.133942,17.765457,-153.141602,,,
729862241.449804,-0.270252,5.948579,49.301993,-0.094498,0.004898,0.996796,0.043345,-0.004556,0.016176,63.133942,17.765457,-153.141602,,,
729862241.453177,-0.259705,5.94888,49.305526,-0.094498,0.004898,0.996796,0.043345,-0.004556,0.016176,63.133942,17.765457,-153.141602,,,
729862241.456479,-0.256342,5.954893,49.308159,-0.088272,0.006439,0.981949,0.014024,0.029981,0.006819,63.133942,17.765457,-153.141602,,,
729862241.459819,-0.256342,5.954893,49.308159,-0.088272,0.006439,0.981949,0.014024,0.029981,0.006819,63.133942,17.765457,-153.141602,,,
729862241.46315,-0.25461,5.963768,49.310156,-0.088272,0.006439,0.981949,0.014024,0.029981,0.006819,63.133942,17.765457,-153.141602,,,
729862241.466483,-0.259607,5.979964,49.311414,-0.088974,0.006882,0.964706,-0.01747,0.044332,-0.001831,63.133942,17.765457,-153.141602,,,
729862241.469819,-0.259607,5.979964,49.311414,-0.088974,0.006882,0.964706,-0.01747,0.044332,-0.001831,63.133942,17.765457,-153.141602,,,
729862241.473158,-0.266919,5.991588,49.31155,-0.088974,0.006882,0.964706,-0.01747,0.044332,-0.001831,63.133942,17.765457,-153.141602,,,
729862241.476505,-0.278963,6.011063,49.310767,-0.088654,0.006332,0.962158,-0.041856,0.035306,-0.011175,63.133942,17.765457,-153.141602,,,
729862241.479811,-0.278963,6.011063,49.310767,-0.088654,0.006332,0.962158,-0.041856,0.035306,-0.011175,63.133942,17.765457,-153.141602,,,
729862241.483157,-0.291624,6.018729,49.307972,-0.088654,0.006332,0.962158,-0.041856,0.035306,-0.011175,63.133942,17.765457,-153.141602,,,
729862241.486577,-0.30548,6.03619,49.303925,-0.09433,-0.00267,0.972,-0.043169,0.013432,-0.020534,63.133942,17.765457,-153.141602,,,
729862241.489893,-0.30548,6.03619,49.303925,-0.09433,-0.00267,0.972,-0.043169,0.013432,-0.020534,63.38002,17.722488,-153.218658,,,
729862241.49316,-0.317272,6.037592,49.29975,-0.09433,-0.00267,0.972,-0.043169,0.013432,-0.020534,63.38002,17.722488,-153.218658,,,
729862241.496477,-0.326515,6.047431,49.295725,-0.101288,-0.01088,0.988739,-0.026254,-0.000187,-0.018168,63.38002,17.722488,-153.218658,,,
729862241.499906,-0.326515,6.047431,49.295725,-0.101288,-0.01088,0.988739,-0.026254,-0.000187,-0.018168,63.38002,17.722488,-153.218658,,,
729862241.503192,-0.332995,6.04595,49.292035,-0.101288,-0.01088,0.988739,-0.026254,-0.000187,-0.018168,63.38002,17.722488,-153.218658,,,
729862241.50648,-0.335575,6.050178,49.288609,-0.104156,-0.015442,1.004959,-0.002775,-6.9e-05,-0.014034,63.38002,17.722488,-153.218658,,,
729862241.509829,-0.335575,6.050178,49.288609,-0.104156,-0.015442,1.004959,-0.002775,-6.9e-05,-0.014034,63.38002,17.722488,-153.218658,,,
729862241.513261,-0.336249,6.050657,49.285075,-0.104156,-0.015442,1.004959,-0.002775,-6.9e-05,-0.014034,63.38002,17.722488,-153.218658,,,
729862241.516477,-0.334447,6.054435,49.281084,-0.100571,-0.01474,1.009308,0.006706,0.021351,-0.016192,63.38002,17.722488,-153.218658,,,
729862241.519833,-0.334447,6.054435,49.281084,-0.100571,-0.01474,1.009308,0.006706,0.021351,-0.016192,63.38002,17.722488,-153.218658,,,
729862241.523168,-0.332624,6.061353,49.275954,-0.100571,-0.01474,1.009308,0.006706,0.021351,-0.016192,63.38002,17.722488,-153.218658,,,
729862241.526475,-0.328678,6.065917,49.270089,-0.100098,-0.013321,1.00267,0.0083,0.035543,-0.020994,63.38002,17.722488,-153.218658,,,
729862241.529826,-0.328678,6.065917,49.270089,-0.100098,-0.013321,1.00267,0.0083,0.035543,-0.020994,63.375793,17.815262,-153.128052,,,
729862241.533059,-0.326965,6.075547,49.264058,-0.100098,-0.013321,1.00267,0.0083,0.035543,-0.020994,63.375793,17.815262,-153.128052,,,
729862241.536496,-0.32307,6.078266,49.257952,-0.11087,-0.01329,0.991776,0.004755,0.035943,-0.021613,63.375793,17.815262,-153.128052,,,
729862241.539887,-0.32307,6.078266,49.257952,-0.11087,-0.01329,0.991776,0.004755,0.035943,-0.021613,63.375793,17.815262,-153.128052,,,
729862241.543166,-0.322597,6.085981,49.25303,-0.11087,-0.01329,0.991776,0.004755,0.035943,-0.021613,63.375793,17.815262,-153.128052,,,
729862241.546481,-0.318812,6.082669,49.249988,-0.120224,-0.013489,0.980209,0.006392,0.005027,-0.007996,63.375793,17.815262,-153.128052,,,
729862241.549812,-0.318812,6.082669,49.249988,-0.120224,-0.013489,0.980209,0.006392,0.005027,-0.007996,63.375793,17.815262,-153.128052,,,
729862241.553151,-0.317549,6.080929,49.248795,-0.120224,-0.013489,0.980209,0.006392,0.005027,-0.007996,63.375793,17.815262,-153.128052,,,
729862241.556592,-0.31382,6.06657,49.249124,-0.122513,-0.010757,0.975693,0.002757,-0.034984,0.002579,63.375793,17.815262,-153.128052,,,
729862241.559834,-0.31382,6.06657,49.249124,-0.122513,-0.010757,0.975693,0.002757,-0.034984,0.002579,63.375793,17.815262,-153.128052,,,
729862241.56316,-0.313424,6.05283,49.250495,-0.122513,-0.010757,0.975693,0.002757,-0.034984,0.002579,63.375793,17.815262,-153.128052,,,
729862241.566478,-0.312868,6.030457,49.252059,-0.114838,-0.008255,0.973602,-0.004679,-0.061165,0.003436,63.375793,17.815262,-153.128052,,,
729862241.56981,-0.312868,6.030457,49.252059,-0.114838,-0.008255,0.973602,-0.004679,-0.061165,0.003436,63.218597,17.784042,-153.107132,,,
729862241.57314,-0.315013,6.012225,49.253217,-0.114838,-0.008255,0.973602,-0.004679,-0.061165,0.003436,63.218597,17.784042,-153.107132,,,
729862241.57648,-0.319335,5.99438,49.253939,-0.102524,-0.005157,0.976578,-0.015812,-0.046476,-0.00072,63.218597,17.784042,-153.107132,,,
729862241.579813,-0.319335,5.99438,49.253939,-0.102524,-0.005157,0.976578,-0.015812,-0.046476,-0.00072,63.218597,17.784042,-153.107132,,,
729862241.583143,-0.324846,5.983491,49.254123,-0.102524,-0.005157,0.976578,-0.015812,-0.046476,-0.00072,63.218597,17.784042,-153.107132,,,
729862241.586476,-0.334507,5.978,49.254062,-0.093811,-0.002457,0.983475,-0.029875,-0.006047,-0.003866,63.218597,17.784042,-153.107132,,,
729862241.589907,-0.334507,5.978,49.254062,-0.093811,-0.002457,0.983475,-0.029875,-0.006047,-0.003866,63.218597,17.784042,-153.107132,,,
729862241.593247,-0.343822,5.978533,49.254414,-0.093811,-0.002457,0.983475,-0.029875,-0.006047,-0.003866,63.218597,17.784042,-153.107132,,,
729862241.596478,-0.343822,5.978533,49.254836,-0.094421,-0.00296,0.990158,-0.030777,0.031091,-0.003374,63.218597,17.784042,-153.107132,,,
729862241.599823,-0.355131,5.982582,49.254836,-0.094421,-0.00296,0.990158,-0.030777,0.031091,-0.003374,63.218597,17.784042,-153.107132,,,
729862241.603231,-0.363882,5.992201,49.255267,-0.094421,-0.00296,0.990158,-0.030777,0.031091,-0.003374,63.218597,17.784042,-153.107132,,,
729862241.606467,-0.372381,6.000566,49.255924,-0.098602,-0.009674,0.994461,-0.018254,0.039694,-0.000435,63.218597,17.784042,-153.107132,,,
729862241.609822,-0.372381,6.000566,49.255924,-0.098602,-0.009674,0.994461,-0.018254,0.039694,-0.000435,63.344116,17.915421,-153.130081,,,
729862241.613153,-0.375771,6.009494,49.256175,-0.098602,-0.009674,0.994461,-0.018254,0.039694,-0.000435,63.344116,17.915421,-153.130081,,,
729862241.616496,-0.375771,6.009494,49.256175,-0.103104,-0.014221,0.997314,0.007978,0.01788,-0.003698,63.344116,17.915421,-153.130081,,,
729862241.619822,-0.376918,6.016728,49.255578,-0.103104,-0.014221,0.997314,0.007978,0.01788,-0.003698,63.344116,17.915421,-153.130081,,,
729862241.62316,-0.373665,6.0194,49.253845,-0.103104,-0.014221,0.997314,0.007978,0.01788,-0.003698,63.344116,17.915421,-153.130081,,,
729862241.626512,-0.373665,6.026145,49.251193,-0.104599,-0.012558,0.992706,0.017186,-0.001075,-0.009458,63.344116,17.915421,-153.130081,,,
729862241.629881,-0.370857,6.026145,49.251193,-0.104599,-0.012558,0.992706,0.017186,-0.001075,-0.009458,63.344116,17.915421,-153.130081,,,
729862241.633161,-0.366811,6.023735,49.248695,-0.104599,-0.012558,0.992706,0.017186,-0.001075,-0.009458,63.344116,17.915421,-153.130081,,,
729862241.636481,-0.366811,6.023735,49.248695,-0.104599,-0.012558,0.992706,0.005046,-0.016886,-0.001861,63.344116,17.915421,-153.130081,,,
729862241.639822,-0.365514,6.027797,49.247516,-0.107803,-0.010941,0.981277,0.005046,-0.016886,-0.001861,63.344116,17.915421,-153.130081,,,
729862241.643219,-0.365435,6.020592,49.247864,-0.107803,-0.010941,0.981277,0.005046,-0.016886,-0.001861,63.344116,17.915421,-153.130081,,,
729862241.646496,-0.365435,6.020592,49.247864,-0.106613,-0.004272,0.968231,-0.018944,-0.035137,0.003163,63.344116,17.915421,-153.130081,,,
729862241.64987,-0.369414,6.017704,49.249331,-0.106613,-0.004272,0.968231,-0.018944,-0.035137,0.003163,63.344116,17.915421,-153.130081,,,
729862241.653136,-0.376262,6.006755,49.250726,-0.106613,-0.004272,0.968231,-0.018944,-0.035137,0.003163,63.233109,17.907242,-153.408142,,,
729862241.656561,-0.376262,6.006755,49.250726,-0.09996,0.000397,0.973602,-0.038778,-0.03039,-0.005444,63.233109,17.907242,-153.408142,,,
729862241.659814,-0.385956,5.997803,49.251203,-0.09996,0.000397,0.973602,-0.038778,-0.03039,-0.005444,63.233109,17.907242,-153.408142,,,
729862241.663156,-0.399536,5.98936,49.250672,-0.09996,0.000397,0.973602,-0.038778,-0.03039,-0.005444,63.233109,17.907242,-153.408142,,,
729862241.666469,-0.399536,5.98936,49.250672,-0.096313,-0.002151,0.986908,-0.054417,-0.008028,-0.014149,63.233109,17.907242,-153.408142,,,
729862241.669899,-0.414752,5.980824,49.249109,-0.096313,-0.002151,0.986908,-0.054417,-0.008028,-0.014149,63.233109,17.907242,-153.408142,,,
729862241.673159,-0.430905,5.978989,49.246939,-0.096313,-0.002151,0.986908,-0.054417,-0.008028,-0.014149,63.233109,17.907242,-153.408142,,,
729862241.676506,-0.430905,5.978989,49.246939,-0.096313,-0.002151,0.986908,-0.054417,-0.008028,-0.014149,63.233109,17.907242,-153.408142,,,
729862241.679853,-0.445121,5.975763,49.244445,-0.099014,-0.006531,1.000977,-0.049033,0.010972,-0.01557,63.233109,17.907242,-153.408142,,,
729862241.683221,-0.458941,5.97906,49.242197,-0.099014,-0.006531,1.000977,-0.049033,0.010972,-0.01557,63.233109,17.907242,-153.408142,,,
729862241.686559,-0.458941,5.97906,49.242197,-0.102859,-0.010712,1.009216,-0.032326,0.020387,-0.010666,63.233109,17.907242,-153.408142,,,
729862241.689827,-0.470159,5.980694,49.240365,-0.102859,-0.010712,1.009216,-0.032326,0.020387,-0.010666,63.233109,17.907242,-153.408142,,,
729862241.693168,-0.478641,5.985604,49.239192,-0.102859,-0.010712,1.009216,-0.032326,0.020387,-0.010666,63.067078,18.044098,-153.110413,,,
729862241.696474,-0.478641,5.985604,49.239192,-0.102859,-0.010712,1.009216,-0.015391,0.019618,-0.003208,63.067078,18.044098,-153.110413,,,
729862241.699822,-0.485816,5.989553,49.238822,-0.10994,-0.013123,1.008911,-0.015391,0.019618,-0.003208,63.067078,18.044098,-153.110413,,,
729862241.703159,-0.489051,5.993477,49.238867,-0.10994,-0.013123,1.008911,-0.015391,0.019618,-0.003208,63.067078,18.044098,-153.110413,,,
729862241.706513,-0.489051,5.993477,49.238867,-0.10994,-0.013123,1.008911,0.00715,0.008308,-0.002298,63.067078,18.044098,-153.110413,,,
729862241.709864,-0.490225,5.995362,49.238708,-0.109436,-0.014297,1.011826,0.00715,0.008308,-0.002298,63.067078,18.044098,-153.110413,,,
729862241.71316,-0.487044,5.995651,49.237339,-0.109436,-0.014297,1.011826,0.00715,0.008308,-0.002298,63.067078,18.044098,-153.110413,,,
729862241.716495,-0.487044,5.995651,49.237339,-0.109436,-0.014297,1.011826,0.022413,-0.002075,-0.008095,63.067078,18.044098,-153.110413,,,
729862241.719802,-0.482453,5.995833,49.234925,-0.106537,-0.011154,1.01033,0.022413,-0.002075,-0.008095,63.067078,18.044098,-153.110413,,,
729862241.723221,-0.476453,5.993981,49.232521,-0.106537,-0.011154,1.01033,0.022413,-0.002075,-0.008095,63.067078,18.044098,-153.110413,,,
729862241.726474,-0.476453,5.993981,49.232521,-0.106537,-0.011154,1.01033,0.022413,-0.002075,-0.008095,63.067078,18.044098,-153.110413,,,
729862241.729822,-0.471171,5.994391,49.230023,-0.104401,-0.010651,1.003571,0.016231,-0.003072,-0.009608,63.067078,18.044098,-153.110413,,,
729862241.733141,-0.467051,5.992698,49.22702,-0.104401,-0.010651,1.003571,0.016231,-0.003072,-0.009608,63.073364,17.84053,-153.296432,,,
729862241.73657,-0.467051,5.992698,49.22702,-0.104401,-0.010651,1.003571,0.013974,-0.007626,-0.009478,63.073364,17.84053,-153.296432,,,
729862241.739815,-0.461375,5.990252,49.22407,-0.105759,-0.006165,0.998672,0.013974,-0.007626,-0.009478,63.073364,17.84053,-153.296432,,,
729862241.743165,-0.458091,5.987104,49.221419,-0.105759,-0.006165,0.998672,0.013974,-0.007626,-0.009478,63.073364,17.84053,-153.296432,,,
729862241.746478,-0.458091,5.987104,49.221419,-0.105759,-0.006165,0.998672,0.013974,-0.007626,-0.009478,63.073364,17.84053,-153.296432,,,
729862241.749814,-0.453652,5.980836,49.218898,-0.108124,-0.003998,1.002045,0.011219,-0.008864,-0.008694,63.073364,17.84053,-153.296432,,,
729862241.753144,-0.451437,5.977971,49.21671,-0.108124,-0.003998,1.002045,0.011219,-0.008864,-0.008694,63.073364,17.84053,-153.296432,,,
729862241.756537,-0.451437,5.977971,49.21671,-0.108124,-0.003998,1.002045,-0.004224,-0.002521,-0.00501,63.073364,17.84053,-153.296432,,,
729862241.759919,-0.450734,5.972928,49.215253,-0.110809,-0.003571,1.002808,-0.004224,-0.002521,-0.00501,63.073364,17.84053,-153.296432,,,
729862241.763161,-0.452828,5.971392,49.214813,-0.110809,-0.003571,1.002808,-0.004224,-0.002521,-0.00501,63.073364,17.84053,-153.296432,,,
729862241.766501,-0.452828,5.971392,49.214813,-0.110809,-0.003571,1.002808,-0.004224,-0.002521,-0.00501,63.073364,17.84053,-153.296432,,,
729862241.769843,-0.457346,5.968773,49.215096,-0.108551,-0.003525,0.998535,-0.017288,-0.000696,-0.00121,63.073364,17.84053,-153.296432,,,
729862241.773142,-0.462781,5.968045,49.215241,-0.108551,-0.003525,0.998535,-0.017288,-0.000696,-0.00121,63.262161,18.006958,-153.172913,,,
729862241.776507,-0.462781,5.968045,49.215241,-0.108551,-0.003525,0.998535,-0.017288,-0.000696,-0.00121,63.262161,18.006958,-153.172913,,,
729862241.779811,-0.470236,5.969437,49.214735,-0.108063,-0.004181,1.004791,-0.024435,0.00568,-0.006605,63.262161,18.006958,-153.172913,,,
729862241.783143,-0.477586,5.970714,49.213696,-0.108063,-0.004181,1.004791,-0.024435,0.00568,-0.006605,63.262161,18.006958,-153.172913,,,
729862241.786518,-0.477586,5.970714,49.213696,-0.108063,-0.004181,1.004791,-0.024435,0.00568,-0.006605,63.262161,18.006958,-153.172913,,,
729862241.789803,-0.485136,5.975095,49.212159,-0.110382,-0.005783,1.011414,-0.016657,0.012725,-0.009385,63.262161,18.006958,-153.172913,,,
729862241.793153,-0.488638,5.977912,49.210711,-0.110382,-0.005783,1.011414,-0.016657,0.012725,-0.009385,63.262161,18.006958,-153.172913,,,
729862241.796534,-0.488638,5.977912,49.210711,-0.110382,-0.005783,1.011414,-0.016657,0.012725,-0.009385,63.262161,18.006958,-153.172913,,,
729862241.799897,-0.489343,5.980701,49.209933,-0.113449,-0.011292,1.015915,0.006433,0.008987,-0.002331,63.262161,18.006958,-153.172913,,,
729862241.803142,-0.485805,5.981523,49.209572,-0.113449,-0.011292,1.015915,0.006433,0.008987,-0.002331,63.262161,18.006958,-153.172913,,,
729862241.806543,-0.485805,5.981523,49.209572,-0.113449,-0.011292,1.015915,0.006433,0.008987,-0.002331,63.262161,18.006958,-153.172913,,,
729862241.809813,-0.478893,5.980268,49.209211,-0.112747,-0.014191,1.015717,0.033235,-0.001217,0.000471,63.262161,18.006958,-153.172913,,,
729862241.813152,-0.468103,5.979073,49.208884,-0.112747,-0.014191,1.015717,0.033235,-0.001217,0.000471,63.262161,18.006958,-153.172913,,,
729862241.816527,-0.468103,5.979073,49.208884,-0.112747,-0.014191,1.015717,0.033235,-0.001217,0.000471,63.031403,17.973633,-153.172852,,,
729862241.819814,-0.455073,5.977904,49.208017,-0.110291,-0.012863,1.013504,0.047959,-0.003537,-0.00184,63.031403,17.973633,-153.172852,,,
729862241.823152,-0.441697,5.976527,49.205944,-0.110291,-0.012863,1.013504,0.047959,-0.003537,-0.00184,63.031403,17.973633,-153.172852,,,
729862241.826604,-0.441697,5.976527,49.205944,-0.110291,-0.012863,1.013504,0.047959,-0.003537,-0.00184,63.031403,17.973633,-153.172852,,,
729862241.829817,-0.428168,5.976554,49.202921,-0.103699,-0.00679,1.003159,0.045899,0.001048,-0.008679,63.031403,17.973633,-153.172852,,,
729862241.833152,-0.416664,5.977237,49.199254,-0.103699,-0.00679,1.003159,0.045899,0.001048,-0.008679,63.031403,17.973633,-153.172852,,,
729862241.836528,-0.416664,5.977237,49.199254,-0.103699,-0.00679,1.003159,0.045899,0.001048,-0.008679,63.031403,17.973633,-153.172852,,,
729862241.839862,-0.407681,5.982874,49.196222,-0.107834,-0.002655,0.989319,0.02426,0.020716,-0.00658,63.031403,17.973633,-153.172852,,,
729862241.843145,-0.402834,5.988752,49.194318,-0.107834,-0.002655,0.989319,0.02426,0.020716,-0.00658,63.031403,17.973633,-153.172852,,,
729862241.84651,-0.402834,5.988752,49.194318,-0.107834,-0.002655,0.989319,0.02426,0.020716,-0.00658,63.031403,17.973633,-153.172852,,,
729862241.849828,-0.400266,5.997745,49.193165,-0.109283,-0.00029,0.98262,0.003129,0.031214,-0.003656,63.031403,17.973633,-153.172852,,,
729862241.853144,-0.399881,6.006113,49.192198,-0.109283,-0.00029,0.98262,0.003129,0.031214,-0.003656,63.031403,17.973633,-153.172852,,,
729862241.856508,-0.399881,6.006113,49.192198,-0.109283,-0.00029,0.98262,0.003129,0.031214,-0.003656,63.20816,17.939972,-152.979187,,,
729862241.859835,-0.398503,6.015424,49.191441,-0.106964,-0.001068,0.988556,0.004645,0.029698,-0.002065,63.20816,17.939972,-152.979187,,,
729862241.863146,-0.396858,6.023045,49.190766,-0.106964,-0.001068,0.988556,0.004645,0.029698,-0.002065,63.20816,17.939972,-152.979187,,,
729862241.86659,-0.396858,6.023045,49.190766,-0.106964,-0.001068,0.988556,0.004645,0.029698,-0.002065,63.20816,17.939972,-152.979187,,,
729862241.869868,-0.393975,6.03257,49.190332,-0.113998,-0.011948,0.993027,0.008992,0.035417,5.9e-05,63.20816,17.939972,-152.979187,,,
729862241.873138,-0.391108,6.041175,49.191354,-0.113998,-0.011948,0.993027,0.008992,0.035417,5.9e-05,63.20816,17.939972,-152.979187,,,
729862241.876492,-0.391108,6.041175,49.191354,-0.113998,-0.011948,0.993027,0.008992,0.035417,5.9e-05,63.20816,17.939972,-152.979187,,,
729862241.879886,-0.387598,6.049713,49.194752,-0.12149,-0.011017,0.986633,0.015688,0.018039,0.017286,63.20816,17.939972,-152.979187,,,
729862241.883177,-0.382559,6.051958,49.20061,-0.12149,-0.011017,0.986633,0.015688,0.018039,0.017286,63.20816,17.939972,-152.979187,,,
729862241.886494,-0.382559,6.051958,49.20061,-0.12149,-0.011017,0.986633,0.015688,0.018039,0.017286,63.20816,17.939972,-152.979187,,,
729862241.889821,-0.377758,6.051661,49.20821,-0.115448,-0.004028,0.977798,0.02374,-0.014868,0.030261,63.20816,17.939972,-152.979187,,,
729862241.893149,-0.368684,6.044284,49.216095,-0.115448,-0.004028,0.977798,0.02374,-0.014868,0.030261,63.20816,17.939972,-152.979187,,,
729862241.896483,-0.368684,6.044284,49.216095,-0.115448,-0.004028,0.977798,0.02374,-0.014868,0.030261,63.106308,17.978775,-153.043335,,,
729862241.899823,-0.358178,6.035704,49.222322,-0.104462,-0.006882,0.985611,0.045988,-0.036557,0.020857,63.106308,17.978775,-153.043335,,,
729862241.90315,-0.343082,6.024445,49.226172,-0.104462,-0.006882,0.985611,0.045988,-0.036557,0.020857,63.106308,17.978775,-153.043335,,,
729862241.906557,-0.343082,6.024445,49.226172,-0.104462,-0.006882,0.985611,0.045988,-0.036557,0.020857,63.106308,17.978775,-153.043335,,,
729862241.90982,-0.32638,6.012702,49.228176,-0.092789,-0.010025,0.999252,0.062348,-0.034135,0.009642,63.106308,17.978775,-153.043335,,,
729862241.913147,-0.308749,6.003927,49.228886,-0.092789,-0.010025,0.999252,0.062348,-0.034135,0.009642,63.106308,17.978775,-153.043335,,,
729862241.916496,-0.308749,6.003927,49.228886,-0.092789,-0.010025,0.999252,0.062348,-0.034135,0.009642,63.106308,17.978775,-153.043335,,,
729862241.919889,-0.292631,5.999974,49.22954,-0.086365,-0.006821,0.987534,0.049639,-0.006236,0.007882,63.106308,17.978775,-153.043335,,,
729862241.923147,-0.28023,5.999764,49.230736,-0.086365,-0.006821,0.987534,0.049639,-0.006236,0.007882,63.106308,17.978775,-153.043335,,,
729862241.92654,-0.28023,5.999764,49.230736,-0.086365,-0.006821,0.987534,0.049639,-0.006236,0.007882,63.106308,17.978775,-153.043335,,,
729862241.929832,-0.271308,6.007498,49.231639,-0.083008,0.000748,0.97789,0.01991,0.03223,0.002627,63.106308,17.978775,-153.043335,,,
729862241.933146,-0.267928,6.018498,49.231815,-0.083008,0.000748,0.97789,0.01991,0.03223,0.002627,63.106308,17.978775,-153.043335,,,
729862241.936479,-0.267928,6.018498,49.231815,-0.083008,0.000748,0.97789,0.01991,0.03223,0.002627,63.182785,17.811127,-153.075287,,,
729862241.939835,-0.268497,6.035559,49.231005,-0.084473,0.00029,0.973892,-0.014187,0.063565,-0.007952,63.182785,17.811127,-153.075287,,,
729862241.943148,-0.274748,6.052967,49.229265,-0.084473,0.00029,0.973892,-0.014187,0.063565,-0.007952,63.182785,17.811127,-153.075287,,,
729862241.946534,-0.274748,6.052967,49.229265,-0.084473,0.00029,0.973892,-0.014187,0.063565,-0.007952,63.182785,17.811127,-153.075287,,,
729862241.949888,-0.28529,6.071634,49.227839,-0.096008,-0.000824,0.971207,-0.038116,0.057795,-0.008382,63.182785,17.811127,-153.075287,,,
729862241.953165,-0.29691,6.085414,49.227445,-0.096008,-0.000824,0.971207,-0.038116,0.057795,-0.008382,63.182785,17.811127,-153.075287,,,
729862241.956593,-0.29691,6.085414,49.227445,-0.096008,-0.000824,0.971207,-0.038116,0.057795,-0.008382,63.182785,17.811127,-153.075287,,,
729862241.959837,-0.310197,6.102241,49.228157,-0.109924,-0.004288,0.9758,-0.039246,0.030729,-0.001109,63.182785,17.811127,-153.075287,,,
729862241.963249,-0.320578,6.108235,49.229749,-0.109924,-0.004288,0.9758,-0.039246,0.030729,-0.001109,63.182785,17.811127,-153.075287,,,
729862241.966498,-0.320578,6.108235,49.229749,-0.109924,-0.004288,0.9758,-0.039246,0.030729,-0.001109,63.182785,17.811127,-153.075287,,,
729862241.969901,-0.328728,6.115596,49.23241,-0.117752,-0.00946,0.987198,-0.027069,-0.000662,0.007457,63.182785,17.811127,-153.075287,,,
729862241.973147,-0.334286,6.112069,49.235631,-0.117752,-0.00946,0.987198,-0.027069,-0.000662,0.007457,63.182785,17.811127,-153.075287,,,
729862241.976504,-0.334286,6.112069,49.235631,-0.117752,-0.00946,0.987198,-0.027069,-0.000662,0.007457,63.182785,17.811127,-153.075287,,,
729862241.979844,-0.335714,6.105481,49.23905,-0.116806,-0.012573,0.993683,0.002093,-0.029744,0.011861,63.22049,17.883698,-153.023544,,,
729862241.983153,-0.331861,6.09503,49.24212,-0.116806,-0.012573,0.993683,0.002093,-0.029744,0.011861,63.22049,17.883698,-153.023544,,,
729862241.986508,-0.331861,6.09503,49.24212,-0.116806,-0.012573,0.993683,0.002093,-0.029744,0.011861,63.22049,17.883698,-153.023544,,,
729862241.989842,-0.323349,6.077627,49.243636,-0.108124,-0.014252,1.008026,0.040811,-0.043567,0.005315,63.22049,17.883698,-153.023544,,,
729862241.993154,-0.309108,6.063847,49.243428,-0.108124,-0.014252,1.008026,0.040811,-0.043567,0.005315,63.22049,17.883698,-153.023544,,,
729862241.996568,-0.309108,6.063847,49.243428,-0.108124,-0.014252,1.008026,0.040811,-0.043567,0.005315,63.22049,17.883698,-153.023544,,,
729862241.999815,-0.290692,6.042168,49.241778,-0.097137,-0.017548,1.011642,0.074724,-0.046003,-0.000925,63.22049,17.883698,-153.023544,,,
729862242.003161,-0.267865,6.029173,49.239265,-0.097137,-0.017548,1.011642,0.074724,-0.046003,-0.000925,63.22049,17.883698,-153.023544,,,
729862242.006492,-0.267865,6.029173,49.239265,-0.097137,-0.017548,1.011642,0.074724,-0.046003,-0.000925,63.22049,17.883698,-153.023544,,,
729862242.00988,-0.242612,6.010104,49.236484,-0.093719,-0.016373,1.00943,0.086654,-0.026484,-0.001366,63.22049,17.883698,-153.023544,,,
729862242.013143,-0.219191,6.003039,49.234262,-0.093719,-0.016373,1.00943,0.086654,-0.026484,-0.001366,63.22049,17.883698,-153.023544,,,
729862242.016489,-0.219191,6.003039,49.234262,-0.093719,-0.016373,1.00943,0.086654,-0.026484,-0.001366,63.22049,17.883698,-153.023544,,,
729862242.01982,-0.198439,5.991579,49.232496,-0.087463,-0.006729,0.984573,0.06077,0.001509,-0.000691,62.945038,17.978302,-152.602875,,,
729862242.023144,-0.183989,5.992835,49.230622,-0.087463,-0.006729,0.984573,0.06077,0.001509,-0.000691,62.945038,17.978302,-152.602875,,,
729862242.02649,-0.183989,5.992835,49.230622,-0.087463,-0.006729,0.984573,0.06077,0.001509,-0.000691,62.945038,17.978302,-152.602875,,,
729862242.029831,-0.175004,5.992676,49.228419,-0.080505,0.004181,0.967163,0.019348,0.021469,-0.007269,62.945038,17.978302,-152.602875,,,
729862242.033149,-0.172743,5.997822,49.225555,-0.080505,0.004181,0.967163,0.019348,0.021469,-0.007269,62.945038,17.978302,-152.602875,,,
729862242.036535,-0.172743,5.997822,49.225555,-0.080505,0.004181,0.967163,0.019348,0.021469,-0.007269,62.945038,17.978302,-152.602875,,,
729862242.039803,-0.176131,6.004676,49.221439,-0.084,0.00679,0.959305,-0.017347,0.018433,-0.019876,62.945038,17.978302,-152.602875,,,
729862242.043153,-0.184119,6.007938,49.216157,-0.084,0.00679,0.959305,-0.017347,0.018433,-0.019876,62.945038,17.978302,-152.602875,,,
729862242.04649,-0.184119,6.007938,49.216157,-0.084,0.00679,0.959305,-0.017347,0.018433,-0.019876,62.945038,17.978302,-152.602875,,,
729862242.049879,-0.196343,6.014787,49.210498,-0.092941,0.001144,0.961411,-0.040341,0.004573,-0.0251,62.945038,17.978302,-152.602875,,,
729862242.053142,-0.210202,6.013867,49.205541,-0.092941,0.001144,0.961411,-0.040341,0.004573,-0.0251,62.945038,17.978302,-152.602875,,,
729862242.056496,-0.210202,6.013867,49.205541,-0.092941,0.001144,0.961411,-0.040341,0.004573,-0.0251,62.945038,17.978302,-152.602875,,,
729862242.059814,-0.228387,6.01567,49.201918,-0.099152,-9.2e-05,0.960022,-0.059657,-0.008793,-0.0179,63.027252,18.114166,-152.522552,,,
729862242.063142,-0.24662,6.011641,49.199637,-0.099152,-9.2e-05,0.960022,-0.059657,-0.008793,-0.0179,63.027252,18.114166,-152.522552,,,
729862242.066482,-0.24662,6.011641,49.199637,-0.099152,-9.2e-05,0.960022,-0.059657,-0.008793,-0.0179,63.027252,18.114166,-152.522552,,,
729862242.069899,-0.267063,6.008733,49.197684,-0.102188,-0.000397,0.967682,-0.065874,-0.013129,-0.016315,63.027252,18.114166,-152.522552,,,
729862242.073143,-0.285458,6.004739,49.195628,-0.102188,-0.000397,0.967682,-0.065874,-0.013129,-0.016315,63.027252,18.114166,-152.522552,,,
729862242.076504,-0.285458,6.004739,49.195628,-0.102188,-0.000397,0.967682,-0.065874,-0.013129,-0.016315,63.027252,18.114166,-152.522552,,,
729862242.07984,-0.303824,6.00085,49.193152,-0.098434,-0.006058,0.98642,-0.054253,0.002287,-0.017905,63.027252,18.114166,-152.522552,,,
729862242.083152,-0.318584,6.001549,49.189521,-0.098434,-0.006058,0.98642,-0.054253,0.002287,-0.017905,63.027252,18.114166,-152.522552,,,
729862242.086565,-0.318584,6.001549,49.189521,-0.098434,-0.006058,0.98642,-0.054253,0.002287,-0.017905,63.027252,18.114166,-152.522552,,,
729862242.089813,-0.332077,6.000434,49.184611,-0.097931,-0.011093,1.003418,-0.031358,0.016851,-0.024289,63.027252,18.114166,-152.522552,,,
729862242.093151,-0.339843,6.005354,49.178609,-0.097931,-0.011093,1.003418,-0.031358,0.016851,-0.024289,63.027252,18.114166,-152.522552,,,
729862242.096496,-0.339843,6.005354,49.178609,-0.097931,-0.011093,1.003418,-0.031358,0.016851,-0.024289,63.027252,18.114166,-152.522552,,,
729862242.099879,-0.344969,6.006073,49.172042,-0.104416,-0.015961,1.013702,-0.007585,0.031727,-0.025507,63.239197,17.936005,-152.980759,,,
729862242.103143,-0.346912,6.01445,49.165293,-0.104416,-0.015961,1.013702,-0.007585,0.031727,-0.025507,63.239197,17.936005,-152.980759,,,
729862242.106489,-0.346912,6.01445,49.165293,-0.104416,-0.015961,1.013702,-0.007585,0.031727,-0.025507,63.239197,17.936005,-152.980759,,,
729862242.10984,-0.344586,6.01441,49.15907,-0.110825,-0.015549,1.016281,0.009647,0.03629,-0.019728,63.239197,17.936005,-152.980759,,,
729862242.113143,-0.342538,6.024051,49.153901,-0.110825,-0.015549,1.016281,0.009647,0.03629,-0.019728,63.239197,17.936005,-152.980759,,,
729862242.116498,-0.342538,6.024051,49.153901,-0.110825,-0.015549,1.016281,0.009647,0.03629,-0.019728,63.239197,17.936005,-152.980759,,,
729862242.119818,-0.337772,6.024462,49.149603,-0.1185,-0.01535,1.004791,0.00734,0.033023,-0.013505,63.239197,17.936005,-152.980759,,,
729862242.12315,-0.336884,6.032044,49.146799,-0.1185,-0.01535,1.004791,0.00734,0.033023,-0.013505,63.239197,17.936005,-152.980759,,,
729862242.12656,-0.336884,6.032044,49.146799,-0.1185,-0.01535,1.004791,0.00734,0.033023,-0.013505,63.239197,17.936005,-152.980759,,,
729862242.129829,-0.336102,6.032254,49.145706,-0.123688,-0.009109,0.989716,-0.00725,0.015641,-0.002881,63.239197,17.936005,-152.980759,,,
729862242.133153,-0.339998,6.034431,49.145851,-0.123688,-0.009109,0.989716,-0.00725,0.015641,-0.002881,63.239197,17.936005,-152.980759,,,
729862242.136495,-0.339998,6.034431,49.145851,-0.123688,-0.009109,0.989716,-0.00725,0.015641,-0.002881,63.239197,17.936005,-152.980759,,,
729862242.139891,-0.345437,6.031392,49.147066,-0.128387,-0.003357,0.979401,-0.028091,-0.008456,0.002497,63.239197,17.936005,-152.980759,,,
729862242.143144,-0.355051,6.026271,49.149321,-0.128387,-0.003357,0.979401,-0.028091,-0.008456,0.002497,63.20314,18.130096,-153.249908,,,
729862242.146505,-0.355051,6.026271,49.149321,-0.128387,-0.003357,0.979401,-0.028091,-0.008456,0.002497,63.20314,18.130096,-153.249908,,,
729862242.14985,-0.365795,6.01664,49.152115,-0.124542,-0.005478,0.972717,-0.045431,-0.039563,0.004458,63.20314,18.130096,-153.249908,,,
729862242.153169,-0.378292,6.003502,49.155879,-0.124542,-0.005478,0.972717,-0.045431,-0.039563,0.004458,63.20314,18.130096,-153.249908,,,
729862242.156489,-0.378292,6.003502,49.155879,-0.124542,-0.005478,0.972717,-0.045431,-0.039563,0.004458,63.20314,18.130096,-153.249908,,,
729862242.159841,-0.388838,5.987074,49.160365,-0.121262,-0.009003,0.98526,-0.035576,-0.051024,0.010676,63.20314,18.130096,-153.249908,,,
729862242.163156,-0.397661,5.97196,49.165095,-0.121262,-0.009003,0.98526,-0.035576,-0.051024,0.010676,63.20314,18.130096,-153.249908,,,
729862242.166486,-0.397661,5.97196,49.165095,-0.121262,-0.009003,0.98526,-0.035576,-0.051024,0.010676,63.20314,18.130096,-153.249908,,,
729862242.169843,-0.405256,5.954803,49.17021,-0.115433,-0.012039,1.002655,-0.022096,-0.043004,0.015002,63.20314,18.130096,-153.249908,,,
729862242.173147,-0.409808,5.942788,49.17561,-0.115433,-0.012039,1.002655,-0.022096,-0.043004,0.015002,63.20314,18.130096,-153.249908,,,
729862242.176482,-0.409808,5.942788,49.17561,-0.115433,-0.012039,1.002655,-0.022096,-0.043004,0.015002,63.20314,18.130096,-153.249908,,,
729862242.179887,-0.413079,5.931706,49.180816,-0.104752,-0.014709,1.01149,-0.001635,-0.027717,0.01583,63.20314,18.130096,-153.249908,,,
729862242.183198,-0.411887,5.923894,49.1854,-0.104752,-0.014709,1.01149,-0.001635,-0.027717,0.01583,63.011337,18.144608,-152.857208,,,
729862242.186527,-0.411887,5.923894,49.1854,-0.104752,-0.014709,1.01149,-0.001635,-0.027717,0.01583,63.011337,18.144608,-152.857208,,,
729862242.189917,-0.410441,5.92047,49.189075,-0.097122,-0.012146,1.013962,0.012543,-0.009169,0.010853,63.011337,18.144608,-152.857208,,,
729862242.193145,-0.406137,5.918836,49.191441,-0.097122,-0.012146,1.013962,0.012543,-0.009169,0.010853,63.011337,18.144608,-152.857208,,,
729862242.196504,-0.406137,5.918836,49.191441,-0.097122,-0.012146,1.013962,0.012543,-0.009169,0.010853,63.011337,18.144608,-152.857208,,,
729862242.199831,-0.401925,5.925911,49.192806,-0.095581,-0.012787,1.016724,0.024956,0.015515,0.004908,63.011337,18.144608,-152.857208,,,
729862242.202924,-0.393872,5.93019,49.19399,-0.095581,-0.012787,1.016724,0.024956,0.015515,0.004908,63.011337,18.144608,-152.857208,,,
729862242.20653,-0.393872,5.93019,49.19399,-0.095581,-0.012787,1.016724,0.024956,0.015515,0.004908,63.011337,18.144608,-152.857208,,,
729862242.209833,-0.385601,5.944164,49.195312,-0.097076,-0.011261,1.012985,0.03269,0.023634,0.006317,63.011337,18.144608,-152.857208,,,
729862242.213147,-0.376052,5.949719,49.196395,-0.097076,-0.011261,1.012985,0.03269,0.023634,0.006317,63.011337,18.144608,-152.857208,,,
729862242.216313,-0.376052,5.949719,49.196395,-0.097076,-0.011261,1.012985,0.03269,0.023634,0.006317,63.011337,18.144608,-152.857208,,,
729862242.219859,-0.365758,5.964754,49.19732,-0.098175,-0.00618,1.003326,0.035449,0.012039,0.005011,63.011337,18.144608,-152.857208,,,
729862242.223147,-0.355717,5.965972,49.197714,-0.098175,-0.00618,1.003326,0.035449,0.012039,0.005011,63.115936,17.852966,-152.81517,,,
729862242.226498,-0.355717,5.965972,49.197714,-0.098175,-0.00618,1.003326,0.035449,0.012039,0.005011,63.115936,17.852966,-152.81517,,,
729862242.229912,-0.345441,5.975413,49.197376,-0.100037,-0.003845,0.995575,0.035426,-0.00641,-0.00053,63.115936,17.852966,-152.81517,,,
729862242.233143,-0.336114,5.971721,49.196587,-0.100037,-0.003845,0.995575,0.035426,-0.00641,-0.00053,63.115936,17.852966,-152.81517,,,
729862242.236493,-0.336114,5.971721,49.196587,-0.100037,-0.003845,0.995575,0.035426,-0.00641,-0.00053,63.115936,17.852966,-152.81517,,,
729862242.239823,-0.329635,5.974753,49.196024,-0.102676,0.000244,0.992401,0.020353,-0.016986,-0.000837,63.115936,17.852966,-152.81517,,,
729862242.243182,-0.325834,5.969567,49.195931,-0.102676,0.000244,0.992401,0.020353,-0.016986,-0.000837,63.115936,17.852966,-152.81517,,,
729862242.246482,-0.325834,5.969567,49.195931,-0.102676,0.000244,0.992401,0.020353,-0.016986,-0.000837,63.115936,17.852966,-152.81517,,,
729862242.249837,-0.32756,5.970909,49.196621,-0.102768,0.008148,0.98381,-0.010882,-0.008985,0.001194,63.115936,17.852966,-152.81517,,,
729862242.253145,-0.333216,5.96805,49.198141,-0.102768,0.008148,0.98381,-0.010882,-0.008985,0.001194,63.115936,17.852966,-152.81517,,,
729862242.256545,-0.333216,5.96805,49.198141,-0.102768,0.008148,0.98381,-0.010882,-0.008985,0.001194,63.115936,17.852966,-152.81517,,,
729862242.259814,-0.344807,5.967588,49.200869,-0.101395,0.008148,0.977478,-0.040997,0.002103,0.006458,63.115936,17.852966,-152.81517,,,
729862242.263147,-0.357283,5.968508,49.204653,-0.101395,0.008148,0.977478,-0.040997,0.002103,0.006458,63.115936,17.852966,-152.81517,,,
729862242.266484,-0.357283,5.968508,49.204653,-0.101395,0.008148,0.977478,-0.040997,0.002103,0.006458,63.107773,18.079269,-153.09346,,,
729862242.26991,-0.372034,5.968169,49.209288,-0.105667,0.003098,0.988129,-0.048339,0.014754,0.011814,63.107773,18.079269,-153.09346,,,
729862242.273148,-0.385337,5.97207,49.21487,-0.105667,0.003098,0.988129,-0.048339,0.014754,0.011814,63.107773,18.079269,-153.09346,,,
729862242.276501,-0.385337,5.97207,49.21487,-0.105667,0.003098,0.988129,-0.048339,0.014754,0.011814,63.107773,18.079269,-153.09346,,,
729862242.279824,-0.399609,5.972169,49.220661,-0.106262,-0.00351,1.003632,-0.045697,0.02047,0.013758,63.107773,18.079269,-153.09346,,,
729862242.282994,-0.410531,5.977341,49.22653,-0.106262,-0.00351,1.003632,-0.045697,0.02047,0.013758,63.107773,18.079269,-153.09346,,,
729862242.286505,-0.410531,5.977341,49.22653,-0.106262,-0.00351,1.003632,-0.045697,0.02047,0.013758,63.107773,18.079269,-153.09346,,,
729862242.289811,-0.417978,5.977549,49.231532,-0.100876,-0.00737,1.010391,-0.013515,0.012096,0.011207,63.107773,18.079269,-153.09346,,,
729862242.293151,-0.419122,5.978158,49.234136,-0.100876,-0.00737,1.010391,-0.013515,0.012096,0.011207,63.107773,18.079269,-153.09346,,,
729862242.296551,-0.419122,5.978158,49.234136,-0.100876,-0.00737,1.010391,-0.013515,0.012096,0.011207,63.107773,18.079269,-153.09346,,,
729862242.299806,-0.415188,5.971931,49.233864,-0.09285,-0.012451,1.01799,0.023612,-0.013077,-0.004863,63.107773,18.079269,-153.09346,,,
729862242.303146,-0.406897,5.966941,49.230909,-0.09285,-0.012451,1.01799,0.023612,-0.013077,-0.004863,63.107773,18.079269,-153.09346,,,
729862242.306494,-0.406897,5.966941,49.230909,-0.09285,-0.012451,1.01799,0.023612,-0.013077,-0.004863,62.867859,18.190155,-152.901901,,,
729862242.309876,-0.394923,5.959743,49.225745,-0.088287,-0.014694,1.02179,0.04577,-0.01517,-0.017887,62.867859,18.190155,-152.901901,,,
