Time (sec),Pitch (deg),Roll (deg),Yaw(deg),X-Acceleration (g),Y-Acceleration (g),Z-Acceleration (g),Pitch Rate (deg/sec),Roll Rate (deg/sec),Yaw Rate (deg/sec),Magnetic Field in X direction (uT),Magnetic Field in Y direction (uT),Magnetic Field in Z Direction (uT),Latitude (deg),Longitude (deg),Altitude (m)
729860489.05068,-1.267351,-3.728715,-26.597179,0.072083,-0.019699,1.000641,-0.068884,-0.049192,-0.041041,77.137711,4.946686,-148.321503,,,
729860489.053978,-1.282725,-3.745684,-26.61045,0.072083,-0.019699,1.000641,-0.068884,-0.049192,-0.041041,77.137711,4.946686,-148.321503,,,
729860489.057123,-1.296635,-3.759841,-26.623859,0.067596,-0.02446,1.017761,-0.050926,-0.045628,-0.043612,77.137711,4.946686,-148.321503,,,
729860489.060701,-1.296635,-3.759841,-26.623859,0.067596,-0.02446,1.017761,-0.050926,-0.045628,-0.043612,77.137711,4.946686,-148.321503,,,
729860489.063991,-1.307171,-3.770638,-26.63643,0.067596,-0.02446,1.017761,-0.050926,-0.045628,-0.043612,77.137711,4.946686,-148.321503,,,
729860489.067315,-1.318155,-3.777918,-26.647165,0.064362,-0.029144,1.024521,-0.039357,-0.016013,-0.03526,77.137711,4.946686,-148.321503,,,
729860489.070729,-1.318155,-3.777918,-26.647165,0.064362,-0.029144,1.024521,-0.039357,-0.016013,-0.03526,77.137711,4.946686,-148.321503,,,
729860489.07383,-1.328781,-3.777731,-26.655623,0.064362,-0.029144,1.024521,-0.039357,-0.016013,-0.03526,77.137711,4.946686,-148.321503,,,
729860489.077345,-1.34016,-3.776107,-26.662009,0.055923,-0.030548,1.017532,-0.045317,0.012489,-0.018,77.137711,4.946686,-148.321503,,,
729860489.080652,-1.34016,-3.776107,-26.662009,0.055923,-0.030548,1.017532,-0.045317,0.012489,-0.018,77.060562,5.249359,-148.397736,,,
729860489.084058,-1.353039,-3.767751,-26.666241,0.055923,-0.030548,1.017532,-0.045317,0.012489,-0.018,77.060562,5.249359,-148.397736,,,
729860489.087314,-1.36753,-3.759224,-26.668673,0.055389,-0.030548,1.007553,-0.050176,0.031858,-0.004748,77.060562,5.249359,-148.397736,,,
729860489.090654,-1.36753,-3.759224,-26.668673,0.055389,-0.030548,1.007553,-0.050176,0.031858,-0.004748,77.060562,5.249359,-148.397736,,,
729860489.093978,-1.382924,-3.747133,-26.670305,0.055389,-0.030548,1.007553,-0.050176,0.031858,-0.004748,77.060562,5.249359,-148.397736,,,
729860489.097318,-1.401125,-3.73628,-26.671795,0.057144,-0.026047,0.995636,-0.062883,0.039979,-0.002781,77.060562,5.249359,-148.397736,,,
729860489.100657,-1.401125,-3.73628,-26.671795,0.057144,-0.026047,0.995636,-0.062883,0.039979,-0.002781,77.060562,5.249359,-148.397736,,,
729860489.103981,-1.41872,-3.726816,-26.673247,0.057144,-0.026047,0.995636,-0.062883,0.039979,-0.002781,77.060562,5.249359,-148.397736,,,
729860489.107315,-1.438788,-3.720289,-26.675612,0.059296,-0.024796,0.986542,-0.070658,0.02215,-0.005006,77.060562,5.249359,-148.397736,,,
729860489.110714,-1.438788,-3.720289,-26.675612,0.059296,-0.024796,0.986542,-0.070658,0.02215,-0.005006,77.060562,5.249359,-148.397736,,,
729860489.113997,-1.457407,-3.719036,-26.679029,0.059296,-0.024796,0.986542,-0.070658,0.02215,-0.005006,77.060562,5.249359,-148.397736,,,
729860489.117332,-1.477208,-3.719887,-26.683006,0.059906,-0.027771,0.98735,-0.069691,-0.001547,-0.012634,77.060562,5.249359,-148.397736,,,
729860489.120674,-1.477208,-3.719887,-26.683006,0.059906,-0.027771,0.98735,-0.069691,-0.001547,-0.012634,77.060562,5.249359,-148.397736,,,
729860489.12398,-1.494943,-3.725872,-26.688209,0.059906,-0.027771,0.98735,-0.069691,-0.001547,-0.012634,77.099014,5.241531,-148.447586,,,
729860489.127316,-1.513243,-3.733433,-26.694295,0.062851,-0.028046,0.9944,-0.060853,-0.026371,-0.017586,77.099014,5.241531,-148.447586,,,
729860489.130667,-1.513243,-3.733433,-26.694295,0.062851,-0.028046,0.9944,-0.060853,-0.026371,-0.017586,77.099014,5.241531,-148.447586,,,
729860489.13398,-1.528876,-3.744198,-26.700424,0.062851,-0.028046,0.9944,-0.060853,-0.026371,-0.017586,77.099014,5.241531,-148.447586,,,
729860489.137315,-1.544084,-3.75621,-26.705884,0.061981,-0.033051,1.001694,-0.050683,-0.041031,-0.015839,77.099014,5.241531,-148.447586,,,
729860489.140665,-1.544084,-3.75621,-26.705884,0.061981,-0.033051,1.001694,-0.050683,-0.041031,-0.015839,77.099014,5.241531,-148.447586,,,
729860489.143987,-1.556895,-3.769825,-26.710158,0.061981,-0.033051,1.001694,-0.050683,-0.041031,-0.015839,77.099014,5.241531,-148.447586,,,
729860489.147317,-1.567062,-3.784365,-26.713777,0.062607,-0.033752,1.006927,-0.033645,-0.047068,-0.00978,77.099014,5.241531,-148.447586,,,
729860489.150731,-1.567062,-3.784365,-26.713777,0.062607,-0.033752,1.006927,-0.033645,-0.047068,-0.00978,77.099014,5.241531,-148.447586,,,
729860489.154002,-1.576118,-3.797041,-26.717101,0.062607,-0.033752,1.006927,-0.033645,-0.047068,-0.00978,77.099014,5.241531,-148.447586,,,
729860489.157323,-1.583817,-3.810809,-26.720645,0.068344,-0.033615,1.011353,-0.02857,-0.04473,-0.013572,77.099014,5.241531,-148.447586,,,
729860489.160663,-1.583817,-3.810809,-26.720645,0.068344,-0.033615,1.011353,-0.02857,-0.04473,-0.013572,77.099014,5.241531,-148.447586,,,
729860489.164066,-1.591105,-3.819108,-26.724727,0.068344,-0.033615,1.011353,-0.02857,-0.04473,-0.013572,77.115692,5.380981,-148.169937,,,
729860489.167315,-1.597271,-3.827952,-26.72974,0.071655,-0.031723,1.007843,-0.019958,-0.026326,-0.017136,77.115692,5.380981,-148.169937,,,
729860489.170662,-1.597271,-3.827952,-26.72974,0.071655,-0.031723,1.007843,-0.019958,-0.026326,-0.017136,77.115692,5.380981,-148.169937,,,
729860489.173991,-1.602915,-3.831715,-26.735352,0.071655,-0.031723,1.007843,-0.019958,-0.026326,-0.017136,77.115692,5.380981,-148.169937,,,
729860489.177323,-1.607145,-3.834518,-26.741414,0.073135,-0.029602,1.006729,-0.012248,-0.00446,-0.021832,77.115692,5.380981,-148.169937,,,
729860489.180678,-1.607145,-3.834518,-26.741414,0.073135,-0.029602,1.006729,-0.012248,-0.00446,-0.021832,77.115692,5.380981,-148.169937,,,
729860489.184021,-1.608533,-3.832604,-26.747319,0.073135,-0.029602,1.006729,-0.012248,-0.00446,-0.021832,77.115692,5.380981,-148.169937,,,
729860489.187454,-1.608523,-3.82993,-26.752289,0.067368,-0.033401,1.01329,0.00112,0.014603,-0.016832,77.115692,5.380981,-148.169937,,,
729860489.190676,-1.608523,-3.82993,-26.752289,0.067368,-0.033401,1.01329,0.00112,0.014603,-0.016832,77.115692,5.380981,-148.169937,,,
729860489.194003,-1.607149,-3.823397,-26.755648,0.067368,-0.033401,1.01329,0.00112,0.014603,-0.016832,77.115692,5.380981,-148.169937,,,
729860489.197319,-1.605379,-3.816836,-26.757848,0.061951,-0.036133,1.010544,0.009985,0.027406,-0.007433,77.115692,5.380981,-148.169937,,,
729860489.200772,-1.605379,-3.816836,-26.757848,0.061951,-0.036133,1.010544,0.009985,0.027406,-0.007433,77.115692,5.380981,-148.169937,,,
729860489.20398,-1.603245,-3.809003,-26.758767,0.061951,-0.036133,1.010544,0.009985,0.027406,-0.007433,77.370346,5.407104,-148.13266,,,
729860489.207328,-1.601503,-3.803195,-26.758414,0.059891,-0.032379,0.997955,0.006651,0.024257,-0.001022,77.370346,5.407104,-148.13266,,,
729860489.210677,-1.601503,-3.803195,-26.758414,0.059891,-0.032379,0.997955,0.006651,0.024257,-0.001022,77.370346,5.407104,-148.13266,,,
729860489.214049,-1.601666,-3.798306,-26.758136,0.059891,-0.032379,0.997955,0.006651,0.024257,-0.001022,77.370346,5.407104,-148.13266,,,
729860489.217312,-1.602595,-3.796658,-26.758761,0.063019,-0.027512,0.983154,-0.004112,0.006895,-0.00294,77.370346,5.407104,-148.13266,,,
729860489.220685,-1.602595,-3.796658,-26.758761,0.063019,-0.027512,0.983154,-0.004112,0.006895,-0.00294,77.370346,5.407104,-148.13266,,,
729860489.224009,-1.605638,-3.796655,-26.760312,0.063019,-0.027512,0.983154,-0.004112,0.006895,-0.00294,77.370346,5.407104,-148.13266,,,
729860489.227328,-1.608296,-3.801361,-26.76306,0.064026,-0.022644,0.976486,-0.011841,-0.017519,-0.011915,77.370346,5.407104,-148.13266,,,
729860489.23067,-1.608296,-3.801361,-26.76306,0.064026,-0.022644,0.976486,-0.011841,-0.017519,-0.011915,77.370346,5.407104,-148.13266,,,
729860489.234004,-1.613243,-3.810939,-26.766955,0.064026,-0.022644,0.976486,-0.011841,-0.017519,-0.011915,77.370346,5.407104,-148.13266,,,
729860489.237322,-1.617704,-3.826834,-26.772035,0.066284,-0.01947,0.970291,-0.016822,-0.05711,-0.018478,77.370346,5.407104,-148.13266,,,
729860489.240658,-1.617704,-3.826834,-26.772035,0.066284,-0.01947,0.970291,-0.016822,-0.05711,-0.018478,77.370346,5.407104,-148.13266,,,
729860489.24399,-1.622554,-3.849468,-26.778221,0.066284,-0.01947,0.970291,-0.016822,-0.05711,-0.018478,77.019485,5.556488,-148.339294,,,
729860489.247325,-1.626504,-3.876273,-26.785221,0.068726,-0.022095,0.97142,-0.013602,-0.092818,-0.026935,77.019485,5.556488,-148.339294,,,
729860489.250669,-1.626504,-3.876273,-26.785221,0.068726,-0.022095,0.97142,-0.013602,-0.092818,-0.026935,77.019485,5.556488,-148.339294,,,
729860489.254046,-1.630379,-3.906971,-26.793392,0.068726,-0.022095,0.97142,-0.013602,-0.092818,-0.026935,77.019485,5.556488,-148.339294,,,
729860489.257339,-1.633326,-3.937003,-26.803016,0.070038,-0.023499,0.97998,-0.011468,-0.101136,-0.033371,77.019485,5.556488,-148.339294,,,
729860489.260657,-1.633326,-3.937003,-26.803016,0.070038,-0.023499,0.97998,-0.011468,-0.101136,-0.033371,77.019485,5.556488,-148.339294,,,
729860489.264072,-1.636655,-3.965455,-26.813251,0.070038,-0.023499,0.97998,-0.011468,-0.101136,-0.033371,77.019485,5.556488,-148.339294,,,
729860489.267389,-1.63942,-3.991722,-26.823165,0.068909,-0.024277,0.98851,-0.007547,-0.086975,-0.035161,77.019485,5.556488,-148.339294,,,
729860489.270739,-1.63942,-3.991722,-26.823165,0.068909,-0.024277,0.98851,-0.007547,-0.086975,-0.035161,77.019485,5.556488,-148.339294,,,
729860489.273847,-1.642563,-4.014385,-26.832686,0.068909,-0.024277,0.98851,-0.007547,-0.086975,-0.035161,77.019485,5.556488,-148.339294,,,
729860489.277342,-1.642803,-4.036224,-26.841449,0.071335,-0.027145,0.993118,-0.001378,-0.070016,-0.029337,77.019485,5.556488,-148.339294,,,
729860489.280393,-1.642803,-4.036224,-26.841449,0.071335,-0.027145,0.993118,-0.001378,-0.070016,-0.029337,77.019485,5.556488,-148.339294,,,
729860489.284029,-1.640836,-4.052425,-26.848927,0.071335,-0.027145,0.993118,-0.001378,-0.070016,-0.029337,77.019485,5.556488,-148.339294,,,
729860489.2873,-1.633754,-4.067764,-26.855837,0.075638,-0.030975,1.004623,0.025317,-0.044378,-0.028255,76.930984,5.323746,-148.469406,,,
729860489.29042,-1.633754,-4.067764,-26.855837,0.075638,-0.030975,1.004623,0.025317,-0.044378,-0.028255,76.930984,5.323746,-148.469406,,,
729860489.293996,-1.623059,-4.077656,-26.862298,0.075638,-0.030975,1.004623,0.025317,-0.044378,-0.028255,76.930984,5.323746,-148.469406,,,
729860489.297304,-1.623059,-4.077656,-26.862298,0.074081,-0.030411,1.02005,0.05798,-0.029397,-0.029998,76.930984,5.323746,-148.469406,,,
729860489.300637,-1.606686,-4.087209,-26.869,0.074081,-0.030411,1.02005,0.05798,-0.029397,-0.029998,76.930984,5.323746,-148.469406,,,
729860489.303874,-1.583886,-4.095224,-26.875871,0.074081,-0.030411,1.02005,0.05798,-0.029397,-0.029998,76.930984,5.323746,-148.469406,,,
729860489.307066,-1.583886,-4.095224,-26.875871,0.078125,-0.031708,1.021973,0.098058,-0.035825,-0.035819,76.930984,5.323746,-148.469406,,,
729860489.310678,-1.556722,-4.106293,-26.883324,0.078125,-0.031708,1.021973,0.098058,-0.035825,-0.035819,76.930984,5.323746,-148.469406,,,
729860489.313723,-1.523399,-4.119208,-26.892067,0.078125,-0.031708,1.021973,0.098058,-0.035825,-0.035819,76.930984,5.323746,-148.469406,,,
729860489.31728,-1.486717,-4.136071,-26.90217,0.079788,-0.029526,1.01709,0.130701,-0.058562,-0.047746,76.930984,5.323746,-148.469406,,,
729860489.320671,-1.486717,-4.136071,-26.90217,0.079788,-0.029526,1.01709,0.130701,-0.058562,-0.047746,76.930984,5.323746,-148.469406,,,
729860489.323728,-1.446205,-4.155284,-26.913891,0.079788,-0.029526,1.01709,0.130701,-0.058562,-0.047746,76.930984,5.323746,-148.469406,,,
729860489.327371,-1.404126,-4.177752,-26.926399,0.081802,-0.025085,1.010864,0.14844,-0.076322,-0.055594,76.867126,4.966904,-148.289566,,,
729860489.33066,-1.404126,-4.177752,-26.926399,0.081802,-0.025085,1.010864,0.14844,-0.076322,-0.055594,76.867126,4.966904,-148.289566,,,
729860489.333999,-1.359726,-4.202428,-26.938917,0.081802,-0.025085,1.010864,0.14844,-0.076322,-0.055594,76.867126,4.966904,-148.289566,,,
729860489.337315,-1.314653,-4.231078,-26.951038,0.076065,-0.023148,1.002838,0.153773,-0.101061,-0.052825,76.867126,4.966904,-148.289566,,,
729860489.340466,-1.314653,-4.231078,-26.951038,0.076065,-0.023148,1.002838,0.153773,-0.101061,-0.052825,76.867126,4.966904,-148.289566,,,
729860489.344016,-1.268671,-4.263871,-26.96304,0.076065,-0.023148,1.002838,0.153773,-0.101061,-0.052825,76.867126,4.966904,-148.289566,,,
729860489.347311,-1.219199,-4.302707,-26.975886,0.077148,-0.019485,0.993683,0.171517,-0.135053,-0.059192,76.867126,4.966904,-148.289566,,,
729860489.350659,-1.219199,-4.302707,-26.975886,0.077148,-0.019485,0.993683,0.171517,-0.135053,-0.059192,76.867126,4.966904,-148.289566,,,
729860489.353994,-1.163499,-4.345027,-26.989428,0.077148,-0.019485,0.993683,0.171517,-0.135053,-0.059192,76.867126,4.966904,-148.289566,,,
729860489.35713,-1.163499,-4.345027,-26.989428,0.077148,-0.019485,0.993683,0.171517,-0.135053,-0.059192,76.867126,4.966904,-148.289566,,,
729860489.36069,-1.094486,-4.392117,-27.004203,0.08432,-0.023087,1.016251,0.247738,-0.163695,-0.07443,76.867126,4.966904,-148.289566,,,
729860489.363991,-1.011678,-4.442409,-27.019941,0.08432,-0.023087,1.016251,0.247738,-0.163695,-0.07443,76.867126,4.966904,-148.289566,,,
729860489.367319,-1.011678,-4.497048,-27.035403,0.08432,-0.023087,1.016251,0.373808,-0.192204,-0.083767,76.712952,4.626312,-148.09317,,,
729860489.37066,-0.908225,-4.497048,-27.035403,0.084747,-0.032166,1.072601,0.373808,-0.192204,-0.083767,76.712952,4.626312,-148.09317,,,
729860489.373913,-0.785688,-4.554886,-27.048908,0.084747,-0.032166,1.072601,0.373808,-0.192204,-0.083767,76.712952,4.626312,-148.09317,,,
729860489.377348,-0.785688,-4.616698,-27.05916,0.080505,-0.039597,1.114151,0.509373,-0.217955,-0.075194,76.712952,4.626312,-148.09317,,,
729860489.380677,-0.642814,-4.616698,-27.05916,0.080505,-0.039597,1.114151,0.509373,-0.217955,-0.075194,76.712952,4.626312,-148.09317,,,
729860489.383995,-0.484269,-4.680294,-27.065646,0.080505,-0.039597,1.114151,0.509373,-0.217955,-0.075194,76.712952,4.626312,-148.09317,,,
729860489.387382,-0.31211,-4.744445,-27.069033,0.081741,-0.038635,1.117401,0.610723,-0.219649,-0.061391,76.712952,4.626312,-148.09317,,,
729860489.390649,-0.31211,-4.744445,-27.069033,0.081741,-0.038635,1.117401,0.610723,-0.219649,-0.061391,76.712952,4.626312,-148.09317,,,
729860489.393991,-0.131921,-4.806721,-27.0708,0.081741,-0.038635,1.117401,0.610723,-0.219649,-0.061391,76.712952,4.626312,-148.09317,,,
729860489.397325,-0.131921,-4.806721,-27.0708,0.081741,-0.038635,1.117401,0.648277,-0.200482,-0.060187,76.712952,4.626312,-148.09317,,,
729860489.40067,0.053645,-4.866544,-27.072118,0.088745,-0.021255,1.092316,0.648277,-0.200482,-0.060187,76.712952,4.626312,-148.09317,,,
729860489.403987,0.239094,-4.923479,-27.074574,0.088745,-0.021255,1.092316,0.648277,-0.200482,-0.060187,76.712952,4.626312,-148.09317,,,
729860489.407325,0.239094,-4.923479,-27.074574,0.088745,-0.021255,1.092316,0.648277,-0.200482,-0.060187,76.712952,4.626312,-148.09317,,,
729860489.410678,0.424552,-4.977837,-27.079537,0.099655,0.003769,1.053955,0.641806,-0.186031,-0.075621,76.32341,3.444275,-147.689529,,,
729860489.413989,0.607308,-5.029998,-27.08779,0.099655,0.003769,1.053955,0.641806,-0.186031,-0.075621,76.32341,3.444275,-147.689529,,,
729860489.41737,0.607308,-5.029998,-27.08779,0.099655,0.003769,1.053955,0.617004,-0.168231,-0.103199,76.32341,3.444275,-147.689529,,,
729860489.420663,0.786891,-5.079913,-27.100085,0.109375,0.025681,1.018143,0.617004,-0.168231,-0.103199,76.32341,3.444275,-147.689529,,,
729860489.42402,0.963934,-5.12745,-27.116425,0.109375,0.025681,1.018143,0.617004,-0.168231,-0.103199,76.32341,3.444275,-147.689529,,,
729860489.427352,0.963934,-5.12745,-27.116425,0.109375,0.025681,1.018143,0.617004,-0.168231,-0.103199,76.32341,3.444275,-147.689529,,,
729860489.430734,1.13955,-5.173442,-27.136059,0.112396,0.038544,1.005875,0.598891,-0.157547,-0.127209,76.32341,3.444275,-147.689529,,,
729860489.433977,1.315143,-5.218845,-27.158227,0.112396,0.038544,1.005875,0.598891,-0.157547,-0.127209,76.32341,3.444275,-147.689529,,,
729860489.437388,1.315143,-5.218845,-27.158227,0.112396,0.038544,1.005875,0.598891,-0.157547,-0.127209,76.32341,3.444275,-147.689529,,,
729860489.440652,1.491334,-5.264949,-27.181695,0.104218,0.037918,1.016037,0.605612,-0.162555,-0.13682,76.32341,3.444275,-147.689529,,,
729860489.44399,1.66736,-5.313901,-27.205232,0.104218,0.037918,1.016037,0.605612,-0.162555,-0.13682,76.32341,3.444275,-147.689529,,,
729860489.447409,1.66736,-5.313901,-27.205232,0.104218,0.037918,1.016037,0.605612,-0.162555,-0.13682,76.32341,3.444275,-147.689529,,,
729860489.450648,1.842206,-5.366549,-27.227494,0.095474,0.037628,1.01387,0.598133,-0.187646,-0.133414,76.003128,2.295624,-147.274017,,,
729860489.453996,2.015723,-5.422977,-27.248002,0.095474,0.037628,1.01387,0.598133,-0.187646,-0.133414,76.003128,2.295624,-147.274017,,,
729860489.457422,2.015723,-5.422977,-27.248002,0.095474,0.037628,1.01387,0.598133,-0.187646,-0.133414,76.003128,2.295624,-147.274017,,,
729860489.460664,2.188136,-5.482245,-27.266848,0.089813,0.040176,1.00267,0.588776,-0.207298,-0.120628,76.003128,2.295624,-147.274017,,,
729860489.463993,2.358121,-5.543255,-27.28414,0.089813,0.040176,1.00267,0.588776,-0.207298,-0.120628,76.003128,2.295624,-147.274017,,,
729860489.467374,2.358121,-5.543255,-27.28414,0.089813,0.040176,1.00267,0.588776,-0.207298,-0.120628,76.003128,2.295624,-147.274017,,,
729860489.470704,2.524356,-5.605049,-27.300271,0.090515,0.048676,0.998077,0.567652,-0.215879,-0.113403,76.003128,2.295624,-147.274017,,,
729860489.473991,2.687231,-5.66788,-27.315902,0.090515,0.048676,0.998077,0.567652,-0.215879,-0.113403,76.003128,2.295624,-147.274017,,,
729860489.477407,2.687231,-5.66788,-27.315902,0.090515,0.048676,0.998077,0.567652,-0.215879,-0.113403,76.003128,2.295624,-147.274017,,,
729860489.480672,2.847312,-5.73137,-27.332261,0.096863,0.05632,0.98909,0.548061,-0.223682,-0.115179,76.003128,2.295624,-147.274017,,,
729860489.483994,3.00669,-5.794846,-27.349414,0.096863,0.05632,0.98909,0.548061,-0.223682,-0.115179,76.003128,2.295624,-147.274017,,,
729860489.487392,3.00669,-5.794846,-27.349414,0.096863,0.05632,0.98909,0.548061,-0.223682,-0.115179,76.003128,2.295624,-147.274017,,,
729860489.490653,3.167102,-5.856147,-27.36679,0.103363,0.061707,0.998459,0.550288,-0.211371,-0.116512,75.832993,1.078384,-146.899673,,,
729860489.493997,3.328593,-5.913509,-27.384262,0.103363,0.061707,0.998459,0.550288,-0.211371,-0.116512,75.832993,1.078384,-146.899673,,,
729860489.497466,3.328593,-5.913509,-27.384262,0.103363,0.061707,0.998459,0.550288,-0.211371,-0.116512,75.832993,1.078384,-146.899673,,,
729860489.500657,3.491128,-5.966503,-27.401174,0.105667,0.064468,1.018372,0.562707,-0.181762,-0.118537,75.832993,1.078384,-146.899673,,,
729860489.504007,3.654934,-6.014039,-27.41681,0.105667,0.064468,1.018372,0.562707,-0.181762,-0.118537,75.832993,1.078384,-146.899673,,,
729860489.507407,3.654934,-6.014039,-27.41681,0.105667,0.064468,1.018372,0.562707,-0.181762,-0.118537,75.832993,1.078384,-146.899673,,,
729860489.510647,3.81893,-6.055135,-27.430248,0.106003,0.065979,1.021713,0.562309,-0.137552,-0.105142,75.832993,1.078384,-146.899673,,,
729860489.513988,3.981512,-6.089383,-27.440989,0.106003,0.065979,1.021713,0.562309,-0.137552,-0.105142,75.832993,1.078384,-146.899673,,,
729860489.517342,3.981512,-6.089383,-27.440989,0.106003,0.065979,1.021713,0.562309,-0.137552,-0.105142,75.832993,1.078384,-146.899673,,,
729860489.520714,4.141518,-6.116321,-27.449064,0.103027,0.070908,1.01709,0.549083,-0.087314,-0.084325,75.832993,1.078384,-146.899673,,,
729860489.524009,4.297934,-6.135993,-27.454655,0.103027,0.070908,1.01709,0.549083,-0.087314,-0.084325,75.832993,1.078384,-146.899673,,,
729860489.527349,4.297934,-6.135993,-27.454655,0.103027,0.070908,1.01709,0.549083,-0.087314,-0.084325,75.832993,1.078384,-146.899673,,,
729860489.530686,4.45009,-6.148767,-27.457813,0.101608,0.078583,1.005493,0.523637,-0.036449,-0.066329,75.687302,-0.109543,-146.363403,,,
729860489.533996,4.597664,-6.157463,-27.458299,0.101608,0.078583,1.005493,0.523637,-0.036449,-0.066329,75.687302,-0.109543,-146.363403,,,
729860489.537339,4.597664,-6.157463,-27.458299,0.101608,0.078583,1.005493,0.523637,-0.036449,-0.066329,75.687302,-0.109543,-146.363403,,,
729860489.540666,4.740757,-6.166185,-27.457815,0.099915,0.087509,0.988495,0.491442,-0.025572,-0.051249,75.687302,-0.109543,-146.363403,,,
729860489.543998,4.880913,-6.179364,-27.457521,0.099915,0.087509,0.988495,0.491442,-0.025572,-0.051249,75.687302,-0.109543,-146.363403,,,
729860489.547421,4.880913,-6.179364,-27.457521,0.099915,0.087509,0.988495,0.491442,-0.025572,-0.051249,75.687302,-0.109543,-146.363403,,,
729860489.550656,5.021645,-6.200624,-27.457778,0.104645,0.09436,0.973816,0.486707,-0.079642,-0.054455,75.687302,-0.109543,-146.363403,,,
729860489.553991,5.166015,-6.231494,-27.45977,0.104645,0.09436,0.973816,0.486707,-0.079642,-0.054455,75.687302,-0.109543,-146.363403,,,
729860489.557326,5.166015,-6.231494,-27.45977,0.104645,0.09436,0.973816,0.486707,-0.079642,-0.054455,75.687302,-0.109543,-146.363403,,,
729860489.560738,5.316672,-6.271022,-27.464289,0.1129,0.095291,0.986832,0.526335,-0.141921,-0.076477,75.687302,-0.109543,-146.363403,,,
729860489.563986,5.475011,-6.318466,-27.471444,0.1129,0.095291,0.986832,0.526335,-0.141921,-0.076477,75.687302,-0.109543,-146.363403,,,
729860489.567336,5.475011,-6.318466,-27.471444,0.1129,0.095291,0.986832,0.526335,-0.141921,-0.076477,75.687302,-0.109543,-146.363403,,,
729860489.570688,5.64167,-6.372881,-27.480317,0.117264,0.092667,1.017258,0.583943,-0.198327,-0.099188,75.687302,-0.109543,-146.363403,,,
729860489.573992,5.817923,-6.432372,-27.489957,0.117264,0.092667,1.017258,0.583943,-0.198327,-0.099188,75.313629,-1.15033,-145.890091,,,
729860489.577324,5.817923,-6.432372,-27.489957,0.117264,0.092667,1.017258,0.583943,-0.198327,-0.099188,75.313629,-1.15033,-145.890091,,,
729860489.580679,6.004446,-6.494419,-27.499258,0.116653,0.090515,1.040161,0.651146,-0.221095,-0.10581,75.313629,-1.15033,-145.890091,,,
729860489.583988,6.201692,-6.558205,-27.50617,0.116653,0.090515,1.040161,0.651146,-0.221095,-0.10581,75.313629,-1.15033,-145.890091,,,
729860489.587412,6.201692,-6.558205,-27.50617,0.116653,0.090515,1.040161,0.651146,-0.221095,-0.10581,75.313629,-1.15033,-145.890091,,,
729860489.590654,6.409561,-6.622817,-27.509322,0.112808,0.085526,1.062317,0.728151,-0.225527,-0.0914,75.313629,-1.15033,-145.890091,,,
729860489.593986,6.627733,-6.686584,-27.508811,0.112808,0.085526,1.062317,0.728151,-0.225527,-0.0914,75.313629,-1.15033,-145.890091,,,
729860489.597346,6.627733,-6.686584,-27.508811,0.112808,0.085526,1.062317,0.728151,-0.225527,-0.0914,75.313629,-1.15033,-145.890091,,,
729860489.600662,6.855279,-6.748457,-27.506247,0.113266,0.088593,1.068466,0.796622,-0.209882,-0.082916,75.313629,-1.15033,-145.890091,,,
729860489.60399,7.091166,-6.80866,-27.502304,0.113266,0.088593,1.068466,0.796622,-0.209882,-0.082916,75.313629,-1.15033,-145.890091,,,
729860489.607373,7.091166,-6.80866,-27.502304,0.113266,0.088593,1.068466,0.796622,-0.209882,-0.082916,75.313629,-1.15033,-145.890091,,,
729860489.610773,7.333832,-6.86724,-27.497349,0.117905,0.099014,1.060364,0.846259,-0.198388,-0.085123,75.313629,-1.15033,-145.890091,,,
729860489.614063,7.581745,-6.925235,-27.49311,0.117905,0.099014,1.060364,0.846259,-0.198388,-0.085123,74.989487,-2.72522,-145.505783,,,
729860489.617367,7.581745,-6.925235,-27.49311,0.117905,0.099014,1.060364,0.846259,-0.198388,-0.085123,74.989487,-2.72522,-145.505783,,,
729860489.620702,7.832046,-6.983108,-27.490725,0.125885,0.115646,1.033371,0.865831,-0.195588,-0.099448,74.989487,-2.72522,-145.505783,,,
729860489.623912,8.081649,-7.042071,-27.490901,0.125885,0.115646,1.033371,0.865831,-0.195588,-0.099448,74.989487,-2.72522,-145.505783,,,
729860489.627494,8.081649,-7.042071,-27.490901,0.125885,0.115646,1.033371,0.865831,-0.195588,-0.099448,74.989487,-2.72522,-145.505783,,,
729860489.630737,8.329055,-7.102952,-27.494677,0.132675,0.134781,0.996475,0.850446,-0.212642,-0.121172,74.989487,-2.72522,-145.505783,,,
729860489.633998,8.57259,-7.165659,-27.502533,0.132675,0.134781,0.996475,0.850446,-0.212642,-0.121172,74.989487,-2.72522,-145.505783,,,
729860489.637336,8.57259,-7.165659,-27.502533,0.132675,0.134781,0.996475,0.850446,-0.212642,-0.121172,74.989487,-2.72522,-145.505783,,,
729860489.640506,8.811595,-7.230232,-27.514473,0.139587,0.15155,0.969116,0.818836,-0.22947,-0.151579,74.989487,-2.72522,-145.505783,,,
729860489.644021,9.04678,-7.296164,-27.530412,0.139587,0.15155,0.969116,0.818836,-0.22947,-0.151579,74.989487,-2.72522,-145.505783,,,
729860489.647344,9.04678,-7.296164,-27.530412,0.139587,0.15155,0.969116,0.818836,-0.22947,-0.151579,74.989487,-2.72522,-145.505783,,,
729860489.650765,9.279205,-7.362303,-27.549534,0.138992,0.162811,0.960617,0.79337,-0.239979,-0.170375,74.989487,-2.72522,-145.505783,,,
729860489.653997,9.509881,-7.428136,-27.569722,0.138992,0.162811,0.960617,0.79337,-0.239979,-0.170375,74.843124,-4.088379,-144.452515,,,
729860489.657161,9.509881,-7.428136,-27.569722,0.138992,0.162811,0.960617,0.79337,-0.239979,-0.170375,74.843124,-4.088379,-144.452515,,,
729860489.660691,9.739583,-7.492515,-27.590195,0.130707,0.163467,0.974426,0.781605,-0.231927,-0.174749,74.843124,-4.088379,-144.452515,,,
729860489.66399,9.968993,-7.554243,-27.609181,0.130707,0.163467,0.974426,0.781605,-0.231927,-0.174749,74.843124,-4.088379,-144.452515,,,
729860489.667342,9.968993,-7.554243,-27.609181,0.130707,0.163467,0.974426,0.781605,-0.231927,-0.174749,74.843124,-4.088379,-144.452515,,,
729860489.670677,10.198991,-7.612152,-27.624462,0.125458,0.159943,0.995819,0.788116,-0.204154,-0.159299,74.843124,-4.088379,-144.452515,,,
729860489.673842,10.429415,-7.666208,-27.635997,0.125458,0.159943,0.995819,0.788116,-0.204154,-0.159299,74.843124,-4.088379,-144.452515,,,
729860489.67743,10.429415,-7.666208,-27.635997,0.125458,0.159943,0.995819,0.788116,-0.204154,-0.159299,74.843124,-4.088379,-144.452515,,,
729860489.680672,10.661039,-7.716822,-27.643956,0.121231,0.159622,1.013092,0.799976,-0.174767,-0.133821,74.843124,-4.088379,-144.452515,,,
729860489.684,10.895066,-7.764468,-27.649007,0.121231,0.159622,1.013092,0.799976,-0.174767,-0.133821,74.843124,-4.088379,-144.452515,,,
729860489.687338,10.895066,-7.764468,-27.649007,0.121231,0.159622,1.013092,0.799976,-0.174767,-0.133821,74.843124,-4.088379,-144.452515,,,
729860489.690528,11.131786,-7.809166,-27.651963,0.124313,0.163864,1.017029,0.818854,-0.153092,-0.119457,74.843124,-4.088379,-144.452515,,,
729860489.694019,11.371234,-7.851359,-27.65272,0.124313,0.163864,1.017029,0.818854,-0.153092,-0.119457,74.870392,-5.67421,-143.773041,,,
729860489.697336,11.371234,-7.851359,-27.65272,0.124313,0.163864,1.017029,0.818854,-0.153092,-0.119457,74.870392,-5.67421,-143.773041,,,
729860489.700689,11.612762,-7.891624,-27.651532,0.131195,0.171616,1.015564,0.834169,-0.134767,-0.111288,74.870392,-5.67421,-143.773041,,,
729860489.704023,11.856098,-7.930589,-27.649391,0.131195,0.171616,1.015564,0.834169,-0.134767,-0.111288,74.870392,-5.67421,-143.773041,,,
729860489.707173,11.856098,-7.930589,-27.649391,0.131195,0.171616,1.015564,0.834169,-0.134767,-0.111288,74.870392,-5.67421,-143.773041,,,
729860489.7107,12.102655,-7.969488,-27.646944,0.133636,0.180573,1.007843,0.855979,-0.132979,-0.111398,74.870392,-5.67421,-143.773041,,,
729860489.713991,12.354003,-8.010989,-27.644107,0.133636,0.180573,1.007843,0.855979,-0.132979,-0.111398,74.870392,-5.67421,-143.773041,,,
729860489.717345,12.354003,-8.010989,-27.644107,0.133636,0.180573,1.007843,0.855979,-0.132979,-0.111398,74.870392,-5.67421,-143.773041,,,
729860489.720679,12.610873,-8.055875,-27.641214,0.136353,0.187363,1.006195,0.893138,-0.152729,-0.11537,74.870392,-5.67421,-143.773041,,,
729860489.723886,12.874179,-8.104139,-27.638345,0.136353,0.187363,1.006195,0.893138,-0.152729,-0.11537,74.870392,-5.67421,-143.773041,,,
729860489.727342,12.874179,-8.104139,-27.638345,0.136353,0.187363,1.006195,0.893138,-0.152729,-0.11537,74.870392,-5.67421,-143.773041,,,
729860489.730682,13.144053,-8.155185,-27.635621,0.141418,0.195953,1.015686,0.939729,-0.174076,-0.126146,74.870392,-5.67421,-143.773041,,,
729860489.733998,13.419794,-8.208898,-27.633157,0.141418,0.195953,1.015686,0.939729,-0.174076,-0.126146,74.870392,-5.67421,-143.773041,,,
729860489.737414,13.419794,-8.208898,-27.633157,0.141418,0.195953,1.015686,0.939729,-0.174076,-0.126146,74.530991,-7.173935,-142.62059,,,
729860489.740653,13.700098,-8.264334,-27.630663,0.143997,0.205246,1.015457,0.970772,-0.189421,-0.135348,74.530991,-7.173935,-142.62059,,,
729860489.743994,13.983109,-8.320336,-27.628005,0.143997,0.205246,1.015457,0.970772,-0.189421,-0.135348,74.530991,-7.173935,-142.62059,,,
729860489.747341,13.983109,-8.320336,-27.628005,0.143997,0.205246,1.015457,0.970772,-0.189421,-0.135348,74.530991,-7.173935,-142.62059,,,
729860489.750719,14.267765,-8.375986,-27.625,0.139923,0.212875,1.001709,0.984928,-0.188343,-0.134161,74.530991,-7.173935,-142.62059,,,
729860489.754012,14.553902,-8.43138,-27.620567,0.139923,0.212875,1.001709,0.984928,-0.188343,-0.134161,74.530991,-7.173935,-142.62059,,,
729860489.757373,14.553902,-8.43138,-27.620567,0.139923,0.212875,1.001709,0.984928,-0.188343,-0.134161,74.530991,-7.173935,-142.62059,,,
729860489.760665,14.842218,-8.486344,-27.614642,0.139786,0.222504,0.984955,0.99914,-0.183742,-0.128506,74.530991,-7.173935,-142.62059,,,
729860489.763993,15.134845,-8.540917,-27.607325,0.139786,0.222504,0.984955,0.99914,-0.183742,-0.128506,74.530991,-7.173935,-142.62059,,,
729860489.767354,15.134845,-8.540917,-27.607325,0.139786,0.222504,0.984955,0.99914,-0.183742,-0.128506,74.530991,-7.173935,-142.62059,,,
729860489.770688,15.433513,-8.594393,-27.598521,0.143234,0.231796,0.989594,1.037402,-0.174382,-0.12947,74.530991,-7.173935,-142.62059,,,
729860489.773997,15.737851,-8.64694,-27.58805,0.143234,0.231796,0.989594,1.037402,-0.174382,-0.12947,74.530991,-7.173935,-142.62059,,,
729860489.77734,15.737851,-8.64694,-27.58805,0.143234,0.231796,0.989594,1.037402,-0.174382,-0.12947,74.787872,-9.350815,-141.443085,,,
729860489.780659,16.047548,-8.698738,-27.575829,0.144913,0.235794,1.002762,1.079752,-0.165934,-0.124496,74.787872,-9.350815,-141.443085,,,
729860489.783993,16.362781,-8.751406,-27.561558,0.144913,0.235794,1.002762,1.079752,-0.165934,-0.124496,74.787872,-9.350815,-141.443085,,,
729860489.787413,16.362781,-8.751406,-27.561558,0.144913,0.235794,1.002762,1.079752,-0.165934,-0.124496,74.787872,-9.350815,-141.443085,,,
729860489.790751,16.682189,-8.806739,-27.545806,0.145752,0.24057,0.994781,1.112205,-0.173798,-0.117751,74.787872,-9.350815,-141.443085,,,
729860489.793994,17.005165,-8.866201,-27.529114,0.145752,0.24057,0.994781,1.112205,-0.173798,-0.117751,74.787872,-9.350815,-141.443085,,,
729860489.797349,17.005165,-8.866201,-27.529114,0.145752,0.24057,0.994781,1.112205,-0.173798,-0.117751,74.787872,-9.350815,-141.443085,,,
729860489.800744,17.332265,-8.931253,-27.512388,0.147842,0.25061,0.973618,1.138489,-0.212167,-0.127779,74.787872,-9.350815,-141.443085,,,
729860489.803989,17.664228,-9.001386,-27.497169,0.147842,0.25061,0.973618,1.138489,-0.212167,-0.127779,74.787872,-9.350815,-141.443085,,,
729860489.807427,17.664228,-9.001386,-27.497169,0.147842,0.25061,0.973618,1.138489,-0.212167,-0.127779,74.787872,-9.350815,-141.443085,,,
729860489.810666,18.001019,-9.073474,-27.484426,0.158478,0.265991,0.961426,1.168292,-0.236393,-0.148225,74.787872,-9.350815,-141.443085,,,
729860489.814004,18.340886,-9.145462,-27.474678,0.158478,0.265991,0.961426,1.168292,-0.236393,-0.148225,74.787872,-9.350815,-141.443085,,,
729860489.817333,18.340886,-9.145462,-27.474678,0.158478,0.265991,0.961426,1.168292,-0.236393,-0.148225,74.246033,-11.184372,-139.415085,,,
729860489.820677,18.681058,-9.215503,-27.467879,0.167953,0.28093,0.958023,1.175444,-0.235553,-0.172969,74.246033,-11.184372,-139.415085,,,
729860489.82404,19.0191,-9.283426,-27.463823,0.167953,0.28093,0.958023,1.175444,-0.235553,-0.172969,74.246033,-11.184372,-139.415085,,,
729860489.827399,19.0191,-9.283426,-27.463823,0.167953,0.28093,0.958023,1.175444,-0.235553,-0.172969,74.246033,-11.184372,-139.415085,,,
729860489.830676,19.353188,-9.348581,-27.462247,0.168182,0.295197,0.934097,1.149274,-0.220639,-0.18644,74.246033,-11.184372,-139.415085,,,
729860489.833997,19.682773,-9.41017,-27.462357,0.168182,0.295197,0.934097,1.149274,-0.220639,-0.18644,74.246033,-11.184372,-139.415085,,,
729860489.837343,19.682773,-9.41017,-27.462357,0.168182,0.295197,0.934097,1.149274,-0.220639,-0.18644,74.246033,-11.184372,-139.415085,,,
729860489.840698,20.006809,-9.467663,-27.464121,0.168976,0.314224,0.910416,1.105803,-0.199772,-0.193456,74.246033,-11.184372,-139.415085,,,
729860489.843993,20.324328,-9.520501,-27.468252,0.168976,0.314224,0.910416,1.105803,-0.199772,-0.193456,74.246033,-11.184372,-139.415085,,,
729860489.847343,20.324328,-9.520501,-27.468252,0.168976,0.314224,0.910416,1.105803,-0.199772,-0.193456,74.246033,-11.184372,-139.415085,,,
729860489.850675,20.635617,-9.567039,-27.475684,0.172073,0.333908,0.896164,1.059255,-0.161683,-0.208152,74.246033,-11.184372,-139.415085,,,
729860489.853995,20.940229,-9.605511,-27.486328,0.172073,0.333908,0.896164,1.059255,-0.161683,-0.208152,74.246033,-11.184372,-139.415085,,,
729860489.857407,20.940229,-9.605511,-27.486328,0.172073,0.333908,0.896164,1.059255,-0.161683,-0.208152,74.246033,-11.184372,-139.415085,,,
729860489.860673,21.238407,-9.634951,-27.500347,0.176224,0.345734,0.887177,1.011456,-0.112945,-0.222025,74.234436,-13.166641,-138.416214,,,
729860489.863994,21.531169,-9.65636,-27.51703,0.176224,0.345734,0.887177,1.011456,-0.112945,-0.222025,74.234436,-13.166641,-138.416214,,,
729860489.867413,21.531169,-9.65636,-27.51703,0.176224,0.345734,0.887177,1.011456,-0.112945,-0.222025,74.234436,-13.166641,-138.416214,,,
729860489.870672,21.819589,-9.671228,-27.535126,0.171753,0.350479,0.888123,0.97826,-0.065321,-0.228038,74.234436,-13.166641,-138.416214,,,
729860489.874043,22.10558,-9.682435,-27.553564,0.171753,0.350479,0.888123,0.97826,-0.065321,-0.228038,74.234436,-13.166641,-138.416214,,,
729860489.877339,22.10558,-9.682435,-27.553564,0.171753,0.350479,0.888123,0.97826,-0.065321,-0.228038,74.234436,-13.166641,-138.416214,,,
729860489.880728,22.391041,-9.69255,-27.571319,0.165649,0.349258,0.893066,0.970005,-0.056594,-0.224825,74.234436,-13.166641,-138.416214,,,
729860489.883995,22.677567,-9.703778,-27.58832,0.165649,0.349258,0.893066,0.970005,-0.056594,-0.224825,74.234436,-13.166641,-138.416214,,,
729860489.88743,22.677567,-9.703778,-27.58832,0.165649,0.349258,0.893066,0.970005,-0.056594,-0.224825,74.234436,-13.166641,-138.416214,,,
729860489.890693,22.966866,-9.717019,-27.604728,0.161972,0.348007,0.900314,0.98701,-0.06585,-0.222915,74.234436,-13.166641,-138.416214,,,
729860489.894001,23.261172,-9.733359,-27.62039,0.161972,0.348007,0.900314,0.98701,-0.06585,-0.222915,74.234436,-13.166641,-138.416214,,,
729860489.897339,23.261172,-9.733359,-27.62039,0.161972,0.348007,0.900314,0.98701,-0.06585,-0.222915,74.234436,-13.166641,-138.416214,,,
729860489.900682,23.56296,-9.753041,-27.636055,0.164703,0.345886,0.91777,1.034621,-0.08916,-0.23146,74.662842,-14.563904,-137.135162,,,
729860489.903689,23.873234,-9.778099,-27.652147,0.164703,0.345886,0.91777,1.034621,-0.08916,-0.23146,74.662842,-14.563904,-137.135162,,,
729860489.907477,23.873234,-9.778099,-27.652147,0.164703,0.345886,0.91777,1.034621,-0.08916,-0.23146,74.662842,-14.563904,-137.135162,,,
729860489.910692,24.192006,-9.809709,-27.66874,0.166702,0.34671,0.931351,1.094153,-0.139367,-0.242968,74.662842,-14.563904,-137.135162,,,
729860489.914011,24.518536,-9.847393,-27.685862,0.166702,0.34671,0.931351,1.094153,-0.139367,-0.242968,74.662842,-14.563904,-137.135162,,,
729860489.917352,24.518536,-9.847393,-27.685862,0.166702,0.34671,0.931351,1.094153,-0.139367,-0.242968,74.662842,-14.563904,-137.135162,,,
729860489.920765,24.850253,-9.888907,-27.704326,0.16803,0.356628,0.922073,1.131981,-0.171279,-0.263453,74.662842,-14.563904,-137.135162,,,
729860489.92403,25.183816,-9.931608,-27.72509,0.16803,0.356628,0.922073,1.131981,-0.171279,-0.263453,74.662842,-14.563904,-137.135162,,,
729860489.927359,25.183816,-9.931608,-27.72509,0.16803,0.356628,0.922073,1.131981,-0.171279,-0.263453,74.662842,-14.563904,-137.135162,,,
729860489.930682,25.517274,-9.973263,-27.748087,0.168365,0.374451,0.897125,1.134055,-0.176884,-0.276116,74.662842,-14.563904,-137.135162,,,
729860489.934004,25.849126,-10.012672,-27.77306,0.168365,0.374451,0.897125,1.134055,-0.176884,-0.276116,74.662842,-14.563904,-137.135162,,,
729860489.937343,25.849126,-10.012672,-27.77306,0.168365,0.374451,0.897125,1.134055,-0.176884,-0.276116,74.662842,-14.563904,-137.135162,,,
729860489.940716,26.179215,-10.049238,-27.800202,0.169113,0.394974,0.876923,1.114459,-0.163257,-0.286739,74.801834,-16.421387,-135.390259,,,
729860489.943988,26.506873,-10.082696,-27.828828,0.169113,0.394974,0.876923,1.114459,-0.163257,-0.286739,74.801834,-16.421387,-135.390259,,,
729860489.94741,26.506873,-10.082696,-27.828828,0.169113,0.394974,0.876923,1.114459,-0.163257,-0.286739,74.801834,-16.421387,-135.390259,,,
729860489.950672,26.832771,-10.113333,-27.859582,0.167786,0.413513,0.867203,1.100133,-0.151604,-0.294035,74.801834,-16.421387,-135.390259,,,
729860489.954038,27.157856,-10.142222,-27.892424,0.167786,0.413513,0.867203,1.100133,-0.151604,-0.294035,74.801834,-16.421387,-135.390259,,,
729860489.95737,27.157856,-10.142222,-27.892424,0.167786,0.413513,0.867203,1.100133,-0.151604,-0.294035,74.801834,-16.421387,-135.390259,,,
729860489.960664,27.483868,-10.169314,-27.927508,0.170059,0.422501,0.864395,1.102747,-0.147869,-0.309565,74.801834,-16.421387,-135.390259,,,
729860489.964011,27.814728,-10.195649,-27.964937,0.170059,0.422501,0.864395,1.102747,-0.147869,-0.309565,74.801834,-16.421387,-135.390259,,,
729860489.967353,27.814728,-10.195649,-27.964937,0.170059,0.422501,0.864395,1.102747,-0.147869,-0.309565,74.801834,-16.421387,-135.390259,,,
729860489.970737,28.153975,-10.222237,-28.00477,0.174728,0.422623,0.887817,1.148205,-0.156106,-0.336415,74.801834,-16.421387,-135.390259,,,
729860489.974021,28.503313,-10.251059,-28.047209,0.174728,0.422623,0.887817,1.148205,-0.156106,-0.336415,74.801834,-16.421387,-135.390259,,,
729860489.977334,28.503313,-10.251059,-28.047209,0.174728,0.422623,0.887817,1.148205,-0.156106,-0.336415,74.801834,-16.421387,-135.390259,,,
729860489.980669,28.862462,-10.281862,-28.092538,0.183701,0.419693,0.913483,1.214942,-0.183069,-0.365618,75.096527,-18.120972,-133.255386,,,
729860489.983993,29.229555,-10.313144,-28.141464,0.183701,0.419693,0.913483,1.214942,-0.183069,-0.365618,75.096527,-18.120972,-133.255386,,,
729860489.987347,29.229555,-10.313144,-28.141464,0.183701,0.419693,0.913483,1.214942,-0.183069,-0.365618,75.096527,-18.120972,-133.255386,,,
729860489.990703,29.601322,-10.343849,-28.194015,0.186829,0.428024,0.902573,1.249533,-0.194015,-0.393039,75.096527,-18.120972,-133.255386,,,
729860489.994008,29.974165,-10.371966,-28.250186,0.186829,0.428024,0.902573,1.249533,-0.194015,-0.393039,75.096527,-18.120972,-133.255386,,,
729860489.997406,29.974165,-10.371966,-28.250186,0.186829,0.428024,0.902573,1.249533,-0.194015,-0.393039,75.096527,-18.120972,-133.255386,,,
729860490.000683,30.343579,-10.394318,-28.310362,0.184875,0.447708,0.870255,1.228558,-0.176897,-0.414288,75.096527,-18.120972,-133.255386,,,
729860490.004017,30.705582,-10.409168,-28.374666,0.184875,0.447708,0.870255,1.228558,-0.176897,-0.414288,75.096527,-18.120972,-133.255386,,,
729860490.007408,30.705582,-10.409168,-28.374666,0.184875,0.447708,0.870255,1.228558,-0.176897,-0.414288,75.096527,-18.120972,-133.255386,,,
729860490.010679,31.058387,-10.415706,-28.443607,0.178421,0.474762,0.822784,1.161916,-0.139208,-0.428282,75.096527,-18.120972,-133.255386,,,
729860490.014021,31.400321,-10.414597,-28.517367,0.178421,0.474762,0.822784,1.161916,-0.139208,-0.428282,75.096527,-18.120972,-133.255386,,,
729860490.017351,31.400321,-10.414597,-28.517367,0.178421,0.474762,0.822784,1.161916,-0.139208,-0.428282,75.096527,-18.120972,-133.255386,,,
729860490.020726,31.730695,-10.405629,-28.596173,0.175919,0.504608,0.78421,1.08456,-0.11053,-0.439542,75.096527,-18.120972,-133.255386,,,
729860490.024016,32.048797,-10.389654,-28.679685,0.175919,0.504608,0.78421,1.08456,-0.11053,-0.439542,75.439606,-19.91008,-131.47876,,,
729860490.027345,32.048797,-10.389654,-28.679685,0.175919,0.504608,0.78421,1.08456,-0.11053,-0.439542,75.439606,-19.91008,-131.47876,,,
729860490.030678,32.35273,-10.367865,-28.767986,0.166992,0.527786,0.759293,0.981704,-0.083733,-0.44965,75.439606,-19.91008,-131.47876,,,
729860490.034113,32.640658,-10.341426,-28.861127,0.166992,0.527786,0.759293,0.981704,-0.083733,-0.44965,75.439606,-19.91008,-131.47876,,,
729860490.037339,32.640658,-10.341426,-28.861127,0.166992,0.527786,0.759293,0.981704,-0.083733,-0.44965,75.439606,-19.91008,-131.47876,,,
729860490.04069,32.912162,-10.31274,-28.957901,0.157822,0.541733,0.725983,0.86402,-0.081523,-0.448416,75.439606,-19.91008,-131.47876,,,
729860490.044032,33.166815,-10.283416,-29.05751,0.157822,0.541733,0.725983,0.86402,-0.081523,-0.448416,75.439606,-19.91008,-131.47876,,,
729860490.047409,33.166815,-10.283416,-29.05751,0.157822,0.541733,0.725983,0.86402,-0.081523,-0.448416,75.439606,-19.91008,-131.47876,,,
729860490.050669,33.405036,-10.25366,-29.160436,0.14682,0.552612,0.703476,0.747649,-0.093901,-0.442409,75.439606,-19.91008,-131.47876,,,
729860490.054046,33.628478,-10.225558,-29.264992,0.14682,0.552612,0.703476,0.747649,-0.093901,-0.442409,75.439606,-19.91008,-131.47876,,,
729860490.057333,33.628478,-10.225558,-29.264992,0.14682,0.552612,0.703476,0.747649,-0.093901,-0.442409,75.439606,-19.91008,-131.47876,,,
729860490.060666,33.840364,-10.1984,-29.370519,0.137665,0.554703,0.702362,0.660786,-0.109391,-0.431526,75.439606,-19.91008,-131.47876,,,
729860490.063839,33.840364,-10.1984,-29.370519,0.137665,0.554703,0.702362,0.660786,-0.109391,-0.431526,76.236221,-20.791,-129.868729,,,
729860490.06735,34.045118,-10.170651,-29.475297,0.137665,0.554703,0.702362,0.660786,-0.109391,-0.431526,76.236221,-20.791,-129.868729,,,
729860490.070738,34.245912,-10.140987,-29.577173,0.133179,0.542389,0.742706,0.635107,-0.089311,-0.411153,76.236221,-20.791,-129.868729,,,
729860490.074025,34.44591,-10.107678,-29.674943,0.133179,0.542389,0.742706,0.635107,-0.089311,-0.411153,76.236221,-20.791,-129.868729,,,
729860490.077353,34.44591,-10.107678,-29.674943,0.133179,0.542389,0.742706,0.635107,-0.089311,-0.411153,76.236221,-20.791,-129.868729,,,
729860490.080672,34.649238,-10.070629,-29.766459,0.12468,0.5242,0.800613,0.654612,-0.044089,-0.379777,76.236221,-20.791,-129.868729,,,
729860490.084039,34.857373,-10.031124,-29.849465,0.12468,0.5242,0.800613,0.654612,-0.044089,-0.379777,76.236221,-20.791,-129.868729,,,
729860490.087337,34.857373,-10.031124,-29.849465,0.12468,0.5242,0.800613,0.654612,-0.044089,-0.379777,76.236221,-20.791,-129.868729,,,
729860490.090667,35.070288,-9.988695,-29.923555,0.11969,0.508453,0.839203,0.700804,0.010512,-0.332612,76.236221,-20.791,-129.868729,,,
729860490.094021,35.070288,-9.944512,-29.988585,0.11969,0.508453,0.839203,0.700804,0.010512,-0.332612,76.236221,-20.791,-129.868729,,,
729860490.097415,35.288574,-9.944512,-29.988585,0.11969,0.508453,0.839203,0.700804,0.010512,-0.332612,76.236221,-20.791,-129.868729,,,
729860490.100678,35.512484,-9.899432,-30.044832,0.115585,0.509308,0.850189,0.749857,0.049012,-0.289191,76.236221,-20.791,-129.868729,,,
729860490.104038,35.742802,-9.853944,-30.094276,0.115585,0.509308,0.850189,0.749857,0.049012,-0.289191,76.628403,-21.760117,-128.885223,,,
729860490.10733,35.742802,-9.853944,-30.094276,0.115585,0.509308,0.850189,0.749857,0.049012,-0.289191,76.628403,-21.760117,-128.885223,,,
729860490.110672,35.979863,-9.808408,-30.139451,0.118011,0.517853,0.846344,0.797308,0.07238,-0.265636,76.628403,-21.760117,-128.885223,,,
729860490.114048,35.979863,-9.808408,-30.18099,0.118011,0.517853,0.846344,0.797308,0.07238,-0.265636,76.628403,-21.760117,-128.885223,,,
729860490.117347,36.221667,-9.76483,-30.18099,0.118011,0.517853,0.846344,0.797308,0.07238,-0.265636,76.628403,-21.760117,-128.885223,,,
729860490.120734,36.465594,-9.725454,-30.220945,0.119843,0.537079,0.824005,0.821769,0.055633,-0.255612,76.628403,-21.760117,-128.885223,,,
729860490.124014,36.465594,-9.725454,-30.220945,0.119843,0.537079,0.824005,0.821769,0.055633,-0.255612,76.628403,-21.760117,-128.885223,,,
729860490.127345,36.708151,-9.692563,-30.261032,0.119843,0.537079,0.824005,0.821769,0.055633,-0.255612,76.628403,-21.760117,-128.885223,,,
729860490.130672,36.946953,-9.668267,-30.302257,0.117722,0.560898,0.76947,0.798064,-0.007491,-0.254046,76.628403,-21.760117,-128.885223,,,
729860490.134002,36.946953,-9.668267,-30.302257,0.117722,0.560898,0.76947,0.798064,-0.007491,-0.254046,76.628403,-21.760117,-128.885223,,,
729860490.137347,37.179714,-9.652852,-30.34648,0.117722,0.560898,0.76947,0.798064,-0.007491,-0.254046,76.628403,-21.760117,-128.885223,,,
729860490.140687,37.405289,-9.645877,-30.394626,0.11586,0.589142,0.719299,0.746321,-0.083322,-0.265288,76.628403,-21.760117,-128.885223,,,
729860490.143997,37.405289,-9.645877,-30.394626,0.11586,0.589142,0.719299,0.746321,-0.083322,-0.265288,77.160156,-22.807419,-127.789917,,,
729860490.14741,37.625213,-9.648387,-30.446712,0.11586,0.589142,0.719299,0.746321,-0.083322,-0.265288,77.160156,-22.807419,-127.789917,,,
729860490.150687,37.842769,-9.661515,-30.503239,0.120239,0.610306,0.704361,0.71837,-0.174776,-0.285826,77.160156,-22.807419,-127.789917,,,
729860490.153996,37.842769,-9.661515,-30.503239,0.120239,0.610306,0.704361,0.71837,-0.174776,-0.285826,77.160156,-22.807419,-127.789917,,,
729860490.157343,38.062505,-9.685602,-30.563836,0.120239,0.610306,0.704361,0.71837,-0.174776,-0.285826,77.160156,-22.807419,-127.789917,,,
729860490.160672,38.289413,-9.717896,-30.62823,0.131149,0.605133,0.745468,0.756148,-0.25711,-0.314973,77.160156,-22.807419,-127.789917,,,
729860490.164013,38.289413,-9.717896,-30.62823,0.131149,0.605133,0.745468,0.756148,-0.25711,-0.314973,77.160156,-22.807419,-127.789917,,,
729860490.167337,38.527149,-9.753824,-30.696415,0.131149,0.605133,0.745468,0.756148,-0.25711,-0.314973,77.160156,-22.807419,-127.789917,,,
729860490.170757,38.777586,-9.788562,-30.766227,0.141693,0.592133,0.812485,0.839735,-0.270088,-0.337489,77.160156,-22.807419,-127.789917,,,
729860490.174,38.777586,-9.788562,-30.766227,0.141693,0.592133,0.812485,0.839735,-0.270088,-0.337489,77.160156,-22.807419,-127.789917,,,
729860490.177426,39.040547,-9.818229,-30.83489,0.141693,0.592133,0.812485,0.839735,-0.270088,-0.337489,77.160156,-22.807419,-127.789917,,,
729860490.180678,39.31492,-9.839292,-30.901015,0.141403,0.58371,0.865509,0.920549,-0.205985,-0.340313,77.160156,-22.807419,-127.789917,,,
729860490.184066,39.31492,-9.839292,-30.901015,0.141403,0.58371,0.865509,0.920549,-0.205985,-0.340313,77.160156,-22.807419,-127.789917,,,
729860490.187347,39.599741,-9.850986,-30.962549,0.141403,0.58371,0.865509,0.920549,-0.205985,-0.340313,77.244141,-23.638855,-126.050125,,,
729860490.19067,39.895127,-9.853485,-31.018367,0.139053,0.57988,0.884232,0.99886,-0.11963,-0.321832,77.244141,-23.638855,-126.050125,,,
729860490.194011,39.895127,-9.853485,-31.018367,0.139053,0.57988,0.884232,0.99886,-0.11963,-0.321832,77.244141,-23.638855,-126.050125,,,
729860490.197439,40.200557,-9.84719,-31.068131,0.139053,0.57988,0.884232,0.99886,-0.11963,-0.321832,77.244141,-23.638855,-126.050125,,,
729860490.200681,40.515524,-9.831379,-31.113329,0.13884,0.588409,0.875107,1.070046,-0.031467,-0.306706,77.244141,-23.638855,-126.050125,,,
729860490.204011,40.515524,-9.831379,-31.113329,0.13884,0.588409,0.875107,1.070046,-0.031467,-0.306706,77.244141,-23.638855,-126.050125,,,
729860490.207347,40.839415,-9.806053,-31.155717,0.13884,0.588409,0.875107,1.070046,-0.031467,-0.306706,77.244141,-23.638855,-126.050125,,,
729860490.210676,41.17035,-9.773354,-31.196702,0.138748,0.606003,0.855347,1.125843,0.029328,-0.305256,77.244141,-23.638855,-126.050125,,,
729860490.214026,41.17035,-9.773354,-31.196702,0.138748,0.606003,0.855347,1.125843,0.029328,-0.305256,77.244141,-23.638855,-126.050125,,,
729860490.217359,41.507106,-9.73696,-31.238202,0.138748,0.606003,0.855347,1.125843,0.029328,-0.305256,77.244141,-23.638855,-126.050125,,,
729860490.220736,41.850412,-9.69908,-31.282233,0.138611,0.626404,0.820572,1.164135,0.032074,-0.319399,77.244141,-23.638855,-126.050125,,,
729860490.224001,41.850412,-9.69908,-31.282233,0.138611,0.626404,0.820572,1.164135,0.032074,-0.319399,77.244141,-23.638855,-126.050125,,,
729860490.227346,42.201053,-9.6617,-31.328986,0.138611,0.626404,0.820572,1.164135,0.032074,-0.319399,77.923904,-25.024338,-124.265137,,,
729860490.230678,42.559364,-9.625602,-31.377534,0.133698,0.640289,0.796692,1.21759,0.013109,-0.337434,77.923904,-25.024338,-124.265137,,,
729860490.234074,42.559364,-9.625602,-31.377534,0.133698,0.640289,0.796692,1.21759,0.013109,-0.337434,77.923904,-25.024338,-124.265137,,,
729860490.237344,42.924302,-9.591271,-31.427459,0.133698,0.640289,0.796692,1.21759,0.013109,-0.337434,77.923904,-25.024338,-124.265137,,,
729860490.240677,43.292296,-9.559532,-31.478213,0.122131,0.649399,0.780487,1.244349,-0.010908,-0.33883,77.923904,-25.024338,-124.265137,,,
729860490.244076,43.292296,-9.559532,-31.478213,0.122131,0.649399,0.780487,1.244349,-0.010908,-0.33883,77.923904,-25.024338,-124.265137,,,
729860490.247395,43.659411,-9.533887,-31.527345,0.122131,0.649399,0.780487,1.244349,-0.010908,-0.33883,77.923904,-25.024338,-124.265137,,,
729860490.250805,44.024005,-9.517548,-31.573812,0.103699,0.66658,0.735214,1.23297,-0.058383,-0.324362,77.923904,-25.024338,-124.265137,,,
729860490.253995,44.024005,-9.517548,-31.573812,0.103699,0.66658,0.735214,1.23297,-0.058383,-0.324362,77.923904,-25.024338,-124.265137,,,
729860490.257411,44.38461,-9.512676,-31.617083,0.103699,0.66658,0.735214,1.23297,-0.058383,-0.324362,77.923904,-25.024338,-124.265137,,,
729860490.260673,44.741683,-9.51988,-31.657963,0.088211,0.684601,0.686264,1.20846,-0.131107,-0.303958,77.923904,-25.024338,-124.265137,,,
729860490.264004,44.741683,-9.51988,-31.657963,0.088211,0.684601,0.686264,1.20846,-0.131107,-0.303958,77.923904,-25.024338,-124.265137,,,
729860490.267341,45.096731,-9.53901,-31.697054,0.088211,0.684601,0.686264,1.20846,-0.131107,-0.303958,78.368744,-26.165588,-121.960648,,,
729860490.270672,45.451289,-9.568053,-31.735081,0.087341,0.694992,0.67247,1.205268,-0.20058,-0.298624,78.368744,-26.165588,-121.960648,,,
729860490.274003,45.451289,-9.568053,-31.735081,0.087341,0.694992,0.67247,1.205268,-0.20058,-0.298624,78.368744,-26.165588,-121.960648,,,
729860490.277353,45.806403,-9.606474,-31.771989,0.087341,0.694992,0.67247,1.205268,-0.20058,-0.298624,78.368744,-26.165588,-121.960648,,,
729860490.280686,46.161258,-9.651422,-31.806629,0.08812,0.697876,0.683456,1.207934,-0.239279,-0.29064,78.368744,-26.165588,-121.960648,,,
729860490.284072,46.161258,-9.651422,-31.806629,0.08812,0.697876,0.683456,1.207934,-0.239279,-0.29064,78.368744,-26.165588,-121.960648,,,
729860490.287352,46.513796,-9.701016,-31.83798,0.08812,0.697876,0.683456,1.207934,-0.239279,-0.29064,78.368744,-26.165588,-121.960648,,,
729860490.290714,46.867049,-9.757406,-31.863781,0.090775,0.701096,0.683182,1.207293,-0.262604,-0.268152,78.368744,-26.165588,-121.960648,,,
729860490.294041,46.867049,-9.757406,-31.863781,0.090775,0.701096,0.683182,1.207293,-0.262604,-0.268152,78.368744,-26.165588,-121.960648,,,
729860490.297418,47.22566,-9.821858,-31.882262,0.090775,0.701096,0.683182,1.207293,-0.262604,-0.268152,78.368744,-26.165588,-121.960648,,,
729860490.300672,47.58926,-9.892831,-31.894692,0.086761,0.703964,0.699585,1.247023,-0.275813,-0.246702,78.368744,-26.165588,-121.960648,,,
729860490.304022,47.58926,-9.892831,-31.894692,0.086761,0.703964,0.699585,1.247023,-0.275813,-0.246702,78.368744,-26.165588,-121.960648,,,
729860490.307378,47.954127,-9.968287,-31.901581,0.086761,0.703964,0.699585,1.247023,-0.275813,-0.246702,78.368744,-26.165588,-121.960648,,,
729860490.310674,48.315245,-10.047092,-31.902804,0.090408,0.70842,0.686432,1.238141,-0.274498,-0.216896,78.623672,-27.285614,-119.340286,,,
729860490.314018,48.315245,-10.047092,-31.902804,0.090408,0.70842,0.686432,1.238141,-0.274498,-0.216896,78.623672,-27.285614,-119.340286,,,
729860490.317369,48.66833,-10.12922,-31.898971,0.090408,0.70842,0.686432,1.238141,-0.274498,-0.216896,78.623672,-27.285614,-119.340286,,,
729860490.320674,49.010034,-10.213284,-31.892506,0.089218,0.739487,0.625534,1.165787,-0.274116,-0.193792,78.623672,-27.285614,-119.340286,,,
729860490.324017,49.010034,-10.213284,-31.892506,0.089218,0.739487,0.625534,1.165787,-0.274116,-0.193792,78.623672,-27.285614,-119.340286,,,
729860490.327361,49.337942,-10.297938,-31.885291,0.089218,0.739487,0.625534,1.165787,-0.274116,-0.193792,78.623672,-27.285614,-119.340286,,,
729860490.330675,49.65117,-10.380477,-31.879013,0.091278,0.77121,0.565353,1.063929,-0.267877,-0.182545,78.623672,-27.285614,-119.340286,,,
729860490.334103,49.65117,-10.380477,-31.879013,0.091278,0.77121,0.565353,1.063929,-0.267877,-0.182545,78.623672,-27.285614,-119.340286,,,
729860490.337367,49.949564,-10.456917,-31.875244,0.091278,0.77121,0.565353,1.063929,-0.267877,-0.182545,78.623672,-27.285614,-119.340286,,,
729860490.340686,50.233755,-10.524376,-31.873679,0.096024,0.791122,0.543243,0.961754,-0.219476,-0.176352,78.623672,-27.285614,-119.340286,,,
729860490.344023,50.233755,-10.524376,-31.873679,0.096024,0.791122,0.543243,0.961754,-0.219476,-0.176352,78.623672,-27.285614,-119.340286,,,
729860490.34719,50.503961,-10.58119,-31.873313,0.096024,0.791122,0.543243,0.961754,-0.219476,-0.176352,78.623672,-27.285614,-119.340286,,,
729860490.350694,50.760723,-10.627903,-31.873141,0.099136,0.797623,0.549713,0.868261,-0.152152,-0.163954,78.918228,-28.269363,-117.546097,,,
729860490.354017,50.760723,-10.627903,-31.873141,0.099136,0.797623,0.549713,0.868261,-0.152152,-0.163954,78.918228,-28.269363,-117.546097,,,
729860490.357339,51.004041,-10.66837,-31.872123,0.099136,0.797623,0.549713,0.868261,-0.152152,-0.163954,78.918228,-28.269363,-117.546097,,,
729860490.360669,51.234431,-10.70714,-31.869905,0.097549,0.795181,0.543198,0.778182,-0.123588,-0.142192,78.918228,-28.269363,-117.546097,,,
729860490.364011,51.234431,-10.70714,-31.869905,0.097549,0.795181,0.543198,0.778182,-0.123588,-0.142192,78.918228,-28.269363,-117.546097,,,
729860490.367351,51.453226,-10.74812,-31.867276,0.097549,0.795181,0.543198,0.778182,-0.123588,-0.142192,78.918228,-28.269363,-117.546097,,,
729860490.370676,51.661455,-10.792542,-31.866783,0.097397,0.793442,0.524124,0.705632,-0.154523,-0.134493,78.918228,-28.269363,-117.546097,,,
729860490.374024,51.661455,-10.792542,-31.866783,0.097397,0.793442,0.524124,0.705632,-0.154523,-0.134493,78.918228,-28.269363,-117.546097,,,
729860490.37737,51.86018,-10.843138,-31.869032,0.097397,0.793442,0.524124,0.705632,-0.154523,-0.134493,78.918228,-28.269363,-117.546097,,,
729860490.380748,52.051018,-10.902571,-31.874086,0.098434,0.798325,0.512314,0.643991,-0.224561,-0.137,78.918228,-28.269363,-117.546097,,,
729860490.384005,52.051018,-10.902571,-31.874086,0.098434,0.798325,0.512314,0.643991,-0.224561,-0.137,78.918228,-28.269363,-117.546097,,,
729860490.387368,52.233402,-10.970905,-31.881521,0.098434,0.798325,0.512314,0.643991,-0.224561,-0.137,78.918228,-28.269363,-117.546097,,,
729860490.390677,52.405395,-11.046217,-31.891394,0.098312,0.799774,0.508789,0.573602,-0.293781,-0.137432,78.975021,-28.767685,-116.493347,,,
729860490.394017,52.405395,-11.046217,-31.891394,0.098312,0.799774,0.508789,0.573602,-0.293781,-0.137432,78.975021,-28.767685,-116.493347,,,
729860490.39741,52.56525,-11.127334,-31.902108,0.098312,0.799774,0.508789,0.573602,-0.293781,-0.137432,78.975021,-28.767685,-116.493347,,,
729860490.40067,52.711976,-11.212112,-31.911597,0.096085,0.804688,0.495468,0.488278,-0.321775,-0.115475,78.975021,-28.767685,-116.493347,,,
729860490.404014,52.711976,-11.212112,-31.911597,0.096085,0.804688,0.495468,0.488278,-0.321775,-0.115475,78.975021,-28.767685,-116.493347,,,
729860490.407345,52.845304,-11.298085,-31.919462,0.096085,0.804688,0.495468,0.488278,-0.321775,-0.115475,78.975021,-28.767685,-116.493347,,,
729860490.41068,52.966112,-11.381049,-31.925981,0.096634,0.809891,0.48317,0.399005,-0.299252,-0.093925,78.975021,-28.767685,-116.493347,,,
729860490.414018,52.966112,-11.381049,-31.925981,0.096634,0.809891,0.48317,0.399005,-0.299252,-0.093925,78.975021,-28.767685,-116.493347,,,
729860490.417371,53.076921,-11.456731,-31.93099,0.096634,0.809891,0.48317,0.399005,-0.299252,-0.093925,78.975021,-28.767685,-116.493347,,,
729860490.420677,53.182036,-11.52155,-31.935553,0.10791,0.802063,0.516129,0.350724,-0.224422,-0.083225,78.975021,-28.767685,-116.493347,,,
729860490.424007,53.182036,-11.52155,-31.935553,0.10791,0.802063,0.516129,0.350724,-0.224422,-0.083225,78.975021,-28.767685,-116.493347,,,
729860490.427349,53.285993,-11.575438,-31.938752,0.10791,0.802063,0.516129,0.350724,-0.224422,-0.083225,78.975021,-28.767685,-116.493347,,,
729860490.430678,53.392687,-11.620609,-31.94057,0.124191,0.781143,0.57753,0.366426,-0.151241,-0.081284,78.767029,-29.040909,-115.776047,,,
729860490.433743,53.392687,-11.620609,-31.94057,0.124191,0.781143,0.57753,0.366426,-0.151241,-0.081284,78.767029,-29.040909,-115.776047,,,
729860490.437446,53.505556,-11.660429,-31.941387,0.124191,0.781143,0.57753,0.366426,-0.151241,-0.081284,78.767029,-29.040909,-115.776047,,,
729860490.440667,53.627017,-11.697191,-31.941696,0.136307,0.762695,0.62178,0.425627,-0.126143,-0.089176,78.767029,-29.040909,-115.776047,,,
729860490.444026,53.627017,-11.697191,-31.941696,0.136307,0.762695,0.62178,0.425627,-0.126143,-0.089176,78.767029,-29.040909,-115.776047,,,
729860490.447355,53.757508,-11.732744,-31.942314,0.136307,0.762695,0.62178,0.425627,-0.126143,-0.089176,78.767029,-29.040909,-115.776047,,,
729860490.450679,53.896934,-11.767768,-31.944174,0.143631,0.756149,0.636932,0.482946,-0.122088,-0.106291,78.767029,-29.040909,-115.776047,,,
729860490.454024,53.896934,-11.767768,-31.944174,0.143631,0.756149,0.636932,0.482946,-0.122088,-0.106291,78.767029,-29.040909,-115.776047,,,
729860490.457349,54.043778,-11.803521,-31.94784,0.143631,0.756149,0.636932,0.482946,-0.122088,-0.106291,78.767029,-29.040909,-115.776047,,,
729860490.460681,54.195554,-11.841162,-31.953786,0.143433,0.76709,0.622299,0.520284,-0.147424,-0.12163,78.767029,-29.040909,-115.776047,,,
729860490.464004,54.195554,-11.841162,-31.953786,0.143433,0.76709,0.622299,0.520284,-0.147424,-0.12163,78.767029,-29.040909,-115.776047,,,
729860490.467369,54.350813,-11.880028,-31.962031,0.143433,0.76709,0.622299,0.520284,-0.147424,-0.12163,78.767029,-29.040909,-115.776047,,,
729860490.470678,54.508541,-11.917459,-31.97298,0.143265,0.78064,0.589462,0.532436,-0.157993,-0.140158,78.767029,-29.040909,-115.776047,,,
729860490.474009,54.508541,-11.917459,-31.97298,0.143265,0.78064,0.589462,0.532436,-0.157993,-0.140158,78.932022,-29.429169,-115.03418,,,
729860490.477359,54.66768,-11.950098,-31.986928,0.143265,0.78064,0.589462,0.532436,-0.157993,-0.140158,78.932022,-29.429169,-115.03418,,,
729860490.480677,54.828705,-11.974684,-32.004306,0.143829,0.791031,0.578705,0.545211,-0.127607,-0.15263,78.932022,-29.429169,-115.03418,,,
729860490.484011,54.828705,-11.974684,-32.004306,0.143829,0.791031,0.578705,0.545211,-0.127607,-0.15263,78.932022,-29.429169,-115.03418,,,
729860490.487392,54.993239,-11.991421,-32.023515,0.143829,0.791031,0.578705,0.545211,-0.127607,-0.15263,78.932022,-29.429169,-115.03418,,,
