Time (sec),Pitch (deg),Roll (deg),Yaw(deg),X-Acceleration (g),Y-Acceleration (g),Z-Acceleration (g),Pitch Rate (deg/sec),Roll Rate (deg/sec),Yaw Rate (deg/sec),Magnetic Field in X direction (uT),Magnetic Field in Y direction (uT),Magnetic Field in Z Direction (uT),Latitude (deg),Longitude (deg),Altitude (m)
729860460.066865,3.768378,-5.831628,-27.755852,0.094833,0.064896,0.975433,0.515285,-0.089019,-0.075924,76.060989,1.268814,-146.880554,,,
729860460.070137,3.918817,-5.856845,-27.7612,0.094833,0.064896,0.975433,0.515285,-0.089019,-0.075924,76.060989,1.268814,-146.880554,,,
729860460.073495,4.070698,-5.88076,-27.76485,0.099686,0.064011,0.9935,0.530732,-0.081862,-0.067089,76.060989,1.268814,-146.880554,,,
729860460.076797,4.070698,-5.88076,-27.76485,0.099686,0.064011,0.9935,0.530732,-0.081862,-0.067089,76.169006,0.066071,-146.637299,,,
729860460.080158,4.224853,-5.904126,-27.767045,0.099686,0.064011,0.9935,0.530732,-0.081862,-0.067089,76.169006,0.066071,-146.637299,,,
729860460.083464,4.381521,-5.926527,-27.768239,0.105438,0.066177,1.003113,0.542304,-0.075216,-0.061287,76.169006,0.066071,-146.637299,,,
729860460.086791,4.381521,-5.926527,-27.768239,0.105438,0.066177,1.003113,0.542304,-0.075216,-0.061287,76.169006,0.066071,-146.637299,,,
729860460.090147,4.539708,-5.946903,-27.769242,0.105438,0.066177,1.003113,0.542304,-0.075216,-0.061287,76.169006,0.066071,-146.637299,,,
729860460.093459,4.698176,-5.965333,-27.770206,0.111465,0.07222,0.999329,0.547387,-0.060164,-0.064009,76.169006,0.066071,-146.637299,,,
729860460.096789,4.698176,-5.965333,-27.770206,0.111465,0.07222,0.999329,0.547387,-0.060164,-0.064009,76.169006,0.066071,-146.637299,,,
729860460.100144,4.856582,-5.982988,-27.771298,0.111465,0.07222,0.999329,0.547387,-0.060164,-0.064009,76.169006,0.066071,-146.637299,,,
729860460.103463,5.013947,-6.000894,-27.772618,0.114197,0.081528,0.986618,0.543053,-0.059322,-0.064685,76.169006,0.066071,-146.637299,,,
729860460.106792,5.013947,-6.000894,-27.772618,0.114197,0.081528,0.986618,0.543053,-0.059322,-0.064685,76.169006,0.066071,-146.637299,,,
729860460.110162,5.169007,-6.020479,-27.775261,0.114197,0.081528,0.986618,0.543053,-0.059322,-0.064685,76.169006,0.066071,-146.637299,,,
729860460.113456,5.320233,-6.041878,-27.780421,0.117264,0.092575,0.968094,0.520032,-0.074154,-0.076475,76.169006,0.066071,-146.637299,,,
729860460.116817,5.320233,-6.041878,-27.780421,0.117264,0.092575,0.968094,0.520032,-0.074154,-0.076475,76.169006,0.066071,-146.637299,,,
729860460.120205,5.466607,-6.064243,-27.788166,0.117264,0.092575,0.968094,0.520032,-0.074154,-0.076475,75.73645,-0.818619,-145.79892,,,
729860460.123467,5.607649,-6.086139,-27.798803,0.121933,0.103256,0.95491,0.478982,-0.07656,-0.093164,75.73645,-0.818619,-145.79892,,,
729860460.126813,5.607649,-6.086139,-27.798803,0.121933,0.103256,0.95491,0.478982,-0.07656,-0.093164,75.73645,-0.818619,-145.79892,,,
729860460.130176,5.743967,-6.106704,-27.81137,0.121933,0.103256,0.95491,0.478982,-0.07656,-0.093164,75.73645,-0.818619,-145.79892,,,
729860460.133458,5.877223,-6.124979,-27.824274,0.11998,0.107712,0.960144,0.454047,-0.064543,-0.094501,75.73645,-0.818619,-145.79892,,,
729860460.136786,5.877223,-6.124979,-27.824274,0.11998,0.107712,0.960144,0.454047,-0.064543,-0.094501,75.73645,-0.818619,-145.79892,,,
729860460.140222,6.00842,-6.140834,-27.836443,0.11998,0.107712,0.960144,0.454047,-0.064543,-0.094501,75.73645,-0.818619,-145.79892,,,
729860460.14346,6.138528,-6.154685,-27.846957,0.110672,0.101746,0.981522,0.444662,-0.04684,-0.081802,75.73645,-0.818619,-145.79892,,,
729860460.146793,6.138528,-6.154685,-27.846957,0.110672,0.101746,0.981522,0.444662,-0.04684,-0.081802,75.73645,-0.818619,-145.79892,,,
729860460.150148,6.268215,-6.167794,-27.855393,0.110672,0.101746,0.981522,0.444662,-0.04684,-0.081802,75.73645,-0.818619,-145.79892,,,
729860460.153455,6.399821,-6.181076,-27.862155,0.105591,0.099655,0.993088,0.457189,-0.045105,-0.073876,75.73645,-0.818619,-145.79892,,,
729860460.156791,6.399821,-6.181076,-27.862155,0.105591,0.099655,0.993088,0.457189,-0.045105,-0.073876,75.73645,-0.818619,-145.79892,,,
729860460.160139,6.537985,-6.195249,-27.867781,0.105591,0.099655,0.993088,0.457189,-0.045105,-0.073876,75.977524,-1.820267,-145.518906,,,
729860460.163458,6.686011,-6.211413,-27.873262,0.111435,0.098328,1.013626,0.520003,-0.057823,-0.075406,75.977524,-1.820267,-145.518906,,,
729860460.166822,6.686011,-6.211413,-27.873262,0.111435,0.098328,1.013626,0.520003,-0.057823,-0.075406,75.977524,-1.820267,-145.518906,,,
729860460.170213,6.846703,-6.230625,-27.878736,0.111435,0.098328,1.013626,0.520003,-0.057823,-0.075406,75.977524,-1.820267,-145.518906,,,
729860460.173456,7.021101,-6.254011,-27.884377,0.118011,0.093323,1.046158,0.615807,-0.085019,-0.089166,75.977524,-1.820267,-145.518906,,,
729860460.176811,7.021101,-6.254011,-27.884377,0.118011,0.093323,1.046158,0.615807,-0.085019,-0.089166,75.977524,-1.820267,-145.518906,,,
729860460.180133,7.209585,-6.282764,-27.89069,0.118011,0.093323,1.046158,0.615807,-0.085019,-0.089166,75.977524,-1.820267,-145.518906,,,
729860460.183458,7.411343,-6.316737,-27.897785,0.12059,0.09436,1.055023,0.707875,-0.12538,-0.105443,75.977524,-1.820267,-145.518906,,,
729860460.186803,7.411343,-6.316737,-27.897785,0.12059,0.09436,1.055023,0.707875,-0.12538,-0.105443,75.977524,-1.820267,-145.518906,,,
729860460.190141,7.624447,-6.355943,-27.906152,0.12059,0.09436,1.055023,0.707875,-0.12538,-0.105443,75.977524,-1.820267,-145.518906,,,
729860460.193458,7.847535,-6.399024,-27.915927,0.124542,0.102158,1.045639,0.777162,-0.154179,-0.12188,75.977524,-1.820267,-145.518906,,,
729860460.196866,7.847535,-6.399024,-27.915927,0.124542,0.102158,1.045639,0.777162,-0.154179,-0.12188,75.977524,-1.820267,-145.518906,,,
729860460.200118,8.078812,-6.444219,-27.926841,0.124542,0.102158,1.045639,0.777162,-0.154179,-0.12188,75.801483,-3.113083,-144.831497,,,
729860460.203466,8.315774,-6.490183,-27.939247,0.126068,0.112457,1.032455,0.81956,-0.165587,-0.137546,75.801483,-3.113083,-144.831497,,,
729860460.206791,8.315774,-6.490183,-27.939247,0.126068,0.112457,1.032455,0.81956,-0.165587,-0.137546,75.801483,-3.113083,-144.831497,,,
729860460.210124,8.555753,-6.535457,-27.953486,0.126068,0.112457,1.032455,0.81956,-0.165587,-0.137546,75.801483,-3.113083,-144.831497,,,
729860460.213458,8.797116,-6.577996,-27.969385,0.127853,0.123581,1.016693,0.829775,-0.152884,-0.14964,75.801483,-3.113083,-144.831497,,,
729860460.216807,8.797116,-6.577996,-27.969385,0.127853,0.123581,1.016693,0.829775,-0.152884,-0.14964,75.801483,-3.113083,-144.831497,,,
729860460.220197,9.037784,-6.616604,-27.9864,0.127853,0.123581,1.016693,0.829775,-0.152884,-0.14964,75.801483,-3.113083,-144.831497,,,
729860460.223468,9.273928,-6.648844,-28.005025,0.128326,0.140823,0.99733,0.808574,-0.113768,-0.161096,75.801483,-3.113083,-144.831497,,,
729860460.226859,9.273928,-6.648844,-28.005025,0.128326,0.140823,0.99733,0.808574,-0.113768,-0.161096,75.801483,-3.113083,-144.831497,,,
729860460.230135,9.502872,-6.673365,-28.025717,0.128326,0.140823,0.99733,0.808574,-0.113768,-0.161096,75.801483,-3.113083,-144.831497,,,
729860460.233489,9.721975,-6.69029,-28.047464,0.121536,0.164185,0.969864,0.736778,-0.061484,-0.161531,75.801483,-3.113083,-144.831497,,,
729860460.236792,9.721975,-6.69029,-28.047464,0.121536,0.164185,0.969864,0.736778,-0.061484,-0.161531,75.801483,-3.113083,-144.831497,,,
729860460.240148,9.929263,-6.700195,-28.069339,0.121536,0.164185,0.969864,0.736778,-0.061484,-0.161531,76.082764,-4.685349,-143.956528,,,
729860460.243474,10.125004,-6.70391,-28.09114,0.115662,0.174377,0.940689,0.657409,-0.019755,-0.153823,76.082764,-4.685349,-143.956528,,,
729860460.24679,10.125004,-6.70391,-28.09114,0.115662,0.174377,0.940689,0.657409,-0.019755,-0.153823,76.082764,-4.685349,-143.956528,,,
729860460.250153,10.310224,-6.703071,-28.113028,0.115662,0.174377,0.940689,0.657409,-0.019755,-0.153823,76.082764,-4.685349,-143.956528,,,
729860460.253455,10.487917,-6.69876,-28.134665,0.110214,0.181534,0.935974,0.600396,0.008152,-0.145639,76.082764,-4.685349,-143.956528,,,
729860460.256797,10.487917,-6.69876,-28.134665,0.110214,0.181534,0.935974,0.600396,0.008152,-0.145639,76.082764,-4.685349,-143.956528,,,
729860460.260131,10.662278,-6.691456,-28.155629,0.110214,0.181534,0.935974,0.600396,0.008152,-0.145639,76.082764,-4.685349,-143.956528,,,
729860460.263458,10.836836,-6.681786,-28.175436,0.107086,0.176865,0.958557,0.598221,0.025747,-0.137057,76.082764,-4.685349,-143.956528,,,
729860460.26682,10.836836,-6.681786,-28.175436,0.107086,0.176865,0.958557,0.598221,0.025747,-0.137057,76.082764,-4.685349,-143.956528,,,
729860460.270122,11.014928,-6.672005,-28.19363,0.107086,0.176865,0.958557,0.598221,0.025747,-0.137057,76.082764,-4.685349,-143.956528,,,
729860460.273467,11.199392,-6.664937,-28.210249,0.102585,0.169174,0.99614,0.637057,0.013789,-0.130793,76.082764,-4.685349,-143.956528,,,
729860460.276806,11.199392,-6.664937,-28.210249,0.102585,0.169174,0.99614,0.637057,0.013789,-0.130793,76.082764,-4.685349,-143.956528,,,
729860460.28014,11.392649,-6.6633,-28.225043,0.102585,0.169174,0.99614,0.637057,0.013789,-0.130793,76.082764,-4.685349,-143.956528,,,
729860460.28346,11.596765,-6.667384,-28.238254,0.101959,0.165558,1.018509,0.709952,-0.023821,-0.128612,76.00145,-5.95697,-143.102921,,,
729860460.286796,11.596765,-6.667384,-28.238254,0.101959,0.165558,1.018509,0.709952,-0.023821,-0.128612,76.00145,-5.95697,-143.102921,,,
729860460.290162,11.813025,-6.676475,-28.249986,0.101959,0.165558,1.018509,0.709952,-0.023821,-0.128612,76.00145,-5.95697,-143.102921,,,
729860460.293458,12.040889,-6.690187,-28.260104,0.10173,0.162018,1.040085,0.794246,-0.057122,-0.129175,76.00145,-5.95697,-143.102921,,,
729860460.296902,12.040889,-6.690187,-28.260104,0.10173,0.162018,1.040085,0.794246,-0.057122,-0.129175,76.00145,-5.95697,-143.102921,,,
729860460.300137,12.278549,-6.708875,-28.268559,0.10173,0.162018,1.040085,0.794246,-0.057122,-0.129175,76.00145,-5.95697,-143.102921,,,
729860460.303479,12.523871,-6.732464,-28.275574,0.097916,0.16861,1.034668,0.854168,-0.087942,-0.124005,76.00145,-5.95697,-143.102921,,,
729860460.306852,12.523871,-6.732464,-28.275574,0.097916,0.16861,1.034668,0.854168,-0.087942,-0.124005,76.00145,-5.95697,-143.102921,,,
729860460.310206,12.774034,-6.761386,-28.280436,0.097916,0.16861,1.034668,0.854168,-0.087942,-0.124005,76.00145,-5.95697,-143.102921,,,
729860460.313461,13.025382,-6.795777,-28.283576,0.097977,0.182495,1.004456,0.871205,-0.123478,-0.113964,76.00145,-5.95697,-143.102921,,,
729860460.31681,13.025382,-6.795777,-28.283576,0.097977,0.182495,1.004456,0.871205,-0.123478,-0.113964,76.00145,-5.95697,-143.102921,,,
729860460.320151,13.27506,-6.834675,-28.286051,0.097977,0.182495,1.004456,0.871205,-0.123478,-0.113964,76.00145,-5.95697,-143.102921,,,
729860460.323466,13.520855,-6.877053,-28.288751,0.099136,0.204376,0.964508,0.843133,-0.14942,-0.11131,75.919998,-7.314697,-142.287399,,,
729860460.326814,13.520855,-6.877053,-28.288751,0.099136,0.204376,0.964508,0.843133,-0.14942,-0.11131,75.919998,-7.314697,-142.287399,,,
729860460.330152,13.760327,-6.922064,-28.293048,0.099136,0.204376,0.964508,0.843133,-0.14942,-0.11131,75.919998,-7.314697,-142.287399,,,
729860460.33346,13.991224,-6.968873,-28.29955,0.103485,0.226929,0.936066,0.787745,-0.165573,-0.117445,75.919998,-7.314697,-142.287399,,,
729860460.336801,13.991224,-6.968873,-28.29955,0.103485,0.226929,0.936066,0.787745,-0.165573,-0.117445,75.919998,-7.314697,-142.287399,,,
729860460.340148,14.212623,-7.01731,-28.308309,0.103485,0.226929,0.936066,0.787745,-0.165573,-0.117445,75.919998,-7.314697,-142.287399,,,
729860460.343466,14.423814,-7.066608,-28.319216,0.108963,0.250015,0.912613,0.714917,-0.176217,-0.130041,75.919998,-7.314697,-142.287399,,,
729860460.346814,14.423814,-7.066608,-28.319216,0.108963,0.250015,0.912613,0.714917,-0.176217,-0.130041,75.919998,-7.314697,-142.287399,,,
729860460.350205,14.625411,-7.11591,-28.332893,0.108963,0.250015,0.912613,0.714917,-0.176217,-0.130041,75.919998,-7.314697,-142.287399,,,
729860460.353458,14.819443,-7.16259,-28.348662,0.114487,0.260605,0.909119,0.657738,-0.171188,-0.139568,75.919998,-7.314697,-142.287399,,,
729860460.356791,14.819443,-7.16259,-28.348662,0.114487,0.260605,0.909119,0.657738,-0.171188,-0.139568,75.919998,-7.314697,-142.287399,,,
729860460.360136,15.008681,-7.203103,-28.365442,0.114487,0.260605,0.909119,0.657738,-0.171188,-0.139568,75.919998,-7.314697,-142.287399,,,
729860460.363467,15.19657,-7.235533,-28.381501,0.113831,0.257111,0.942764,0.641962,-0.1174,-0.134158,76.187546,-8.694534,-141.666183,,,
729860460.366794,15.19657,-7.235533,-28.381501,0.113831,0.257111,0.942764,0.641962,-0.1174,-0.134158,76.187546,-8.694534,-141.666183,,,
729860460.370136,15.386547,-7.259504,-28.393665,0.113831,0.257111,0.942764,0.641962,-0.1174,-0.134158,76.187546,-8.694534,-141.666183,,,
729860460.373533,15.582474,-7.275141,-28.399593,0.10675,0.244202,0.991196,0.680375,-0.047028,-0.101448,76.187546,-8.694534,-141.666183,,,
729860460.37687,15.582474,-7.275141,-28.399593,0.10675,0.244202,0.991196,0.680375,-0.047028,-0.101448,76.187546,-8.694534,-141.666183,,,
729860460.380134,15.78735,-7.283589,-28.397374,0.10675,0.244202,0.991196,0.680375,-0.047028,-0.101448,76.187546,-8.694534,-141.666183,,,
729860460.383468,16.002559,-7.286463,-28.386479,0.098618,0.225815,1.0354,0.758812,0.009661,-0.053603,76.187546,-8.694534,-141.666183,,,
729860460.386824,16.002559,-7.286463,-28.386479,0.098618,0.225815,1.0354,0.758812,0.009661,-0.053603,76.187546,-8.694534,-141.666183,,,
729860460.390156,16.228729,-7.286865,-28.367297,0.098618,0.225815,1.0354,0.758812,0.009661,-0.053603,76.187546,-8.694534,-141.666183,,,
729860460.393461,16.465631,-7.287916,-28.342033,0.096634,0.218796,1.042725,0.835763,0.025048,-0.018376,76.187546,-8.694534,-141.666183,,,
729860460.396818,16.465631,-7.287916,-28.342033,0.096634,0.218796,1.042725,0.835763,0.025048,-0.018376,76.187546,-8.694534,-141.666183,,,
729860460.400126,16.712597,-7.29325,-28.313563,0.096634,0.218796,1.042725,0.835763,0.025048,-0.018376,76.187546,-8.694534,-141.666183,,,
729860460.403478,16.969303,-7.305273,-28.28435,0.107025,0.234055,1.016388,0.909462,-0.017078,-0.021077,76.187546,-8.694534,-141.666183,,,
729860460.406811,16.969303,-7.305273,-28.28435,0.107025,0.234055,1.016388,0.909462,-0.017078,-0.021077,76.092758,-10.284241,-140.625107,,,
729860460.410137,17.233845,-7.325509,-28.256958,0.107025,0.234055,1.016388,0.909462,-0.017078,-0.021077,76.092758,-10.284241,-140.625107,,,
729860460.413461,17.503071,-7.354662,-28.233689,0.121811,0.257538,0.981247,0.943771,-0.08274,-0.051492,76.092758,-10.284241,-140.625107,,,
729860460.416868,17.503071,-7.354662,-28.233689,0.121811,0.257538,0.981247,0.943771,-0.08274,-0.051492,76.092758,-10.284241,-140.625107,,,
729860460.420128,17.774063,-7.39299,-28.216073,0.121811,0.257538,0.981247,0.943771,-0.08274,-0.051492,76.092758,-10.284241,-140.625107,,,
729860460.423465,18.044012,-7.440242,-28.204377,0.1297,0.284851,0.938766,0.936816,-0.15878,-0.087097,76.092758,-10.284241,-140.625107,,,
729860460.426813,18.044012,-7.440242,-28.204377,0.1297,0.284851,0.938766,0.936816,-0.15878,-0.087097,76.092758,-10.284241,-140.625107,,,
729860460.430128,18.309398,-7.495465,-28.198208,0.1297,0.284851,0.938766,0.936816,-0.15878,-0.087097,76.092758,-10.284241,-140.625107,,,
729860460.433457,18.567213,-7.556517,-28.197391,0.130554,0.309204,0.892975,0.884641,-0.212971,-0.12035,76.092758,-10.284241,-140.625107,,,
729860460.436797,18.567213,-7.556517,-28.197391,0.130554,0.309204,0.892975,0.884641,-0.212971,-0.12035,76.092758,-10.284241,-140.625107,,,
729860460.44013,18.816124,-7.620874,-28.201981,0.130554,0.309204,0.892975,0.884641,-0.212971,-0.12035,76.092758,-10.284241,-140.625107,,,
729860460.443481,18.816124,-7.686074,-28.211849,0.133224,0.329987,0.869522,0.813073,-0.238499,-0.145716,76.092758,-10.284241,-140.625107,,,
729860460.446815,19.055185,-7.686074,-28.211849,0.133224,0.329987,0.869522,0.813073,-0.238499,-0.145716,75.736984,-11.71965,-139.61792,,,
729860460.450136,19.284737,-7.750734,-28.225776,0.133224,0.329987,0.869522,0.813073,-0.238499,-0.145716,75.736984,-11.71965,-139.61792,,,
729860460.453491,19.284737,-7.811262,-28.242537,0.134903,0.3414,0.870178,0.75324,-0.223448,-0.16185,75.736984,-11.71965,-139.61792,,,
729860460.456877,19.506862,-7.811262,-28.242537,0.134903,0.3414,0.870178,0.75324,-0.223448,-0.16185,75.736984,-11.71965,-139.61792,,,
729860460.460132,19.724666,-7.864176,-28.260529,0.134903,0.3414,0.870178,0.75324,-0.223448,-0.16185,75.736984,-11.71965,-139.61792,,,
729860460.46347,19.724666,-7.864176,-28.260529,0.13147,0.334885,0.908646,0.737871,-0.162194,-0.15654,75.736984,-11.71965,-139.61792,,,
729860460.466811,19.940815,-7.908032,-28.277282,0.13147,0.334885,0.908646,0.737871,-0.162194,-0.15654,75.736984,-11.71965,-139.61792,,,
729860460.470137,20.158767,-7.942494,-28.290351,0.13147,0.334885,0.908646,0.737871,-0.162194,-0.15654,75.736984,-11.71965,-139.61792,,,
729860460.473478,20.158767,-7.942494,-28.290351,0.13147,0.334885,0.908646,0.737871,-0.162194,-0.15654,75.736984,-11.71965,-139.61792,,,
729860460.476815,20.382076,-7.96851,-28.29759,0.124786,0.318848,0.95787,0.770942,-0.086543,-0.127622,75.736984,-11.71965,-139.61792,,,
729860460.480128,20.61359,-7.988711,-28.297726,0.124786,0.318848,0.95787,0.770942,-0.086543,-0.127622,75.736984,-11.71965,-139.61792,,,
729860460.483521,20.61359,-7.988711,-28.297726,0.122208,0.301712,0.992981,0.848695,-0.044,-0.095482,75.736984,-11.71965,-139.61792,,,
729860460.486803,20.85524,-8.005536,-28.291194,0.122208,0.301712,0.992981,0.848695,-0.044,-0.095482,75.847626,-12.94162,-138.405777,,,
729860460.490135,21.107631,-8.021738,-28.279274,0.122208,0.301712,0.992981,0.848695,-0.044,-0.095482,75.847626,-12.94162,-138.405777,,,
729860460.493484,21.107631,-8.021738,-28.279274,0.122208,0.301712,0.992981,0.915413,-0.045483,-0.078883,75.847626,-12.94162,-138.405777,,,
729860460.496867,21.369405,-8.040342,-28.264168,0.127838,0.300873,0.99855,0.915413,-0.045483,-0.078883,75.847626,-12.94162,-138.405777,,,
729860460.500129,21.638045,-8.06346,-28.248624,0.127838,0.300873,0.99855,0.915413,-0.045483,-0.078883,75.847626,-12.94162,-138.405777,,,
729860460.503509,21.638045,-8.06346,-28.248624,0.127838,0.300873,0.99855,0.951243,-0.076457,-0.094098,75.847626,-12.94162,-138.405777,,,
729860460.506816,21.911278,-8.090746,-28.23511,0.136368,0.322144,0.960648,0.951243,-0.076457,-0.094098,75.847626,-12.94162,-138.405777,,,
729860460.510129,22.187142,-8.122415,-28.22492,0.136368,0.322144,0.960648,0.951243,-0.076457,-0.094098,75.847626,-12.94162,-138.405777,,,
729860460.513504,22.187142,-8.122415,-28.22492,0.136368,0.322144,0.960648,0.951243,-0.076457,-0.094098,75.847626,-12.94162,-138.405777,,,
729860460.516811,22.464026,-8.157395,-28.219322,0.145813,0.349792,0.918213,0.959776,-0.113754,-0.12544,75.847626,-12.94162,-138.405777,,,
729860460.52013,22.740152,-8.193449,-28.219134,0.145813,0.349792,0.918213,0.959776,-0.113754,-0.12544,75.847626,-12.94162,-138.405777,,,
729860460.523464,22.740152,-8.193449,-28.219134,0.145813,0.349792,0.918213,0.959776,-0.113754,-0.12544,75.847626,-12.94162,-138.405777,,,
729860460.526804,23.011467,-8.228403,-28.224021,0.147293,0.372452,0.891495,0.927635,-0.125642,-0.154335,75.695557,-14.297318,-137.276138,,,
729860460.53013,23.275266,-8.25991,-28.232777,0.147293,0.372452,0.891495,0.927635,-0.125642,-0.154335,75.695557,-14.297318,-137.276138,,,
729860460.533547,23.275266,-8.25991,-28.232777,0.147293,0.372452,0.891495,0.927635,-0.125642,-0.154335,75.695557,-14.297318,-137.276138,,,
729860460.53682,23.534235,-8.287405,-28.243625,0.144257,0.341385,0.865906,0.885582,-0.105071,-0.164396,75.695557,-14.297318,-137.276138,,,
729860460.540172,23.793498,-8.312606,-28.253648,0.144257,0.341385,0.865906,0.885582,-0.105071,-0.164396,75.695557,-14.297318,-137.276138,,,
729860460.543543,23.793498,-8.312606,-28.253648,0.144257,0.341385,0.865906,0.885582,-0.105071,-0.164396,75.695557,-14.297318,-137.276138,,,
729860460.546824,24.055013,-8.335339,-28.261484,0.140091,0.365601,0.879517,0.900318,-0.08339,-0.156273,75.695557,-14.297318,-137.276138,,,
729860460.550132,24.315595,-8.355693,-28.266708,0.140091,0.365601,0.879517,0.900318,-0.08339,-0.156273,75.695557,-14.297318,-137.276138,,,
729860460.553512,24.315595,-8.355693,-28.266708,0.140091,0.365601,0.879517,0.900318,-0.08339,-0.156273,75.695557,-14.297318,-137.276138,,,
729860460.556796,24.570617,-8.373897,-28.269967,0.132599,0.440796,0.892746,0.873489,-0.062627,-0.139563,75.695557,-14.297318,-137.276138,,,
729860460.560132,24.815888,-8.389634,-28.273181,0.132599,0.440796,0.892746,0.873489,-0.062627,-0.139563,75.695557,-14.297318,-137.276138,,,
729860460.56352,24.815888,-8.389634,-28.273181,0.132599,0.440796,0.892746,0.873489,-0.062627,-0.139563,75.695557,-14.297318,-137.276138,,,
729860460.56679,25.04972,-8.40275,-28.277588,0.128906,0.431458,0.84642,0.795414,-0.048495,-0.133205,75.695557,-14.297318,-137.276138,,,
729860460.57013,25.272945,-8.414915,-28.283782,0.128906,0.431458,0.84642,0.795414,-0.048495,-0.133205,75.68251,-15.482193,-135.994644,,,
729860460.573509,25.272945,-8.414915,-28.283782,0.128906,0.431458,0.84642,0.795414,-0.048495,-0.133205,75.68251,-15.482193,-135.994644,,,
729860460.576814,25.486322,-8.428377,-28.292862,0.132431,0.41832,0.816132,0.722048,-0.060298,-0.140648,75.68251,-15.482193,-135.994644,,,
729860460.58013,25.691796,-8.445581,-28.306885,0.132431,0.41832,0.816132,0.722048,-0.060298,-0.140648,75.68251,-15.482193,-135.994644,,,
729860460.583585,25.691796,-8.445581,-28.306885,0.132431,0.41832,0.816132,0.722048,-0.060298,-0.140648,75.68251,-15.482193,-135.994644,,,
729860460.586799,25.892336,-8.466792,-28.327226,0.146652,0.435867,0.810654,0.680214,-0.109255,-0.170593,75.68251,-15.482193,-135.994644,,,
729860460.590149,26.090166,-8.490594,-28.354721,0.146652,0.435867,0.810654,0.680214,-0.109255,-0.170593,75.68251,-15.482193,-135.994644,,,
729860460.593503,26.090166,-8.490594,-28.354721,0.146652,0.435867,0.810654,0.680214,-0.109255,-0.170593,75.68251,-15.482193,-135.994644,,,
729860460.59687,26.288169,-8.515941,-28.389534,0.152985,0.447449,0.824402,0.667446,-0.144136,-0.218236,75.68251,-15.482193,-135.994644,,,
729860460.600125,26.487766,-8.54046,-28.430671,0.152985,0.447449,0.824402,0.667446,-0.144136,-0.218236,75.68251,-15.482193,-135.994644,,,
729860460.603505,26.487766,-8.54046,-28.430671,0.152985,0.447449,0.824402,0.667446,-0.144136,-0.218236,75.68251,-15.482193,-135.994644,,,
729860460.606795,26.688471,-8.561521,-28.476627,0.1548,0.44043,0.859879,0.668308,-0.139882,-0.248343,75.68251,-15.482193,-135.994644,,,
729860460.610134,26.889964,-8.578128,-28.524451,0.1548,0.44043,0.859879,0.668308,-0.139882,-0.248343,75.70723,-16.325211,-134.783676,,,
729860460.613487,26.889964,-8.578128,-28.524451,0.1548,0.44043,0.859879,0.668308,-0.139882,-0.248343,75.70723,-16.325211,-134.783676,,,
729860460.616806,27.092081,-8.589426,-28.572092,0.152969,0.431503,0.879868,0.675239,-0.109263,-0.252611,75.70723,-16.325211,-134.783676,,,
729860460.620133,27.294033,-8.595786,-28.618073,0.152969,0.431503,0.879868,0.675239,-0.109263,-0.252611,75.70723,-16.325211,-134.783676,,,
729860460.623462,27.294033,-8.595786,-28.618073,0.152969,0.431503,0.879868,0.675239,-0.109263,-0.252611,75.70723,-16.325211,-134.783676,,,
729860460.626806,27.494553,-8.597298,-28.661734,0.143158,0.429047,0.8815,0.668326,-0.067247,-0.236468,75.70723,-16.325211,-134.783676,,,
729860460.630137,27.692222,-8.59549,-28.703414,0.143158,0.429047,0.8815,0.668326,-0.067247,-0.236468,75.70723,-16.325211,-134.783676,,,
729860460.633519,27.692222,-8.59549,-28.703414,0.143158,0.429047,0.8815,0.668326,-0.067247,-0.236468,75.70723,-16.325211,-134.783676,,,
729860460.636796,27.885803,-8.593185,-28.744606,0.139832,0.439621,0.865036,0.646398,-0.056057,-0.227656,75.70723,-16.325211,-134.783676,,,
729860460.640162,28.075005,-8.591684,-28.787651,0.139832,0.439621,0.865036,0.646398,-0.056057,-0.227656,75.70723,-16.325211,-134.783676,,,
729860460.643474,28.075005,-8.591684,-28.787651,0.139832,0.439621,0.865036,0.646398,-0.056057,-0.227656,75.70723,-16.325211,-134.783676,,,
729860460.64682,28.259995,-8.590976,-28.83391,0.142578,0.454376,0.836365,0.614833,-0.074151,-0.238011,75.70723,-16.325211,-134.783676,,,
729860460.650132,28.441009,-8.591076,-28.884363,0.142578,0.454376,0.836365,0.614833,-0.074151,-0.238011,76.253601,-17.514023,-133.914703,,,
729860460.653477,28.441009,-8.591076,-28.884363,0.142578,0.454376,0.836365,0.614833,-0.074151,-0.238011,76.253601,-17.514023,-133.914703,,,
729860460.656816,28.619223,-8.591276,-28.93999,0.14415,0.473282,0.824387,0.586366,-0.092908,-0.26418,76.253601,-17.514023,-133.914703,,,
729860460.660128,28.797846,-8.592501,-29.000136,0.14415,0.473282,0.824387,0.586366,-0.092908,-0.26418,76.253601,-17.514023,-133.914703,,,
729860460.663477,28.797846,-8.592501,-29.000136,0.14415,0.473282,0.824387,0.586366,-0.092908,-0.26418,76.253601,-17.514023,-133.914703,,,
729860460.666822,28.981042,-8.5938,-29.063403,0.148819,0.478531,0.84668,0.604685,-0.107432,-0.290375,76.253601,-17.514023,-133.914703,,,
729860460.670138,29.171362,-8.593349,-29.126952,0.148819,0.478531,0.84668,0.604685,-0.107432,-0.290375,76.253601,-17.514023,-133.914703,,,
729860460.67347,29.171362,-8.593349,-29.126952,0.148819,0.478531,0.84668,0.604685,-0.107432,-0.290375,76.253601,-17.514023,-133.914703,,,
729860460.676873,29.370346,-8.589256,-29.188941,0.143784,0.461151,0.896378,0.664796,-0.084928,-0.288699,76.253601,-17.514023,-133.914703,,,
729860460.680132,29.578382,-8.582111,-29.246774,0.143784,0.461151,0.896378,0.664796,-0.084928,-0.288699,76.253601,-17.514023,-133.914703,,,
729860460.683485,29.578382,-8.582111,-29.246774,0.143784,0.461151,0.896378,0.664796,-0.084928,-0.288699,76.253601,-17.514023,-133.914703,,,
729860460.686811,29.794768,-8.574564,-29.298605,0.132065,0.448959,0.925247,0.732662,-0.058027,-0.263719,76.253601,-17.514023,-133.914703,,,
729860460.690146,30.020409,-8.568716,-29.344945,0.132065,0.448959,0.925247,0.732662,-0.058027,-0.263719,76.587677,-18.344681,-132.842148,,,
729860460.693478,30.020409,-8.568716,-29.344945,0.132065,0.448959,0.925247,0.732662,-0.058027,-0.263719,76.587677,-18.344681,-132.842148,,,
729860460.696811,30.255225,-8.564258,-29.386913,0.126053,0.447586,0.918457,0.798859,-0.055351,-0.243087,76.587677,-18.344681,-132.842148,,,
729860460.700138,30.497378,-8.560432,-29.42594,0.126053,0.447586,0.918457,0.798859,-0.055351,-0.243087,76.587677,-18.344681,-132.842148,,,
729860460.70353,30.497378,-8.560432,-29.42594,0.126053,0.447586,0.918457,0.798859,-0.055351,-0.243087,76.587677,-18.344681,-132.842148,,,
729860460.706795,30.744064,-8.557379,-29.463053,0.126495,0.46048,0.906052,0.836474,-0.051086,-0.238093,76.587677,-18.344681,-132.842148,,,
729860460.710138,30.991398,-8.556144,-29.499094,0.126495,0.46048,0.906052,0.836474,-0.051086,-0.238093,76.587677,-18.344681,-132.842148,,,
729860460.713484,30.991398,-8.556144,-29.499094,0.126495,0.46048,0.906052,0.836474,-0.051086,-0.238093,76.587677,-18.344681,-132.842148,,,
729860460.71689,31.234623,-8.558587,-29.535567,0.123306,0.48143,0.865494,0.816082,-0.07262,-0.235245,76.587677,-18.344681,-132.842148,,,
729860460.720132,31.470766,-8.566539,-29.573842,0.123306,0.48143,0.865494,0.816082,-0.07262,-0.235245,76.587677,-18.344681,-132.842148,,,
729860460.723476,31.470766,-8.566539,-29.573842,0.123306,0.48143,0.865494,0.816082,-0.07262,-0.235245,76.587677,-18.344681,-132.842148,,,
729860460.726832,31.699942,-8.580469,-29.614855,0.121445,0.507004,0.805115,0.767201,-0.127478,-0.242335,76.587677,-18.344681,-132.842148,,,
729860460.730138,31.920941,-8.59912,-29.659469,0.121445,0.507004,0.805115,0.767201,-0.127478,-0.242335,76.587677,-18.344681,-132.842148,,,
729860460.733499,31.920941,-8.59912,-29.659469,0.121445,0.507004,0.805115,0.767201,-0.127478,-0.242335,76.848694,-19.356979,-131.281433,,,
729860460.736814,32.13148,-8.621417,-29.708563,0.122604,0.542282,0.769287,0.695691,-0.170778,-0.256219,76.848694,-19.356979,-131.281433,,,
729860460.740144,32.331136,-8.648098,-29.761735,0.122604,0.542282,0.769287,0.695691,-0.170778,-0.256219,76.848694,-19.356979,-131.281433,,,
729860460.743544,32.331136,-8.648098,-29.761735,0.122604,0.542282,0.769287,0.695691,-0.170778,-0.256219,76.848694,-19.356979,-131.281433,,,
729860460.74682,32.521332,-8.67895,-29.818176,0.118988,0.563354,0.749023,0.62191,-0.215153,-0.266561,76.848694,-19.356979,-131.281433,,,
729860460.750156,32.704754,-8.712803,-29.876508,0.118988,0.563354,0.749023,0.62191,-0.215153,-0.266561,76.848694,-19.356979,-131.281433,,,
729860460.753509,32.704754,-8.712803,-29.876508,0.118988,0.563354,0.749023,0.62191,-0.215153,-0.266561,76.848694,-19.356979,-131.281433,,,
729860460.756812,32.885661,-8.74726,-29.93449,0.115158,0.556061,0.772186,0.597044,-0.226687,-0.262859,76.848694,-19.356979,-131.281433,,,
729860460.760148,33.066779,-8.780203,-29.989371,0.115158,0.556061,0.772186,0.597044,-0.226687,-0.262859,76.848694,-19.356979,-131.281433,,,
729860460.763467,33.066779,-8.780203,-29.989371,0.115158,0.556061,0.772186,0.597044,-0.226687,-0.262859,76.848694,-19.356979,-131.281433,,,
729860460.766877,33.249575,-8.80952,-30.040531,0.118866,0.534317,0.827423,0.609782,-0.191399,-0.24576,76.848694,-19.356979,-131.281433,,,
729860460.770135,33.435757,-8.835316,-30.088753,0.118866,0.534317,0.827423,0.609782,-0.191399,-0.24576,76.848694,-19.356979,-131.281433,,,
729860460.773473,33.435757,-8.835316,-30.088753,0.118866,0.534317,0.827423,0.609782,-0.191399,-0.24576,76.938446,-20.459152,-130.670624,,,
729860460.776822,33.628302,-8.859328,-30.134314,0.124329,0.522385,0.862015,0.64715,-0.164412,-0.235579,76.938446,-20.459152,-130.670624,,,
729860460.78014,33.831092,-8.881555,-30.178199,0.124329,0.522385,0.862015,0.64715,-0.164412,-0.235579,76.938446,-20.459152,-130.670624,,,
729860460.78348,33.831092,-8.881555,-30.178199,0.124329,0.522385,0.862015,0.64715,-0.164412,-0.235579,76.938446,-20.459152,-130.670624,,,
729860460.786832,34.04684,-8.90115,-30.221493,0.142593,0.517197,0.889465,0.739459,-0.149729,-0.241256,76.938446,-20.459152,-130.670624,,,
729860460.79015,34.275464,-8.917086,-30.265377,0.142593,0.517197,0.889465,0.739459,-0.149729,-0.241256,76.938446,-20.459152,-130.670624,,,
729860460.793592,34.275464,-8.917086,-30.265377,0.142593,0.517197,0.889465,0.739459,-0.149729,-0.241256,76.938446,-20.459152,-130.670624,,,
729860460.796816,34.513757,-8.926637,-30.31193,0.148926,0.521423,0.908417,0.803419,-0.117242,-0.268768,76.938446,-20.459152,-130.670624,,,
729860460.800154,34.758724,-8.929412,-30.360407,0.148926,0.521423,0.908417,0.803419,-0.117242,-0.268768,76.938446,-20.459152,-130.670624,,,
729860460.803489,34.758724,-8.929412,-30.360407,0.148926,0.521423,0.908417,0.803419,-0.117242,-0.268768,76.938446,-20.459152,-130.670624,,,
729860460.806805,35.008724,-8.925262,-30.409872,0.146698,0.53302,0.889725,0.841545,-0.073106,-0.279178,76.938446,-20.459152,-130.670624,,,
729860460.810137,35.260631,-8.915439,-30.458978,0.146698,0.53302,0.889725,0.841545,-0.073106,-0.279178,76.938446,-20.459152,-130.670624,,,
729860460.813519,35.260631,-8.915439,-30.458978,0.146698,0.53302,0.889725,0.841545,-0.073106,-0.279178,77.328003,-21.351517,-129.378952,,,
729860460.816882,35.508117,-8.900881,-30.506496,0.134506,0.549377,0.850784,0.821945,-0.035933,-0.267736,77.328003,-21.351517,-129.378952,,,
729860460.820135,35.74519,-8.881988,-30.552555,0.134506,0.549377,0.850784,0.821945,-0.035933,-0.267736,77.328003,-21.351517,-129.378952,,,
729860460.823472,35.74519,-8.881988,-30.552555,0.134506,0.549377,0.850784,0.821945,-0.035933,-0.267736,77.328003,-21.351517,-129.378952,,,
729860460.826828,35.965809,-8.858168,-30.597321,0.116028,0.570007,0.772369,0.727068,0.000453,-0.240748,77.328003,-21.351517,-129.378952,,,
729860460.830145,36.165442,-8.829623,-30.640488,0.116028,0.570007,0.772369,0.727068,0.000453,-0.240748,77.328003,-21.351517,-129.378952,,,
729860460.83348,36.165442,-8.829623,-30.640488,0.116028,0.570007,0.772369,0.727068,0.000453,-0.240748,77.328003,-21.351517,-129.378952,,,
729860460.836819,36.341023,-8.799138,-30.681572,0.094162,0.600555,0.690155,0.565561,0.025735,-0.205625,77.328003,-21.351517,-129.378952,,,
729860460.840145,36.488968,-8.77055,-30.718551,0.094162,0.600555,0.690155,0.565561,0.025735,-0.205625,77.328003,-21.351517,-129.378952,,,
729860460.843566,36.488968,-8.77055,-30.718551,0.094162,0.600555,0.690155,0.565561,0.025735,-0.205625,77.328003,-21.351517,-129.378952,,,
729860460.846817,36.6069,-8.744598,-30.749667,0.068054,0.651199,0.619858,0.366914,0.029162,-0.142752,77.328003,-21.351517,-129.378952,,,
729860460.850146,36.692218,-8.719141,-30.773798,0.068054,0.651199,0.619858,0.366914,0.029162,-0.142752,77.328003,-21.351517,-129.378952,,,
729860460.85353,36.692218,-8.719141,-30.773798,0.068054,0.651199,0.619858,0.366914,0.029162,-0.142752,77.328003,-21.351517,-129.378952,,,
729860460.856814,36.744246,-8.693291,-30.789407,0.040146,0.663727,0.585632,0.145298,0.065902,-0.061347,77.427643,-22.273178,-128.488113,,,
729860460.860135,36.766671,-8.672047,-30.794516,0.040146,0.663727,0.585632,0.145298,0.065902,-0.061347,77.427643,-22.273178,-128.488113,,,
729860460.863492,36.766671,-8.672047,-30.794516,0.040146,0.663727,0.585632,0.145298,0.065902,-0.061347,77.427643,-22.273178,-128.488113,,,
729860460.866885,36.767679,-8.663881,-30.788093,0.028458,0.644638,0.593781,-0.00956,0.038458,0.028537,77.427643,-22.273178,-128.488113,,,
729860460.870135,36.75804,-8.673886,-30.771468,0.028458,0.644638,0.593781,-0.00956,0.038458,0.028537,77.427643,-22.273178,-128.488113,,,
729860460.873472,36.75804,-8.673886,-30.771468,0.028458,0.644638,0.593781,-0.00956,0.038458,0.028537,77.427643,-22.273178,-128.488113,,,
729860460.876832,36.747657,-8.701727,-30.748631,0.042068,0.60379,0.656372,-0.024874,-0.062451,0.071025,77.427643,-22.273178,-128.488113,,,
729860460.880141,36.745186,-8.745075,-30.724302,0.042068,0.60379,0.656372,-0.024874,-0.062451,0.071025,77.427643,-22.273178,-128.488113,,,
729860460.883471,36.745186,-8.745075,-30.724302,0.042068,0.60379,0.656372,-0.024874,-0.062451,0.071025,77.427643,-22.273178,-128.488113,,,
729860460.886832,36.757967,-8.802053,-30.701094,0.074524,0.565552,0.763596,0.068747,-0.158891,0.053681,77.427643,-22.273178,-128.488113,,,
729860460.890143,36.790509,-8.873224,-30.678581,0.074524,0.565552,0.763596,0.068747,-0.158891,0.053681,77.427643,-22.273178,-128.488113,,,
729860460.893536,36.790509,-8.873224,-30.678581,0.074524,0.565552,0.763596,0.068747,-0.158891,0.053681,77.427643,-22.273178,-128.488113,,,
729860460.896817,36.845983,-8.959031,-30.656452,0.105072,0.542419,0.849289,0.222408,-0.260696,0.026604,77.278198,-22.185059,-128.228134,,,
729860460.900202,36.925249,-9.057908,-30.634423,0.105072,0.542419,0.849289,0.222408,-0.260696,0.026604,77.278198,-22.185059,-128.228134,,,
729860460.903462,36.925249,-9.057908,-30.634423,0.105072,0.542419,0.849289,0.222408,-0.260696,0.026604,77.278198,-22.185059,-128.228134,,,
729860460.906822,37.024262,-9.164107,-30.613068,0.124619,0.522797,0.883881,0.369314,-0.327676,7.2e-05,77.278198,-22.185059,-128.228134,,,
729860460.910182,37.137801,-9.270999,-30.592703,0.124619,0.522797,0.883881,0.369314,-0.327676,7.2e-05,77.278198,-22.185059,-128.228134,,,
729860460.913566,37.137801,-9.270999,-30.592703,0.124619,0.522797,0.883881,0.369314,-0.327676,7.2e-05,77.278198,-22.185059,-128.228134,,,
729860460.916805,37.261117,-9.373784,-30.573379,0.138123,0.535614,0.876831,0.438375,-0.309595,-0.019325,77.278198,-22.185059,-128.228134,,,
729860460.920159,37.389439,-9.469272,-30.555283,0.138123,0.535614,0.876831,0.438375,-0.309595,-0.019325,77.278198,-22.185059,-128.228134,,,
729860460.923474,37.389439,-9.469272,-30.555283,0.138123,0.535614,0.876831,0.438375,-0.309595,-0.019325,77.278198,-22.185059,-128.228134,,,
729860460.926802,37.518311,-9.55575,-30.538614,0.140701,0.560471,0.839493,0.452264,-0.255704,-0.029918,77.278198,-22.185059,-128.228134,,,
729860460.930162,37.643872,-9.632276,-30.52454,0.140701,0.560471,0.839493,0.452264,-0.255704,-0.029918,77.278198,-22.185059,-128.228134,,,
729860460.933493,37.643872,-9.632276,-30.52454,0.140701,0.560471,0.839493,0.452264,-0.255704,-0.029918,77.278198,-22.185059,-128.228134,,,
729860460.936807,37.763998,-9.699353,-30.513668,0.140884,0.588989,0.787537,0.413336,-0.200831,-0.044408,77.255051,-22.778076,-127.781281,,,
729860460.940139,37.878092,-9.756604,-30.50739,0.140884,0.588989,0.787537,0.413336,-0.200831,-0.044408,77.255051,-22.778076,-127.781281,,,
729860460.943591,37.878092,-9.756604,-30.50739,0.140884,0.588989,0.787537,0.413336,-0.200831,-0.044408,77.255051,-22.778076,-127.781281,,,
729860460.946794,37.986236,-9.803255,-30.506251,0.142502,0.614883,0.751648,0.364658,-0.150425,-0.066,77.255051,-22.778076,-127.781281,,,
729860460.950139,38.08994,-9.840432,-30.510266,0.142502,0.614883,0.751648,0.364658,-0.150425,-0.066,77.255051,-22.778076,-127.781281,,,
729860460.953487,38.08994,-9.840432,-30.510266,0.142502,0.614883,0.751648,0.364658,-0.150425,-0.066,77.255051,-22.778076,-127.781281,,,
729860460.956815,38.192947,-9.868887,-30.519067,0.145309,0.622971,0.751511,0.348205,-0.108076,-0.088468,77.255051,-22.778076,-127.781281,,,
729860460.96025,38.298593,-9.890414,-30.529847,0.145309,0.622971,0.751511,0.348205,-0.108076,-0.088468,77.255051,-22.778076,-127.781281,,,
729860460.963513,38.298593,-9.890414,-30.529847,0.145309,0.622971,0.751511,0.348205,-0.108076,-0.088468,77.255051,-22.778076,-127.781281,,,
729860460.966894,38.409787,-9.905921,-30.541055,0.146896,0.611786,0.793121,0.382498,-0.070914,-0.099749,77.255051,-22.778076,-127.781281,,,
729860460.970134,38.529474,-9.91835,-30.550927,0.146896,0.611786,0.793121,0.382498,-0.070914,-0.099749,77.255051,-22.778076,-127.781281,,,
729860460.973476,38.529474,-9.91835,-30.550927,0.146896,0.611786,0.793121,0.382498,-0.070914,-0.099749,77.255051,-22.778076,-127.781281,,,
729860460.976809,38.658107,-9.93185,-30.557783,0.143509,0.595398,0.832474,0.445776,-0.056333,-0.096317,77.071014,-22.996292,-126.756195,,,
729860460.980141,38.793968,-9.947314,-30.561687,0.143509,0.595398,0.832474,0.445776,-0.056333,-0.096317,77.071014,-22.996292,-126.756195,,,
729860460.983497,38.793968,-9.947314,-30.561687,0.143509,0.595398,0.832474,0.445776,-0.056333,-0.096317,77.071014,-22.996292,-126.756195,,,
729860460.986819,38.93553,-9.964708,-30.564293,0.139847,0.592896,0.834518,0.489935,-0.064937,-0.092315,77.071014,-22.996292,-126.756195,,,
729860460.990138,39.083043,-9.984969,-30.567211,0.139847,0.592896,0.834518,0.489935,-0.064937,-0.092315,77.071014,-22.996292,-126.756195,,,
729860460.993548,39.083043,-9.984969,-30.567211,0.139847,0.592896,0.834518,0.489935,-0.064937,-0.092315,77.071014,-22.996292,-126.756195,,,
729860460.996801,39.236556,-10.008475,-30.572026,0.141861,0.603424,0.817795,0.531076,-0.09418,-0.107111,77.071014,-22.996292,-126.756195,,,
729860461.000139,39.395335,-10.03404,-30.58037,0.141861,0.603424,0.817795,0.531076,-0.09418,-0.107111,77.071014,-22.996292,-126.756195,,,
729860461.003578,39.395335,-10.03404,-30.58037,0.141861,0.603424,0.817795,0.531076,-0.09418,-0.107111,77.071014,-22.996292,-126.756195,,,
729860461.006819,39.55871,-10.060513,-30.59267,0.150253,0.613968,0.802765,0.558758,-0.122902,-0.136772,77.071014,-22.996292,-126.756195,,,
729860461.010157,39.725282,-10.086631,-30.609039,0.150253,0.613968,0.802765,0.558758,-0.122902,-0.136772,77.071014,-22.996292,-126.756195,,,
729860461.01348,39.725282,-10.086631,-30.609039,0.150253,0.613968,0.802765,0.558758,-0.122902,-0.136772,77.071014,-22.996292,-126.756195,,,
729860461.016811,39.895119,-10.109803,-30.630945,0.154343,0.626312,0.789566,0.573775,-0.128263,-0.166726,77.071014,-22.996292,-126.756195,,,
729860461.020138,40.069929,-10.130448,-30.657162,0.154343,0.626312,0.789566,0.573775,-0.128263,-0.166726,77.131561,-23.867218,-126.042908,,,
729860461.023475,40.069929,-10.130448,-30.657162,0.154343,0.626312,0.789566,0.573775,-0.128263,-0.166726,77.131561,-23.867218,-126.042908,,,
729860461.026805,40.252747,-10.148187,-30.685649,0.162445,0.626251,0.802139,0.622544,-0.122717,-0.191319,77.131561,-23.867218,-126.042908,,,
729860461.030134,40.446198,-10.161693,-30.715466,0.162445,0.626251,0.802139,0.622544,-0.122717,-0.191319,77.131561,-23.867218,-126.042908,,,
729860461.033475,40.446198,-10.161693,-30.715466,0.162445,0.626251,0.802139,0.622544,-0.122717,-0.191319,77.131561,-23.867218,-126.042908,,,
729860461.036933,40.650453,-10.171006,-30.744875,0.164093,0.616318,0.838257,0.696795,-0.095263,-0.204846,77.131561,-23.867218,-126.042908,,,
729860461.040167,40.864546,-10.175434,-30.772541,0.164093,0.616318,0.838257,0.696795,-0.095263,-0.204846,77.131561,-23.867218,-126.042908,,,
729860461.043572,40.864546,-10.175434,-30.772541,0.164093,0.616318,0.838257,0.696795,-0.095263,-0.204846,77.131561,-23.867218,-126.042908,,,
729860461.046829,41.08576,-10.173529,-30.797242,0.153275,0.617752,0.848541,0.752958,-0.037659,-0.200413,77.131561,-23.867218,-126.042908,,,
729860461.050168,41.310752,-10.165435,-30.816996,0.153275,0.617752,0.848541,0.752958,-0.037659,-0.200413,77.131561,-23.867218,-126.042908,,,
729860461.053529,41.310752,-10.165435,-30.816996,0.153275,0.617752,0.848541,0.752958,-0.037659,-0.200413,77.131561,-23.867218,-126.042908,,,
729860461.056883,41.536161,-10.15269,-30.830427,0.142105,0.630768,0.823898,0.767291,0.026625,-0.170515,77.131561,-23.867218,-126.042908,,,
729860461.06016,41.7578,-10.13745,-30.837354,0.142105,0.630768,0.823898,0.767291,0.026625,-0.170515,77.590805,-24.542358,-124.470551,,,
729860461.06349,41.7578,-10.13745,-30.837354,0.142105,0.630768,0.823898,0.767291,0.026625,-0.170515,77.590805,-24.542358,-124.470551,,,
729860461.066841,41.971389,-10.119796,-30.839918,0.12439,0.648056,0.768127,0.722432,0.062407,-0.135007,77.590805,-24.542358,-124.470551,,,
729860461.070236,42.173503,-10.100089,-30.84022,0.12439,0.648056,0.768127,0.722432,0.062407,-0.135007,77.590805,-24.542358,-124.470551,,,
729860461.073485,42.173503,-10.100089,-30.84022,0.12439,0.648056,0.768127,0.722432,0.062407,-0.135007,77.590805,-24.542358,-124.470551,,,
729860461.076835,42.362613,-10.080063,-30.839855,0.113022,0.675232,0.701706,0.637158,0.074542,-0.112496,77.590805,-24.542358,-124.470551,,,
729860461.080181,42.537332,-10.062248,-30.838859,0.113022,0.675232,0.701706,0.637158,0.074542,-0.112496,77.590805,-24.542358,-124.470551,,,
729860461.083538,42.537332,-10.062248,-30.838859,0.113022,0.675232,0.701706,0.637158,0.074542,-0.112496,77.590805,-24.542358,-124.470551,,,
729860461.086871,42.696904,-10.046213,-30.839184,0.107574,0.711121,0.656586,0.535396,0.057154,-0.099494,77.590805,-24.542358,-124.470551,,,
729860461.090149,42.842568,-10.032987,-30.842189,0.107574,0.711121,0.656586,0.535396,0.057154,-0.099494,77.590805,-24.542358,-124.470551,,,
729860461.093497,42.842568,-10.032987,-30.842189,0.107574,0.711121,0.656586,0.535396,0.057154,-0.099494,77.590805,-24.542358,-124.470551,,,
729860461.096829,42.978379,-10.02566,-30.84883,0.108536,0.722641,0.634811,0.452321,0.001389,-0.102402,77.590805,-24.542358,-124.470551,,,
729860461.100145,43.110957,-10.028461,-30.860297,0.108536,0.722641,0.634811,0.452321,0.001389,-0.102402,77.736557,-25.355179,-123.584518,,,
729860461.103253,43.110957,-10.028461,-30.860297,0.108536,0.722641,0.634811,0.452321,0.001389,-0.102402,77.736557,-25.355179,-123.584518,,,
729860461.106864,43.248208,-10.043734,-30.877165,0.123505,0.707001,0.666916,0.468458,-0.103711,-0.13178,77.736557,-25.355179,-123.584518,,,
729860461.110201,43.397229,-10.069202,-30.899988,0.123505,0.707001,0.666916,0.468458,-0.103711,-0.13178,77.736557,-25.355179,-123.584518,,,
729860461.11348,43.397229,-10.069202,-30.899988,0.123505,0.707001,0.666916,0.468458,-0.103711,-0.13178,77.736557,-25.355179,-123.584518,,,
729860461.116822,43.561839,-10.1002,-30.928536,0.140778,0.67923,0.745132,0.563024,-0.181058,-0.180713,77.736557,-25.355179,-123.584518,,,
729860461.120189,43.743293,-10.133129,-30.960883,0.140778,0.67923,0.745132,0.563024,-0.181058,-0.180713,77.736557,-25.355179,-123.584518,,,
729860461.123557,43.743293,-10.133129,-30.960883,0.140778,0.67923,0.745132,0.563024,-0.181058,-0.180713,77.736557,-25.355179,-123.584518,,,
729860461.126829,43.942099,-10.165546,-30.993704,0.151962,0.656891,0.816162,0.682761,-0.188439,-0.206076,77.736557,-25.355179,-123.584518,,,
729860461.130142,44.15703,-10.196046,-31.022727,0.151962,0.656891,0.816162,0.682761,-0.188439,-0.206076,77.736557,-25.355179,-123.584518,,,
729860461.133485,44.15703,-10.196046,-31.022727,0.151962,0.656891,0.816162,0.682761,-0.188439,-0.206076,77.736557,-25.355179,-123.584518,,,
729860461.136846,44.384575,-10.222264,-31.04601,0.146225,0.6465,0.844208,0.7798,-0.137215,-0.19556,77.736557,-25.355179,-123.584518,,,
729860461.14018,44.619731,-10.243656,-31.062693,0.146225,0.6465,0.844208,0.7798,-0.137215,-0.19556,77.736557,-25.355179,-123.584518,,,
729860461.143491,44.619731,-10.243656,-31.062693,0.146225,0.6465,0.844208,0.7798,-0.137215,-0.19556,78.000031,-25.953079,-122.539673,,,
729860461.14681,44.857824,-10.261361,-31.072938,0.136581,0.656418,0.812531,0.814354,-0.075067,-0.171093,78.000031,-25.953079,-122.539673,,,
729860461.150308,45.095855,-10.275859,-31.078534,0.136581,0.656418,0.812531,0.814354,-0.075067,-0.171093,78.000031,-25.953079,-122.539673,,,
729860461.153536,45.095855,-10.275859,-31.078534,0.136581,0.656418,0.812531,0.814354,-0.075067,-0.171093,78.000031,-25.953079,-122.539673,,,
729860461.156825,45.332263,-10.286391,-31.081772,0.128128,0.677811,0.745621,0.806571,-0.03688,-0.154745,78.000031,-25.953079,-122.539673,,,
729860461.160162,45.564581,-10.291515,-31.085117,0.128128,0.677811,0.745621,0.806571,-0.03688,-0.154745,78.000031,-25.953079,-122.539673,,,
729860461.163558,45.564581,-10.291515,-31.085117,0.128128,0.677811,0.745621,0.806571,-0.03688,-0.154745,78.000031,-25.953079,-122.539673,,,
729860461.16683,45.790885,-10.291683,-31.088998,0.120956,0.70311,0.689041,0.769253,-0.004314,-0.14873,78.000031,-25.953079,-122.539673,,,
729860461.17022,46.008479,-10.287748,-31.093562,0.120956,0.70311,0.689041,0.769253,-0.004314,-0.14873,78.000031,-25.953079,-122.539673,,,
729860461.173479,46.008479,-10.287748,-31.093562,0.120956,0.70311,0.689041,0.769253,-0.004314,-0.14873,78.000031,-25.953079,-122.539673,,,
729860461.176889,46.213206,-10.280572,-31.098779,0.108047,0.7258,0.634598,0.687873,0.019068,-0.139475,78.000031,-25.953079,-122.539673,,,
729860461.180195,46.401442,-10.273981,-31.10267,0.108047,0.7258,0.634598,0.687873,0.019068,-0.139475,78.000031,-25.953079,-122.539673,,,
729860461.183494,46.401442,-10.273981,-31.10267,0.108047,0.7258,0.634598,0.687873,0.019068,-0.139475,78.049347,-26.547531,-121.336975,,,
729860461.186873,46.570311,-10.270171,-31.105052,0.090759,0.741089,0.571091,0.561291,0.010622,-0.106664,78.049347,-26.547531,-121.336975,,,
729860461.19021,46.716882,-10.271683,-31.106119,0.090759,0.741089,0.571091,0.561291,0.010622,-0.106664,78.049347,-26.547531,-121.336975,,,
729860461.193477,46.716882,-10.271683,-31.106119,0.090759,0.741089,0.571091,0.561291,0.010622,-0.106664,78.049347,-26.547531,-121.336975,,,
729860461.196822,46.840138,-10.282972,-31.105632,0.074585,0.756409,0.509186,0.400539,-0.04096,-0.071289,78.049347,-26.547531,-121.336975,,,
729860461.200188,46.941924,-10.307854,-31.105262,0.074585,0.756409,0.509186,0.400539,-0.04096,-0.071289,78.049347,-26.547531,-121.336975,,,
729860461.203622,46.941924,-10.307854,-31.105262,0.074585,0.756409,0.509186,0.400539,-0.04096,-0.071289,78.049347,-26.547531,-121.336975,,,
729860461.206838,47.029533,-10.346885,-31.108273,0.072922,0.768158,0.479202,0.284549,-0.155398,-0.06441,78.049347,-26.547531,-121.336975,,,
729860461.210141,47.029533,-10.346885,-31.108273,0.072922,0.768158,0.479202,0.284549,-0.155398,-0.06441,78.049347,-26.547531,-121.336975,,,
729860461.213487,47.112548,-10.396787,-31.116543,0.072922,0.768158,0.479202,0.284549,-0.155398,-0.06441,78.049347,-26.547531,-121.336975,,,
729860461.21689,47.199118,-10.45212,-31.130334,0.100311,0.742401,0.547318,0.294925,-0.231346,-0.092453,78.049347,-26.547531,-121.336975,,,
729860461.220202,47.29498,-10.507618,-31.148606,0.100311,0.742401,0.547318,0.294925,-0.231346,-0.092453,78.049347,-26.547531,-121.336975,,,
729860461.223481,47.29498,-10.507618,-31.148606,0.100311,0.742401,0.547318,0.294925,-0.231346,-0.092453,78.113403,-26.800003,-120.278458,,,
729860461.22682,47.403289,-10.562059,-31.168006,0.124359,0.70253,0.670242,0.37586,-0.237357,-0.116988,78.113403,-26.800003,-120.278458,,,
729860461.230142,47.403289,-10.562059,-31.168006,0.124359,0.70253,0.670242,0.37586,-0.237357,-0.116988,78.113403,-26.800003,-120.278458,,,
729860461.233581,47.526536,-10.616693,-31.183812,0.124359,0.70253,0.670242,0.37586,-0.237357,-0.116988,78.113403,-26.800003,-120.278458,,,
729860461.236904,47.665549,-10.669206,-31.193167,0.138672,0.672485,0.745209,0.48587,-0.197773,-0.110143,78.113403,-26.800003,-120.278458,,,
729860461.240154,47.665549,-10.669206,-31.193167,0.138672,0.672485,0.745209,0.48587,-0.197773,-0.110143,78.113403,-26.800003,-120.278458,,,
729860461.243552,47.818657,-10.716919,-31.1945,0.138672,0.672485,0.745209,0.48587,-0.197773,-0.110143,78.113403,-26.800003,-120.278458,,,
729860461.246824,47.982243,-10.755811,-31.188883,0.139526,0.6633,0.770096,0.57252,-0.104769,-0.090742,78.113403,-26.800003,-120.278458,,,
729860461.250164,47.982243,-10.755811,-31.188883,0.139526,0.6633,0.770096,0.57252,-0.104769,-0.090742,78.113403,-26.800003,-120.278458,,,
729860461.253513,48.150458,-10.782869,-31.178416,0.139526,0.6633,0.770096,0.57252,-0.104769,-0.090742,78.113403,-26.800003,-120.278458,,,
729860461.256837,48.316855,-10.79755,-31.165628,0.139374,0.686981,0.736908,0.57189,-0.003697,-0.078046,78.113403,-26.800003,-120.278458,,,
729860461.260167,48.316855,-10.79755,-31.165628,0.139374,0.686981,0.736908,0.57189,-0.003697,-0.078046,78.113403,-26.800003,-120.278458,,,
729860461.263482,48.476293,-10.802186,-31.152006,0.139374,0.686981,0.736908,0.57189,-0.003697,-0.078046,78.415298,-27.32811,-119.61647,,,
729860461.266813,48.623394,-10.799923,-31.139256,0.134293,0.726074,0.650208,0.498958,0.049374,-0.066688,78.415298,-27.32811,-119.61647,,,
729860461.270258,48.623394,-10.799923,-31.139256,0.134293,0.726074,0.650208,0.498958,0.049374,-0.066688,78.415298,-27.32811,-119.61647,,,
729860461.2735,48.754569,-10.793575,-31.131128,0.134293,0.726074,0.650208,0.498958,0.049374,-0.066688,78.415298,-27.32811,-119.61647,,,
729860461.276833,48.869661,-10.787684,-31.131117,0.126526,0.767914,0.560242,0.379924,0.014307,-0.077409,78.415298,-27.32811,-119.61647,,,
729860461.280214,48.869661,-10.787684,-31.131117,0.126526,0.767914,0.560242,0.379924,0.014307,-0.077409,78.415298,-27.32811,-119.61647,,,
729860461.283483,48.971544,-10.78705,-31.141765,0.126526,0.767914,0.560242,0.379924,0.014307,-0.077409,78.415298,-27.32811,-119.61647,,,
729860461.28689,49.065221,-10.791446,-31.167107,0.131729,0.784851,0.525742,0.3031,-0.094688,-0.127231,78.415298,-27.32811,-119.61647,,,
729860461.290165,49.065221,-10.791446,-31.167107,0.131729,0.784851,0.525742,0.3031,-0.094688,-0.127231,78.415298,-27.32811,-119.61647,,,
729860461.293556,49.154297,-10.800338,-31.207832,0.131729,0.784851,0.525742,0.3031,-0.094688,-0.127231,78.415298,-27.32811,-119.61647,,,
729860461.296806,49.23993,-10.813579,-31.261743,0.141449,0.788528,0.554367,0.26474,-0.199195,-0.185993,78.415298,-27.32811,-119.61647,,,
729860461.300169,49.23993,-10.813579,-31.261743,0.141449,0.788528,0.554367,0.26474,-0.199195,-0.185993,78.415298,-27.32811,-119.61647,,,
729860461.303587,49.322397,-10.829687,-31.326033,0.141449,0.788528,0.554367,0.26474,-0.199195,-0.185993,78.415298,-27.32811,-119.61647,,,
729860461.306867,49.402362,-10.846918,-31.39642,0.139481,0.78331,0.583847,0.239537,-0.248246,-0.212273,78.420395,-27.421417,-118.871613,,,
729860461.310173,49.402362,-10.846918,-31.39642,0.139481,0.78331,0.583847,0.239537,-0.248246,-0.212273,78.420395,-27.421417,-118.871613,,,
729860461.313501,49.481355,-10.862205,-31.46895,0.139481,0.78331,0.583847,0.239537,-0.248246,-0.212273,78.420395,-27.421417,-118.871613,,,
729860461.316819,49.56272,-10.873024,-31.539845,0.137299,0.762482,0.630722,0.251075,-0.217933,-0.210416,78.420395,-27.421417,-118.871613,,,
729860461.320193,49.56272,-10.873024,-31.539845,0.137299,0.762482,0.630722,0.251075,-0.217933,-0.210416,78.420395,-27.421417,-118.871613,,,
729860461.323479,49.649008,-10.876464,-31.605936,0.137299,0.762482,0.630722,0.251075,-0.217933,-0.210416,78.420395,-27.421417,-118.871613,,,
729860461.32682,49.741814,-10.869874,-31.66595,0.13884,0.74054,0.692734,0.300287,-0.119936,-0.192088,78.420395,-27.421417,-118.871613,,,
729860461.330152,49.741814,-10.869874,-31.66595,0.13884,0.74054,0.692734,0.300287,-0.119936,-0.192088,78.420395,-27.421417,-118.871613,,,
729860461.333588,49.842294,-10.85348,-31.719703,0.13884,0.74054,0.692734,0.300287,-0.119936,-0.192088,78.420395,-27.421417,-118.871613,,,
729860461.336929,49.951088,-10.827817,-31.768061,0.140533,0.724915,0.735672,0.361187,-0.025603,-0.17752,78.420395,-27.421417,-118.871613,,,
729860461.340148,49.951088,-10.827817,-31.768061,0.140533,0.724915,0.735672,0.361187,-0.025603,-0.17752,78.420395,-27.421417,-118.871613,,,
729860461.343494,50.068792,-10.795897,-31.810894,0.140533,0.724915,0.735672,0.361187,-0.025603,-0.17752,78.420395,-27.421417,-118.871613,,,
729860461.346812,50.193839,-10.759465,-31.848957,0.141922,0.722031,0.734619,0.41888,0.03748,-0.164697,78.653458,-27.883057,-118.335052,,,
729860461.350165,50.193839,-10.759465,-31.848957,0.141922,0.722031,0.734619,0.41888,0.03748,-0.164697,78.653458,-27.883057,-118.335052,,,
729860461.353541,50.322208,-10.719446,-31.882966,0.141922,0.722031,0.734619,0.41888,0.03748,-0.164697,78.653458,-27.883057,-118.335052,,,
729860461.356809,50.44969,-10.677051,-31.914118,0.131317,0.738312,0.694656,0.423164,0.071317,-0.15274,78.653458,-27.883057,-118.335052,,,
729860461.360253,50.44969,-10.677051,-31.914118,0.131317,0.738312,0.694656,0.423164,0.071317,-0.15274,78.653458,-27.883057,-118.335052,,,
729860461.363504,50.571854,-10.634161,-31.943143,0.131317,0.738312,0.694656,0.423164,0.071317,-0.15274,78.653458,-27.883057,-118.335052,,,
729860461.366824,50.683495,-10.590579,-31.971466,0.114441,0.767059,0.618698,0.363075,0.080343,-0.129902,78.653458,-27.883057,-118.335052,,,
729860461.370218,50.683495,-10.590579,-31.971466,0.114441,0.767059,0.618698,0.363075,0.080343,-0.129902,78.653458,-27.883057,-118.335052,,,
729860461.373557,50.779263,-10.545704,-32.000236,0.114441,0.767059,0.618698,0.363075,0.080343,-0.129902,78.653458,-27.883057,-118.335052,,,
729860461.376817,50.85518,-10.501655,-32.029072,0.096268,0.797333,0.537384,0.231379,0.074474,-0.107461,78.653458,-27.883057,-118.335052,,,
729860461.38022,50.85518,-10.501655,-32.029072,0.096268,0.797333,0.537384,0.231379,0.074474,-0.107461,78.653458,-27.883057,-118.335052,,,
729860461.38348,50.91061,-10.461904,-32.058109,0.096268,0.797333,0.537384,0.231379,0.074474,-0.107461,78.653458,-27.883057,-118.335052,,,
729860461.386858,50.948508,-10.429271,-32.089318,0.083588,0.81398,0.478958,0.103899,0.023316,-0.090851,79.036133,-28.225388,-117.863235,,,
729860461.390142,50.948508,-10.429271,-32.089318,0.083588,0.81398,0.478958,0.103899,0.023316,-0.090851,79.036133,-28.225388,-117.863235,,,
729860461.39348,50.974827,-10.407301,-32.123783,0.083588,0.81398,0.478958,0.103899,0.023316,-0.090851,79.036133,-28.225388,-117.863235,,,
729860461.396833,50.997548,-10.39795,-32.16176,0.084076,0.802826,0.492172,0.059126,-0.081201,-0.09789,79.036133,-28.225388,-117.863235,,,
729860461.400247,50.997548,-10.39795,-32.16176,0.084076,0.802826,0.492172,0.059126,-0.081201,-0.09789,79.036133,-28.225388,-117.863235,,,
729860461.403542,51.022785,-10.399285,-32.203692,0.084076,0.802826,0.492172,0.059126,-0.081201,-0.09789,79.036133,-28.225388,-117.863235,,,
729860461.406822,51.054386,-10.407998,-32.249884,0.102264,0.776337,0.564423,0.096467,-0.161229,-0.125183,79.036133,-28.225388,-117.863235,,,
729860461.410163,51.054386,-10.407998,-32.249884,0.102264,0.776337,0.564423,0.096467,-0.161229,-0.125183,79.036133,-28.225388,-117.863235,,,
729860461.413502,51.094653,-10.422555,-32.299091,0.102264,0.776337,0.564423,0.096467,-0.161229,-0.125183,79.036133,-28.225388,-117.863235,,,
729860461.416827,51.143697,-10.441095,-32.348465,0.113083,0.753448,0.630981,0.158198,-0.197009,-0.139211,79.036133,-28.225388,-117.863235,,,
729860461.420227,51.143697,-10.441095,-32.348465,0.113083,0.753448,0.630981,0.158198,-0.197009,-0.139211,79.036133,-28.225388,-117.863235,,,
729860461.42349,51.2009,-10.463226,-32.393802,0.113083,0.753448,0.630981,0.158198,-0.197009,-0.139211,79.036133,-28.225388,-117.863235,,,
729860461.426818,51.264284,-10.488361,-32.432657,0.109772,0.738815,0.663834,0.205322,-0.188878,-0.122666,79.170242,-28.223114,-117.236664,,,
729860461.430148,51.264284,-10.488361,-32.432657,0.109772,0.738815,0.663834,0.205322,-0.188878,-0.122666,79.170242,-28.223114,-117.236664,,,
729860461.433513,51.328968,-10.514344,-32.464194,0.109772,0.738815,0.663834,0.205322,-0.188878,-0.122666,79.170242,-28.223114,-117.236664,,,
729860461.436907,51.3896,-10.537729,-32.488344,0.104309,0.743973,0.647659,0.194936,-0.138774,-0.087123,79.170242,-28.223114,-117.236664,,,
729860461.440141,51.3896,-10.537729,-32.488344,0.104309,0.743973,0.647659,0.194936,-0.138774,-0.087123,79.170242,-28.223114,-117.236664,,,
729860461.443499,51.440006,-10.554629,-32.506306,0.104309,0.743973,0.647659,0.194936,-0.138774,-0.087123,79.170242,-28.223114,-117.236664,,,
729860461.446814,51.474258,-10.561324,-32.520637,0.094513,0.771576,0.588684,0.097051,-0.045942,-0.048859,79.170242,-28.223114,-117.236664,,,
729860461.450204,51.474258,-10.561324,-32.520637,0.094513,0.771576,0.588684,0.097051,-0.045942,-0.048859,79.170242,-28.223114,-117.236664,,,
729860461.453515,51.488286,-10.555674,-32.533604,0.094513,0.771576,0.588684,0.097051,-0.045942,-0.048859,79.170242,-28.223114,-117.236664,,,
729860461.456811,51.479761,-10.538097,-32.54611,0.085571,0.805679,0.520065,-0.053435,0.039956,-0.015875,79.170242,-28.223114,-117.236664,,,
729860461.46019,51.479761,-10.538097,-32.54611,0.085571,0.805679,0.520065,-0.053435,0.039956,-0.015875,79.170242,-28.223114,-117.236664,,,
729860461.463484,51.447379,-10.511405,-32.558537,0.085571,0.805679,0.520065,-0.053435,0.039956,-0.015875,79.170242,-28.223114,-117.236664,,,
729860461.466817,51.392702,-10.478417,-32.572309,0.075928,0.823059,0.476089,-0.212914,0.084316,0.005192,79.170242,-28.223114,-117.236664,,,
729860461.470199,51.392702,-10.478417,-32.572309,0.075928,0.823059,0.476089,-0.212914,0.084316,0.005192,79.235123,-28.289505,-117.5242,,,
729860461.473498,51.320883,-10.44156,-32.586664,0.075928,0.823059,0.476089,-0.212914,0.084316,0.005192,79.235123,-28.289505,-117.5242,,,
729860461.476823,51.236443,-10.402,-32.600538,0.07341,0.823639,0.477554,-0.306238,0.103296,0.021557,79.235123,-28.289505,-117.5242,,,
729860461.480198,51.236443,-10.402,-32.600538,0.07341,0.823639,0.477554,-0.306238,0.103296,0.021557,79.235123,-28.289505,-117.5242,,,
729860461.483514,51.143121,-10.361176,-32.612909,0.07341,0.823639,0.477554,-0.306238,0.103296,0.021557,79.235123,-28.289505,-117.5242,,,
729860461.486576,51.046486,-10.322611,-32.621652,0.07843,0.798523,0.53743,-0.335698,0.1144,0.041782,79.235123,-28.289505,-117.5242,,,
729860461.490189,51.046486,-10.322611,-32.621652,0.07843,0.798523,0.53743,-0.335698,0.1144,0.041782,79.235123,-28.289505,-117.5242,,,
729860461.493489,50.951792,-10.291164,-32.625291,0.07843,0.798523,0.53743,-0.335698,0.1144,0.041782,79.235123,-28.289505,-117.5242,,,
729860461.496816,50.86267,-10.270026,-32.62425,0.085938,0.75827,0.601929,-0.298297,0.07316,0.058298,79.235123,-28.289505,-117.5242,,,
729860461.500199,50.86267,-10.270026,-32.62425,0.085938,0.75827,0.601929,-0.298297,0.07316,0.058298,79.235123,-28.289505,-117.5242,,,
729860461.503526,50.782986,-10.262719,-32.618363,0.085938,0.75827,0.601929,-0.298297,0.07316,0.058298,79.235123,-28.289505,-117.5242,,,
