Time (sec),Pitch (deg),Roll (deg),Yaw(deg),X-Acceleration (g),Y-Acceleration (g),Z-Acceleration (g),Pitch Rate (deg/sec),Roll Rate (deg/sec),Yaw Rate (deg/sec),Magnetic Field in X direction (uT),Magnetic Field in Y direction (uT),Magnetic Field in Z Direction (uT),Latitude (deg),Longitude (deg),Altitude (m)
729860816.740787,0.053962,3.813015,53.44973,-0.071854,-0.000198,1.0186,-0.022769,0.026268,0.014002,61.413757,18.414551,-145.568649,,,
729860816.744137,0.053962,3.813015,53.44973,-0.071854,-0.000198,1.0186,-0.022769,0.026268,0.014002,61.413757,18.414551,-145.568649,,,
729860816.747469,0.053928,3.81706,53.453597,-0.073959,-0.003815,1.023117,0.0071,0.001767,0.012276,61.413757,18.414551,-145.568649,,,
729860816.750841,0.057465,3.8154,53.456604,-0.073959,-0.003815,1.023117,0.0071,0.001767,0.012276,61.413757,18.414551,-145.568649,,,
729860816.754111,0.057465,3.8154,53.456604,-0.073959,-0.003815,1.023117,0.0071,0.001767,0.012276,61.413757,18.414551,-145.568649,,,
729860816.757562,0.064612,3.813433,53.458425,-0.070602,0.000656,1.014908,0.023382,-0.01685,0.005125,61.413757,18.414551,-145.568649,,,
729860816.760784,0.071616,3.807613,53.459529,-0.070602,0.000656,1.014908,0.023382,-0.01685,0.005125,61.413757,18.414551,-145.568649,,,
729860816.764127,0.071616,3.807613,53.459529,-0.070602,0.000656,1.014908,0.023382,-0.01685,0.005125,61.413757,18.414551,-145.568649,,,
729860816.767481,0.080466,3.803439,53.460177,-0.065506,0.001556,1.009354,0.02506,-0.017814,0.002078,61.413757,18.414551,-145.568649,,,
729860816.770809,0.087626,3.797954,53.461079,-0.065506,0.001556,1.009354,0.02506,-0.017814,0.002078,61.413757,18.414551,-145.568649,,,
729860816.77715,0.095863,3.795228,53.462396,-0.068268,0.000259,1.013962,0.026943,-0.01172,0.005187,61.292145,18.413498,-145.739075,,,
729860816.780875,0.103483,3.790996,53.463371,-0.068268,0.000259,1.013962,0.026943,-0.01172,0.005187,61.292145,18.413498,-145.739075,,,
729860816.78413,0.103483,3.790996,53.463371,-0.068268,0.000259,1.013962,0.026943,-0.01172,0.005187,61.292145,18.413498,-145.739075,,,
729860816.787466,0.111778,3.788269,53.463746,-0.067444,0.006027,1.012604,0.023369,-0.014516,0.000805,61.292145,18.413498,-145.739075,,,
729860816.790839,0.117763,3.782267,53.46324,-0.067444,0.006027,1.012604,0.023369,-0.014516,0.000805,61.292145,18.413498,-145.739075,,,
729860816.794163,0.117763,3.782267,53.46324,-0.067444,0.006027,1.012604,0.023369,-0.014516,0.000805,61.292145,18.413498,-145.739075,,,
729860816.797549,0.123533,3.776569,53.461765,-0.066635,0.010956,1.003204,0.016782,-0.02673,-0.006368,61.292145,18.413498,-145.739075,,,
729860816.800889,0.127607,3.768065,53.459954,-0.066635,0.010956,1.003204,0.016782,-0.02673,-0.006368,61.292145,18.413498,-145.739075,,,
729860816.804239,0.127607,3.768065,53.459954,-0.066635,0.010956,1.003204,0.016782,-0.02673,-0.006368,61.292145,18.413498,-145.739075,,,
729860816.807472,0.130402,3.761467,53.458085,-0.073227,0.01004,1.000961,0.009141,-0.025158,-0.007206,61.292145,18.413498,-145.739075,,,
729860816.810885,0.132206,3.754212,53.457594,-0.073227,0.01004,1.000961,0.009141,-0.025158,-0.007206,61.292145,18.413498,-145.739075,,,
729860816.814134,0.132206,3.754212,53.457594,-0.073227,0.01004,1.000961,0.009141,-0.025158,-0.007206,61.292145,18.413498,-145.739075,,,
729860816.817529,0.13238,3.750296,53.459525,-0.077881,0.010696,0.998718,-0.001117,-0.010064,0.009032,61.247192,18.313599,-145.813568,,,
729860816.82081,0.13238,3.750296,53.459525,-0.077881,0.010696,0.998718,-0.001117,-0.010064,0.009032,61.247192,18.313599,-145.813568,,,
729860816.824145,0.131404,3.747635,53.464081,-0.077881,0.010696,0.998718,-0.001117,-0.010064,0.009032,61.247192,18.313599,-145.813568,,,
729860816.82746,0.128671,3.748202,53.470746,-0.075607,0.008316,0.993332,-0.008312,0.003531,0.023365,61.247192,18.313599,-145.813568,,,
729860816.830811,0.128671,3.748202,53.470746,-0.075607,0.008316,0.993332,-0.008312,0.003531,0.023365,61.247192,18.313599,-145.813568,,,
729860816.834144,0.126113,3.749123,53.477856,-0.075607,0.008316,0.993332,-0.008312,0.003531,0.023365,61.247192,18.313599,-145.813568,,,
729860816.837453,0.122324,3.752067,53.484439,-0.069046,0.007996,0.993271,-0.012563,0.01036,0.019438,61.247192,18.313599,-145.813568,,,
729860816.840832,0.122324,3.752067,53.484439,-0.069046,0.007996,0.993271,-0.012563,0.01036,0.019438,61.247192,18.313599,-145.813568,,,
729860816.844147,0.119434,3.754505,53.490196,-0.069046,0.007996,0.993271,-0.012563,0.01036,0.019438,61.247192,18.313599,-145.813568,,,
729860816.84748,0.118328,3.757448,53.494956,-0.066483,0.002838,1.000717,0.000357,0.014001,0.013322,61.247192,18.313599,-145.813568,,,
729860816.850892,0.120503,3.761084,53.499466,-0.066483,0.002838,1.000717,0.000357,0.014001,0.013322,61.247192,18.313599,-145.813568,,,
729860816.854142,0.120503,3.761084,53.499466,-0.066483,0.002838,1.000717,0.000357,0.014001,0.013322,61.247192,18.313599,-145.813568,,,
729860816.857467,0.126141,3.765721,53.504763,-0.067764,-0.006058,1.012527,0.027425,0.018307,0.020517,61.247192,18.313599,-145.813568,,,
729860816.860793,0.126141,3.765721,53.504763,-0.067764,-0.006058,1.012527,0.027425,0.018307,0.020517,61.417587,18.411148,-145.82579,,,
729860816.864125,0.136097,3.770057,53.511108,-0.067764,-0.006058,1.012527,0.027425,0.018307,0.020517,61.417587,18.411148,-145.82579,,,
729860816.867464,0.14954,3.774948,53.518217,-0.071411,-0.008774,1.013229,0.048324,0.020661,0.027205,61.417587,18.411148,-145.82579,,,
729860816.870805,0.14954,3.774948,53.518217,-0.071411,-0.008774,1.013229,0.048324,0.020661,0.027205,61.417587,18.411148,-145.82579,,,
729860816.874135,0.16392,3.779588,53.525395,-0.071411,-0.008774,1.013229,0.048324,0.020661,0.027205,61.417587,18.411148,-145.82579,,,
729860816.877541,0.179798,3.783586,53.532534,-0.068527,-0.005661,1.000732,0.050227,0.016444,0.027102,61.417587,18.411148,-145.82579,,,
729860816.880787,0.179798,3.783586,53.532534,-0.068527,-0.005661,1.000732,0.050227,0.016444,0.027102,61.417587,18.411148,-145.82579,,,
729860816.884143,0.19355,3.786477,53.539149,-0.068527,-0.005661,1.000732,0.050227,0.016444,0.027102,61.417587,18.411148,-145.82579,,,
729860816.887463,0.205934,3.78847,53.54513,-0.064117,0.001358,0.981171,0.032255,0.002416,0.021545,61.417587,18.411148,-145.82579,,,
729860816.890868,0.205934,3.78847,53.54513,-0.064117,0.001358,0.981171,0.032255,0.002416,0.021545,61.417587,18.411148,-145.82579,,,
729860816.894125,0.213523,3.787699,53.5502,-0.064117,0.001358,0.981171,0.032255,0.002416,0.021545,61.417587,18.411148,-145.82579,,,
729860816.897592,0.218531,3.787871,53.554337,-0.062225,0.005295,0.96817,0.005412,-0.006206,0.013306,61.417587,18.411148,-145.82579,,,
729860816.900795,0.218531,3.787871,53.554337,-0.062225,0.005295,0.96817,0.005412,-0.006206,0.013306,61.315292,18.607895,-145.80426,,,
729860816.904233,0.21818,3.784822,53.558043,-0.062225,0.005295,0.96817,0.005412,-0.006206,0.013306,61.315292,18.607895,-145.80426,,,
729860816.907459,0.215376,3.783349,53.561444,-0.059586,0.006317,0.966782,-0.018101,-0.010526,0.009656,61.315292,18.607895,-145.80426,,,
729860816.910844,0.215376,3.783349,53.561444,-0.059586,0.006317,0.966782,-0.018101,-0.010526,0.009656,61.315292,18.607895,-145.80426,,,
729860816.914137,0.209467,3.780106,53.564388,-0.059586,0.006317,0.966782,-0.018101,-0.010526,0.009656,61.315292,18.607895,-145.80426,,,
729860816.917469,0.203248,3.778989,53.566861,-0.059418,0.002945,0.977844,-0.024846,-0.003169,0.005951,61.315292,18.607895,-145.80426,,,
729860816.920809,0.203248,3.778989,53.566861,-0.059418,0.002945,0.977844,-0.024846,-0.003169,0.005951,61.315292,18.607895,-145.80426,,,
729860816.924128,0.19607,3.779492,53.568248,-0.059418,0.002945,0.977844,-0.024846,-0.003169,0.005951,61.315292,18.607895,-145.80426,,,
729860816.927456,0.190535,3.784606,53.568348,-0.056885,-0.00029,0.999008,-0.015371,0.027011,-0.002397,61.315292,18.607895,-145.80426,,,
729860816.930877,0.190535,3.784606,53.568348,-0.056885,-0.00029,0.999008,-0.015371,0.027011,-0.002397,61.315292,18.607895,-145.80426,,,
729860816.934135,0.18723,3.793704,53.568091,-0.056885,-0.00029,0.999008,-0.015371,0.027011,-0.002397,61.315292,18.607895,-145.80426,,,
729860816.937466,0.185785,3.806901,53.567229,-0.058029,-0.00383,1.016281,0.007538,0.055947,-0.005032,61.315292,18.607895,-145.80426,,,
729860816.940792,0.185785,3.806901,53.567229,-0.058029,-0.00383,1.016281,0.007538,0.055947,-0.005032,61.289658,18.324707,-145.687271,,,
729860816.944166,0.188527,3.823287,53.566325,-0.058029,-0.00383,1.016281,0.007538,0.055947,-0.005032,61.289658,18.324707,-145.687271,,,
729860816.947461,0.190111,3.842473,53.5659,-0.070145,-0.007599,1.013687,0.013783,0.070506,-0.001273,61.289658,18.324707,-145.687271,,,
729860816.950808,0.190111,3.842473,53.5659,-0.070145,-0.007599,1.013687,0.013783,0.070506,-0.001273,61.289658,18.324707,-145.687271,,,
729860816.954154,0.194496,3.860896,53.566119,-0.070145,-0.007599,1.013687,0.013783,0.070506,-0.001273,61.289658,18.324707,-145.687271,,,
729860816.957462,0.197948,3.876807,53.567468,-0.083008,-0.002289,0.995926,0.019579,0.050279,0.007046,61.289658,18.324707,-145.687271,,,
729860816.960786,0.197948,3.876807,53.567468,-0.083008,-0.002289,0.995926,0.019579,0.050279,0.007046,61.289658,18.324707,-145.687271,,,
729860816.964147,0.203622,3.888143,53.569535,-0.083008,-0.002289,0.995926,0.019579,0.050279,0.007046,61.289658,18.324707,-145.687271,,,
729860816.967475,0.208968,3.894793,53.572096,-0.091965,-0.001099,0.988037,0.021658,0.020791,0.010715,61.289658,18.324707,-145.687271,,,
729860816.97087,0.208968,3.894793,53.572096,-0.091965,-0.001099,0.988037,0.021658,0.020791,0.010715,61.289658,18.324707,-145.687271,,,
729860816.974141,0.215522,3.897907,53.575447,-0.091965,-0.001099,0.988037,0.021658,0.020791,0.010715,61.289658,18.324707,-145.687271,,,
729860816.977455,0.222169,3.895813,53.580265,-0.097504,0.000763,0.988998,0.019741,-0.011135,0.020801,61.289658,18.324707,-145.687271,,,
729860816.980815,0.222169,3.895813,53.580265,-0.097504,0.000763,0.988998,0.019741,-0.011135,0.020801,61.289658,18.324707,-145.687271,,,
729860816.984201,0.228052,3.889606,53.587292,-0.097504,0.000763,0.988998,0.019741,-0.011135,0.020801,61.06366,18.543594,-145.663864,,,
729860816.987543,0.233965,3.87757,53.59608,-0.09201,0.004929,0.985565,0.01594,-0.043694,0.032833,61.06366,18.543594,-145.663864,,,
729860816.990818,0.233965,3.87757,53.59608,-0.09201,0.004929,0.985565,0.01594,-0.043694,0.032833,61.06366,18.543594,-145.663864,,,
729860816.994157,0.239513,3.862811,53.605449,-0.09201,0.004929,0.985565,0.01594,-0.043694,0.032833,61.06366,18.543594,-145.663864,,,
729860816.997458,0.245832,3.844582,53.614259,-0.080795,0.006027,0.992554,0.021787,-0.058268,0.029224,61.06366,18.543594,-145.663864,,,
729860817.000889,0.245832,3.844582,53.614259,-0.080795,0.006027,0.992554,0.021787,-0.058268,0.029224,61.06366,18.543594,-145.663864,,,
729860817.004128,0.252315,3.826551,53.622165,-0.080795,0.006027,0.992554,0.021787,-0.058268,0.029224,61.06366,18.543594,-145.663864,,,
729860817.007468,0.258302,3.806203,53.628947,-0.069153,0.007889,0.995285,0.024094,-0.063056,0.021451,61.06366,18.543594,-145.663864,,,
729860817.010875,0.258302,3.806203,53.628947,-0.069153,0.007889,0.995285,0.024094,-0.063056,0.021451,61.06366,18.543594,-145.663864,,,
729860817.014192,0.264774,3.787821,53.634851,-0.069153,0.007889,0.995285,0.024094,-0.063056,0.021451,61.06366,18.543594,-145.663864,,,
729860817.01746,0.268467,3.770109,53.640604,-0.058258,0.008301,0.99173,0.014644,-0.043055,0.01963,61.06366,18.543594,-145.663864,,,
729860817.020809,0.268467,3.770109,53.640604,-0.058258,0.008301,0.99173,0.014644,-0.043055,0.01963,61.06366,18.543594,-145.663864,,,
729860817.024198,0.272184,3.759817,53.645534,-0.058258,0.008301,0.99173,0.014644,-0.043055,0.01963,60.82283,18.435104,-145.503647,,,
729860817.027454,0.273135,3.756433,53.650324,-0.050522,0.006027,1.004028,0.009763,0.004351,0.018416,60.82283,18.435104,-145.503647,,,
729860817.030809,0.273135,3.756433,53.650324,-0.050522,0.006027,1.004028,0.009763,0.004351,0.018416,60.82283,18.435104,-145.503647,,,
729860817.034132,0.276368,3.759819,53.656087,-0.050522,0.006027,1.004028,0.009763,0.004351,0.018416,60.82283,18.435104,-145.503647,,,
729860817.037464,0.278078,3.772221,53.662269,-0.051407,0.002274,1.009399,0.00997,0.046022,0.021423,60.82283,18.435104,-145.503647,,,
729860817.040803,0.278078,3.772221,53.662269,-0.051407,0.002274,1.009399,0.00997,0.046022,0.021423,60.82283,18.435104,-145.503647,,,
729860817.044135,0.281573,3.785592,53.668933,-0.051407,0.002274,1.009399,0.00997,0.046022,0.021423,60.82283,18.435104,-145.503647,,,
729860817.047463,0.284864,3.804613,53.675689,-0.054108,0.003036,1.001328,0.015217,0.050973,0.022618,60.82283,18.435104,-145.503647,,,
729860817.050871,0.284864,3.804613,53.675689,-0.054108,0.003036,1.001328,0.015217,0.050973,0.022618,60.82283,18.435104,-145.503647,,,
729860817.05413,0.289803,3.816504,53.681672,-0.054108,0.003036,1.001328,0.015217,0.050973,0.022618,60.82283,18.435104,-145.503647,,,
729860817.057465,0.29417,3.831017,53.685985,-0.055832,0.006363,0.990936,0.01751,0.025715,0.011384,60.82283,18.435104,-145.503647,,,
729860817.060814,0.29417,3.831017,53.685985,-0.055832,0.006363,0.990936,0.01751,0.025715,0.011384,60.82283,18.435104,-145.503647,,,
729860817.064134,0.299831,3.834453,53.688114,-0.055832,0.006363,0.990936,0.01751,0.025715,0.011384,61.051315,18.442734,-145.486404,,,
729860817.067455,0.30509,3.837959,53.687984,-0.054581,0.00914,0.979233,0.01639,-0.013353,-0.004205,61.051315,18.442734,-145.486404,,,
729860817.070804,0.30509,3.837959,53.687984,-0.054581,0.00914,0.979233,0.01639,-0.013353,-0.004205,61.051315,18.442734,-145.486404,,,
729860817.074176,0.309596,3.830838,53.686122,-0.054581,0.00914,0.979233,0.01639,-0.013353,-0.004205,61.051315,18.442734,-145.486404,,,
729860817.077466,0.312818,3.823694,53.682538,-0.05217,0.009735,0.973572,0.007296,-0.038494,-0.016675,61.051315,18.442734,-145.486404,,,
729860817.080837,0.312818,3.823694,53.682538,-0.05217,0.009735,0.973572,0.007296,-0.038494,-0.016675,61.051315,18.442734,-145.486404,,,
729860817.084153,0.313805,3.811294,53.678333,-0.05217,0.009735,0.973572,0.007296,-0.038494,-0.016675,61.051315,18.442734,-145.486404,,,
729860817.087471,0.313635,3.800859,53.674513,-0.05275,0.009705,0.977356,-0.003822,-0.033375,-0.01476,61.051315,18.442734,-145.486404,,,
729860817.090793,0.313635,3.800859,53.674513,-0.05275,0.009705,0.977356,-0.003822,-0.033375,-0.01476,61.051315,18.442734,-145.486404,,,
729860817.094145,0.310535,3.792407,53.670376,-0.05275,0.009705,0.977356,-0.003822,-0.033375,-0.01476,61.051315,18.442734,-145.486404,,,
729860817.097465,0.305602,3.787654,53.665967,-0.048019,0.011688,0.982407,-0.020555,-0.000342,-0.017811,61.051315,18.442734,-145.486404,,,
729860817.10088,0.305602,3.787654,53.665967,-0.048019,0.011688,0.982407,-0.020555,-0.000342,-0.017811,61.051315,18.442734,-145.486404,,,
729860817.104116,0.297756,3.789297,53.661374,-0.048019,0.011688,0.982407,-0.020555,-0.000342,-0.017811,61.117004,18.456284,-145.481384,,,
729860817.10746,0.287786,3.793975,53.656501,-0.049118,0.011627,0.985718,-0.037187,0.040802,-0.020986,61.117004,18.456284,-145.481384,,,
729860817.110808,0.287786,3.793975,53.656501,-0.049118,0.011627,0.985718,-0.037187,0.040802,-0.020986,61.117004,18.456284,-145.481384,,,
729860817.11421,0.276312,3.808083,53.651634,-0.049118,0.011627,0.985718,-0.037187,0.040802,-0.020986,61.117004,18.456284,-145.481384,,,
729860817.117459,0.263781,3.823988,53.647307,-0.057007,0.010651,0.988266,-0.043367,0.076423,-0.017781,61.117004,18.456284,-145.481384,,,
729860817.120815,0.263781,3.823988,53.647307,-0.057007,0.010651,0.988266,-0.043367,0.076423,-0.017781,61.117004,18.456284,-145.481384,,,
729860817.124126,0.250323,3.846238,53.643818,-0.057007,0.010651,0.988266,-0.043367,0.076423,-0.017781,61.117004,18.456284,-145.481384,,,
729860817.127539,0.236089,3.866976,53.641103,-0.065063,0.010712,0.980942,-0.047198,0.08494,-0.012753,61.117004,18.456284,-145.481384,,,
729860817.130812,0.236089,3.866976,53.641103,-0.065063,0.010712,0.980942,-0.047198,0.08494,-0.012753,61.117004,18.456284,-145.481384,,,
729860817.134144,0.222095,3.889724,53.638762,-0.065063,0.010712,0.980942,-0.047198,0.08494,-0.012753,61.117004,18.456284,-145.481384,,,
729860817.137467,0.209076,3.907703,53.637022,-0.071548,0.007568,0.977325,-0.042886,0.068103,-0.008275,61.117004,18.456284,-145.481384,,,
729860817.140876,0.209076,3.907703,53.637022,-0.071548,0.007568,0.977325,-0.042886,0.068103,-0.008275,61.117004,18.456284,-145.481384,,,
729860817.144129,0.197437,3.92361,53.635473,-0.071548,0.007568,0.977325,-0.042886,0.068103,-0.008275,61.117004,18.456284,-145.481384,,,
729860817.147461,0.189224,3.931564,53.633154,-0.072662,0.00444,0.979294,-0.026002,0.030111,-0.01259,61.391281,18.644913,-145.739624,,,
729860817.150809,0.189224,3.931564,53.633154,-0.072662,0.00444,0.979294,-0.026002,0.030111,-0.01259,61.391281,18.644913,-145.739624,,,
729860817.15422,0.182183,3.937475,53.629511,-0.072662,0.00444,0.979294,-0.026002,0.030111,-0.01259,61.391281,18.644913,-145.739624,,,
729860817.157475,0.176891,3.937052,53.624599,-0.068329,0.001495,0.983994,-0.020049,0.004722,-0.02112,61.391281,18.644913,-145.739624,,,
729860817.160813,0.176891,3.937052,53.624599,-0.068329,0.001495,0.983994,-0.020049,0.004722,-0.02112,61.391281,18.644913,-145.739624,,,
729860817.164148,0.17133,3.93682,53.618751,-0.068329,0.001495,0.983994,-0.020049,0.004722,-0.02112,61.391281,18.644913,-145.739624,,,
729860817.167484,0.166339,3.932759,53.612416,-0.069061,0.000458,0.98613,-0.024067,-0.004478,-0.024841,61.391281,18.644913,-145.739624,,,
729860817.17082,0.166339,3.932759,53.612416,-0.069061,0.000458,0.98613,-0.024067,-0.004478,-0.024841,61.391281,18.644913,-145.739624,,,
729860817.174164,0.158547,3.931226,53.606498,-0.069061,0.000458,0.98613,-0.024067,-0.004478,-0.024841,61.391281,18.644913,-145.739624,,,
729860817.177467,0.150837,3.927372,53.601092,-0.068649,-0.001572,0.98909,-0.032007,0.001593,-0.02191,61.391281,18.644913,-145.739624,,,
729860817.180802,0.150837,3.927372,53.601092,-0.068649,-0.001572,0.98909,-0.032007,0.001593,-0.02191,61.391281,18.644913,-145.739624,,,
729860817.18416,0.140355,3.927656,53.596251,-0.068649,-0.001572,0.98909,-0.032007,0.001593,-0.02191,61.391281,18.644913,-145.739624,,,
729860817.187472,0.130139,3.925769,53.592342,-0.069016,-0.00502,0.993851,-0.041313,0.009915,-0.016105,61.347107,18.419937,-145.713333,,,
729860817.190812,0.130139,3.925769,53.592342,-0.069016,-0.00502,0.993851,-0.041313,0.009915,-0.016105,61.347107,18.419937,-145.713333,,,
729860817.194202,0.116865,3.92743,53.58902,-0.069016,-0.00502,0.993851,-0.041313,0.009915,-0.016105,61.347107,18.419937,-145.713333,,,
729860817.197464,0.103833,3.927028,53.586234,-0.071701,-0.005035,0.9953,-0.048675,0.010327,-0.012967,61.347107,18.419937,-145.713333,,,
729860817.200807,0.103833,3.927028,53.586234,-0.071701,-0.005035,0.9953,-0.048675,0.010327,-0.012967,61.347107,18.419937,-145.713333,,,
729860817.204173,0.089478,3.930249,53.584497,-0.071701,-0.005035,0.9953,-0.048675,0.010327,-0.012967,61.347107,18.419937,-145.713333,,,
729860817.207486,0.078243,3.934337,53.5841,-0.077667,-0.007065,1.008652,-0.036911,0.021172,-0.002814,61.347107,18.419937,-145.713333,,,
729860817.210818,0.078243,3.934337,53.5841,-0.077667,-0.007065,1.008652,-0.036911,0.021172,-0.002814,61.347107,18.419937,-145.713333,,,
729860817.214159,0.068899,3.939161,53.585577,-0.077667,-0.007065,1.008652,-0.036911,0.021172,-0.002814,61.347107,18.419937,-145.713333,,,
729860817.217467,0.063323,3.942831,53.588917,-0.080475,-0.01387,1.013641,-0.020168,0.009647,0.011378,61.347107,18.419937,-145.713333,,,
729860817.220901,0.063323,3.942831,53.588917,-0.080475,-0.01387,1.013641,-0.020168,0.009647,0.011378,61.347107,18.419937,-145.713333,,,
729860817.224142,0.058487,3.943268,53.593156,-0.080475,-0.01387,1.013641,-0.020168,0.009647,0.011378,61.347107,18.419937,-145.713333,,,
729860817.227463,0.055767,3.941412,53.597397,-0.075653,-0.009842,1.005035,-0.009073,-0.01477,0.012117,61.154419,19.042664,-145.817032,,,
729860817.230798,0.055767,3.941412,53.597397,-0.075653,-0.009842,1.005035,-0.009073,-0.01477,0.012117,61.154419,19.042664,-145.817032,,,
729860817.234204,0.053378,3.935045,53.600679,-0.075653,-0.009842,1.005035,-0.009073,-0.01477,0.012117,61.154419,19.042664,-145.817032,,,
729860817.237455,0.051977,3.926644,53.602471,-0.07132,-0.005035,0.996628,-0.00333,-0.030733,0.00212,61.154419,19.042664,-145.817032,,,
729860817.240874,0.051977,3.926644,53.602471,-0.07132,-0.005035,0.996628,-0.00333,-0.030733,0.00212,61.154419,19.042664,-145.817032,,,
729860817.244142,0.051312,3.915761,53.602988,-0.07132,-0.005035,0.996628,-0.00333,-0.030733,0.00212,61.154419,19.042664,-145.817032,,,
729860817.247471,0.050863,3.902892,53.602966,-0.068253,-0.003632,0.992691,-0.000623,-0.046288,-0.001488,61.154419,19.042664,-145.817032,,,
729860817.250803,0.050863,3.902892,53.602966,-0.068253,-0.003632,0.992691,-0.000623,-0.046288,-0.001488,61.154419,19.042664,-145.817032,,,
729860817.254151,0.051145,3.887974,53.602557,-0.068253,-0.003632,0.992691,-0.000623,-0.046288,-0.001488,61.154419,19.042664,-145.817032,,,
729860817.257523,0.052139,3.872917,53.601717,-0.063065,-6.1e-05,0.99353,0.00666,-0.048908,-0.00399,61.154419,19.042664,-145.817032,,,
729860817.260891,0.052139,3.872917,53.601717,-0.063065,-6.1e-05,0.99353,0.00666,-0.048908,-0.00399,61.154419,19.042664,-145.817032,,,
729860817.264206,0.054025,3.859202,53.600791,-0.063065,-6.1e-05,0.99353,0.00666,-0.048908,-0.00399,61.154419,19.042664,-145.817032,,,
729860817.267527,0.055077,3.848216,53.599808,-0.061401,-0.000229,1.001785,0.007257,-0.031683,-0.004378,61.271744,18.834824,-145.849854,,,
729860817.270817,0.055077,3.848216,53.599808,-0.061401,-0.000229,1.001785,0.007257,-0.031683,-0.004378,61.271744,18.834824,-145.849854,,,
729860817.274164,0.057545,3.8407,53.598242,-0.061401,-0.000229,1.001785,0.007257,-0.031683,-0.004378,61.271744,18.834824,-145.849854,,,
729860817.27747,0.059631,3.838773,53.595815,-0.062241,0.000229,1.009476,0.012687,0.001323,-0.009988,61.271744,18.834824,-145.849854,,,
729860817.280804,0.059631,3.838773,53.595815,-0.062241,0.000229,1.009476,0.012687,0.001323,-0.009988,61.271744,18.834824,-145.849854,,,
729860817.284131,0.062237,3.840819,53.593185,-0.062241,0.000229,1.009476,0.012687,0.001323,-0.009988,61.271744,18.834824,-145.849854,,,
729860817.287225,0.061688,3.848907,53.590501,-0.054504,0.004684,1.005768,-0.000509,0.031629,-0.011225,61.271744,18.834824,-145.849854,,,
729860817.290925,0.061688,3.848907,53.590501,-0.054504,0.004684,1.005768,-0.000509,0.031629,-0.011225,61.271744,18.834824,-145.849854,,,
729860817.294142,0.059374,3.858759,53.587632,-0.054504,0.004684,1.005768,-0.000509,0.031629,-0.011225,61.271744,18.834824,-145.849854,,,
729860817.297576,0.051817,3.873232,53.585121,-0.060287,0.003799,0.993774,-0.021083,0.047162,-0.010144,61.271744,18.834824,-145.849854,,,
729860817.300855,0.051817,3.873232,53.585121,-0.060287,0.003799,0.993774,-0.021083,0.047162,-0.010144,61.271744,18.834824,-145.849854,,,
729860817.304165,0.043365,3.887463,53.583444,-0.060287,0.003799,0.993774,-0.021083,0.047162,-0.010144,61.271744,18.834824,-145.849854,,,
729860817.307176,0.029382,3.904743,53.582952,-0.073105,0.004578,0.989212,-0.04453,0.056553,-0.003485,61.271744,18.834824,-145.849854,,,
729860817.310848,0.029382,3.904743,53.582952,-0.073105,0.004578,0.989212,-0.04453,0.056553,-0.003485,61.417664,18.93866,-145.739746,,,
729860817.314149,0.015995,3.918861,53.583914,-0.073105,0.004578,0.989212,-0.04453,0.056553,-0.003485,61.417664,18.93866,-145.739746,,,
729860817.317342,0.001184,3.930708,53.58549,-0.080154,0.001129,0.992599,-0.047594,0.035309,0.000619,61.417664,18.93866,-145.739746,,,
729860817.320797,0.001184,3.930708,53.58549,-0.080154,0.001129,0.992599,-0.047594,0.035309,0.000619,61.417664,18.93866,-145.739746,,,
729860817.324111,-0.0118,3.937888,53.587361,-0.080154,0.001129,0.992599,-0.047594,0.035309,0.000619,61.417664,18.93866,-145.739746,,,
729860817.327431,-0.023473,3.939951,53.589619,-0.082153,-0.001221,0.99649,-0.03444,-0.000508,0.004261,61.417664,18.93866,-145.739746,,,
729860817.330578,-0.023473,3.939951,53.589619,-0.082153,-0.001221,0.99649,-0.03444,-0.000508,0.004261,61.417664,18.93866,-145.739746,,,
729860817.334154,-0.031067,3.93668,53.592125,-0.082153,-0.001221,0.99649,-0.03444,-0.000508,0.004261,61.417664,18.93866,-145.739746,,,
729860817.337432,-0.033863,3.927932,53.594504,-0.079956,-0.006042,1.007156,-8.4e-05,-0.034345,0.005753,61.417664,18.93866,-145.739746,,,
729860817.340784,-0.033863,3.927932,53.594504,-0.079956,-0.006042,1.007156,-8.4e-05,-0.034345,0.005753,61.417664,18.93866,-145.739746,,,
729860817.344117,-0.031522,3.915789,53.59623,-0.079956,-0.006042,1.007156,-8.4e-05,-0.034345,0.005753,61.417664,18.93866,-145.739746,,,
729860817.347437,-0.025534,3.900157,53.597327,-0.073563,-0.008255,1.01622,0.024827,-0.047686,0.003097,61.417664,18.93866,-145.739746,,,
729860817.350795,-0.025534,3.900157,53.597327,-0.073563,-0.008255,1.01622,0.024827,-0.047686,0.003097,61.477219,19.105576,-145.73793,,,
729860817.354127,-0.017596,3.886261,53.597934,-0.073563,-0.008255,1.01622,0.024827,-0.047686,0.003097,61.477219,19.105576,-145.73793,,,
729860817.357433,-0.009058,3.872838,53.598199,-0.06279,-0.002579,1.004944,0.030414,-0.036748,0.001001,61.477219,19.105576,-145.73793,,,
729860817.360762,-0.009058,3.872838,53.598199,-0.06279,-0.002579,1.004944,0.030414,-0.036748,0.001001,61.477219,19.105576,-145.73793,,,
729860817.364071,-0.001388,3.863791,53.5981,-0.06279,-0.002579,1.004944,0.030414,-0.036748,0.001001,61.477219,19.105576,-145.73793,,,
729860817.367394,0.004242,3.85782,53.597609,-0.056473,0.002731,0.997696,0.011706,0.001781,-0.003021,61.477219,19.105576,-145.73793,,,
729860817.37073,0.004242,3.85782,53.597609,-0.056473,0.002731,0.997696,0.011706,0.001781,-0.003021,61.477219,19.105576,-145.73793,,,
729860817.374067,0.00541,3.860673,53.597312,-0.056473,0.002731,0.997696,0.011706,0.001781,-0.003021,61.477219,19.105576,-145.73793,,,
729860817.377402,0.003316,3.86721,53.597792,-0.058563,0.002243,0.992142,-0.015362,0.040921,0.000655,61.477219,19.105576,-145.73793,,,
729860817.380727,0.003316,3.86721,53.597792,-0.058563,0.002243,0.992142,-0.015362,0.040921,0.000655,61.477219,19.105576,-145.73793,,,
729860817.384069,-0.002126,3.879704,53.599306,-0.058563,0.002243,0.992142,-0.015362,0.040921,0.000655,61.477219,19.105576,-145.73793,,,
729860817.387494,-0.008649,3.894804,53.60202,-0.068939,0.001068,0.988525,-0.028552,0.055262,0.008123,61.477219,19.105576,-145.73793,,,
729860817.390802,-0.008649,3.894804,53.60202,-0.068939,0.001068,0.988525,-0.028552,0.055262,0.008123,61.589508,18.834045,-145.616074,,,
729860817.394187,-0.017211,3.908461,53.606131,-0.068939,0.001068,0.988525,-0.028552,0.055262,0.008123,61.589508,18.834045,-145.616074,,,
729860817.397505,-0.026119,3.921138,53.611344,-0.07309,0.001801,0.980728,-0.033484,0.03292,0.015429,61.589508,18.834045,-145.616074,,,
729860817.400818,-0.026119,3.921138,53.611344,-0.07309,0.001801,0.980728,-0.033484,0.03292,0.015429,61.589508,18.834045,-145.616074,,,
729860817.404136,-0.035765,3.926684,53.617397,-0.07309,0.001801,0.980728,-0.033484,0.03292,0.015429,61.589508,18.834045,-145.616074,,,
729860817.407502,-0.045653,3.928892,53.623662,-0.073822,0.001236,0.972214,-0.035214,-0.009108,0.016736,61.589508,18.834045,-145.616074,,,
729860817.410802,-0.045653,3.928892,53.623662,-0.073822,0.001236,0.972214,-0.035214,-0.009108,0.016736,61.589508,18.834045,-145.616074,,,
729860817.414135,-0.054951,3.923129,53.628839,-0.073822,0.001236,0.972214,-0.035214,-0.009108,0.016736,61.589508,18.834045,-145.616074,,,
729860817.417521,-0.063534,3.915287,53.631965,-0.062134,0.002151,0.969452,-0.026005,-0.039548,0.003038,61.589508,18.834045,-145.616074,,,
729860817.420792,-0.063534,3.915287,53.631965,-0.062134,0.002151,0.969452,-0.026005,-0.039548,0.003038,61.589508,18.834045,-145.616074,,,
729860817.424181,-0.071503,3.902698,53.632515,-0.062134,0.002151,0.969452,-0.026005,-0.039548,0.003038,61.589508,18.834045,-145.616074,,,
729860817.427588,-0.081495,3.891729,53.630746,-0.053345,-0.003479,0.975754,-0.029612,-0.036443,-0.013414,61.589508,18.834045,-145.616074,,,
729860817.430836,-0.081495,3.891729,53.630746,-0.053345,-0.003479,0.975754,-0.029612,-0.036443,-0.013414,61.589508,18.834045,-145.616074,,,
729860817.434151,-0.090601,3.882411,53.627152,-0.053345,-0.003479,0.975754,-0.029612,-0.036443,-0.013414,61.274734,19.195175,-145.645523,,,
729860817.437491,-0.09996,3.875887,53.62238,-0.054153,-0.00322,0.987778,-0.027966,-0.012015,-0.021524,61.274734,19.195175,-145.645523,,,
729860817.440858,-0.09996,3.875887,53.62238,-0.054153,-0.00322,0.987778,-0.027966,-0.012015,-0.021524,61.274734,19.195175,-145.645523,,,
729860817.444193,-0.107994,3.873598,53.618039,-0.054153,-0.00322,0.987778,-0.027966,-0.012015,-0.021524,61.274734,19.195175,-145.645523,,,
729860817.447509,-0.114646,3.873551,53.614808,-0.061172,-0.009247,0.998688,-0.022807,0.017301,-0.013357,61.274734,19.195175,-145.645523,,,
729860817.450818,-0.114646,3.873551,53.614808,-0.061172,-0.009247,0.998688,-0.022807,0.017301,-0.013357,61.274734,19.195175,-145.645523,,,
729860817.453847,-0.121747,3.879862,53.611962,-0.061172,-0.009247,0.998688,-0.022807,0.017301,-0.013357,61.274734,19.195175,-145.645523,,,
729860817.457507,-0.121747,3.879862,53.611962,-0.063629,-0.008362,1.003357,-0.022899,0.048378,-0.010848,61.274734,19.195175,-145.645523,,,
729860817.460841,-0.127861,3.888391,53.609475,-0.063629,-0.008362,1.003357,-0.022899,0.048378,-0.010848,61.274734,19.195175,-145.645523,,,
729860817.464055,-0.134936,3.90234,53.607968,-0.063629,-0.008362,1.003357,-0.022899,0.048378,-0.010848,61.274734,19.195175,-145.645523,,,
729860817.467547,-0.141909,3.916546,53.607742,-0.074753,-0.003464,0.996002,-0.027647,0.05162,-0.00223,61.274734,19.195175,-145.645523,,,
729860817.470799,-0.141909,3.916546,53.607742,-0.074753,-0.003464,0.996002,-0.027647,0.05162,-0.00223,61.274734,19.195175,-145.645523,,,
729860817.474146,-0.149911,3.929206,53.608877,-0.074753,-0.003464,0.996002,-0.027647,0.05162,-0.00223,61.432922,19.202148,-145.787216,,,
729860817.477492,-0.149911,3.929206,53.608877,-0.074753,-0.003464,0.996002,-0.02992,0.030202,0.009464,61.432922,19.202148,-145.787216,,,
729860817.48088,-0.157385,3.939695,53.611711,-0.084335,-0.001251,0.983398,-0.02992,0.030202,0.009464,61.432922,19.202148,-145.787216,,,
729860817.484133,-0.165914,3.945493,53.615891,-0.084335,-0.001251,0.983398,-0.02992,0.030202,0.009464,61.432922,19.202148,-145.787216,,,
729860817.487541,-0.165914,3.948281,53.620771,-0.087555,0.003082,0.976929,-0.03103,-0.000257,0.014322,61.432922,19.202148,-145.787216,,,
729860817.490806,-0.173922,3.948281,53.620771,-0.087555,0.003082,0.976929,-0.03103,-0.000257,0.014322,61.432922,19.202148,-145.787216,,,
729860817.494133,-0.183025,3.945379,53.625868,-0.087555,0.003082,0.976929,-0.03103,-0.000257,0.014322,61.432922,19.202148,-145.787216,,,
729860817.497515,-0.183025,3.945379,53.625868,-0.087555,0.003082,0.976929,-0.036474,-0.024972,0.012089,61.432922,19.202148,-145.787216,,,
729860817.500796,-0.191893,3.938895,53.630701,-0.085907,0.005508,0.976608,-0.036474,-0.024972,0.012089,61.432922,19.202148,-145.787216,,,
729860817.504137,-0.202216,3.93,53.635043,-0.085907,0.005508,0.976608,-0.036474,-0.024972,0.012089,61.432922,19.202148,-145.787216,,,
729860817.507379,-0.202216,3.93,53.635043,-0.07785,0.008926,0.980591,-0.03628,-0.033235,0.005997,61.432922,19.202148,-145.787216,,,
729860817.510704,-0.212483,3.917442,53.638497,-0.07785,0.008926,0.980591,-0.03628,-0.033235,0.005997,61.432922,19.202148,-145.787216,,,
729860817.514069,-0.222777,3.908168,53.641243,-0.07785,0.008926,0.980591,-0.03628,-0.033235,0.005997,61.422333,19.216415,-145.674347,,,
729860817.517487,-0.222777,3.908168,53.641243,-0.07785,0.008926,0.980591,-0.034312,-0.015893,0.002201,61.422333,19.216415,-145.674347,,,
729860817.520799,-0.232701,3.899108,53.643421,-0.07132,0.008698,0.991501,-0.034312,-0.015893,0.002201,61.422333,19.216415,-145.674347,,,
729860817.524048,-0.242298,3.895345,53.644766,-0.07132,0.008698,0.991501,-0.034312,-0.015893,0.002201,61.422333,19.216415,-145.674347,,,
729860817.527408,-0.242298,3.895345,53.644766,-0.07132,0.008698,0.991501,-0.034307,0.000196,0.000628,61.422333,19.216415,-145.674347,,,
729860817.530812,-0.252339,3.89267,53.645882,-0.067871,0.006882,0.996567,-0.034307,0.000196,0.000628,61.422333,19.216415,-145.674347,,,
729860817.534139,-0.262145,3.891866,53.646411,-0.067871,0.006882,0.996567,-0.034307,0.000196,0.000628,61.422333,19.216415,-145.674347,,,
729860817.537512,-0.262145,3.891866,53.646411,-0.067871,0.006882,0.996567,-0.026727,-0.002536,-0.009702,61.422333,19.216415,-145.674347,,,
729860817.540795,-0.271632,3.889828,53.645376,-0.064835,0.004425,0.996506,-0.026727,-0.002536,-0.009702,61.422333,19.216415,-145.674347,,,
729860817.544171,-0.278841,3.887103,53.643651,-0.064835,0.004425,0.996506,-0.026727,-0.002536,-0.009702,61.422333,19.216415,-145.674347,,,
729860817.547551,-0.278841,3.887103,53.643651,-0.064835,0.004425,0.996506,-0.016174,-0.013535,-0.008649,61.422333,19.216415,-145.674347,,,
729860817.550755,-0.28456,3.88338,53.641976,-0.066238,0.000977,1.000015,-0.016174,-0.013535,-0.008649,61.422333,19.216415,-145.674347,,,
729860817.554145,-0.288933,3.878499,53.639988,-0.066238,0.000977,1.000015,-0.016174,-0.013535,-0.008649,61.350998,19.28743,-145.822647,,,
729860817.557588,-0.288933,3.878499,53.639988,-0.066238,0.000977,1.000015,-0.011757,-0.011199,-0.003909,61.350998,19.28743,-145.822647,,,
729860817.560806,-0.291987,3.877108,53.638653,-0.067184,0.000214,1.007401,-0.011757,-0.011199,-0.003909,61.350998,19.28743,-145.822647,,,
729860817.564223,-0.295782,3.873338,53.638285,-0.067184,0.000214,1.007401,-0.011757,-0.011199,-0.003909,61.350998,19.28743,-145.822647,,,
729860817.567527,-0.295782,3.873338,53.638285,-0.067184,0.000214,1.007401,-0.011757,-0.011199,-0.003909,61.350998,19.28743,-145.822647,,,
729860817.57081,-0.29844,3.873166,53.638563,-0.063843,0.001648,1.00676,-0.013687,-0.014196,0.000304,61.350998,19.28743,-145.822647,,,
729860817.574148,-0.302929,3.868805,53.639696,-0.063843,0.001648,1.00676,-0.013687,-0.014196,0.000304,61.350998,19.28743,-145.822647,,,
729860817.577544,-0.302929,3.868805,53.639696,-0.063843,0.001648,1.00676,-0.013687,-0.014196,0.000304,61.350998,19.28743,-145.822647,,,
729860817.580797,-0.306467,3.868906,53.641518,-0.060394,0.004837,0.997803,-0.019092,-0.01203,0.00457,61.350998,19.28743,-145.822647,,,
729860817.584143,-0.313123,3.864845,53.642964,-0.060394,0.004837,0.997803,-0.019092,-0.01203,0.00457,61.350998,19.28743,-145.822647,,,
729860817.587576,-0.313123,3.864845,53.642964,-0.060394,0.004837,0.997803,-0.019092,-0.01203,0.00457,61.350998,19.28743,-145.822647,,,
729860817.5908,-0.31889,3.863834,53.643937,-0.059982,0.004578,0.995209,-0.028791,-0.010965,0.000524,61.350998,19.28743,-145.822647,,,
729860817.594237,-0.327515,3.860304,53.64471,-0.059982,0.004578,0.995209,-0.028791,-0.010965,0.000524,61.350998,19.28743,-145.822647,,,
729860817.597311,-0.327515,3.860304,53.64471,-0.059982,0.004578,0.995209,-0.028791,-0.010965,0.000524,61.384033,19.47879,-145.434708,,,
729860817.600841,-0.33393,3.859259,53.644444,-0.054352,0.000931,1.002228,-0.031304,-0.001198,-0.006953,61.384033,19.47879,-145.434708,,,
729860817.604157,-0.342799,3.859491,53.643636,-0.054352,0.000931,1.002228,-0.031304,-0.001198,-0.006953,61.384033,19.47879,-145.434708,,,
729860817.60755,-0.342799,3.859491,53.643636,-0.054352,0.000931,1.002228,-0.031304,-0.001198,-0.006953,61.384033,19.47879,-145.434708,,,
729860817.610805,-0.348722,3.861748,53.643103,-0.057495,-0.002228,1.010086,-0.025687,0.010091,-0.004681,61.384033,19.47879,-145.434708,,,
729860817.614149,-0.355288,3.863565,53.642526,-0.057495,-0.002228,1.010086,-0.025687,0.010091,-0.004681,61.384033,19.47879,-145.434708,,,
729860817.617506,-0.355288,3.863565,53.642526,-0.057495,-0.002228,1.010086,-0.025687,0.010091,-0.004681,61.384033,19.47879,-145.434708,,,
729860817.620829,-0.357745,3.863632,53.641515,-0.061523,-0.005463,1.01178,-0.010684,0.000852,-0.006625,61.384033,19.47879,-145.434708,,,
729860817.624147,-0.36035,3.862091,53.639446,-0.061523,-0.005463,1.01178,-0.010684,0.000852,-0.006625,61.384033,19.47879,-145.434708,,,
729860817.627503,-0.36035,3.862091,53.639446,-0.061523,-0.005463,1.01178,-0.010684,0.000852,-0.006625,61.384033,19.47879,-145.434708,,,
729860817.6308,-0.360175,3.857807,53.635198,-0.059433,-0.003845,1.010742,0.00019,-0.016822,-0.02113,61.384033,19.47879,-145.434708,,,
729860817.634198,-0.359972,3.851301,53.629148,-0.059433,-0.003845,1.010742,0.00019,-0.016822,-0.02113,61.384033,19.47879,-145.434708,,,
729860817.637519,-0.359972,3.851301,53.629148,-0.059433,-0.003845,1.010742,0.00019,-0.016822,-0.02113,61.408875,19.43306,-145.790329,,,
729860817.640831,-0.357721,3.843447,53.622151,-0.058411,-0.006073,1.007034,0.006123,-0.025312,-0.027299,61.408875,19.43306,-145.790329,,,
729860817.644241,-0.356998,3.835677,53.614396,-0.058411,-0.006073,1.007034,0.006123,-0.025312,-0.027299,61.408875,19.43306,-145.790329,,,
729860817.647504,-0.356998,3.835677,53.614396,-0.058411,-0.006073,1.007034,0.006123,-0.025312,-0.027299,61.408875,19.43306,-145.790329,,,
729860817.65082,-0.355501,3.827994,53.606861,-0.059113,-0.006317,1.00325,0.002198,-0.021349,-0.026006,61.408875,19.43306,-145.790329,,,
729860817.65416,-0.356743,3.822403,53.599324,-0.059113,-0.006317,1.00325,0.002198,-0.021349,-0.026006,61.408875,19.43306,-145.790329,,,
729860817.657588,-0.356743,3.822403,53.599324,-0.059113,-0.006317,1.00325,0.002198,-0.021349,-0.026006,61.408875,19.43306,-145.790329,,,
729860817.660797,-0.358255,3.818514,53.591832,-0.057541,-0.002243,1.004181,-0.01233,-0.001251,-0.026584,61.408875,19.43306,-145.790329,,,
729860817.664136,-0.362593,3.818938,53.585144,-0.057541,-0.002243,1.004181,-0.01233,-0.001251,-0.026584,61.408875,19.43306,-145.790329,,,
729860817.667573,-0.362593,3.818938,53.585144,-0.057541,-0.002243,1.004181,-0.01233,-0.001251,-0.026584,61.408875,19.43306,-145.790329,,,
729860817.670837,-0.364783,3.821708,53.579081,-0.061554,-0.006119,1.006516,-0.01229,0.022781,-0.02219,61.408875,19.43306,-145.790329,,,
729860817.674149,-0.368572,3.828578,53.573024,-0.061554,-0.006119,1.006516,-0.01229,0.022781,-0.02219,61.408875,19.43306,-145.790329,,,
729860817.677473,-0.368572,3.828578,53.573024,-0.061554,-0.006119,1.006516,-0.01229,0.022781,-0.02219,61.529236,19.421997,-145.393127,,,
729860817.680841,-0.370518,3.8348,53.566847,-0.068985,-0.006805,1.007278,-0.009791,0.033684,-0.022792,61.529236,19.421997,-145.393127,,,
729860817.684134,-0.373392,3.843553,53.560971,-0.068985,-0.006805,1.007278,-0.009791,0.033684,-0.022792,61.529236,19.421997,-145.393127,,,
729860817.687484,-0.373392,3.843553,53.560971,-0.068985,-0.006805,1.007278,-0.009791,0.033684,-0.022792,61.529236,19.421997,-145.393127,,,
729860817.690823,-0.373145,3.84875,53.555231,-0.072891,-0.010193,1.003082,0.004718,0.024879,-0.020741,61.529236,19.421997,-145.393127,,,
729860817.694149,-0.371225,3.853285,53.549504,-0.072891,-0.010193,1.003082,0.004718,0.024879,-0.020741,61.529236,19.421997,-145.393127,,,
729860817.6976,-0.371225,3.853285,53.549504,-0.072891,-0.010193,1.003082,0.004718,0.024879,-0.020741,61.529236,19.421997,-145.393127,,,
729860817.700799,-0.366212,3.853697,53.543524,-0.076202,-0.012009,1.002472,0.023684,0.005383,-0.021104,61.529236,19.421997,-145.393127,,,
729860817.704154,-0.358679,3.852681,53.536785,-0.076202,-0.012009,1.002472,0.023684,0.005383,-0.021104,61.529236,19.421997,-145.393127,,,
729860817.70748,-0.358679,3.852681,53.536785,-0.076202,-0.012009,1.002472,0.023684,0.005383,-0.021104,61.529236,19.421997,-145.393127,,,
729860817.710884,-0.349402,3.847348,53.529236,-0.075027,-0.01181,0.999741,0.033822,-0.013941,-0.026012,61.529236,19.421997,-145.393127,,,
729860817.714134,-0.340445,3.84119,53.521183,-0.075027,-0.01181,0.999741,0.033822,-0.013941,-0.026012,61.529236,19.421997,-145.393127,,,
729860817.717478,-0.340445,3.84119,53.521183,-0.075027,-0.01181,0.999741,0.033822,-0.013941,-0.026012,61.48584,19.252686,-145.22847,,,
729860817.720819,-0.331436,3.830776,53.513204,-0.077682,-0.011429,0.993927,0.032959,-0.032033,-0.025518,61.48584,19.252686,-145.22847,,,
729860817.724249,-0.322688,3.820234,53.506212,-0.077682,-0.011429,0.993927,0.032959,-0.032033,-0.025518,61.48584,19.252686,-145.22847,,,
729860817.727484,-0.322688,3.820234,53.506212,-0.077682,-0.011429,0.993927,0.032959,-0.032033,-0.025518,61.48584,19.252686,-145.22847,,,
729860817.730868,-0.314337,3.807256,53.500621,-0.079391,-0.012589,0.989258,0.031534,-0.037816,-0.015737,61.48584,19.252686,-145.22847,,,
729860817.734082,-0.306888,3.796711,53.496057,-0.079391,-0.012589,0.989258,0.031534,-0.037816,-0.015737,61.48584,19.252686,-145.22847,,,
729860817.737587,-0.306888,3.796711,53.496057,-0.079391,-0.012589,0.989258,0.031534,-0.037816,-0.015737,61.48584,19.252686,-145.22847,,,
729860817.740814,-0.300837,3.786357,53.49215,-0.076782,-0.008881,0.9888,0.018394,-0.025452,-0.011957,61.48584,19.252686,-145.22847,,,
729860817.744145,-0.297436,3.779704,53.48943,-0.076782,-0.008881,0.9888,0.018394,-0.025452,-0.011957,61.48584,19.252686,-145.22847,,,
729860817.74747,-0.297436,3.779704,53.48943,-0.076782,-0.008881,0.9888,0.018394,-0.025452,-0.011957,61.48584,19.252686,-145.22847,,,
729860817.750894,-0.297135,3.773662,53.488005,-0.076492,-0.007736,0.983307,-0.003677,-0.012093,-0.004357,61.48584,19.252686,-145.22847,,,
729860817.754147,-0.299463,3.76996,53.487519,-0.076492,-0.007736,0.983307,-0.003677,-0.012093,-0.004357,61.48584,19.252686,-145.22847,,,
729860817.757167,-0.299463,3.76996,53.487519,-0.076492,-0.007736,0.983307,-0.003677,-0.012093,-0.004357,61.48584,19.252686,-145.22847,,,
729860817.760861,-0.303724,3.767943,53.487152,-0.075806,-0.007538,0.982574,-0.014829,-0.002428,-0.004243,61.24173,19.249725,-145.772461,,,
729860817.764226,-0.307803,3.767384,53.486503,-0.075806,-0.007538,0.982574,-0.014829,-0.002428,-0.004243,61.24173,19.249725,-145.772461,,,
729860817.767481,-0.307803,3.767384,53.486503,-0.075806,-0.007538,0.982574,-0.014829,-0.002428,-0.004243,61.24173,19.249725,-145.772461,,,
729860817.770804,-0.311755,3.770691,53.485479,-0.073044,-0.008484,0.996811,-0.010112,0.015501,-0.006634,61.24173,19.249725,-145.772461,,,
729860817.774157,-0.313265,3.774565,53.484334,-0.073044,-0.008484,0.996811,-0.010112,0.015501,-0.006634,61.24173,19.249725,-145.772461,,,
729860817.777561,-0.313265,3.774565,53.484334,-0.073044,-0.008484,0.996811,-0.010112,0.015501,-0.006634,61.24173,19.249725,-145.772461,,,
729860817.780807,-0.312041,3.780013,53.483771,-0.075424,-0.01442,1.007782,0.015343,0.014183,-0.000948,61.24173,19.249725,-145.772461,,,
729860817.784162,-0.305173,3.782009,53.483832,-0.075424,-0.01442,1.007782,0.015343,0.014183,-0.000948,61.24173,19.249725,-145.772461,,,
729860817.78749,-0.305173,3.782009,53.483832,-0.075424,-0.01442,1.007782,0.015343,0.014183,-0.000948,61.24173,19.249725,-145.772461,,,
729860817.790841,-0.294085,3.78298,53.483913,-0.075333,-0.018692,1.012451,0.052714,-0.005908,0.001556,61.24173,19.249725,-145.772461,,,
729860817.793922,-0.278107,3.778807,53.483458,-0.075333,-0.018692,1.012451,0.052714,-0.005908,0.001556,61.24173,19.249725,-145.772461,,,
729860817.797587,-0.278107,3.778807,53.483458,-0.075333,-0.018692,1.012451,0.052714,-0.005908,0.001556,61.24173,19.249725,-145.772461,,,
729860817.800547,-0.260887,3.774438,53.482422,-0.075943,-0.013458,1.006714,0.068436,-0.022404,-0.001563,61.343048,19.210251,-145.602325,,,
729860817.804193,-0.242104,3.765806,53.481418,-0.075943,-0.013458,1.006714,0.068436,-0.022404,-0.001563,61.343048,19.210251,-145.602325,,,
729860817.807498,-0.242104,3.765806,53.481418,-0.075943,-0.013458,1.006714,0.068436,-0.022404,-0.001563,61.343048,19.210251,-145.602325,,,
729860817.810839,-0.227124,3.758561,53.481278,-0.077835,-0.008942,0.990005,0.052731,-0.032576,0.003389,61.343048,19.210251,-145.602325,,,
729860817.814181,-0.213926,3.748568,53.482011,-0.077835,-0.008942,0.990005,0.052731,-0.032576,0.003389,61.343048,19.210251,-145.602325,,,
729860817.817597,-0.213926,3.748568,53.482011,-0.077835,-0.008942,0.990005,0.052731,-0.032576,0.003389,61.343048,19.210251,-145.602325,,,
729860817.820842,-0.206226,3.742206,53.483677,-0.07251,-0.001251,0.978561,0.021249,-0.024988,0.007853,61.343048,19.210251,-145.602325,,,
729860817.824174,-0.202561,3.735394,53.486157,-0.07251,-0.001251,0.978561,0.021249,-0.024988,0.007853,61.343048,19.210251,-145.602325,,,
729860817.827477,-0.202561,3.735394,53.486157,-0.07251,-0.001251,0.978561,0.021249,-0.024988,0.007853,61.343048,19.210251,-145.602325,,,
729860817.830847,-0.204973,3.733328,53.48909,-0.067841,0.005707,0.977112,-0.01533,-0.007918,0.008523,61.343048,19.210251,-145.602325,,,
729860817.834153,-0.210847,3.731284,53.492078,-0.067841,0.005707,0.977112,-0.01533,-0.007918,0.008523,61.343048,19.210251,-145.602325,,,
729860817.837493,-0.210847,3.731284,53.492078,-0.067841,0.005707,0.977112,-0.01533,-0.007918,0.008523,61.343048,19.210251,-145.602325,,,
729860817.840814,-0.220243,3.733057,53.494862,-0.064285,0.002914,0.981583,-0.034672,0.002172,0.005761,61.191833,19.183899,-145.32518,,,
729860817.844143,-0.230696,3.733349,53.497297,-0.064285,0.002914,0.981583,-0.034672,0.002172,0.005761,61.191833,19.183899,-145.32518,,,
729860817.847483,-0.230696,3.733349,53.497297,-0.064285,0.002914,0.981583,-0.034672,0.002172,0.005761,61.191833,19.183899,-145.32518,,,
729860817.850914,-0.241009,3.735297,53.499102,-0.061325,-0.001404,0.990906,-0.029789,0.002356,0.001699,61.191833,19.183899,-145.32518,,,
729860817.854155,-0.247738,3.734827,53.500615,-0.061325,-0.001404,0.990906,-0.029789,0.002356,0.001699,61.191833,19.183899,-145.32518,,,
729860817.857498,-0.247738,3.734827,53.500615,-0.061325,-0.001404,0.990906,-0.029789,0.002356,0.001699,61.191833,19.183899,-145.32518,,,
729860817.86082,-0.251774,3.735903,53.501679,-0.058701,-0.008514,1.013062,-0.000854,0.000884,0.00043,61.191833,19.183899,-145.32518,,,
729860817.864223,-0.249324,3.736585,53.501537,-0.058701,-0.008514,1.013062,-0.000854,0.000884,0.00043,61.191833,19.183899,-145.32518,,,
729860817.867485,-0.249324,3.736585,53.501537,-0.058701,-0.008514,1.013062,-0.000854,0.000884,0.00043,61.191833,19.183899,-145.32518,,,
729860817.87083,-0.244428,3.741118,53.499883,-0.058945,-0.013489,1.028549,0.033795,0.01469,-0.007927,61.191833,19.183899,-145.32518,,,
729860817.874155,-0.233487,3.744794,53.497445,-0.058945,-0.013489,1.028549,0.033795,0.01469,-0.007927,61.191833,19.183899,-145.32518,,,
729860817.877548,-0.233487,3.744794,53.497445,-0.058945,-0.013489,1.028549,0.033795,0.01469,-0.007927,61.191833,19.183899,-145.32518,,,
729860817.88087,-0.221125,3.750071,53.495291,-0.065063,-0.014816,1.024109,0.0571,0.013488,-0.004428,61.191833,19.183899,-145.32518,,,
729860817.88414,-0.203599,3.75314,53.49398,-0.065063,-0.014816,1.024109,0.0571,0.013488,-0.004428,61.083557,19.075317,-145.42334,,,
729860817.887505,-0.203599,3.75314,53.49398,-0.065063,-0.014816,1.024109,0.0571,0.013488,-0.004428,61.083557,19.075317,-145.42334,,,
729860817.890884,-0.183929,3.759119,53.493741,-0.070953,-0.016479,1.026154,0.07818,0.016222,0.004412,61.083557,19.075317,-145.42334,,,
729860817.894159,-0.160312,3.763232,53.494494,-0.070953,-0.016479,1.026154,0.07818,0.016222,0.004412,61.083557,19.075317,-145.42334,,,
729860817.897501,-0.160312,3.763232,53.494494,-0.070953,-0.016479,1.026154,0.07818,0.016222,0.004412,61.083557,19.075317,-145.42334,,,
729860817.900816,-0.1342,3.769643,53.496024,-0.073807,-0.012451,1.029922,0.096368,0.019752,0.010971,61.083557,19.075317,-145.42334,,,
729860817.904222,-0.104697,3.773799,53.49807,-0.073807,-0.012451,1.029922,0.096368,0.019752,0.010971,61.083557,19.075317,-145.42334,,,
729860817.907488,-0.104697,3.773799,53.49807,-0.073807,-0.012451,1.029922,0.096368,0.019752,0.010971,61.083557,19.075317,-145.42334,,,
729860817.91056,-0.070408,3.777234,53.500478,-0.074814,-0.011398,1.030685,0.121367,0.008922,0.015135,61.083557,19.075317,-145.42334,,,
729860817.914193,-0.03516,3.777584,53.503576,-0.074814,-0.011398,1.030685,0.121367,0.008922,0.015135,61.083557,19.075317,-145.42334,,,
729860817.917591,-0.03516,3.777584,53.503576,-0.074814,-0.011398,1.030685,0.121367,0.008922,0.015135,61.083557,19.075317,-145.42334,,,
729860817.920829,0.001553,3.775144,53.507404,-0.072708,-0.003693,1.018936,0.125955,-0.010604,0.020571,61.083557,19.075317,-145.42334,,,
729860817.924197,0.038345,3.76994,53.511757,-0.072708,-0.003693,1.018936,0.125955,-0.010604,0.020571,61.277222,19.099152,-145.244629,,,
729860817.927477,0.038345,3.76994,53.511757,-0.072708,-0.003693,1.018936,0.125955,-0.010604,0.020571,61.277222,19.099152,-145.244629,,,
729860817.930758,0.07435,3.761767,53.516853,-0.0737,0.002808,1.000351,0.121188,-0.028367,0.025358,61.277222,19.099152,-145.244629,,,
729860817.934164,0.108086,3.751946,53.522534,-0.0737,0.002808,1.000351,0.121188,-0.028367,0.025358,61.277222,19.099152,-145.244629,,,
729860817.937479,0.108086,3.751946,53.522534,-0.0737,0.002808,1.000351,0.121188,-0.028367,0.025358,61.277222,19.099152,-145.244629,,,
729860817.940815,0.137731,3.739407,53.529174,-0.070908,0.007141,0.988739,0.101968,-0.038616,0.030751,61.277222,19.099152,-145.244629,,,
729860817.944262,0.164554,3.728525,53.536327,-0.070908,0.007141,0.988739,0.101968,-0.038616,0.030751,61.277222,19.099152,-145.244629,,,
729860817.947473,0.164554,3.728525,53.536327,-0.070908,0.007141,0.988739,0.101968,-0.038616,0.030751,61.277222,19.099152,-145.244629,,,
729860817.95082,0.183281,3.718941,53.54375,-0.065887,0.012283,0.980484,0.06322,-0.017577,0.029981,61.277222,19.099152,-145.244629,,,
729860817.954159,0.199665,3.714878,53.551683,-0.065887,0.012283,0.980484,0.06322,-0.017577,0.029981,61.277222,19.099152,-145.244629,,,
729860817.957479,0.199665,3.714878,53.551683,-0.065887,0.012283,0.980484,0.06322,-0.017577,0.029981,61.277222,19.099152,-145.244629,,,
729860817.960814,0.210274,3.715139,53.559878,-0.061249,0.013458,0.990067,0.042861,0.016667,0.030458,61.277222,19.099152,-145.244629,,,
729860817.964163,0.223723,3.722613,53.568236,-0.061249,0.013458,0.990067,0.042861,0.016667,0.030458,61.131592,18.72258,-145.509567,,,
729860817.967583,0.223723,3.722613,53.568236,-0.061249,0.013458,0.990067,0.042861,0.016667,0.030458,61.131592,18.72258,-145.509567,,,
729860817.970838,0.235317,3.73702,53.576726,-0.064026,0.002487,1.018829,0.053271,0.060525,0.032071,61.131592,18.72258,-145.509567,,,
729860817.974151,0.252859,3.754428,53.58555,-0.064026,0.002487,1.018829,0.053271,0.060525,0.032071,61.131592,18.72258,-145.509567,,,
729860817.977478,0.252859,3.754428,53.58555,-0.064026,0.002487,1.018829,0.053271,0.060525,0.032071,61.131592,18.72258,-145.509567,,,
729860817.980912,0.272328,3.7726,53.594798,-0.075485,-0.006485,1.026901,0.086434,0.058095,0.037345,61.131592,18.72258,-145.509567,,,
729860817.984143,0.301051,3.785489,53.605163,-0.075485,-0.006485,1.026901,0.086434,0.058095,0.037345,61.131592,18.72258,-145.509567,,,
729860817.987496,0.301051,3.785489,53.605163,-0.075485,-0.006485,1.026901,0.086434,0.058095,0.037345,61.131592,18.72258,-145.509567,,,
729860817.990836,0.334846,3.792952,53.616707,-0.08374,-0.008865,1.027405,0.136135,0.013985,0.048971,61.131592,18.72258,-145.509567,,,
729860817.99415,0.378947,3.793697,53.62864,-0.08374,-0.008865,1.027405,0.136135,0.013985,0.048971,61.131592,18.72258,-145.509567,,,
729860817.997483,0.378947,3.793697,53.62864,-0.08374,-0.008865,1.027405,0.136135,0.013985,0.048971,61.131592,18.72258,-145.509567,,,
729860818.00095,0.430096,3.791373,53.641211,-0.0849,-0.011139,1.039978,0.19333,-0.0116,0.057268,61.131592,18.72258,-145.509567,,,
729860818.00414,0.490188,3.785549,53.654381,-0.0849,-0.011139,1.039978,0.19333,-0.0116,0.057268,61.352036,18.599777,-145.361847,,,
729860818.007559,0.490188,3.785549,53.654381,-0.0849,-0.011139,1.039978,0.19333,-0.0116,0.057268,61.352036,18.599777,-145.361847,,,
729860818.010829,0.557391,3.777047,53.668816,-0.082657,-0.010223,1.039322,0.246434,-0.03497,0.069668,61.352036,18.599777,-145.361847,,,
729860818.014151,0.631808,3.764707,53.684482,-0.082657,-0.010223,1.039322,0.246434,-0.03497,0.069668,61.352036,18.599777,-145.361847,,,
729860818.017476,0.631808,3.764707,53.684482,-0.082657,-0.010223,1.039322,0.246434,-0.03497,0.069668,61.352036,18.599777,-145.361847,,,
729860818.020839,0.710689,3.751737,53.700856,-0.071106,-6.1e-05,1.029846,0.279717,-0.042576,0.076724,61.352036,18.599777,-145.361847,,,
729860818.02416,0.793515,3.739487,53.718064,-0.071106,-6.1e-05,1.029846,0.279717,-0.042576,0.076724,61.352036,18.599777,-145.361847,,,
729860818.027494,0.793515,3.739487,53.718064,-0.071106,-6.1e-05,1.029846,0.279717,-0.042576,0.076724,61.352036,18.599777,-145.361847,,,
729860818.030811,0.877292,3.729443,53.735384,-0.064941,0.007477,1.019653,0.287479,-0.028937,0.077818,61.352036,18.599777,-145.361847,,,
729860818.034142,0.960919,3.72188,53.752787,-0.064941,0.007477,1.019653,0.287479,-0.028937,0.077818,61.352036,18.599777,-145.361847,,,
729860818.03749,0.960919,3.72188,53.752787,-0.064941,0.007477,1.019653,0.287479,-0.028937,0.077818,61.352036,18.599777,-145.361847,,,
729860818.040821,1.04335,3.718418,53.769903,-0.057449,0.017532,1.011246,0.280235,0.00067,0.075248,61.352036,18.599777,-145.361847,,,
729860818.044145,1.123877,3.720183,53.786097,-0.057449,0.017532,1.011246,0.280235,0.00067,0.075248,61.352036,18.599777,-145.361847,,,
729860818.047483,1.123877,3.720183,53.786097,-0.057449,0.017532,1.011246,0.280235,0.00067,0.075248,61.148804,17.99556,-145.403519,,,
729860818.050807,1.201259,3.727554,53.800946,-0.050522,0.025436,1.011597,0.26639,0.041124,0.064958,61.148804,17.99556,-145.403519,,,
729860818.05414,1.277019,3.741137,53.814241,-0.050522,0.025436,1.011597,0.26639,0.041124,0.064958,61.148804,17.99556,-145.403519,,,
729860818.057489,1.277019,3.741137,53.814241,-0.050522,0.025436,1.011597,0.26639,0.041124,0.064958,61.148804,17.99556,-145.403519,,,
729860818.060914,1.347558,3.760256,53.826126,-0.047806,0.026917,1.012115,0.246474,0.076645,0.053965,61.148804,17.99556,-145.403519,,,
729860818.064162,1.416815,3.782014,53.836872,-0.047806,0.026917,1.012115,0.246474,0.076645,0.053965,61.148804,17.99556,-145.403519,,,
729860818.067488,1.416815,3.782014,53.836872,-0.047806,0.026917,1.012115,0.246474,0.076645,0.053965,61.148804,17.99556,-145.403519,,,
729860818.07083,1.478122,3.80636,53.846803,-0.053467,0.032181,0.998672,0.213918,0.083322,0.04657,61.148804,17.99556,-145.403519,,,
729860818.074239,1.537861,3.82779,53.855618,-0.053467,0.032181,0.998672,0.213918,0.083322,0.04657,61.148804,17.99556,-145.403519,,,
729860818.077491,1.537861,3.82779,53.855618,-0.053467,0.032181,0.998672,0.213918,0.083322,0.04657,61.148804,17.99556,-145.403519,,,
729860818.080815,1.588495,3.846227,53.863142,-0.067825,0.037674,0.982147,0.181429,0.048857,0.035847,61.148804,17.99556,-145.403519,,,
729860818.084165,1.639314,3.855405,53.869802,-0.067825,0.037674,0.982147,0.181429,0.048857,0.035847,61.148804,17.99556,-145.403519,,,
729860818.087563,1.639314,3.855405,53.869802,-0.067825,0.037674,0.982147,0.181429,0.048857,0.035847,61.127563,17.394775,-145.451889,,,
729860818.090815,1.682373,3.856987,53.875773,-0.078003,0.042404,0.968262,0.166524,-0.018218,0.030488,61.127563,17.394775,-145.451889,,,
729860818.094166,1.731653,3.845378,53.882095,-0.078003,0.042404,0.968262,0.166524,-0.018218,0.030488,61.127563,17.394775,-145.451889,,,
729860818.097495,1.731653,3.845378,53.882095,-0.078003,0.042404,0.968262,0.166524,-0.018218,0.030488,61.127563,17.394775,-145.451889,,,
729860818.100817,1.780496,3.825007,53.888866,-0.082352,0.030807,0.987686,0.198008,-0.084248,0.035738,61.127563,17.394775,-145.451889,,,
729860818.104171,1.841711,3.797146,53.89612,-0.082352,0.030807,0.987686,0.198008,-0.084248,0.035738,61.127563,17.394775,-145.451889,,,
729860818.107488,1.841711,3.797146,53.89612,-0.082352,0.030807,0.987686,0.198008,-0.084248,0.035738,61.127563,17.394775,-145.451889,,,
729860818.110821,1.908833,3.765426,53.903598,-0.07692,0.018661,1.028671,0.261552,-0.108952,0.041115,61.127563,17.394775,-145.451889,,,
729860818.114239,1.989459,3.733034,53.910697,-0.07692,0.018661,1.028671,0.261552,-0.108952,0.041115,61.127563,17.394775,-145.451889,,,
729860818.117491,1.989459,3.733034,53.910697,-0.07692,0.018661,1.028671,0.261552,-0.108952,0.041115,61.127563,17.394775,-145.451889,,,
729860818.120832,2.078623,3.700113,53.917801,-0.061646,0.016632,1.054153,0.33369,-0.108636,0.045319,61.127563,17.394775,-145.451889,,,
729860818.124163,2.178928,3.66733,53.924748,-0.061646,0.016632,1.054153,0.33369,-0.108636,0.045319,61.127563,17.394775,-145.451889,,,
729860818.127476,2.178928,3.66733,53.924748,-0.061646,0.016632,1.054153,0.33369,-0.108636,0.045319,61.02655,16.746262,-145.074722,,,
729860818.130808,2.285857,3.634025,53.930817,-0.054932,0.020538,1.051575,0.387281,-0.104306,0.041909,61.02655,16.746262,-145.074722,,,
729860818.134165,2.401034,3.605991,53.936169,-0.054932,0.020538,1.051575,0.387281,-0.104306,0.041909,61.02655,16.746262,-145.074722,,,
729860818.137531,2.401034,3.605991,53.936169,-0.054932,0.020538,1.051575,0.387281,-0.104306,0.041909,61.02655,16.746262,-145.074722,,,
729860818.140817,2.521738,3.583885,53.941492,-0.048996,0.026215,1.051804,0.433706,-0.055001,0.043939,61.02655,16.746262,-145.074722,,,
729860818.144155,2.648886,3.571856,53.947285,-0.048996,0.026215,1.051804,0.433706,-0.055001,0.043939,61.02655,16.746262,-145.074722,,,
729860818.147477,2.648886,3.571856,53.947285,-0.048996,0.026215,1.051804,0.433706,-0.055001,0.043939,61.02655,16.746262,-145.074722,,,
729860818.150878,2.779797,3.569748,53.954192,-0.047653,0.02919,1.050598,0.459372,0.014668,0.053213,61.02655,16.746262,-145.074722,,,
729860818.15415,2.91337,3.575957,53.962373,-0.047653,0.02919,1.050598,0.459372,0.014668,0.053213,61.02655,16.746262,-145.074722,,,
729860818.157487,2.91337,3.575957,53.962373,-0.047653,0.02919,1.050598,0.459372,0.014668,0.053213,61.02655,16.746262,-145.074722,,,
729860818.160825,3.048301,3.587844,53.972502,-0.047623,0.038834,1.030487,0.467935,0.055161,0.067444,61.02655,16.746262,-145.074722,,,
729860818.164227,3.183118,3.60406,53.984126,-0.047623,0.038834,1.030487,0.467935,0.055161,0.067444,61.02655,16.746262,-145.074722,,,
729860818.167513,3.183118,3.60406,53.984126,-0.047623,0.038834,1.030487,0.467935,0.055161,0.067444,61.02655,16.746262,-145.074722,,,
729860818.170838,3.3164,3.623345,53.996595,-0.05397,0.04808,1.008606,0.456657,0.077137,0.072891,61.048218,15.967102,-144.632172,,,
729860818.17415,3.446293,3.644818,54.009786,-0.05397,0.04808,1.008606,0.456657,0.077137,0.072891,61.048218,15.967102,-144.632172,,,
729860818.177525,3.446293,3.644818,54.009786,-0.05397,0.04808,1.008606,0.456657,0.077137,0.072891,61.048218,15.967102,-144.632172,,,
729860818.180826,3.571371,3.666001,54.022827,-0.059692,0.062881,0.981964,0.423193,0.075353,0.070034,61.048218,15.967102,-144.632172,,,
729860818.184143,3.690917,3.683019,54.035671,-0.059692,0.062881,0.981964,0.423193,0.075353,0.070034,61.048218,15.967102,-144.632172,,,
729860818.187484,3.690917,3.683019,54.035671,-0.059692,0.062881,0.981964,0.423193,0.075353,0.070034,61.048218,15.967102,-144.632172,,,
729860818.190805,3.805164,3.692597,54.047489,-0.063858,0.076904,0.956161,0.386763,0.02333,0.060641,61.048218,15.967102,-144.632172,,,
729860818.194143,3.915206,3.693608,54.056737,-0.063858,0.076904,0.956161,0.386763,0.02333,0.060641,61.048218,15.967102,-144.632172,,,
729860818.197261,3.915206,3.693608,54.056737,-0.063858,0.076904,0.956161,0.386763,0.02333,0.060641,61.048218,15.967102,-144.632172,,,
729860818.200852,4.023525,3.686412,54.063685,-0.069824,0.078003,0.957825,0.375816,-0.034723,0.043852,61.048218,15.967102,-144.632172,,,
729860818.204199,4.132422,3.672782,54.0687,-0.069824,0.078003,0.957825,0.375816,-0.034723,0.043852,61.048218,15.967102,-144.632172,,,
729860818.20748,4.132422,3.672782,54.0687,-0.069824,0.078003,0.957825,0.375816,-0.034723,0.043852,61.048218,15.967102,-144.632172,,,
