Time (sec),Pitch (deg),Roll (deg),Yaw(deg),X-Acceleration (g),Y-Acceleration (g),Z-Acceleration (g),Pitch Rate (deg/sec),Roll Rate (deg/sec),Yaw Rate (deg/sec),Magnetic Field in X direction (uT),Magnetic Field in Y direction (uT),Magnetic Field in Z Direction (uT),Latitude (deg),Longitude (deg),Altitude (m)
729862760.334653,-1.453637,-2.026099,-165.238107,0.044296,-0.023254,1.007111,0.033428,0.005619,0.00262,41.027618,36.429443,-141.84082,,,
729862760.337984,-1.453637,-2.026099,-165.238107,0.044296,-0.023254,1.007111,0.033428,0.005619,0.00262,41.289322,36.668396,-141.715668,,,
729862760.341415,-1.444975,-2.025767,-165.237076,0.042343,-0.025162,1.011887,0.033428,0.005619,0.00262,41.289322,36.668396,-141.715668,,,
729862760.344654,-1.43366,-2.023907,-165.23462,0.042343,-0.025162,1.011887,0.047003,0.017212,0.0107,41.289322,36.668396,-141.715668,,,
729862760.348046,-1.43366,-2.023907,-165.23462,0.042343,-0.025162,1.011887,0.047003,0.017212,0.0107,41.289322,36.668396,-141.715668,,,
729862760.351331,-1.421063,-2.020274,-165.231037,0.035706,-0.033081,1.012772,0.047003,0.017212,0.0107,41.289322,36.668396,-141.715668,,,
729862760.354664,-1.406409,-2.015918,-165.227393,0.035706,-0.033081,1.012772,0.049053,0.015515,0.008942,41.289322,36.668396,-141.715668,,,
729862760.357985,-1.406409,-2.015918,-165.227393,0.035706,-0.033081,1.012772,0.049053,0.015515,0.008942,41.289322,36.668396,-141.715668,,,
729862760.361336,-1.393012,-2.011742,-165.224017,0.035614,-0.025803,1.000015,0.049053,0.015515,0.008942,41.289322,36.668396,-141.715668,,,
729862760.36471,-1.379633,-2.007483,-165.221411,0.035614,-0.025803,1.000015,0.033798,0.014895,0.003916,41.289322,36.668396,-141.715668,,,
729862760.368051,-1.379633,-2.007483,-165.221411,0.035614,-0.025803,1.000015,0.033798,0.014895,0.003916,41.289322,36.668396,-141.715668,,,
729862760.371385,-1.369697,-2.003809,-165.219295,0.036453,-0.01886,0.988235,0.033798,0.014895,0.003916,41.289322,36.668396,-141.715668,,,
729862760.374705,-1.360743,-1.997945,-165.216769,0.036453,-0.01886,0.988235,0.018394,0.017973,0.010535,41.289322,36.668396,-141.715668,,,
729862760.377993,-1.360743,-1.997945,-165.216769,0.036453,-0.01886,0.988235,0.018394,0.017973,0.010535,41.419617,36.49147,-141.884003,,,
729862760.381354,-1.355563,-1.993534,-165.213382,0.030823,-0.025894,0.988571,0.018394,0.017973,0.010535,41.419617,36.49147,-141.884003,,,
729862760.384659,-1.35079,-1.989663,-165.208596,0.030823,-0.025894,0.988571,0.011692,0.011158,0.016744,41.419617,36.49147,-141.884003,,,
729862760.388003,-1.35079,-1.989663,-165.208596,0.030823,-0.025894,0.988571,0.011692,0.011158,0.016744,41.419617,36.49147,-141.884003,,,
729862760.391432,-1.34798,-1.985945,-165.203111,0.02919,-0.027527,0.991867,0.011692,0.011158,0.016744,41.419617,36.49147,-141.884003,,,
729862760.394661,-1.343949,-1.98714,-165.198538,0.02919,-0.027527,0.991867,0.010084,-0.00694,0.007111,41.419617,36.49147,-141.884003,,,
729862760.398018,-1.343949,-1.98714,-165.198538,0.02919,-0.027527,0.991867,0.010084,-0.00694,0.007111,41.419617,36.49147,-141.884003,,,
729862760.401346,-1.341127,-1.989283,-165.195508,0.036682,-0.025223,0.991501,0.010084,-0.00694,0.007111,41.419617,36.49147,-141.884003,,,
729862760.404669,-1.33846,-1.996788,-165.194395,0.036682,-0.025223,0.991501,0.007811,-0.030303,-0.003964,41.419617,36.49147,-141.884003,,,
729862760.408006,-1.33846,-1.996788,-165.194395,0.036682,-0.025223,0.991501,0.007811,-0.030303,-0.003964,41.419617,36.49147,-141.884003,,,
729862760.411346,-1.336506,-2.005538,-165.194681,0.04187,-0.020538,0.986023,0.007811,-0.030303,-0.003964,41.419617,36.49147,-141.884003,,,
729862760.414661,-1.335612,-2.018012,-165.19579,0.04187,-0.020538,0.986023,0.001482,-0.030558,-0.003419,41.419617,36.49147,-141.884003,,,
729862760.417997,-1.335612,-2.018012,-165.19579,0.04187,-0.020538,0.986023,0.001482,-0.030558,-0.003419,41.315155,36.595093,-141.591217,,,
729862760.421352,-1.335285,-2.027924,-165.196406,0.03949,-0.026428,0.989273,0.001482,-0.030558,-0.003419,41.315155,36.595093,-141.591217,,,
729862760.424661,-1.335796,-2.037469,-165.195781,0.03949,-0.026428,0.989273,0.003906,-0.024474,0.004954,41.315155,36.595093,-141.591217,,,
729862760.428015,-1.335796,-2.037469,-165.195781,0.03949,-0.026428,0.989273,0.003906,-0.024474,0.004954,41.315155,36.595093,-141.591217,,,
729862760.43143,-1.335845,-2.044264,-165.194145,0.036041,-0.030045,0.992935,0.003906,-0.024474,0.004954,41.315155,36.595093,-141.591217,,,
729862760.434654,-1.337557,-2.049899,-165.191813,0.036041,-0.030045,0.992935,0.004063,-0.012114,0.006882,41.315155,36.595093,-141.591217,,,
729862760.438011,-1.337557,-2.049899,-165.191813,0.036041,-0.030045,0.992935,0.004063,-0.012114,0.006882,41.315155,36.595093,-141.591217,,,
729862760.441327,-1.336687,-2.05434,-165.189244,0.037918,-0.027313,0.99321,0.004063,-0.012114,0.006882,41.315155,36.595093,-141.591217,,,
729862760.444659,-1.333956,-2.055712,-165.18684,0.037918,-0.027313,0.99321,0.021021,0.010264,0.007034,41.315155,36.595093,-141.591217,,,
729862760.448012,-1.333956,-2.055712,-165.18684,0.037918,-0.027313,0.99321,0.021021,0.010264,0.007034,41.315155,36.595093,-141.591217,,,
729862760.451341,-1.329334,-2.053843,-165.184759,0.040771,-0.02951,1.00235,0.021021,0.010264,0.007034,41.315155,36.595093,-141.591217,,,
729862760.454659,-1.321518,-2.049886,-165.182529,0.040771,-0.02951,1.00235,0.035492,0.026619,0.003929,41.315155,36.595093,-141.591217,,,
729862760.458059,-1.321518,-2.049886,-165.182529,0.040771,-0.02951,1.00235,0.035492,0.026619,0.003929,41.315155,36.595093,-141.591217,,,
729862760.461326,-1.312264,-2.04367,-165.18054,0.043488,-0.031494,1.004517,0.035492,0.026619,0.003929,41.387054,36.709839,-141.395218,,,
729862760.464756,-1.302646,-2.033911,-165.178837,0.043488,-0.031494,1.004517,0.038234,0.033888,0.004598,41.387054,36.709839,-141.395218,,,
729862760.468011,-1.302646,-2.033911,-165.178837,0.043488,-0.031494,1.004517,0.038234,0.033888,0.004598,41.387054,36.709839,-141.395218,,,
729862760.471408,-1.292562,-2.024488,-165.176604,0.033737,-0.027252,0.995621,0.038234,0.033888,0.004598,41.387054,36.709839,-141.395218,,,
729862760.474654,-1.284855,-2.013435,-165.173407,0.033737,-0.027252,0.995621,0.021887,0.035289,0.012307,41.387054,36.709839,-141.395218,,,
729862760.47801,-1.284855,-2.013435,-165.173407,0.033737,-0.027252,0.995621,0.021887,0.035289,0.012307,41.387054,36.709839,-141.395218,,,
729862760.481329,-1.278386,-2.003856,-165.169365,0.024963,-0.028854,0.979294,0.021887,0.035289,0.012307,41.387054,36.709839,-141.395218,,,
729862760.484692,-1.275565,-1.997167,-165.164739,0.024963,-0.028854,0.979294,-0.000771,0.010956,0.0133,41.387054,36.709839,-141.395218,,,
729862760.488012,-1.275565,-1.997167,-165.164739,0.024963,-0.028854,0.979294,-0.000771,0.010956,0.0133,41.387054,36.709839,-141.395218,,,
729862760.491321,-1.275925,-1.992848,-165.160169,0.026321,-0.022797,0.965256,-0.000771,0.010956,0.0133,41.387054,36.709839,-141.395218,,,
729862760.494661,-1.279024,-1.993875,-165.156435,0.026321,-0.022797,0.965256,-0.017988,-0.006287,0.00782,41.387054,36.709839,-141.395218,,,
729862760.498114,-1.279024,-1.993875,-165.156435,0.026321,-0.022797,0.965256,-0.017988,-0.006287,0.00782,41.387054,36.709839,-141.395218,,,
729862760.501337,-1.284269,-1.995822,-165.153672,0.03038,-0.015533,0.968277,-0.017988,-0.006287,0.00782,41.728104,36.605942,-141.740829,,,
729862760.504661,-1.291457,-2.001337,-165.15213,0.03038,-0.015533,0.968277,-0.015872,-0.02488,0.003992,41.728104,36.605942,-141.740829,,,
729862760.508009,-1.291457,-2.001337,-165.15213,0.03038,-0.015533,0.968277,-0.015872,-0.02488,0.003992,41.728104,36.605942,-141.740829,,,
729862760.511382,-1.297297,-2.008465,-165.151301,0.031403,-0.017975,0.983139,-0.015872,-0.02488,0.003992,41.728104,36.605942,-141.740829,,,
729862760.51465,-1.30286,-2.017735,-165.150204,0.031403,-0.017975,0.983139,-0.006225,-0.029965,0.001467,41.728104,36.605942,-141.740829,,,
729862760.517999,-1.30286,-2.017735,-165.150204,0.031403,-0.017975,0.983139,-0.006225,-0.029965,0.001467,41.728104,36.605942,-141.740829,,,
729862760.521331,-1.305204,-2.027193,-165.149284,0.038101,-0.019424,0.995026,-0.006225,-0.029965,0.001467,41.728104,36.605942,-141.740829,,,
729862760.524658,-1.307255,-2.036528,-165.149193,0.038101,-0.019424,0.995026,0.003985,-0.01906,-0.003286,41.728104,36.605942,-141.740829,,,
729862760.52799,-1.307255,-2.036528,-165.149193,0.038101,-0.019424,0.995026,0.003985,-0.01906,-0.003286,41.728104,36.605942,-141.740829,,,
729862760.531345,-1.307343,-2.042956,-165.149512,0.04364,-0.015793,0.997452,0.003985,-0.01906,-0.003286,41.728104,36.605942,-141.740829,,,
729862760.534655,-1.309041,-2.046645,-165.15045,0.04364,-0.015793,0.997452,-0.000975,0.018349,-0.001741,41.728104,36.605942,-141.740829,,,
729862760.538096,-1.309041,-2.046645,-165.15045,0.04364,-0.015793,0.997452,-0.000975,0.018349,-0.001741,41.728104,36.605942,-141.740829,,,
729862760.541326,-1.309637,-2.043529,-165.150855,0.040894,-0.015472,0.996796,-0.000975,0.018349,-0.001741,41.609863,36.52037,-141.633438,,,
729862760.544663,-1.312684,-2.035875,-165.149605,0.040894,-0.015472,0.996796,-0.007367,0.056351,0.010069,41.609863,36.52037,-141.633438,,,
729862760.548005,-1.312684,-2.035875,-165.149605,0.040894,-0.015472,0.996796,-0.007367,0.056351,0.010069,41.609863,36.52037,-141.633438,,,
729862760.551387,-1.315207,-2.021413,-165.146914,0.03157,-0.022629,1.001007,-0.007367,0.056351,0.010069,41.609863,36.52037,-141.633438,,,
729862760.554653,-1.318953,-2.001734,-165.143037,0.03157,-0.022629,1.001007,-0.008518,0.077538,0.014308,41.609863,36.52037,-141.633438,,,
729862760.557998,-1.318953,-2.001734,-165.143037,0.03157,-0.022629,1.001007,-0.008518,0.077538,0.014308,41.609863,36.52037,-141.633438,,,
729862760.561338,-1.321149,-1.980517,-165.138562,0.028961,-0.024445,1.000534,-0.008518,0.077538,0.014308,41.609863,36.52037,-141.633438,,,
729862760.564664,-1.323778,-1.956493,-165.134493,0.028961,-0.024445,1.000534,0.002768,0.071738,0.003322,41.609863,36.52037,-141.633438,,,
729862760.568,-1.323778,-1.956493,-165.134493,0.028961,-0.024445,1.000534,0.002768,0.071738,0.003322,41.609863,36.52037,-141.633438,,,
729862760.571345,-1.324185,-1.936596,-165.132516,0.030884,-0.023132,1.003448,0.002768,0.071738,0.003322,41.609863,36.52037,-141.633438,,,
729862760.57466,-1.32319,-1.918735,-165.132474,0.030884,-0.023132,1.003448,0.006193,0.041798,-0.001964,41.609863,36.52037,-141.633438,,,
729862760.578091,-1.32319,-1.918735,-165.132474,0.030884,-0.023132,1.003448,0.006193,0.041798,-0.001964,41.609863,36.52037,-141.633438,,,
729862760.581318,-1.321932,-1.906145,-165.133059,0.0298,-0.023895,0.997879,0.006193,0.041798,-0.001964,41.70961,36.610031,-142.052917,,,
729862760.584662,-1.31852,-1.89773,-165.133525,0.0298,-0.023895,0.997879,0.006128,0.012308,0.000264,41.70961,36.610031,-142.052917,,,
729862760.588002,-1.31852,-1.89773,-165.133525,0.0298,-0.023895,0.997879,0.006128,0.012308,0.000264,41.70961,36.610031,-142.052917,,,
729862760.591392,-1.316964,-1.893622,-165.133008,0.018387,-0.028625,0.993286,0.006128,0.012308,0.000264,41.70961,36.610031,-142.052917,,,
729862760.594648,-1.314669,-1.893653,-165.130654,0.018387,-0.028625,0.993286,0.00592,-0.015944,0.014733,41.70961,36.610031,-142.052917,,,
729862760.598016,-1.314669,-1.893653,-165.130654,0.018387,-0.028625,0.993286,0.00592,-0.015944,0.014733,41.70961,36.610031,-142.052917,,,
729862760.60132,-1.312834,-1.897466,-165.126382,0.011856,-0.032425,0.993271,0.00592,-0.015944,0.014733,41.70961,36.610031,-142.052917,,,
729862760.604659,-1.311114,-1.906652,-165.121126,0.011856,-0.032425,0.993271,-0.001487,-0.041327,0.018443,41.70961,36.610031,-142.052917,,,
729862760.607998,-1.311114,-1.906652,-165.121126,0.011856,-0.032425,0.993271,-0.001487,-0.041327,0.018443,41.70961,36.610031,-142.052917,,,
729862760.611333,-1.311372,-1.918296,-165.115572,0.02359,-0.024475,0.985443,-0.001487,-0.041327,0.018443,41.70961,36.610031,-142.052917,,,
729862760.614723,-1.311057,-1.935865,-165.110429,0.02359,-0.024475,0.985443,-0.007609,-0.05726,0.01439,41.70961,36.610031,-142.052917,,,
729862760.61799,-1.311057,-1.935865,-165.110429,0.02359,-0.024475,0.985443,-0.007609,-0.05726,0.01439,41.70961,36.610031,-142.052917,,,
729862760.621334,-1.313391,-1.952783,-165.105931,0.031891,-0.01915,0.984634,-0.007609,-0.05726,0.01439,41.70961,36.610031,-142.052917,,,
729862760.624657,-1.31491,-1.970266,-165.101914,0.031891,-0.01915,0.984634,-0.008316,-0.043378,0.012803,41.816422,36.648849,-141.898666,,,
729862760.628082,-1.31491,-1.970266,-165.101914,0.031891,-0.01915,0.984634,-0.008316,-0.043378,0.012803,41.816422,36.648849,-141.898666,,,
729862760.631334,-1.317897,-1.984536,-165.097824,0.041519,-0.024338,0.996719,-0.008316,-0.043378,0.012803,41.816422,36.648849,-141.898666,,,
729862760.634691,-1.321028,-1.993177,-165.093015,0.041519,-0.024338,0.996719,-0.004269,-0.011893,0.018478,41.816422,36.648849,-141.898666,,,
729862760.638005,-1.321028,-1.993177,-165.093015,0.041519,-0.024338,0.996719,-0.004269,-0.011893,0.018478,41.816422,36.648849,-141.898666,,,
729862760.641385,-1.322908,-1.998077,-165.087659,0.041306,-0.028534,1.009979,-0.004269,-0.011893,0.018478,41.816422,36.648849,-141.898666,,,
729862760.644656,-1.323663,-1.996798,-165.082116,0.041306,-0.028534,1.009979,0.009311,0.018393,0.019555,41.816422,36.648849,-141.898666,,,
729862760.648008,-1.323663,-1.996798,-165.082116,0.041306,-0.028534,1.009979,0.009311,0.018393,0.019555,41.816422,36.648849,-141.898666,,,
729862760.651329,-1.322523,-1.993179,-165.076387,0.044739,-0.031952,1.021317,0.009311,0.018393,0.019555,41.816422,36.648849,-141.898666,,,
729862760.65466,-1.318694,-1.98512,-165.070857,0.044739,-0.031952,1.021317,0.025142,0.038783,0.011286,41.816422,36.648849,-141.898666,,,
729862760.657999,-1.318694,-1.98512,-165.070857,0.044739,-0.031952,1.021317,0.025142,0.038783,0.011286,41.816422,36.648849,-141.898666,,,
729862760.661334,-1.312849,-1.975386,-165.066581,0.052368,-0.02919,1.022217,0.025142,0.038783,0.011286,41.816422,36.648849,-141.898666,,,
729862760.664661,-1.305246,-1.963684,-165.0635,0.052368,-0.02919,1.022217,0.038834,0.035023,0.007471,42.081284,36.770844,-141.923309,,,
729862760.668048,-1.305246,-1.963684,-165.0635,0.052368,-0.02919,1.022217,0.038834,0.035023,0.007471,42.081284,36.770844,-141.923309,,,
729862760.671333,-1.295059,-1.954222,-165.061004,0.047531,-0.025299,1.015182,0.038834,0.035023,0.007471,42.081284,36.770844,-141.923309,,,
729862760.674662,-1.284479,-1.942036,-165.058146,0.047531,-0.025299,1.015182,0.045832,0.021728,0.010838,42.081284,36.770844,-141.923309,,,
729862760.678008,-1.284479,-1.942036,-165.058146,0.047531,-0.025299,1.015182,0.045832,0.021728,0.010838,42.081284,36.770844,-141.923309,,,
729862760.681377,-1.271383,-1.935893,-165.0545,0.039307,-0.026138,1.007034,0.045832,0.021728,0.010838,42.081284,36.770844,-141.923309,,,
729862760.684657,-1.260602,-1.926015,-165.050611,0.039307,-0.026138,1.007034,0.037689,0.013143,0.011881,42.081284,36.770844,-141.923309,,,
729862760.688005,-1.260602,-1.926015,-165.050611,0.039307,-0.026138,1.007034,0.037689,0.013143,0.011881,42.081284,36.770844,-141.923309,,,
729862760.691323,-1.24945,-1.922513,-165.047248,0.03894,-0.020615,0.994537,0.037689,0.013143,0.011881,42.081284,36.770844,-141.923309,,,
729862760.694657,-1.240576,-1.919089,-165.043818,0.03894,-0.020615,0.994537,0.020878,0.003,0.009867,42.081284,36.770844,-141.923309,,,
729862760.698001,-1.240576,-1.919089,-165.043818,0.03894,-0.020615,0.994537,0.020878,0.003,0.009867,42.081284,36.770844,-141.923309,,,
729862760.701344,-1.233942,-1.918179,-165.040562,0.039627,-0.012833,0.984238,0.020878,0.003,0.009867,42.081284,36.770844,-141.923309,,,
729862760.704661,-1.228464,-1.917872,-165.036233,0.039627,-0.012833,0.984238,0.016678,0.003715,0.027621,41.731567,36.808075,-141.56929,,,
729862760.708062,-1.228464,-1.917872,-165.036233,0.039627,-0.012833,0.984238,0.016678,0.003715,0.027621,41.731567,36.808075,-141.56929,,,
729862760.711316,-1.223775,-1.917524,-165.028738,0.02626,-0.022217,0.99173,0.016678,0.003715,0.027621,41.731567,36.808075,-141.56929,,,
729862760.714659,-1.221212,-1.919277,-165.017708,0.02626,-0.022217,0.99173,-0.001036,0.002466,0.042493,41.731567,36.808075,-141.56929,,,
729862760.717997,-1.221212,-1.919277,-165.017708,0.02626,-0.022217,0.99173,-0.001036,0.002466,0.042493,41.731567,36.808075,-141.56929,,,
729862760.721409,-1.220764,-1.919195,-165.005131,0.02037,-0.029907,0.986313,-0.001036,0.002466,0.042493,41.731567,36.808075,-141.56929,,,
729862760.724656,-1.224019,-1.921347,-164.994224,0.02037,-0.029907,0.986313,-0.004331,0.006654,0.02071,41.731567,36.808075,-141.56929,,,
729862760.72801,-1.224019,-1.921347,-164.994224,0.02037,-0.029907,0.986313,-0.004331,0.006654,0.02071,41.731567,36.808075,-141.56929,,,
729862760.73134,-1.225802,-1.920626,-164.986807,0.04335,-0.01123,0.98436,-0.004331,0.006654,0.02071,41.731567,36.808075,-141.56929,,,
729862760.734662,-1.230664,-1.920683,-164.982562,0.04335,-0.01123,0.98436,-0.012758,0.014371,0.006657,41.731567,36.808075,-141.56929,,,
729862760.738011,-1.230664,-1.920683,-164.982562,0.04335,-0.01123,0.98436,-0.012758,0.014371,0.006657,41.731567,36.808075,-141.56929,,,
729862760.741344,-1.234931,-1.917265,-164.980297,0.046112,-0.017075,0.994965,-0.012758,0.014371,0.006657,41.731567,36.808075,-141.56929,,,
729862760.744732,-1.240334,-1.918841,-164.979799,0.046112,-0.017075,0.994965,-0.010719,0.008922,-0.007471,42.1577,36.629562,-142.218414,,,
729862760.747988,-1.240334,-1.918841,-164.979799,0.046112,-0.017075,0.994965,-0.010719,0.008922,-0.007471,42.1577,36.629562,-142.218414,,,
729862760.751431,-1.244095,-1.917099,-164.980577,0.043961,-0.02005,0.989182,-0.010719,0.008922,-0.007471,42.1577,36.629562,-142.218414,,,
729862760.754655,-1.248832,-1.918758,-164.982476,0.043961,-0.02005,0.989182,-0.012042,-0.001714,-0.006286,42.1577,36.629562,-142.218414,,,
729862760.758003,-1.248832,-1.918758,-164.982476,0.043961,-0.02005,0.989182,-0.012042,-0.001714,-0.006286,42.1577,36.629562,-142.218414,,,
729862760.761329,-1.252377,-1.919452,-164.984157,0.029312,-0.024139,0.990738,-0.012042,-0.001714,-0.006286,42.1577,36.629562,-142.218414,,,
729862760.764664,-1.254621,-1.923597,-164.985538,0.029312,-0.024139,0.990738,0.00572,-0.020988,-0.003175,42.1577,36.629562,-142.218414,,,
729862760.768004,-1.254621,-1.923597,-164.985538,0.029312,-0.024139,0.990738,0.00572,-0.020988,-0.003175,42.1577,36.629562,-142.218414,,,
729862760.771394,-1.253814,-1.929648,-164.98635,0.022751,-0.033127,0.997681,0.00572,-0.020988,-0.003175,42.1577,36.629562,-142.218414,,,
729862760.774651,-1.249183,-1.940405,-164.985988,0.022751,-0.033127,0.997681,0.028487,-0.03674,0.001565,42.1577,36.629562,-142.218414,,,
729862760.777997,-1.249183,-1.940405,-164.985988,0.022751,-0.033127,0.997681,0.028487,-0.03674,0.001565,42.1577,36.629562,-142.218414,,,
729862760.781332,-1.242745,-1.950791,-164.985106,0.026047,-0.034241,1.004837,0.028487,-0.03674,0.001565,42.1577,36.629562,-142.218414,,,
729862760.784658,-1.232352,-1.96242,-164.984052,0.026047,-0.034241,1.004837,0.035479,-0.032756,0.003682,42.1577,36.629562,-142.218414,,,
729862760.787988,-1.232352,-1.96242,-164.984052,0.026047,-0.034241,1.004837,0.035479,-0.032756,0.003682,42.181885,36.644806,-142.150665,,,
729862760.791329,-1.222825,-1.971948,-164.982555,0.035385,-0.028336,1.003647,0.035479,-0.032756,0.003682,42.181885,36.644806,-142.150665,,,
729862760.794662,-1.214557,-1.976456,-164.981139,0.035385,-0.028336,1.003647,0.032219,-0.010846,0.00533,42.181885,36.644806,-142.150665,,,
729862760.798073,-1.214557,-1.976456,-164.981139,0.035385,-0.028336,1.003647,0.032219,-0.010846,0.00533,42.181885,36.644806,-142.150665,,,
729862760.801343,-1.205082,-1.980643,-164.979496,0.03418,-0.026703,0.995422,0.032219,-0.010846,0.00533,42.181885,36.644806,-142.150665,,,
729862760.804664,-1.198096,-1.978525,-164.977101,0.03418,-0.026703,0.995422,0.022035,0.022254,0.009122,42.181885,36.644806,-142.150665,,,
729862760.808005,-1.198096,-1.978525,-164.977101,0.03418,-0.026703,0.995422,0.022035,0.022254,0.009122,42.181885,36.644806,-142.150665,,,
729862760.811404,-1.192093,-1.974119,-164.97401,0.031891,-0.020905,0.991318,0.022035,0.022254,0.009122,42.181885,36.644806,-142.150665,,,
729862760.814657,-1.186539,-1.967956,-164.971196,0.031891,-0.020905,0.991318,0.001337,0.05094,0.007032,42.181885,36.644806,-142.150665,,,
729862760.818003,-1.186539,-1.967956,-164.971196,0.031891,-0.020905,0.991318,0.001337,0.05094,0.007032,42.181885,36.644806,-142.150665,,,
729862760.821335,-1.186791,-1.954657,-164.969169,0.036407,-0.01355,0.980347,0.001337,0.05094,0.007032,42.181885,36.644806,-142.150665,,,
729862760.824664,-1.190039,-1.941533,-164.967943,0.036407,-0.01355,0.980347,-0.023391,0.054091,0.00055,42.181885,36.644806,-142.150665,,,
729862760.827995,-1.190039,-1.941533,-164.967943,0.036407,-0.01355,0.980347,-0.023391,0.054091,0.00055,42.321442,36.586609,-141.926651,,,
729862760.831328,-1.196216,-1.92606,-164.967444,0.036102,-0.008972,0.971222,-0.023391,0.054091,0.00055,42.321442,36.586609,-141.926651,,,
729862760.834665,-1.204842,-1.914484,-164.96687,0.036102,-0.008972,0.971222,-0.047654,0.037995,0.002609,42.321442,36.586609,-141.926651,,,
729862760.838065,-1.204842,-1.914484,-164.96687,0.036102,-0.008972,0.971222,-0.047654,0.037995,0.002609,42.321442,36.586609,-141.926651,,,
729862760.841329,-1.217703,-1.903289,-164.965969,0.025833,-0.015137,0.964188,-0.047654,0.037995,0.002609,42.321442,36.586609,-141.926651,,,
729862760.844656,-1.234832,-1.894484,-164.964437,0.025833,-0.015137,0.964188,-0.060383,0.007613,0.007978,42.321442,36.586609,-141.926651,,,
729862760.848101,-1.234832,-1.894484,-164.964437,0.025833,-0.015137,0.964188,-0.060383,0.007613,0.007978,42.321442,36.586609,-141.926651,,,
729862760.851381,-1.251907,-1.891962,-164.962286,0.020538,-0.017151,0.9702,-0.060383,0.007613,0.007978,42.321442,36.586609,-141.926651,,,
729862760.854658,-1.270664,-1.891592,-164.959757,0.020538,-0.017151,0.9702,-0.046305,-0.018423,0.010306,42.321442,36.586609,-141.926651,,,
729862760.858012,-1.270664,-1.891592,-164.959757,0.020538,-0.017151,0.9702,-0.046305,-0.018423,0.010306,42.321442,36.586609,-141.926651,,,
729862760.861347,-1.285429,-1.89675,-164.957122,0.025894,-0.0215,0.98848,-0.046305,-0.018423,0.010306,42.321442,36.586609,-141.926651,,,
729862760.864683,-1.299976,-1.90409,-164.95472,0.025894,-0.0215,0.98848,-0.023544,-0.037582,0.00633,42.321442,36.586609,-141.926651,,,
729862760.867999,-1.299976,-1.90409,-164.95472,0.025894,-0.0215,0.98848,-0.023544,-0.037582,0.00633,42.03157,36.78981,-142.412811,,,
729862760.871329,-1.308937,-1.915301,-164.953083,0.034729,-0.024673,1.008179,-0.023544,-0.037582,0.00633,42.03157,36.78981,-142.412811,,,
729862760.874663,-1.314102,-1.927938,-164.952032,0.034729,-0.024673,1.008179,0.005015,-0.042535,-0.000123,42.03157,36.78981,-142.412811,,,
729862760.878061,-1.314102,-1.927938,-164.952032,0.034729,-0.024673,1.008179,0.005015,-0.042535,-0.000123,42.03157,36.78981,-142.412811,,,
729862760.881334,-1.313936,-1.940206,-164.951377,0.043198,-0.025696,1.022797,0.005015,-0.042535,-0.000123,42.03157,36.78981,-142.412811,,,
729862760.884658,-1.311163,-1.951647,-164.950939,0.043198,-0.025696,1.022797,0.022188,-0.029842,0.003616,42.03157,36.78981,-142.412811,,,
729862760.888004,-1.311163,-1.951647,-164.950939,0.043198,-0.025696,1.022797,0.022188,-0.029842,0.003616,42.03157,36.78981,-142.412811,,,
729862760.891415,-1.305822,-1.961373,-164.949697,0.039444,-0.030045,1.025696,0.022188,-0.029842,0.003616,42.03157,36.78981,-142.412811,,,
729862760.894651,-1.298797,-1.96815,-164.9476,0.039444,-0.030045,1.025696,0.025968,-0.006869,0.00802,42.03157,36.78981,-142.412811,,,
729862760.898015,-1.298797,-1.96815,-164.9476,0.039444,-0.030045,1.025696,0.025968,-0.006869,0.00802,42.03157,36.78981,-142.412811,,,
729862760.901336,-1.291969,-1.971918,-164.945222,0.038605,-0.025101,1.01828,0.025968,-0.006869,0.00802,42.03157,36.78981,-142.412811,,,
729862760.904686,-1.283407,-1.973355,-164.94239,0.038605,-0.025101,1.01828,0.017109,0.007476,0.00885,42.03157,36.78981,-142.412811,,,
729862760.908007,-1.283407,-1.973355,-164.94239,0.038605,-0.025101,1.01828,0.017109,0.007476,0.00885,42.03157,36.78981,-142.412811,,,
729862760.911328,-1.278497,-1.972123,-164.939347,0.040192,-0.021454,1.009674,0.017109,0.007476,0.00885,42.269348,36.790192,-142.194702,,,
729862760.914662,-1.272966,-1.970315,-164.937051,0.040192,-0.021454,1.009674,0.008282,0.015168,0.000651,42.269348,36.790192,-142.194702,,,
729862760.918072,-1.272966,-1.970315,-164.937051,0.040192,-0.021454,1.009674,0.008282,0.015168,0.000651,42.269348,36.790192,-142.194702,,,
729862760.921326,-1.271085,-1.967367,-164.935525,0.041672,-0.018433,1.002335,0.008282,0.015168,0.000651,42.269348,36.790192,-142.194702,,,
729862760.9247,-1.268744,-1.961627,-164.93418,0.041672,-0.018433,1.002335,0.000703,0.015319,0.003663,42.269348,36.790192,-142.194702,,,
729862760.928003,-1.268744,-1.961627,-164.93418,0.041672,-0.018433,1.002335,0.000703,0.015319,0.003663,42.269348,36.790192,-142.194702,,,
729862760.931387,-1.268315,-1.95766,-164.932726,0.039169,-0.018967,1.002167,0.000703,0.015319,0.003663,42.269348,36.790192,-142.194702,,,
729862760.934661,-1.268315,-1.95766,-164.932726,0.039169,-0.018967,1.002167,-0.008068,0.028599,0.009126,42.269348,36.790192,-142.194702,,,
729862760.938013,-1.26814,-1.949746,-164.93041,0.039169,-0.018967,1.002167,-0.008068,0.028599,0.009126,42.269348,36.790192,-142.194702,,,
729862760.941348,-1.270216,-1.942498,-164.927275,0.037628,-0.022812,1.001785,-0.008068,0.028599,0.009126,42.269348,36.790192,-142.194702,,,
729862760.944694,-1.270216,-1.942498,-164.927275,0.037628,-0.022812,1.001785,-0.016976,0.034621,0.006724,42.269348,36.790192,-142.194702,,,
729862760.948018,-1.273785,-1.931988,-164.923452,0.037628,-0.022812,1.001785,-0.016976,0.034621,0.006724,42.269348,36.790192,-142.194702,,,
729862760.951325,-1.278057,-1.92232,-164.920059,0.041168,-0.017563,0.997665,-0.016976,0.034621,0.006724,42.45253,36.43399,-142.174713,,,
729862760.954659,-1.278057,-1.92232,-164.920059,0.041168,-0.017563,0.997665,-0.018458,0.036139,0.006205,42.45253,36.43399,-142.174713,,,
729862760.958056,-1.283736,-1.913317,-164.91794,0.041168,-0.017563,0.997665,-0.018458,0.036139,0.006205,42.45253,36.43399,-142.174713,,,
729862760.961326,-1.289259,-1.903148,-164.916308,0.044266,-0.013748,0.993698,-0.018458,0.036139,0.006205,42.45253,36.43399,-142.174713,,,
729862760.964663,-1.289259,-1.903148,-164.916308,0.044266,-0.013748,0.993698,-0.018458,0.036139,0.004116,42.45253,36.43399,-142.174713,,,
729862760.968004,-1.295337,-1.894714,-164.915137,0.044266,-0.013748,0.993698,-0.012588,0.033501,0.004116,42.45253,36.43399,-142.174713,,,
729862760.971393,-1.299637,-1.885054,-164.914384,0.041473,-0.018219,0.998611,-0.012588,0.033501,0.004116,42.45253,36.43399,-142.174713,,,
729862760.97466,-1.299637,-1.885054,-164.914384,0.041473,-0.018219,0.998611,0.003193,0.015735,-0.003198,42.45253,36.43399,-142.174713,,,
729862760.978005,-1.303276,-1.878839,-164.9142,0.041473,-0.018219,0.998611,0.003193,0.015735,-0.003198,42.45253,36.43399,-142.174713,,,
729862760.981325,-1.303253,-1.874458,-164.914813,0.040268,-0.020706,0.998825,0.003193,0.015735,-0.003198,42.45253,36.43399,-142.174713,,,
729862760.984709,-1.303253,-1.874458,-164.914813,0.040268,-0.020706,0.998825,0.019475,-0.008471,-0.001138,42.45253,36.43399,-142.174713,,,
729862760.988002,-1.301176,-1.874647,-164.915504,0.040268,-0.020706,0.998825,0.019475,-0.008471,-0.001138,42.45253,36.43399,-142.174713,,,
729862760.991324,-1.296411,-1.877528,-164.915318,0.030701,-0.024841,1.000168,0.019475,-0.008471,-0.001138,42.832947,36.772141,-142.674744,,,
729862760.994685,-1.296411,-1.877528,-164.915318,0.030701,-0.024841,1.000168,0.019475,-0.008471,-0.001138,42.832947,36.772141,-142.674744,,,
729862760.99807,-1.289157,-1.886299,-164.914368,0.030701,-0.024841,1.000168,0.028722,-0.036343,0.005792,42.832947,36.772141,-142.674744,,,
729862761.001343,-1.281931,-1.896999,-164.91264,0.023987,-0.023956,0.995743,0.028722,-0.036343,0.005792,42.832947,36.772141,-142.674744,,,
729862761.004675,-1.281931,-1.896999,-164.91264,0.023987,-0.023956,0.995743,0.028722,-0.036343,0.005792,42.832947,36.772141,-142.674744,,,
729862761.008011,-1.27503,-1.9123,-164.910493,0.023987,-0.023956,0.995743,0.018724,-0.05215,0.004131,42.832947,36.772141,-142.674744,,,
729862761.011398,-1.27013,-1.927266,-164.908815,0.028503,-0.017639,0.992004,0.018724,-0.05215,0.004131,42.832947,36.772141,-142.674744,,,
729862761.014692,-1.27013,-1.927266,-164.908815,0.028503,-0.017639,0.992004,0.018724,-0.05215,0.004131,42.832947,36.772141,-142.674744,,,
729862761.018011,-1.265586,-1.943876,-164.907878,0.028503,-0.017639,0.992004,0.011395,-0.047019,0.000829,42.832947,36.772141,-142.674744,,,
729862761.021333,-1.262322,-1.958482,-164.907402,0.033936,-0.015152,0.996887,0.011395,-0.047019,0.000829,42.832947,36.772141,-142.674744,,,
729862761.024709,-1.262322,-1.958482,-164.907402,0.033936,-0.015152,0.996887,0.011395,-0.047019,0.000829,42.832947,36.772141,-142.674744,,,
729862761.027988,-1.259583,-1.971756,-164.906996,0.033936,-0.015152,0.996887,0.011402,-0.030157,0.000427,42.832947,36.772141,-142.674744,,,
729862761.031333,-1.256786,-1.981369,-164.90632,0.035904,-0.018631,1.008881,0.011402,-0.030157,0.000427,42.626175,36.546921,-142.408264,,,
729862761.034671,-1.256786,-1.981369,-164.90632,0.035904,-0.018631,1.008881,0.011402,-0.030157,0.000427,42.626175,36.546921,-142.408264,,,
729862761.038057,-1.252393,-1.989668,-164.90477,0.035904,-0.018631,1.008881,0.013759,-0.001376,0.011227,42.626175,36.546921,-142.408264,,,
729862761.041324,-1.249333,-1.992216,-164.901904,0.032867,-0.023346,1.015015,0.013759,-0.001376,0.011227,42.626175,36.546921,-142.408264,,,
729862761.044712,-1.249333,-1.992216,-164.901904,0.032867,-0.023346,1.015015,0.013759,-0.001376,0.011227,42.626175,36.546921,-142.408264,,,
729862761.047999,-1.245336,-1.993132,-164.897972,0.032867,-0.023346,1.015015,0.004583,0.016925,0.015329,42.626175,36.546921,-142.408264,,,
729862761.051336,-1.243428,-1.989214,-164.893192,0.03096,-0.021942,1.009705,0.004583,0.016925,0.015329,42.626175,36.546921,-142.408264,,,
729862761.054719,-1.243428,-1.989214,-164.893192,0.03096,-0.021942,1.009705,0.004583,0.016925,0.015329,42.626175,36.546921,-142.408264,,,
729862761.057994,-1.241859,-1.985884,-164.887976,0.03096,-0.021942,1.009705,0.006536,0.013402,0.018649,42.626175,36.546921,-142.408264,,,
729862761.06133,-1.240814,-1.982191,-164.882249,0.033829,-0.02037,1.002029,0.006536,0.013402,0.018649,42.626175,36.546921,-142.408264,,,
729862761.064748,-1.240814,-1.982191,-164.882249,0.033829,-0.02037,1.002029,0.006536,0.013402,0.018649,42.626175,36.546921,-142.408264,,,
729862761.068001,-1.239218,-1.981798,-164.876236,0.033829,-0.02037,1.002029,0.009233,-0.007132,0.021379,42.626175,36.546921,-142.408264,,,
729862761.071333,-1.236596,-1.983424,-164.869903,0.031296,-0.023026,0.998993,0.009233,-0.007132,0.021379,42.626175,36.546921,-142.408264,,,
729862761.074719,-1.236596,-1.983424,-164.869903,0.031296,-0.023026,0.998993,0.009233,-0.007132,0.021379,42.852448,36.553757,-142.215073,,,
729862761.078054,-1.233842,-1.987187,-164.863562,0.031296,-0.023026,0.998993,0.015823,-0.031004,0.021556,42.852448,36.553757,-142.215073,,,
729862761.081323,-1.229323,-1.995493,-164.856929,0.029602,-0.023254,1.000854,0.015823,-0.031004,0.021556,42.852448,36.553757,-142.215073,,,
729862761.084681,-1.229323,-1.995493,-164.856929,0.029602,-0.023254,1.000854,0.015823,-0.031004,0.021556,42.852448,36.553757,-142.215073,,,
729862761.088034,-1.22377,-2.003526,-164.848791,0.029602,-0.023254,1.000854,0.026748,-0.043288,0.0299,42.852448,36.553757,-142.215073,,,
729862761.091349,-1.217195,-2.015783,-164.839615,0.028671,-0.02655,1.005081,0.026748,-0.043288,0.0299,42.852448,36.553757,-142.215073,,,
729862761.094728,-1.217195,-2.015783,-164.839615,0.028671,-0.02655,1.005081,0.026748,-0.043288,0.0299,42.852448,36.553757,-142.215073,,,
729862761.098014,-1.208436,-2.027429,-164.830008,0.028671,-0.02655,1.005081,0.032463,-0.041477,0.027296,42.852448,36.553757,-142.215073,,,
729862761.101334,-1.199877,-2.040075,-164.821139,0.03334,-0.02478,1.002396,0.032463,-0.041477,0.027296,42.852448,36.553757,-142.215073,,,
729862761.104686,-1.199877,-2.040075,-164.821139,0.03334,-0.02478,1.002396,0.032463,-0.041477,0.027296,42.852448,36.553757,-142.215073,,,
729862761.108,-1.190535,-2.050773,-164.813067,0.03334,-0.02478,1.002396,0.028183,-0.027898,0.022432,42.852448,36.553757,-142.215073,,,
729862761.111336,-1.182756,-2.059514,-164.805394,0.04158,-0.019272,0.997192,0.028183,-0.027898,0.022432,42.852448,36.553757,-142.215073,,,
729862761.114664,-1.182756,-2.059514,-164.805394,0.04158,-0.019272,0.997192,0.028183,-0.027898,0.022432,42.8853,36.570755,-142.268433,,,
729862761.118031,-1.176429,-2.065551,-164.798786,0.04158,-0.019272,0.997192,0.013774,-0.011439,0.016154,42.8853,36.570755,-142.268433,,,
729862761.121334,-1.172577,-2.069707,-164.793381,0.050446,-0.017502,0.994049,0.013774,-0.011439,0.016154,42.8853,36.570755,-142.268433,,,
729862761.124707,-1.172577,-2.069707,-164.793381,0.050446,-0.017502,0.994049,0.013774,-0.011439,0.016154,42.8853,36.570755,-142.268433,,,
729862761.128011,-1.170801,-2.071864,-164.788878,0.050446,-0.017502,0.994049,0.008924,-0.004821,0.007882,42.8853,36.570755,-142.268433,,,
729862761.131327,-1.168557,-2.074163,-164.785531,0.050385,-0.016388,0.991852,0.008924,-0.004821,0.007882,42.8853,36.570755,-142.268433,,,
729862761.134667,-1.168557,-2.074163,-164.785531,0.050385,-0.016388,0.991852,0.008924,-0.004821,0.007882,42.8853,36.570755,-142.268433,,,
729862761.138008,-1.165415,-2.074421,-164.783444,0.050385,-0.016388,0.991852,0.019472,0.001025,-0.000493,42.8853,36.570755,-142.268433,,,
729862761.141334,-1.161078,-2.075255,-164.782199,0.047836,-0.017014,0.996628,0.019472,0.001025,-0.000493,42.8853,36.570755,-142.268433,,,
729862761.144735,-1.161078,-2.075255,-164.782199,0.047836,-0.017014,0.996628,0.019472,0.001025,-0.000493,42.8853,36.570755,-142.268433,,,
729862761.147993,-1.156192,-2.074418,-164.78073,0.047836,-0.017014,0.996628,0.020917,0.007261,0.007058,42.8853,36.570755,-142.268433,,,
729862761.151333,-1.150806,-2.072998,-164.778068,0.044113,-0.017761,0.997635,0.020917,0.007261,0.007058,42.8853,36.570755,-142.268433,,,
729862761.154665,-1.150806,-2.072998,-164.778068,0.044113,-0.017761,0.997635,0.020917,0.007261,0.007058,43.189484,36.694061,-142.059174,,,
729862761.158071,-1.146688,-2.070758,-164.774745,0.044113,-0.017761,0.997635,0.0119,0.002759,0.013842,43.189484,36.694061,-142.059174,,,
729862761.161325,-1.143196,-2.070333,-164.770732,0.036652,-0.016159,0.986069,0.0119,0.002759,0.013842,43.189484,36.694061,-142.059174,,,
729862761.164687,-1.143196,-2.070333,-164.770732,0.036652,-0.016159,0.986069,0.0119,0.002759,0.013842,43.189484,36.694061,-142.059174,,,
729862761.168006,-1.14175,-2.069006,-164.766833,0.036652,-0.016159,0.986069,0.006153,-0.005208,0.007401,43.189484,36.694061,-142.059174,,,
729862761.171333,-1.140529,-2.070079,-164.763923,0.032318,-0.012543,0.980377,0.006153,-0.005208,0.007401,43.189484,36.694061,-142.059174,,,
729862761.174679,-1.140529,-2.070079,-164.763923,0.032318,-0.012543,0.980377,0.006153,-0.005208,0.007401,43.189484,36.694061,-142.059174,,,
729862761.178008,-1.141236,-2.070796,-164.761347,0.032318,-0.012543,0.980377,-0.000586,-0.007217,0.006657,43.189484,36.694061,-142.059174,,,
729862761.181333,-1.140834,-2.074177,-164.758799,0.037781,-0.012024,0.981552,-0.000586,-0.007217,0.006657,43.189484,36.694061,-142.059174,,,
729862761.184763,-1.140834,-2.074177,-164.758799,0.037781,-0.012024,0.981552,-0.000586,-0.007217,0.006657,43.189484,36.694061,-142.059174,,,
729862761.188014,-1.141163,-2.077604,-164.755667,0.037781,-0.012024,0.981552,0.001485,-0.005767,0.009235,43.189484,36.694061,-142.059174,,,
729862761.19137,-1.140846,-2.080462,-164.752521,0.034439,-0.01445,0.989868,0.001485,-0.005767,0.009235,43.189484,36.694061,-142.059174,,,
729862761.194665,-1.140846,-2.080462,-164.752521,0.034439,-0.01445,0.989868,0.001485,-0.005767,0.009235,43.155548,36.697952,-142.225113,,,
729862761.198062,-1.139889,-2.08397,-164.748939,0.034439,-0.01445,0.989868,0.008009,-0.00062,0.015255,43.155548,36.697952,-142.225113,,,
729862761.20135,-1.138289,-2.085239,-164.744251,0.02803,-0.020798,0.997803,0.008009,-0.00062,0.015255,43.155548,36.697952,-142.225113,,,
729862761.204698,-1.138289,-2.085239,-164.744251,0.02803,-0.020798,0.997803,0.008009,-0.00062,0.015255,43.155548,36.697952,-142.225113,,,
729862761.20799,-1.135491,-2.090554,-164.739425,0.02803,-0.020798,0.997803,0.015371,-0.006391,0.016671,43.155548,36.697952,-142.225113,,,
729862761.211371,-1.132119,-2.092215,-164.734368,0.026047,-0.021164,0.997131,0.015371,-0.006391,0.016671,43.155548,36.697952,-142.225113,,,
729862761.214668,-1.132119,-2.092215,-164.734368,0.026047,-0.021164,0.997131,0.015371,-0.006391,0.016671,43.155548,36.697952,-142.225113,,,
729862761.217999,-1.127017,-2.097807,-164.729173,0.026047,-0.021164,0.997131,0.012506,-0.012711,0.017214,43.155548,36.697952,-142.225113,,,
729862761.221381,-1.122755,-2.101699,-164.723917,0.028244,-0.019211,0.99382,0.012506,-0.012711,0.017214,43.155548,36.697952,-142.225113,,,
729862761.224701,-1.122755,-2.101699,-164.723917,0.028244,-0.019211,0.99382,0.012506,-0.012711,0.017214,43.155548,36.697952,-142.225113,,,
729862761.228004,-1.119113,-2.109979,-164.718787,0.028244,-0.019211,0.99382,0.007793,-0.028272,0.01716,43.155548,36.697952,-142.225113,,,
729862761.231338,-1.116876,-2.118098,-164.713519,0.027832,-0.018799,0.987228,0.007793,-0.028272,0.01716,43.155548,36.697952,-142.225113,,,
729862761.234692,-1.116876,-2.118098,-164.713519,0.027832,-0.018799,0.987228,0.007793,-0.028272,0.01716,43.155548,36.697952,-142.225113,,,
729862761.238068,-1.115707,-2.129172,-164.708577,0.027832,-0.018799,0.987228,-0.002683,-0.031727,0.016713,43.199921,36.526093,-142.289276,,,
729862761.241327,-1.115966,-2.138998,-164.703848,0.026047,-0.020966,0.989807,-0.002683,-0.031727,0.016713,43.199921,36.526093,-142.289276,,,
729862761.24467,-1.115966,-2.138998,-164.703848,0.026047,-0.020966,0.989807,-0.002683,-0.031727,0.016713,43.199921,36.526093,-142.289276,,,
729862761.248017,-1.115944,-2.147761,-164.698351,0.026047,-0.020966,0.989807,-0.004842,-0.028963,0.021065,43.199921,36.526093,-142.289276,,,
729862761.251326,-1.117158,-2.156542,-164.691983,0.026611,-0.024002,1.000809,-0.004842,-0.028963,0.021065,43.199921,36.526093,-142.289276,,,
729862761.254683,-1.117158,-2.156542,-164.691983,0.026611,-0.024002,1.000809,-0.004842,-0.028963,0.021065,43.199921,36.526093,-142.289276,,,
729862761.25799,-1.117102,-2.164007,-164.685579,0.026611,-0.024002,1.000809,-6.5e-05,-0.02674,0.018564,43.199921,36.526093,-142.289276,,,
729862761.26133,-1.118079,-2.17183,-164.679472,0.035522,-0.025436,1.005325,-6.5e-05,-0.02674,0.018564,43.199921,36.526093,-142.289276,,,
729862761.264772,-1.118079,-2.17183,-164.679472,0.035522,-0.025436,1.005325,-6.5e-05,-0.02674,0.018564,43.199921,36.526093,-142.289276,,,
729862761.268021,-1.11666,-2.178677,-164.674414,0.035522,-0.025436,1.005325,0.002066,-0.014251,0.011143,43.199921,36.526093,-142.289276,,,
729862761.271335,-1.116515,-2.183642,-164.670844,0.043365,-0.018021,1.003876,0.002066,-0.014251,0.011143,43.199921,36.526093,-142.289276,,,
729862761.274681,-1.116515,-2.183642,-164.670844,0.043365,-0.018021,1.003876,0.002066,-0.014251,0.011143,43.199921,36.526093,-142.289276,,,
729862761.278001,-1.116082,-2.185631,-164.667929,0.043365,-0.018021,1.003876,-0.000812,-0.001161,0.010825,43.484329,36.72641,-142.362442,,,
729862761.281334,-1.116513,-2.186954,-164.664686,0.039185,-0.020569,0.999908,-0.000812,-0.001161,0.010825,43.484329,36.72641,-142.362442,,,
729862761.284694,-1.116513,-2.186954,-164.664686,0.039185,-0.020569,0.999908,-0.000812,-0.001161,0.010825,43.484329,36.72641,-142.362442,,,
729862761.288003,-1.11812,-2.18398,-164.660628,0.039185,-0.020569,0.999908,-0.007862,0.004849,0.014128,43.484329,36.72641,-142.362442,,,
729862761.291332,-1.119834,-2.183093,-164.656588,0.031738,-0.026672,0.995682,-0.007862,0.004849,0.014128,43.484329,36.72641,-142.362442,,,
729862761.294674,-1.119834,-2.183093,-164.656588,0.031738,-0.026672,0.995682,-0.007862,0.004849,0.014128,43.484329,36.72641,-142.362442,,,
729862761.298009,-1.121828,-2.1803,-164.652906,0.031738,-0.026672,0.995682,-0.003858,-0.000743,0.010153,43.484329,36.72641,-142.362442,,,
729862761.30133,-1.123546,-2.180966,-164.649654,0.03656,-0.023788,0.994965,-0.003858,-0.000743,0.010153,43.484329,36.72641,-142.362442,,,
729862761.30473,-1.123546,-2.180966,-164.649654,0.03656,-0.023788,0.994965,-0.003858,-0.000743,0.010153,43.484329,36.72641,-142.362442,,,
729862761.308011,-1.124764,-2.17987,-164.646202,0.03656,-0.023788,0.994965,-0.002536,-0.005493,0.009481,43.484329,36.72641,-142.362442,,,
729862761.311332,-1.125316,-2.181911,-164.64236,0.038162,-0.026718,0.996628,-0.002536,-0.005493,0.009481,43.484329,36.72641,-142.362442,,,
729862761.314677,-1.125316,-2.181911,-164.64236,0.038162,-0.026718,0.996628,-0.002536,-0.005493,0.009481,43.484329,36.72641,-142.362442,,,
729862761.317998,-1.12405,-2.181639,-164.638419,0.038162,-0.026718,0.996628,0.01696,-0.006859,0.011807,43.665359,36.64064,-142.395111,,,
729862761.321333,-1.120665,-2.183655,-164.63466,0.039474,-0.032669,1.006332,0.01696,-0.006859,0.011807,43.665359,36.64064,-142.395111,,,
729862761.32466,-1.120665,-2.183655,-164.63466,0.039474,-0.032669,1.006332,0.01696,-0.006859,0.011807,43.665359,36.64064,-142.395111,,,
729862761.327996,-1.115408,-2.183888,-164.63156,0.039474,-0.032669,1.006332,0.032914,-0.013732,0.003508,43.665359,36.64064,-142.395111,,,
729862761.331334,-1.107502,-2.188509,-164.629908,0.045959,-0.027832,1.008545,0.032914,-0.013732,0.003508,43.665359,36.64064,-142.395111,,,
729862761.334676,-1.107502,-2.188509,-164.629908,0.045959,-0.027832,1.008545,0.032914,-0.013732,0.003508,43.665359,36.64064,-142.395111,,,
729862761.338016,-1.099549,-2.191467,-164.628864,0.045959,-0.027832,1.008545,0.030472,-0.018874,0.001476,43.665359,36.64064,-142.395111,,,
729862761.341326,-1.0909,-2.197218,-164.627852,0.045883,-0.025604,0.998276,0.030472,-0.018874,0.001476,43.665359,36.64064,-142.395111,,,
729862761.344672,-1.0909,-2.197218,-164.627852,0.045883,-0.025604,0.998276,0.030472,-0.018874,0.001476,43.665359,36.64064,-142.395111,,,
729862761.34801,-1.084454,-2.201987,-164.626952,0.045883,-0.025604,0.998276,0.019809,-0.009336,0.003408,43.665359,36.64064,-142.395111,,,
729862761.351334,-1.0792,-2.20617,-164.625879,0.047028,-0.023041,0.987198,0.019809,-0.009336,0.003408,43.665359,36.64064,-142.395111,,,
729862761.354727,-1.0792,-2.20617,-164.625879,0.047028,-0.023041,0.987198,0.019809,-0.009336,0.003408,43.665359,36.64064,-142.395111,,,
729862761.358059,-1.075605,-2.209766,-164.62471,0.047028,-0.023041,0.987198,0.002553,-0.001735,0.002294,43.665359,36.64064,-142.395111,,,
729862761.361328,-1.07482,-2.210691,-164.62371,0.050079,-0.018753,0.981262,0.002553,-0.001735,0.002294,44.105316,36.47261,-142.208511,,,
729862761.364692,-1.07482,-2.210691,-164.62371,0.050079,-0.018753,0.981262,0.002553,-0.001735,0.002294,44.105316,36.47261,-142.208511,,,
729862761.36803,-1.077551,-2.210832,-164.623588,0.050079,-0.018753,0.981262,-0.010162,0.000985,-0.006427,44.105316,36.47261,-142.208511,,,
729862761.371376,-1.08061,-2.211243,-164.624916,0.05545,-0.018494,0.981064,-0.010162,0.000985,-0.006427,44.105316,36.47261,-142.208511,,,
729862761.374698,-1.08061,-2.211243,-164.624916,0.05545,-0.018494,0.981064,-0.010162,0.000985,-0.006427,44.105316,36.47261,-142.208511,,,
729862761.378084,-1.085961,-2.20929,-164.627141,0.05545,-0.018494,0.981064,-0.018402,0.016897,-0.013041,44.105316,36.47261,-142.208511,,,
729862761.381332,-1.09061,-2.206249,-164.629854,0.056046,-0.020004,0.990112,-0.018402,0.016897,-0.013041,44.105316,36.47261,-142.208511,,,
729862761.384675,-1.09061,-2.206249,-164.629854,0.056046,-0.020004,0.990112,-0.018402,0.016897,-0.013041,44.105316,36.47261,-142.208511,,,
729862761.388058,-1.097196,-2.200379,-164.633213,0.056046,-0.020004,0.990112,-0.021634,0.028186,-0.013106,44.105316,36.47261,-142.208511,,,
729862761.39137,-1.103319,-2.193264,-164.636784,0.051834,-0.020721,0.990829,-0.021634,0.028186,-0.013106,44.105316,36.47261,-142.208511,,,
729862761.394699,-1.103319,-2.193264,-164.636784,0.051834,-0.020721,0.990829,-0.021634,0.028186,-0.013106,44.105316,36.47261,-142.208511,,,
729862761.39802,-1.111415,-2.185561,-164.640156,0.051834,-0.020721,0.990829,-0.017138,0.028688,-0.014639,44.105316,36.47261,-142.208511,,,
729862761.401336,-1.116801,-2.177849,-164.643559,0.048279,-0.023438,0.993118,-0.017138,0.028688,-0.014639,43.999557,36.734329,-142.108887,,,
729862761.404669,-1.116801,-2.177849,-164.643559,0.048279,-0.023438,0.993118,-0.017138,0.028688,-0.014639,43.999557,36.734329,-142.108887,,,
729862761.408031,-1.123153,-2.171018,-164.647417,0.048279,-0.023438,0.993118,-0.006648,0.021433,-0.017105,43.999557,36.734329,-142.108887,,,
729862761.411332,-1.125517,-2.165467,-164.651657,0.045715,-0.023514,0.997208,-0.006648,0.021433,-0.017105,43.999557,36.734329,-142.108887,,,
729862761.414695,-1.125517,-2.165467,-164.651657,0.045715,-0.023514,0.997208,-0.006648,0.021433,-0.017105,43.999557,36.734329,-142.108887,,,
729862761.418006,-1.128033,-2.164851,-164.65575,0.045715,-0.023514,0.997208,-0.002531,-5e-05,-0.013352,43.999557,36.734329,-142.108887,,,
729862761.421341,-1.128921,-2.165015,-164.65918,0.040115,-0.023361,0.991058,-0.002531,-5e-05,-0.013352,43.999557,36.734329,-142.108887,,,
729862761.424685,-1.128921,-2.165015,-164.65918,0.040115,-0.023361,0.991058,-0.002531,-5e-05,-0.013352,43.999557,36.734329,-142.108887,,,
729862761.428098,-1.131929,-2.168962,-164.661893,0.040115,-0.023361,0.991058,-0.013125,-0.010864,-0.006228,43.999557,36.734329,-142.108887,,,
729862761.431332,-1.135451,-2.172613,-164.663641,0.033966,-0.023865,0.985672,-0.013125,-0.010864,-0.006228,43.999557,36.734329,-142.108887,,,
729862761.434694,-1.135451,-2.172613,-164.663641,0.033966,-0.023865,0.985672,-0.013125,-0.010864,-0.006228,43.999557,36.734329,-142.108887,,,
729862761.438016,-1.141448,-2.179289,-164.664389,0.033966,-0.023865,0.985672,-0.029462,-0.009398,-0.001548,43.999557,36.734329,-142.108887,,,
729862761.441344,-1.148758,-2.183147,-164.664835,0.038101,-0.020233,0.985672,-0.029462,-0.009398,-0.001548,43.960327,36.577576,-142.198669,,,
729862761.444661,-1.148758,-2.183147,-164.664835,0.038101,-0.020233,0.985672,-0.029462,-0.009398,-0.001548,43.960327,36.577576,-142.198669,,,
729862761.448041,-1.157193,-2.189797,-164.665515,0.038101,-0.020233,0.985672,-0.029012,-0.009499,-0.003942,43.960327,36.577576,-142.198669,,,
729862761.451029,-1.16586,-2.193052,-164.666436,0.044785,-0.019943,0.992264,-0.029012,-0.009499,-0.003942,43.960327,36.577576,-142.198669,,,
729862761.454787,-1.16586,-2.193052,-164.666436,0.044785,-0.019943,0.992264,-0.029012,-0.009499,-0.003942,43.960327,36.577576,-142.198669,,,
729862761.45804,-1.17328,-2.20099,-164.668157,0.044785,-0.019943,0.992264,-0.014603,-0.011614,-0.009507,43.960327,36.577576,-142.198669,,,
729862761.461329,-1.17888,-2.204759,-164.670318,0.047714,-0.025681,1.004608,-0.014603,-0.011614,-0.009507,43.960327,36.577576,-142.198669,,,
729862761.464685,-1.17888,-2.204759,-164.670318,0.047714,-0.025681,1.004608,-0.014603,-0.011614,-0.009507,43.960327,36.577576,-142.198669,,,
729862761.468072,-1.182787,-2.21251,-164.672927,0.047714,-0.025681,1.004608,-0.009246,-0.010753,-0.007689,43.960327,36.577576,-142.198669,,,
729862761.47132,-1.185742,-2.215958,-164.675772,0.044357,-0.027756,1.002441,-0.009246,-0.010753,-0.007689,43.960327,36.577576,-142.198669,,,
729862761.474672,-1.185742,-2.215958,-164.675772,0.044357,-0.027756,1.002441,-0.009246,-0.010753,-0.007689,43.960327,36.577576,-142.198669,,,
729862761.478003,-1.188705,-2.22269,-164.678614,0.044357,-0.027756,1.002441,-0.007844,-0.011543,-0.011155,43.960327,36.577576,-142.198669,,,
729862761.481336,-1.191305,-2.22654,-164.681804,0.041519,-0.023331,0.992722,-0.007844,-0.011543,-0.011155,43.805862,36.715347,-142.196701,,,
729862761.484575,-1.191305,-2.22654,-164.681804,0.041519,-0.023331,0.992722,-0.007844,-0.011543,-0.011155,43.805862,36.715347,-142.196701,,,
729862761.488039,-1.195045,-2.232496,-164.685512,0.041519,-0.023331,0.992722,-0.019492,-0.011142,-0.014433,43.805862,36.715347,-142.196701,,,
729862761.491328,-1.200243,-2.236411,-164.68932,0.042389,-0.022537,0.988251,-0.019492,-0.011142,-0.014433,43.805862,36.715347,-142.196701,,,
729862761.494723,-1.200243,-2.236411,-164.68932,0.042389,-0.022537,0.988251,-0.019492,-0.011142,-0.014433,43.805862,36.715347,-142.196701,,,
729862761.498102,-1.206927,-2.241198,-164.693424,0.042389,-0.022537,0.988251,-0.029375,-0.00532,-0.015857,43.805862,36.715347,-142.196701,,,
729862761.501323,-1.214405,-2.243438,-164.697987,0.043259,-0.020935,0.987961,-0.029375,-0.00532,-0.015857,43.805862,36.715347,-142.196701,,,
729862761.504673,-1.214405,-2.243438,-164.697987,0.043259,-0.020935,0.987961,-0.029375,-0.00532,-0.015857,43.805862,36.715347,-142.196701,,,
729862761.508076,-1.223774,-2.244022,-164.702562,0.043259,-0.020935,0.987961,-0.031662,0.008414,-0.011974,43.805862,36.715347,-142.196701,,,
729862761.511324,-1.232907,-2.242943,-164.706225,0.039795,-0.025055,0.99292,-0.031662,0.008414,-0.011974,43.805862,36.715347,-142.196701,,,
729862761.514662,-1.232907,-2.242943,-164.706225,0.039795,-0.025055,0.99292,-0.031662,0.008414,-0.011974,43.805862,36.715347,-142.196701,,,
729862761.518014,-1.243026,-2.239056,-164.708786,0.039795,-0.025055,0.99292,-0.031093,0.016687,-0.003109,43.805862,36.715347,-142.196701,,,
729862761.521332,-1.252586,-2.235128,-164.7099,0.035507,-0.032364,1.000519,-0.031093,0.016687,-0.003109,43.805862,36.715347,-142.196701,,,
729862761.524679,-1.252586,-2.235128,-164.7099,0.035507,-0.032364,1.000519,-0.031093,0.016687,-0.003109,43.774429,36.629242,-141.993744,,,
729862761.527993,-1.260427,-2.231359,-164.71008,0.035507,-0.032364,1.000519,-0.021991,0.008572,-0.00643,43.774429,36.629242,-141.993744,,,
729862761.531326,-1.267298,-2.229062,-164.710979,0.038651,-0.032455,1.003647,-0.021991,0.008572,-0.00643,43.774429,36.629242,-141.993744,,,
729862761.534745,-1.267298,-2.229062,-164.710979,0.038651,-0.032455,1.003647,-0.021991,0.008572,-0.00643,43.774429,36.629242,-141.993744,,,
729862761.538005,-1.273004,-2.231356,-164.713179,0.038651,-0.032455,1.003647,-0.014327,-0.012721,-0.015145,43.774429,36.629242,-141.993744,,,
729862761.541336,-1.27728,-2.235066,-164.716428,0.043167,-0.031097,1.006195,-0.014327,-0.012721,-0.015145,43.774429,36.629242,-141.993744,,,
729862761.544674,-1.27728,-2.235066,-164.716428,0.043167,-0.031097,1.006195,-0.014327,-0.012721,-0.015145,43.774429,36.629242,-141.993744,,,
729862761.548055,-1.280706,-2.243116,-164.720895,0.043167,-0.031097,1.006195,-0.000307,-0.020093,-0.013741,43.774429,36.629242,-141.993744,,,
729862761.551332,-1.281348,-2.249526,-164.72529,0.040558,-0.036911,1.013153,-0.000307,-0.020093,-0.013741,43.774429,36.629242,-141.993744,,,
729862761.554664,-1.281348,-2.249526,-164.72529,0.040558,-0.036911,1.013153,-0.000307,-0.020093,-0.013741,43.774429,36.629242,-141.993744,,,
729862761.558004,-1.280973,-2.25611,-164.728458,0.040558,-0.036911,1.013153,0.010121,-0.009984,-0.007243,43.774429,36.629242,-141.993744,,,
729862761.561336,-1.278605,-2.260155,-164.730171,0.041153,-0.040756,1.017899,0.010121,-0.009984,-0.007243,43.774429,36.629242,-141.993744,,,
729862761.564668,-1.278605,-2.260155,-164.730171,0.041153,-0.040756,1.017899,0.010121,-0.009984,-0.007243,43.726242,36.688354,-141.951019,,,
729862761.568018,-1.275951,-2.263307,-164.731792,0.041153,-0.040756,1.017899,0.007328,-0.005475,-0.008882,43.726242,36.688354,-141.951019,,,
729862761.571333,-1.273575,-2.265736,-164.733886,0.046036,-0.03331,1.008057,0.007328,-0.005475,-0.008882,43.726242,36.688354,-141.951019,,,
729862761.574731,-1.273575,-2.265736,-164.733886,0.046036,-0.03331,1.008057,0.007328,-0.005475,-0.008882,43.726242,36.688354,-141.951019,,,
729862761.578006,-1.272722,-2.268253,-164.737158,0.046036,-0.03331,1.008057,-0.00685,0.005831,-0.018774,43.726242,36.688354,-141.951019,,,
729862761.581331,-1.274186,-2.267621,-164.742287,0.050705,-0.022034,0.992813,-0.00685,0.005831,-0.018774,43.726242,36.688354,-141.951019,,,
729862761.584662,-1.274186,-2.267621,-164.742287,0.050705,-0.022034,0.992813,-0.00685,0.005831,-0.018774,43.726242,36.688354,-141.951019,,,
729862761.588053,-1.27809,-2.265618,-164.747885,0.050705,-0.022034,0.992813,-0.021365,0.015523,-0.017836,43.726242,36.688354,-141.951019,,,
729862761.591323,-1.283821,-2.261663,-164.753,0.044632,-0.027023,0.992325,-0.021365,0.015523,-0.017836,43.726242,36.688354,-141.951019,,,
729862761.59467,-1.283821,-2.261663,-164.753,0.044632,-0.027023,0.992325,-0.021365,0.015523,-0.017836,43.726242,36.688354,-141.951019,,,
729862761.598007,-1.29127,-2.257657,-164.757561,0.044632,-0.027023,0.992325,-0.025837,0.011053,-0.019161,43.726242,36.688354,-141.951019,,,
729862761.601329,-1.298474,-2.254914,-164.762376,0.04187,-0.029404,0.98967,-0.025837,0.011053,-0.019161,43.726242,36.688354,-141.951019,,,
729862761.604658,-1.298474,-2.254914,-164.762376,0.04187,-0.029404,0.98967,-0.025837,0.011053,-0.019161,43.431244,36.671844,-141.911316,,,
729862761.607997,-1.308263,-2.253616,-164.768156,0.04187,-0.029404,0.98967,-0.027004,-0.005604,-0.026215,43.431244,36.671844,-141.911316,,,
729862761.61133,-1.316041,-2.255407,-164.775267,0.045227,-0.023849,0.986145,-0.027004,-0.005604,-0.026215,43.431244,36.671844,-141.911316,,,
729862761.614749,-1.316041,-2.255407,-164.775267,0.045227,-0.023849,0.986145,-0.027004,-0.005604,-0.026215,43.431244,36.671844,-141.911316,,,
729862761.618019,-1.325582,-2.25859,-164.783704,0.045227,-0.023849,0.986145,-0.02458,-0.01672,-0.028406,43.431244,36.671844,-141.911316,,,
729862761.621343,-1.333249,-2.263187,-164.792041,0.046066,-0.02504,0.987762,-0.02458,-0.01672,-0.028406,43.431244,36.671844,-141.911316,,,
729862761.624688,-1.333249,-2.263187,-164.792041,0.046066,-0.02504,0.987762,-0.02458,-0.01672,-0.028406,43.431244,36.671844,-141.911316,,,
729862761.628083,-1.34159,-2.269994,-164.799771,0.046066,-0.02504,0.987762,-0.020633,-0.021492,-0.026104,43.431244,36.671844,-141.911316,,,
729862761.631369,-1.34736,-2.276534,-164.807855,0.045242,-0.026993,0.988358,-0.020633,-0.021492,-0.026104,43.431244,36.671844,-141.911316,,,
729862761.634679,-1.34736,-2.276534,-164.807855,0.045242,-0.026993,0.988358,-0.020633,-0.021492,-0.026104,43.431244,36.671844,-141.911316,,,
729862761.638003,-1.355094,-2.282834,-164.816328,0.045242,-0.026993,0.988358,-0.018118,-0.013591,-0.034275,43.431244,36.671844,-141.911316,,,
729862761.64141,-1.36009,-2.288225,-164.825808,0.05101,-0.020477,0.988052,-0.018118,-0.013591,-0.034275,43.431244,36.671844,-141.911316,,,
729862761.644707,-1.36009,-2.288225,-164.825808,0.05101,-0.020477,0.988052,-0.018118,-0.013591,-0.034275,42.978958,36.550034,-141.670532,,,
729862761.648031,-1.369458,-2.292887,-164.835389,0.05101,-0.020477,0.988052,-0.027162,-0.005951,-0.031948,42.978958,36.550034,-141.670532,,,
729862761.651308,-1.377159,-2.295994,-164.844199,0.049362,-0.016388,0.97934,-0.027162,-0.005951,-0.031948,42.978958,36.550034,-141.670532,,,
729862761.65471,-1.377159,-2.295994,-164.844199,0.049362,-0.016388,0.97934,-0.027162,-0.005951,-0.031948,42.978958,36.550034,-141.670532,,,
729862761.658021,-1.386606,-2.299254,-164.852323,0.049362,-0.016388,0.97934,-0.034033,0.008808,-0.02096,42.978958,36.550034,-141.670532,,,
729862761.661383,-1.395535,-2.298379,-164.858715,0.042068,-0.021225,0.984116,-0.034033,0.008808,-0.02096,42.978958,36.550034,-141.670532,,,
729862761.664676,-1.395535,-2.298379,-164.858715,0.042068,-0.021225,0.984116,-0.034033,0.008808,-0.02096,42.978958,36.550034,-141.670532,,,
729862761.668085,-1.403244,-2.29667,-164.86415,0.042068,-0.021225,0.984116,-0.02435,0.030667,-0.019977,42.978958,36.550034,-141.670532,,,
729862761.671328,-1.409739,-2.289621,-164.869325,0.042236,-0.025055,1.004395,-0.02435,0.030667,-0.019977,42.978958,36.550034,-141.670532,,,
729862761.674689,-1.409739,-2.289621,-164.869325,0.042236,-0.025055,1.004395,-0.02435,0.030667,-0.019977,42.978958,36.550034,-141.670532,,,
729862761.678014,-1.415315,-2.282333,-164.874559,0.042236,-0.025055,1.004395,-0.01109,0.029112,-0.019318,42.978958,36.550034,-141.670532,,,
729862761.68133,-1.418402,-2.274431,-164.879942,0.04509,-0.024063,1.008408,-0.01109,0.029112,-0.019318,42.978958,36.550034,-141.670532,,,
729862761.684668,-1.418402,-2.274431,-164.879942,0.04509,-0.024063,1.008408,-0.01109,0.029112,-0.019318,42.978958,36.550034,-141.670532,,,
729862761.688022,-1.421364,-2.267598,-164.885179,0.04509,-0.024063,1.008408,-0.005902,0.023923,-0.021079,42.913696,36.665039,-141.772583,,,
729862761.691346,-1.423411,-2.261035,-164.89054,0.039917,-0.021133,1.002899,-0.005902,0.023923,-0.021079,42.913696,36.665039,-141.772583,,,
729862761.694744,-1.423411,-2.261035,-164.89054,0.039917,-0.021133,1.002899,-0.005902,0.023923,-0.021079,42.913696,36.665039,-141.772583,,,
729862761.698011,-1.425386,-2.259126,-164.896362,0.039917,-0.021133,1.002899,-0.00803,-0.003185,-0.025969,42.913696,36.665039,-141.772583,,,
729862761.701357,-1.427735,-2.259866,-164.903019,0.033737,-0.01944,0.993011,-0.00803,-0.003185,-0.025969,42.913696,36.665039,-141.772583,,,
729862761.704684,-1.427735,-2.259866,-164.903019,0.033737,-0.01944,0.993011,-0.00803,-0.003185,-0.025969,42.913696,36.665039,-141.772583,,,
729862761.708151,-1.431305,-2.266664,-164.910916,0.033737,-0.01944,0.993011,-0.019122,-0.024497,-0.029787,42.913696,36.665039,-141.772583,,,
729862761.711344,-1.436418,-2.273927,-164.919338,0.031311,-0.015106,0.983398,-0.019122,-0.024497,-0.029787,42.913696,36.665039,-141.772583,,,
729862761.714675,-1.436418,-2.273927,-164.919338,0.031311,-0.015106,0.983398,-0.019122,-0.024497,-0.029787,42.913696,36.665039,-141.772583,,,
729862761.718012,-1.443379,-2.282624,-164.927396,0.031311,-0.015106,0.983398,-0.02376,-0.010332,-0.021912,42.913696,36.665039,-141.772583,,,
729862761.721366,-1.450867,-2.286957,-164.9342,0.028198,-0.016678,0.995911,-0.02376,-0.010332,-0.021912,42.913696,36.665039,-141.772583,,,
729862761.724679,-1.450867,-2.286957,-164.9342,0.028198,-0.016678,0.995911,-0.02376,-0.010332,-0.021912,42.913696,36.665039,-141.772583,,,
729862761.727998,-1.457269,-2.291246,-164.9392,0.028198,-0.016678,0.995911,-0.025091,0.002345,-0.009426,42.695374,36.508057,-141.907028,,,
729862761.731357,-1.46459,-2.29126,-164.942043,0.026443,-0.024963,1.004456,-0.025091,0.002345,-0.009426,42.695374,36.508057,-141.907028,,,
729862761.734741,-1.46459,-2.29126,-164.942043,0.026443,-0.024963,1.004456,-0.025091,0.002345,-0.009426,42.695374,36.508057,-141.907028,,,
729862761.73801,-1.470039,-2.294047,-164.944113,0.026443,-0.024963,1.004456,-0.020898,-0.01342,-0.010884,42.695374,36.508057,-141.907028,,,
729862761.741418,-1.476678,-2.297915,-164.94696,0.030746,-0.019775,0.99707,-0.020898,-0.01342,-0.010884,42.695374,36.508057,-141.907028,,,
729862761.744668,-1.476678,-2.297915,-164.94696,0.030746,-0.019775,0.99707,-0.020898,-0.01342,-0.010884,42.695374,36.508057,-141.907028,,,
729862761.748078,-1.482009,-2.305788,-164.950825,0.030746,-0.019775,0.99707,-0.017865,-0.035042,-0.013632,42.695374,36.508057,-141.907028,,,
729862761.751356,-1.48727,-2.316242,-164.954369,0.030746,-0.019775,0.99707,-0.017865,-0.035042,-0.013632,42.695374,36.508057,-141.907028,,,
729862761.754673,-1.48727,-2.316242,-164.954369,0.028397,-0.017075,0.993042,-0.017865,-0.035042,-0.013632,42.695374,36.508057,-141.907028,,,
729862761.758003,-1.492091,-2.328611,-164.956712,0.028397,-0.017075,0.993042,-0.009423,-0.042974,0.001192,42.695374,36.508057,-141.907028,,,
729862761.761362,-1.492091,-2.328611,-164.956712,0.028397,-0.017075,0.993042,-0.009423,-0.042974,0.001192,42.695374,36.508057,-141.907028,,,
729862761.764672,-1.495956,-2.340897,-164.956829,0.023392,-0.027588,0.997269,-0.009423,-0.042974,0.001192,42.695374,36.508057,-141.907028,,,
