Time (sec),Pitch (deg),Roll (deg),Yaw(deg),X-Acceleration (g),Y-Acceleration (g),Z-Acceleration (g),Pitch Rate (deg/sec),Roll Rate (deg/sec),Yaw Rate (deg/sec),Magnetic Field in X direction (uT),Magnetic Field in Y direction (uT),Magnetic Field in Z Direction (uT),Latitude (deg),Longitude (deg),Altitude (m)
729860219.182433,-0.488582,-1.273093,-20.400488,0.017288,-0.011765,0.984909,-0.051575,0.017118,0.002475,77.45491,2.246765,-147.692627,,,
729860219.185781,-0.499203,-1.278247,-20.399729,0.016434,-0.021133,0.995193,-0.031191,-0.019677,0.001928,77.45491,2.246765,-147.692627,,,
729860219.189209,-0.507443,-1.286692,-20.399292,0.016434,-0.021133,0.995193,-0.031191,-0.019677,0.001928,77.45491,2.246765,-147.692627,,,
729860219.19243,-0.507443,-1.286692,-20.399292,0.016434,-0.021133,0.995193,-0.031191,-0.019677,0.001928,77.45491,2.246765,-147.692627,,,
729860219.195775,-0.510903,-1.300516,-20.399348,0.019699,-0.021072,1.008301,-0.007578,-0.04864,-0.002815,77.45491,2.246765,-147.692627,,,
729860219.199132,-0.510733,-1.316062,-20.400411,0.019699,-0.021072,1.008301,-0.007578,-0.04864,-0.002815,77.45491,2.246765,-147.692627,,,
729860219.202426,-0.510733,-1.316062,-20.400411,0.019699,-0.021072,1.008301,-0.007578,-0.04864,-0.002815,77.523666,2.374603,-147.96463,,,
729860219.205772,-0.506098,-1.332343,-20.401969,0.02626,-0.02243,1.021408,0.020065,-0.052867,-0.005163,77.523666,2.374603,-147.96463,,,
729860219.209112,-0.506098,-1.332343,-20.401969,0.02626,-0.02243,1.021408,0.020065,-0.052867,-0.005163,77.523666,2.374603,-147.96463,,,
729860219.212499,-0.498998,-1.347401,-20.403802,0.02626,-0.02243,1.021408,0.020065,-0.052867,-0.005163,77.523666,2.374603,-147.96463,,,
729860219.215769,-0.491391,-1.357922,-20.406469,0.03418,-0.018723,1.025696,0.027519,-0.031439,-0.010026,77.523666,2.374603,-147.96463,,,
729860219.219111,-0.491391,-1.357922,-20.406469,0.03418,-0.018723,1.025696,0.027519,-0.031439,-0.010026,77.523666,2.374603,-147.96463,,,
729860219.222441,-0.483542,-1.364148,-20.410317,0.03418,-0.018723,1.025696,0.027519,-0.031439,-0.010026,77.523666,2.374603,-147.96463,,,
729860219.225829,-0.476716,-1.363187,-20.414507,0.034866,-0.009644,1.018631,0.022787,0.011746,-0.017062,77.523666,2.374603,-147.96463,,,
729860219.229124,-0.476716,-1.363187,-20.414507,0.034866,-0.009644,1.018631,0.022787,0.011746,-0.017062,77.523666,2.374603,-147.96463,,,
729860219.232445,-0.470083,-1.356961,-20.419035,0.034866,-0.009644,1.018631,0.022787,0.011746,-0.017062,77.523666,2.374603,-147.96463,,,
729860219.235774,-0.465475,-1.34478,-20.423851,0.031738,-0.006363,1.008652,0.01578,0.047747,-0.018301,77.523666,2.374603,-147.96463,,,
729860219.239177,-0.465475,-1.34478,-20.423851,0.031738,-0.006363,1.008652,0.01578,0.047747,-0.018301,77.523666,2.374603,-147.96463,,,
729860219.242434,-0.463009,-1.329507,-20.42818,0.031738,-0.006363,1.008652,0.01578,0.047747,-0.018301,77.675995,2.135971,-147.988235,,,
729860219.245783,-0.462855,-1.312512,-20.432018,0.023071,-0.00679,0.995193,-0.002371,0.0656,-0.016026,77.675995,2.135971,-147.988235,,,
729860219.249109,-0.462855,-1.312512,-20.432018,0.023071,-0.00679,0.995193,-0.002371,0.0656,-0.016026,77.675995,2.135971,-147.988235,,,
729860219.252503,-0.465027,-1.29554,-20.435897,0.023071,-0.00679,0.995193,-0.002371,0.0656,-0.016026,77.675995,2.135971,-147.988235,,,
729860219.255766,-0.46818,-1.281086,-20.439881,0.016235,-0.00737,0.981171,-0.010974,0.050263,-0.014859,77.675995,2.135971,-147.988235,,,
729860219.259099,-0.46818,-1.281086,-20.439881,0.016235,-0.00737,0.981171,-0.010974,0.050263,-0.014859,77.675995,2.135971,-147.988235,,,
729860219.262478,-0.471703,-1.26826,-20.443651,0.016235,-0.00737,0.981171,-0.010974,0.050263,-0.014859,77.675995,2.135971,-147.988235,,,
729860219.265866,-0.471788,-1.258617,-20.447131,0.010468,-0.006577,0.986511,0.004078,0.032635,-0.012064,77.675995,2.135971,-147.988235,,,
729860219.26912,-0.471788,-1.258617,-20.447131,0.010468,-0.006577,0.986511,0.004078,0.032635,-0.012064,77.675995,2.135971,-147.988235,,,
729860219.272468,-0.469922,-1.252072,-20.45001,0.010468,-0.006577,0.986511,0.004078,0.032635,-0.012064,77.675995,2.135971,-147.988235,,,
729860219.275793,-0.462536,-1.250247,-20.451294,0.001358,-0.009781,0.997452,0.030784,0.007776,-0.002194,77.675995,2.135971,-147.988235,,,
729860219.279174,-0.462536,-1.250247,-20.451294,0.001358,-0.009781,0.997452,0.030784,0.007776,-0.002194,77.675995,2.135971,-147.988235,,,
729860219.282437,-0.452342,-1.251918,-20.450605,0.001358,-0.009781,0.997452,0.030784,0.007776,-0.002194,77.768066,2.161041,-147.592636,,,
729860219.285764,-0.437118,-1.256135,-20.448724,-0.000214,-0.012131,1.001831,0.055081,-0.018169,0.005802,77.768066,2.161041,-147.592636,,,
729860219.289113,-0.437118,-1.256135,-20.448724,-0.000214,-0.012131,1.001831,0.055081,-0.018169,0.005802,77.768066,2.161041,-147.592636,,,
729860219.29254,-0.422036,-1.263777,-20.446563,-0.000214,-0.012131,1.001831,0.055081,-0.018169,0.005802,77.768066,2.161041,-147.592636,,,
729860219.295758,-0.405227,-1.270691,-20.444663,0.004959,-0.003067,1.001404,0.060508,-0.021648,0.005793,77.768066,2.161041,-147.592636,,,
729860219.299127,-0.405227,-1.270691,-20.444663,0.004959,-0.003067,1.001404,0.060508,-0.021648,0.005793,77.768066,2.161041,-147.592636,,,
729860219.302441,-0.390023,-1.279105,-20.442969,0.004959,-0.003067,1.001404,0.060508,-0.021648,0.005793,77.768066,2.161041,-147.592636,,,
729860219.305849,-0.37694,-1.285328,-20.441772,0.012619,0.004562,0.985275,0.042765,-0.017198,-0.000935,77.768066,2.161041,-147.592636,,,
729860219.309106,-0.37694,-1.285328,-20.441772,0.012619,0.004562,0.985275,0.042765,-0.017198,-0.000935,77.768066,2.161041,-147.592636,,,
729860219.312468,-0.369179,-1.292174,-20.441678,0.012619,0.004562,0.985275,0.042765,-0.017198,-0.000935,77.768066,2.161041,-147.592636,,,
729860219.315787,-0.367613,-1.296123,-20.442316,0.021362,0.012497,0.96553,0.001345,-0.009992,-0.001976,77.768066,2.161041,-147.592636,,,
729860219.3191,-0.367613,-1.296123,-20.442316,0.021362,0.012497,0.96553,0.001345,-0.009992,-0.001976,77.768066,2.161041,-147.592636,,,
729860219.322474,-0.373194,-1.298079,-20.443458,0.021362,0.012497,0.96553,0.001345,-0.009992,-0.001976,77.768066,2.161041,-147.592636,,,
729860219.325769,-0.386057,-1.29685,-20.444196,0.021301,0.01207,0.95314,-0.049353,0.010077,-0.001325,77.684967,2.24556,-147.844467,,,
729860219.329113,-0.386057,-1.29685,-20.444196,0.021301,0.01207,0.95314,-0.049353,0.010077,-0.001325,77.684967,2.24556,-147.844467,,,
729860219.332513,-0.404843,-1.292957,-20.44396,0.021301,0.01207,0.95314,-0.049353,0.010077,-0.001325,77.684967,2.24556,-147.844467,,,
729860219.335757,-0.42784,-1.287889,-20.442075,0.021683,0.003952,0.956497,-0.081696,0.021328,0.007849,77.684967,2.24556,-147.844467,,,
729860219.33912,-0.42784,-1.287889,-20.442075,0.021683,0.003952,0.956497,-0.081696,0.021328,0.007849,77.684967,2.24556,-147.844467,,,
729860219.342451,-0.45249,-1.281175,-20.437684,0.021683,0.003952,0.956497,-0.081696,0.021328,0.007849,77.684967,2.24556,-147.844467,,,
729860219.345768,-0.47683,-1.276447,-20.431121,0.01506,-0.010391,0.975739,-0.083945,0.018553,0.02623,77.684967,2.24556,-147.844467,,,
729860219.349117,-0.47683,-1.276447,-20.431121,0.01506,-0.010391,0.975739,-0.083945,0.018553,0.02623,77.684967,2.24556,-147.844467,,,
729860219.352454,-0.499549,-1.271289,-20.422363,0.01506,-0.010391,0.975739,-0.083945,0.018553,0.02623,77.684967,2.24556,-147.844467,,,
729860219.355854,-0.519102,-1.271364,-20.412432,0.01445,-0.017746,0.999863,-0.062063,0.000136,0.036364,77.684967,2.24556,-147.844467,,,
729860219.359092,-0.519102,-1.271364,-20.412432,0.01445,-0.017746,0.999863,-0.062063,0.000136,0.036364,77.684967,2.24556,-147.844467,,,
729860219.362448,-0.534536,-1.271822,-20.402856,0.01445,-0.017746,0.999863,-0.062063,0.000136,0.036364,77.684967,2.24556,-147.844467,,,
729860219.365775,-0.544358,-1.278495,-20.39495,0.026855,-0.013626,1.013672,-0.030702,-0.025113,0.024372,77.775238,2.355484,-147.871948,,,
729860219.369115,-0.544358,-1.278495,-20.39495,0.026855,-0.013626,1.013672,-0.030702,-0.025113,0.024372,77.775238,2.355484,-147.871948,,,
729860219.372514,-0.549779,-1.28501,-20.389168,0.026855,-0.013626,1.013672,-0.030702,-0.025113,0.024372,77.775238,2.355484,-147.871948,,,
729860219.375789,-0.552075,-1.295857,-20.3862,0.041214,-0.006195,1.020706,-1.8e-05,-0.039888,0.007232,77.775238,2.355484,-147.871948,,,
729860219.379107,-0.552075,-1.295857,-20.3862,0.041214,-0.006195,1.020706,-1.8e-05,-0.039888,0.007232,77.775238,2.355484,-147.871948,,,
729860219.38246,-0.549642,-1.305679,-20.386026,0.041214,-0.006195,1.020706,-1.8e-05,-0.039888,0.007232,77.775238,2.355484,-147.871948,,,
729860219.385773,-0.546872,-1.316024,-20.388217,0.050491,-0.002106,1.014084,0.010385,-0.030875,-0.013026,77.775238,2.355484,-147.871948,,,
729860219.389108,-0.546872,-1.316024,-20.388217,0.050491,-0.002106,1.014084,0.010385,-0.030875,-0.013026,77.775238,2.355484,-147.871948,,,
729860219.392453,-0.541668,-1.321879,-20.392138,0.050491,-0.002106,1.014084,0.010385,-0.030875,-0.013026,77.775238,2.355484,-147.871948,,,
729860219.395773,-0.539751,-1.323695,-20.396624,0.049088,-0.000397,1.004028,0.006094,0.002185,-0.015585,77.775238,2.355484,-147.871948,,,
729860219.399202,-0.539751,-1.323695,-20.396624,0.049088,-0.000397,1.004028,0.006094,0.002185,-0.015585,77.775238,2.355484,-147.871948,,,
729860219.402439,-0.537007,-1.321051,-20.400938,0.049088,-0.000397,1.004028,0.006094,0.002185,-0.015585,77.775238,2.355484,-147.871948,,,
729860219.405773,-0.539226,-1.313597,-20.403748,0.040314,-0.005722,0.999512,-0.010553,0.032662,-0.010948,77.781006,2.367706,-147.725357,,,
729860219.409115,-0.539226,-1.313597,-20.403748,0.040314,-0.005722,0.999512,-0.010553,0.032662,-0.010948,77.781006,2.367706,-147.725357,,,
729860219.412515,-0.541298,-1.30316,-20.404776,0.040314,-0.005722,0.999512,-0.010553,0.032662,-0.010948,77.781006,2.367706,-147.725357,,,
729860219.415764,-0.547062,-1.291971,-20.404645,0.033295,-0.01152,0.991882,-0.020384,0.042115,0.003225,77.781006,2.367706,-147.725357,,,
729860219.419119,-0.547062,-1.291971,-20.404645,0.033295,-0.01152,0.991882,-0.020384,0.042115,0.003225,77.781006,2.367706,-147.725357,,,
729860219.42245,-0.553585,-1.281204,-20.403455,0.033295,-0.01152,0.991882,-0.020384,0.042115,0.003225,77.781006,2.367706,-147.725357,,,
729860219.425773,-0.560915,-1.273569,-20.401724,0.029388,-0.014374,0.990891,-0.021234,0.025444,0.00672,77.781006,2.367706,-147.725357,,,
729860219.429118,-0.560915,-1.273569,-20.401724,0.029388,-0.014374,0.990891,-0.021234,0.025444,0.00672,77.781006,2.367706,-147.725357,,,
729860219.43244,-0.567708,-1.267575,-20.399073,0.029388,-0.014374,0.990891,-0.021234,0.025444,0.00672,77.781006,2.367706,-147.725357,,,
729860219.435774,-0.571658,-1.265304,-20.39537,0.026779,-0.016342,1.000183,-0.008919,0.007024,0.01256,77.781006,2.367706,-147.725357,,,
729860219.439169,-0.571658,-1.265304,-20.39537,0.026779,-0.016342,1.000183,-0.008919,0.007024,0.01256,77.781006,2.367706,-147.725357,,,
729860219.442437,-0.573678,-1.266031,-20.391377,0.026779,-0.016342,1.000183,-0.008919,0.007024,0.01256,77.781006,2.367706,-147.725357,,,
729860219.445768,-0.572541,-1.270436,-20.387422,0.027237,-0.016281,1.012405,0.007132,-0.014415,0.011405,77.803833,2.339142,-148.162186,,,
729860219.449125,-0.572541,-1.270436,-20.387422,0.027237,-0.016281,1.012405,0.007132,-0.014415,0.011405,77.803833,2.339142,-148.162186,,,
729860219.452516,-0.568998,-1.279763,-20.384121,0.027237,-0.016281,1.012405,0.007132,-0.014415,0.011405,77.803833,2.339142,-148.162186,,,
729860219.455766,-0.563153,-1.290006,-20.382696,0.033569,-0.013794,1.01004,0.021167,-0.036042,0.002608,77.803833,2.339142,-148.162186,,,
729860219.459114,-0.563153,-1.290006,-20.382696,0.033569,-0.013794,1.01004,0.021167,-0.036042,0.002608,77.803833,2.339142,-148.162186,,,
729860219.462451,-0.554818,-1.304713,-20.383673,0.033569,-0.013794,1.01004,0.021167,-0.036042,0.002608,77.803833,2.339142,-148.162186,,,
729860219.465775,-0.546524,-1.315891,-20.387603,0.043472,-0.008575,1.01088,0.029322,-0.037731,-0.018251,77.803833,2.339142,-148.162186,,,
729860219.469099,-0.546524,-1.315891,-20.387603,0.043472,-0.008575,1.01088,0.029322,-0.037731,-0.018251,77.803833,2.339142,-148.162186,,,
729860219.472458,-0.53656,-1.329757,-20.39452,0.043472,-0.008575,1.01088,0.029322,-0.037731,-0.018251,77.803833,2.339142,-148.162186,,,
729860219.475774,-0.527599,-1.338131,-20.403507,0.046738,-0.006683,1.009094,0.032557,-0.02442,-0.034349,77.803833,2.339142,-148.162186,,,
729860219.479182,-0.527599,-1.338131,-20.403507,0.046738,-0.006683,1.009094,0.032557,-0.02442,-0.034349,77.803833,2.339142,-148.162186,,,
729860219.482448,-0.518607,-1.347074,-20.413731,0.046738,-0.006683,1.009094,0.032557,-0.02442,-0.034349,77.803833,2.339142,-148.162186,,,
729860219.485775,-0.510993,-1.350306,-20.423741,0.038559,-0.007202,1.007462,0.022443,-0.004854,-0.036595,77.803833,2.339142,-148.162186,,,
729860219.489107,-0.510993,-1.350306,-20.423741,0.038559,-0.007202,1.007462,0.022443,-0.004854,-0.036595,77.684341,2.39476,-148.108536,,,
729860219.492481,-0.503818,-1.351475,-20.432807,0.038559,-0.007202,1.007462,0.022443,-0.004854,-0.036595,77.684341,2.39476,-148.108536,,,
729860219.495768,-0.496895,-1.347754,-20.440361,0.025101,-0.016296,1.007706,0.025136,0.017602,-0.026136,77.684341,2.39476,-148.108536,,,
729860219.499168,-0.496895,-1.347754,-20.440361,0.025101,-0.016296,1.007706,0.025136,0.017602,-0.026136,77.684341,2.39476,-148.108536,,,
729860219.502429,-0.489669,-1.342681,-20.446057,0.025101,-0.016296,1.007706,0.025136,0.017602,-0.026136,77.684341,2.39476,-148.108536,,,
729860219.505783,-0.47932,-1.335271,-20.449424,0.013718,-0.020279,1.016876,0.037046,0.02893,-0.01158,77.684341,2.39476,-148.108536,,,
729860219.509108,-0.47932,-1.335271,-20.449424,0.013718,-0.020279,1.016876,0.037046,0.02893,-0.01158,77.684341,2.39476,-148.108536,,,
729860219.512444,-0.468361,-1.328203,-20.451246,0.013718,-0.020279,1.016876,0.037046,0.02893,-0.01158,77.684341,2.39476,-148.108536,,,
729860219.515834,-0.456547,-1.321912,-20.452553,0.00296,-0.017715,1.016525,0.042184,0.023279,-0.003195,77.684341,2.39476,-148.108536,,,
729860219.51919,-0.456547,-1.321912,-20.452553,0.00296,-0.017715,1.016525,0.042184,0.023279,-0.003195,77.684341,2.39476,-148.108536,,,
729860219.522449,-0.445059,-1.318603,-20.453487,0.00296,-0.017715,1.016525,0.042184,0.023279,-0.003195,77.684341,2.39476,-148.108536,,,
729860219.525811,-0.431801,-1.317821,-20.454953,0.006119,-0.012253,1.008713,0.045686,0.001241,-0.007682,77.684341,2.39476,-148.108536,,,
729860219.529104,-0.431801,-1.317821,-20.454953,0.006119,-0.012253,1.008713,0.045686,0.001241,-0.007682,77.863449,2.193237,-147.938843,,,
729860219.53252,-0.419406,-1.320725,-20.457349,0.006119,-0.012253,1.008713,0.045686,0.001241,-0.007682,77.863449,2.193237,-147.938843,,,
729860219.535761,-0.405993,-1.32552,-20.459952,0.006454,-0.006256,1.002563,0.048938,-0.016985,-0.011219,77.863449,2.193237,-147.938843,,,
729860219.539123,-0.405993,-1.32552,-20.459952,0.006454,-0.006256,1.002563,0.048938,-0.016985,-0.011219,77.863449,2.193237,-147.938843,,,
729860219.542447,-0.393585,-1.334776,-20.462598,0.006454,-0.006256,1.002563,0.048938,-0.016985,-0.011219,77.863449,2.193237,-147.938843,,,
729860219.54577,-0.381739,-1.343161,-20.464967,0.003174,-0.004669,0.996445,0.041037,-0.026682,-0.010824,77.863449,2.193237,-147.938843,,,
729860219.549116,-0.381739,-1.343161,-20.464967,0.003174,-0.004669,0.996445,0.041037,-0.026682,-0.010824,77.863449,2.193237,-147.938843,,,
729860219.552452,-0.37008,-1.355871,-20.466648,0.003174,-0.004669,0.996445,0.041037,-0.026682,-0.010824,77.863449,2.193237,-147.938843,,,
729860219.55581,-0.35874,-1.366886,-20.468305,0.004807,-0.00351,0.991562,0.039189,-0.035955,-0.009567,77.863449,2.193237,-147.938843,,,
729860219.55916,-0.35874,-1.366886,-20.468305,0.004807,-0.00351,0.991562,0.039189,-0.035955,-0.009567,77.863449,2.193237,-147.938843,,,
729860219.562273,-0.347328,-1.380652,-20.469853,0.004807,-0.00351,0.991562,0.039189,-0.035955,-0.009567,77.863449,2.193237,-147.938843,,,
729860219.565794,-0.334981,-1.39163,-20.470726,0.007553,-0.005096,0.990707,0.041601,-0.033469,-0.005598,77.863449,2.193237,-147.938843,,,
729860219.569097,-0.334981,-1.39163,-20.470726,0.007553,-0.005096,0.990707,0.041601,-0.033469,-0.005598,77.714218,2.16951,-148.058243,,,
729860219.572452,-0.322295,-1.40282,-20.470907,0.007553,-0.005096,0.990707,0.041601,-0.033469,-0.005598,77.714218,2.16951,-148.058243,,,
729860219.575769,-0.307982,-1.411779,-20.470303,0.005951,-0.006088,1.000671,0.049728,-0.025017,0.000629,77.714218,2.16951,-148.058243,,,
729860219.579118,-0.307982,-1.411779,-20.470303,0.005951,-0.006088,1.000671,0.049728,-0.025017,0.000629,77.714218,2.16951,-148.058243,,,
729860219.58252,-0.295653,-1.418452,-20.469005,0.005951,-0.006088,1.000671,0.049728,-0.025017,0.000629,77.714218,2.16951,-148.058243,,,
729860219.585769,-0.282076,-1.424496,-20.467598,0.007492,-0.006592,1.000732,0.050025,-0.015972,0.001921,77.714218,2.16951,-148.058243,,,
729860219.589103,-0.282076,-1.424496,-20.467598,0.007492,-0.006592,1.000732,0.050025,-0.015972,0.001921,77.714218,2.16951,-148.058243,,,
729860219.592447,-0.271277,-1.425787,-20.466447,0.007492,-0.006592,1.000732,0.050025,-0.015972,0.001921,77.714218,2.16951,-148.058243,,,
729860219.59578,-0.260889,-1.427868,-20.46533,0.009811,-0.00264,0.995193,0.036641,-0.002806,0.000714,77.714218,2.16951,-148.058243,,,
729860219.599138,-0.260889,-1.427868,-20.46533,0.009811,-0.00264,0.995193,0.036641,-0.002806,0.000714,77.714218,2.16951,-148.058243,,,
729860219.602451,-0.252877,-1.424685,-20.463962,0.009811,-0.00264,0.995193,0.036641,-0.002806,0.000714,77.714218,2.16951,-148.058243,,,
729860219.605778,-0.244849,-1.422503,-20.462025,0.009125,0.000214,0.995407,0.026768,0.010209,0.006751,77.714218,2.16951,-148.058243,,,
729860219.609141,-0.244849,-1.422503,-20.462025,0.009125,0.000214,0.995407,0.026768,0.010209,0.006751,77.699326,1.951065,-147.939621,,,
729860219.612467,-0.23821,-1.417568,-20.459294,0.009125,0.000214,0.995407,0.026768,0.010209,0.006751,77.699326,1.951065,-147.939621,,,
729860219.615777,-0.23136,-1.415247,-20.455657,0.004639,-0.001312,0.995453,0.021886,0.009067,0.012268,77.699326,1.951065,-147.939621,,,
729860219.619123,-0.23136,-1.415247,-20.455657,0.004639,-0.001312,0.995453,0.021886,0.009067,0.012268,77.699326,1.951065,-147.939621,,,
729860219.622511,-0.225238,-1.411639,-20.450934,0.004639,-0.001312,0.995453,0.021886,0.009067,0.012268,77.699326,1.951065,-147.939621,,,
729860219.625768,-0.219364,-1.412577,-20.445209,0.006546,-0.002197,0.994537,0.02152,-0.000874,0.018579,77.699326,1.951065,-147.939621,,,
729860219.629111,-0.219364,-1.412577,-20.445209,0.006546,-0.002197,0.994537,0.02152,-0.000874,0.018579,77.699326,1.951065,-147.939621,,,
729860219.632461,-0.213746,-1.412663,-20.439307,0.006546,-0.002197,0.994537,0.02152,-0.000874,0.018579,77.699326,1.951065,-147.939621,,,
729860219.635775,-0.208764,-1.41785,-20.43379,0.009338,-0.000214,0.990234,0.016297,-0.015562,0.017705,77.699326,1.951065,-147.939621,,,
729860219.639122,-0.208764,-1.41785,-20.43379,0.009338,-0.000214,0.990234,0.016297,-0.015562,0.017705,77.699326,1.951065,-147.939621,,,
729860219.642458,-0.204792,-1.422236,-20.428376,0.009338,-0.000214,0.990234,0.016297,-0.015562,0.017705,77.699326,1.951065,-147.939621,,,
729860219.645777,-0.201961,-1.430855,-20.423372,0.014893,-0.000259,0.985382,0.007386,-0.030443,0.01149,77.699326,1.951065,-147.939621,,,
729860219.649186,-0.201961,-1.430855,-20.423372,0.014893,-0.000259,0.985382,0.007386,-0.030443,0.01149,77.699326,1.951065,-147.939621,,,
729860219.652449,-0.200909,-1.438815,-20.419115,0.014893,-0.000259,0.985382,0.007386,-0.030443,0.01149,77.509949,2.182358,-147.736618,,,
729860219.655774,-0.20075,-1.450072,-20.415504,0.020859,0.000443,0.981232,0.000546,-0.034797,0.009734,77.509949,2.182358,-147.736618,,,
729860219.659128,-0.20075,-1.450072,-20.415504,0.020859,0.000443,0.981232,0.000546,-0.034797,0.009734,77.509949,2.182358,-147.736618,,,
729860219.662126,-0.201161,-1.458816,-20.412216,0.020859,0.000443,0.981232,0.000546,-0.034797,0.009734,77.509949,2.182358,-147.736618,,,
729860219.665814,-0.199937,-1.470202,-20.408553,0.023209,-0.005234,0.990723,0.006024,-0.035529,0.011877,77.509949,2.182358,-147.736618,,,
729860219.669109,-0.199937,-1.470202,-20.408553,0.023209,-0.005234,0.990723,0.006024,-0.035529,0.011877,77.509949,2.182358,-147.736618,,,
729860219.672452,-0.196475,-1.480023,-20.4043,0.023209,-0.005234,0.990723,0.006024,-0.035529,0.011877,77.509949,2.182358,-147.736618,,,
729860219.675774,-0.190018,-1.492721,-20.399477,0.026031,-0.010742,1.005737,0.028203,-0.039918,0.014467,77.509949,2.182358,-147.736618,,,
729860219.679104,-0.190018,-1.492721,-20.399477,0.026031,-0.010742,1.005737,0.028203,-0.039918,0.014467,77.509949,2.182358,-147.736618,,,
729860219.682448,-0.179342,-1.504197,-20.394539,0.026031,-0.010742,1.005737,0.028203,-0.039918,0.014467,77.509949,2.182358,-147.736618,,,
729860219.685776,-0.164249,-1.518298,-20.390568,0.030426,-0.011902,1.017136,0.059686,-0.046039,0.009568,77.509949,2.182358,-147.736618,,,
729860219.689163,-0.164249,-1.518298,-20.390568,0.030426,-0.011902,1.017136,0.059686,-0.046039,0.009568,77.509949,2.182358,-147.736618,,,
729860219.692435,-0.143879,-1.529309,-20.387647,0.030426,-0.011902,1.017136,0.059686,-0.046039,0.009568,77.507187,2.008377,-148.064407,,,
729860219.695775,-0.119333,-1.541528,-20.385791,0.035553,-0.007141,1.031281,0.089323,-0.038209,0.001519,77.507187,2.008377,-148.064407,,,
729860219.69912,-0.119333,-1.541528,-20.385791,0.035553,-0.007141,1.031281,0.089323,-0.038209,0.001519,77.507187,2.008377,-148.064407,,,
729860219.702527,-0.091646,-1.548934,-20.385543,0.035553,-0.007141,1.031281,0.089323,-0.038209,0.001519,77.507187,2.008377,-148.064407,,,
729860219.705769,-0.061408,-1.557769,-20.386523,0.042221,-0.00415,1.029602,0.108386,-0.025509,-0.008291,77.507187,2.008377,-148.064407,,,
729860219.709121,-0.061408,-1.557769,-20.386523,0.042221,-0.00415,1.029602,0.108386,-0.025509,-0.008291,77.507187,2.008377,-148.064407,,,
729860219.71246,-0.028602,-1.562956,-20.388234,0.042221,-0.00415,1.029602,0.108386,-0.025509,-0.008291,77.507187,2.008377,-148.064407,,,
729860219.715779,0.006898,-1.570024,-20.390521,0.042633,-0.003082,1.02449,0.124551,-0.02213,-0.01202,77.507187,2.008377,-148.064407,,,
729860219.719104,0.006898,-1.570024,-20.390521,0.042633,-0.003082,1.02449,0.124551,-0.02213,-0.01202,77.507187,2.008377,-148.064407,,,
729860219.722443,0.044832,-1.575548,-20.393067,0.042633,-0.003082,1.02449,0.124551,-0.02213,-0.01202,77.507187,2.008377,-148.064407,,,
729860219.725779,0.085232,-1.584205,-20.395665,0.036194,-0.005127,1.020782,0.143335,-0.028698,-0.013245,77.507187,2.008377,-148.064407,,,
729860219.729172,0.085232,-1.584205,-20.395665,0.036194,-0.005127,1.020782,0.143335,-0.028698,-0.013245,77.507187,2.008377,-148.064407,,,
729860219.732442,0.127854,-1.593576,-20.398588,0.036194,-0.005127,1.020782,0.143335,-0.028698,-0.013245,77.156769,1.872894,-147.846985,,,
729860219.735779,0.172431,-1.606868,-20.401826,0.032364,-0.006561,1.015457,0.156932,-0.045935,-0.018039,77.156769,1.872894,-147.846985,,,
729860219.73912,0.172431,-1.606868,-20.401826,0.032364,-0.006561,1.015457,0.156932,-0.045935,-0.018039,77.156769,1.872894,-147.846985,,,
729860219.742503,0.216937,-1.621576,-20.405089,0.032364,-0.006561,1.015457,0.156932,-0.045935,-0.018039,77.156769,1.872894,-147.846985,,,
729860219.745774,0.262234,-1.637674,-20.408094,0.033203,-0.002441,1.006851,0.158976,-0.054595,-0.016097,77.156769,1.872894,-147.846985,,,
729860219.749116,0.262234,-1.637674,-20.408094,0.033203,-0.002441,1.006851,0.158976,-0.054595,-0.016097,77.156769,1.872894,-147.846985,,,
729860219.752499,0.307535,-1.653614,-20.410895,0.033203,-0.002441,1.006851,0.158976,-0.054595,-0.016097,77.156769,1.872894,-147.846985,,,
729860219.755811,0.35839,-1.669552,-20.413047,0.030014,-0.002151,1.011276,0.183363,-0.051235,-0.012761,77.156769,1.872894,-147.846985,,,
729860219.759192,0.35839,-1.669552,-20.413047,0.030014,-0.002151,1.011276,0.183363,-0.051235,-0.012761,77.156769,1.872894,-147.846985,,,
729860219.762458,0.414275,-1.68455,-20.412996,0.030014,-0.002151,1.011276,0.183363,-0.051235,-0.012761,77.156769,1.872894,-147.846985,,,
729860219.765896,0.48285,-1.700466,-20.410253,0.02388,-0.009048,1.038864,0.247988,-0.053196,0.002789,77.156769,1.872894,-147.846985,,,
729860219.769102,0.48285,-1.700466,-20.410253,0.02388,-0.009048,1.038864,0.247988,-0.053196,0.002789,77.156769,1.872894,-147.846985,,,
729860219.772504,0.560545,-1.718746,-20.405163,0.02388,-0.009048,1.038864,0.247988,-0.053196,0.002789,77.156769,1.872894,-147.846985,,,
729860219.775778,0.650864,-1.738988,-20.39863,0.016006,-0.01358,1.063858,0.325597,-0.070138,0.011986,77.125031,1.605682,-147.580429,,,
729860219.779147,0.650864,-1.738988,-20.39863,0.016006,-0.01358,1.063858,0.325597,-0.070138,0.011986,77.125031,1.605682,-147.580429,,,
729860219.782447,0.749485,-1.763922,-20.391108,0.016006,-0.01358,1.063858,0.325597,-0.070138,0.011986,77.125031,1.605682,-147.580429,,,
729860219.785778,0.855982,-1.793439,-20.3832,0.018082,-0.009735,1.055847,0.377225,-0.103911,0.014144,77.125031,1.605682,-147.580429,,,
729860219.789126,0.855982,-1.793439,-20.3832,0.018082,-0.009735,1.055847,0.377225,-0.103911,0.014144,77.125031,1.605682,-147.580429,,,
729860219.792491,0.966057,-1.828969,-20.375867,0.018082,-0.009735,1.055847,0.377225,-0.103911,0.014144,77.125031,1.605682,-147.580429,,,
729860219.795778,1.079956,-1.868695,-20.369694,0.023331,0.002533,1.029495,0.397417,-0.138669,0.007396,77.125031,1.605682,-147.580429,,,
729860219.79912,1.079956,-1.868695,-20.369694,0.023331,0.002533,1.029495,0.397417,-0.138669,0.007396,77.125031,1.605682,-147.580429,,,
729860219.80246,1.192429,-1.9116,-20.36529,0.023331,0.002533,1.029495,0.397417,-0.138669,0.007396,77.125031,1.605682,-147.580429,,,
729860219.80578,1.302268,-1.954363,-20.362686,0.030411,0.018005,1.001328,0.379796,-0.148848,-0.007025,77.125031,1.605682,-147.580429,,,
729860219.809123,1.302268,-1.954363,-20.362686,0.030411,0.018005,1.001328,0.379796,-0.148848,-0.007025,77.125031,1.605682,-147.580429,,,
729860219.812449,1.403484,-1.994361,-20.361454,0.030411,0.018005,1.001328,0.379796,-0.148848,-0.007025,77.125031,1.605682,-147.580429,,,
729860219.815777,1.495911,-2.029474,-20.360814,0.03183,0.030426,0.974167,0.314622,-0.113136,-0.00993,76.897369,0.800385,-147.630325,,,
729860219.819215,1.495911,-2.029474,-20.360814,0.03183,0.030426,0.974167,0.314622,-0.113136,-0.00993,76.897369,0.800385,-147.630325,,,
729860219.822455,1.574666,-2.058254,-20.359241,0.03183,0.030426,0.974167,0.314622,-0.113136,-0.00993,76.897369,0.800385,-147.630325,,,
729860219.825775,1.644418,-2.081226,-20.356332,0.026093,0.03685,0.952057,0.234218,-0.069404,0.000376,76.897369,0.800385,-147.630325,,,
729860219.829117,1.644418,-2.081226,-20.356332,0.026093,0.03685,0.952057,0.234218,-0.069404,0.000376,76.897369,0.800385,-147.630325,,,
729860219.83251,1.704972,-2.099157,-20.351631,0.026093,0.03685,0.952057,0.234218,-0.069404,0.000376,76.897369,0.800385,-147.630325,,,
729860219.835773,1.763267,-2.114543,-20.344631,0.020813,0.033203,0.955582,0.200239,-0.045716,0.016932,76.897369,0.800385,-147.630325,,,
729860219.839119,1.763267,-2.114543,-20.344631,0.020813,0.033203,0.955582,0.200239,-0.045716,0.016932,76.897369,0.800385,-147.630325,,,
729860219.842449,1.819474,-2.128325,-20.335855,0.020813,0.033203,0.955582,0.200239,-0.045716,0.016932,76.897369,0.800385,-147.630325,,,
729860219.845776,1.881792,-2.144194,-20.324778,0.016266,0.024597,0.985825,0.223566,-0.052799,0.032951,76.897369,0.800385,-147.630325,,,
729860219.84912,1.881792,-2.144194,-20.324778,0.016266,0.024597,0.985825,0.223566,-0.052799,0.032951,76.897369,0.800385,-147.630325,,,
729860219.852464,1.950113,-2.162433,-20.311378,0.016266,0.024597,0.985825,0.223566,-0.052799,0.032951,76.897369,0.800385,-147.630325,,,
729860219.855777,2.032927,-2.18704,-20.295873,0.009445,0.019318,1.022858,0.303374,-0.088365,0.044175,76.682953,0.369705,-147.221222,,,
729860219.859183,2.032927,-2.18704,-20.295873,0.009445,0.019318,1.022858,0.303374,-0.088365,0.044175,76.682953,0.369705,-147.221222,,,
729860219.862442,2.128518,-2.217292,-20.278491,0.009445,0.019318,1.022858,0.303374,-0.088365,0.044175,76.682953,0.369705,-147.221222,,,
729860219.865772,2.242661,-2.255918,-20.259626,0.013168,0.01088,1.058716,0.415434,-0.135168,0.05071,76.682953,0.369705,-147.221222,,,
729860219.869127,2.242661,-2.255918,-20.259626,0.013168,0.01088,1.058716,0.415434,-0.135168,0.05071,76.682953,0.369705,-147.221222,,,
729860219.872532,2.371782,-2.301074,-20.239962,0.013168,0.01088,1.058716,0.415434,-0.135168,0.05071,76.682953,0.369705,-147.221222,,,
729860219.875775,2.51219,-2.352317,-20.219275,0.020615,0.011063,1.076553,0.503319,-0.178894,0.052886,76.682953,0.369705,-147.221222,,,
729860219.879118,2.51219,-2.352317,-20.219275,0.020615,0.011063,1.076553,0.503319,-0.178894,0.052886,76.682953,0.369705,-147.221222,,,
729860219.882451,2.660446,-2.408711,-20.198003,0.020615,0.011063,1.076553,0.503319,-0.178894,0.052886,76.682953,0.369705,-147.221222,,,
729860219.885777,2.813753,-2.468235,-20.177988,0.035202,0.027115,1.053619,0.539963,-0.201215,0.040677,76.682953,0.369705,-147.221222,,,
729860219.889123,2.813753,-2.468235,-20.177988,0.035202,0.027115,1.053619,0.539963,-0.201215,0.040677,76.682953,0.369705,-147.221222,,,
729860219.892447,2.969973,-2.52824,-20.160493,0.035202,0.027115,1.053619,0.539963,-0.201215,0.040677,76.682953,0.369705,-147.221222,,,
729860219.895787,2.969973,-2.52824,-20.146124,0.052124,0.044708,1.029526,0.552161,-0.199279,0.022812,76.09523,-0.499023,-146.621002,,,
729860219.899209,3.127781,-2.586561,-20.146124,0.052124,0.044708,1.029526,0.552161,-0.199279,0.022812,76.09523,-0.499023,-146.621002,,,
729860219.902463,3.285006,-2.642224,-20.135071,0.052124,0.044708,1.029526,0.552161,-0.199279,0.022812,76.09523,-0.499023,-146.621002,,,
729860219.905813,3.285006,-2.642224,-20.135071,0.063034,0.056808,1.016739,0.536946,-0.169681,-4.7e-05,76.09523,-0.499023,-146.621002,,,
729860219.90913,3.439546,-2.693874,-20.126936,0.063034,0.056808,1.016739,0.536946,-0.169681,-4.7e-05,76.09523,-0.499023,-146.621002,,,
729860219.912451,3.590649,-2.740916,-20.121673,0.063034,0.056808,1.016739,0.536946,-0.169681,-4.7e-05,76.09523,-0.499023,-146.621002,,,
729860219.915818,3.590649,-2.740916,-20.121673,0.06575,0.067261,1.004272,0.512965,-0.143901,-0.012339,76.09523,-0.499023,-146.621002,,,
729860219.919124,3.738118,-2.783859,-20.118181,0.06575,0.067261,1.004272,0.512965,-0.143901,-0.012339,76.09523,-0.499023,-146.621002,,,
729860219.922519,3.883427,-2.822688,-20.113913,0.06575,0.067261,1.004272,0.512965,-0.143901,-0.012339,76.09523,-0.499023,-146.621002,,,
729860219.925807,3.883427,-2.822688,-20.113913,0.057755,0.062851,1.008148,0.513183,-0.109028,-0.001874,76.09523,-0.499023,-146.621002,,,
729860219.929117,4.03028,-2.856425,-20.106647,0.057755,0.062851,1.008148,0.513183,-0.109028,-0.001874,76.09523,-0.499023,-146.621002,,,
729860219.932445,4.183505,-2.885157,-20.094318,0.057755,0.062851,1.008148,0.513183,-0.109028,-0.001874,76.09523,-0.499023,-146.621002,,,
729860219.935778,4.183505,-2.885157,-20.094318,0.057755,0.062851,1.008148,0.584653,-0.075626,0.037454,76.09523,-0.499023,-146.621002,,,
729860219.939121,4.347373,-2.910043,-20.075992,0.040359,0.048126,1.051376,0.584653,-0.075626,0.037454,76.012955,-1.714264,-146.211563,,,
729860219.942448,4.526163,-2.932456,-20.050568,0.040359,0.048126,1.051376,0.584653,-0.075626,0.037454,76.012955,-1.714264,-146.211563,,,
729860219.945778,4.526163,-2.932456,-20.050568,0.040359,0.048126,1.051376,0.708288,-0.065839,0.081856,76.012955,-1.714264,-146.211563,,,
729860219.949166,4.723065,-2.954652,-20.018081,0.028412,0.031799,1.100571,0.708288,-0.065839,0.081856,76.012955,-1.714264,-146.211563,,,
729860219.952439,4.936526,-2.977917,-19.979765,0.028412,0.031799,1.100571,0.708288,-0.065839,0.081856,76.012955,-1.714264,-146.211563,,,
729860219.955781,4.936526,-2.977917,-19.979765,0.028412,0.033325,1.118042,0.803352,-0.070663,0.108111,76.012955,-1.714264,-146.211563,,,
729860219.959134,5.162298,-3.002664,-19.937239,0.026627,0.033325,1.118042,0.803352,-0.070663,0.108111,76.012955,-1.714264,-146.211563,,,
729860219.962468,5.397361,-3.03132,-19.893207,0.026627,0.033325,1.118042,0.803352,-0.070663,0.108111,76.012955,-1.714264,-146.211563,,,
729860219.965783,5.397361,-3.03132,-19.893207,0.026627,0.033325,1.118042,0.803352,-0.070663,0.108111,76.012955,-1.714264,-146.211563,,,
729860219.969137,5.63938,-3.065469,-19.849622,0.039322,0.059509,1.087204,0.85466,-0.105784,0.104616,76.012955,-1.714264,-146.211563,,,
729860219.972442,5.885843,-3.105848,-19.808259,0.039322,0.059509,1.087204,0.85466,-0.105784,0.104616,76.012955,-1.714264,-146.211563,,,
729860219.975828,5.885843,-3.105848,-19.808259,0.039322,0.059509,1.087204,0.870392,-0.156893,0.077706,76.012955,-1.714264,-146.211563,,,
729860219.979111,6.134013,-3.153696,-19.77076,0.06311,0.083664,1.045776,0.870392,-0.156893,0.077706,75.888351,-3.380875,-145.072083,,,
729860219.982451,6.380093,-3.208861,-19.738225,0.06311,0.083664,1.045776,0.870392,-0.156893,0.077706,75.888351,-3.380875,-145.072083,,,
729860219.985816,6.380093,-3.208861,-19.738225,0.06311,0.083664,1.045776,0.870392,-0.156893,0.077706,75.888351,-3.380875,-145.072083,,,
729860219.989196,6.620864,-3.26887,-19.712727,0.075241,0.109421,0.99968,0.837935,-0.202654,0.034558,75.888351,-3.380875,-145.072083,,,
729860219.992439,6.85647,-3.331194,-19.693918,0.075241,0.109421,0.99968,0.837935,-0.202654,0.034558,75.888351,-3.380875,-145.072083,,,
729860219.995867,6.85647,-3.331194,-19.693918,0.075241,0.109421,0.99968,0.837935,-0.202654,0.034558,75.888351,-3.380875,-145.072083,,,
729860219.999136,7.087474,-3.394231,-19.679213,0.083511,0.132233,0.987106,0.801763,-0.21142,-0.001318,75.888351,-3.380875,-145.072083,,,
729860220.002271,7.31392,-3.457802,-19.666745,0.083511,0.132233,0.987106,0.801763,-0.21142,-0.001318,75.888351,-3.380875,-145.072083,,,
729860220.005925,7.31392,-3.457802,-19.666745,0.083511,0.132233,0.987106,0.801763,-0.21142,-0.001318,75.888351,-3.380875,-145.072083,,,
729860220.009116,7.53472,-3.52239,-19.654834,0.073776,0.131607,0.991058,0.767176,-0.217788,-0.008077,75.888351,-3.380875,-145.072083,,,
729860220.012426,7.748339,-3.586303,-19.643114,0.073776,0.131607,0.991058,0.767176,-0.217788,-0.008077,75.888351,-3.380875,-145.072083,,,
729860220.015777,7.748339,-3.586303,-19.643114,0.073776,0.131607,0.991058,0.767176,-0.217788,-0.008077,75.888351,-3.380875,-145.072083,,,
729860220.019135,7.954063,-3.648041,-19.631109,0.065292,0.136597,0.972229,0.711017,-0.20524,-0.005014,75.509735,-4.836731,-144.780518,,,
729860220.022461,8.150615,-3.706341,-19.61916,0.065292,0.136597,0.972229,0.711017,-0.20524,-0.005014,75.509735,-4.836731,-144.780518,,,
729860220.025869,8.150615,-3.706341,-19.61916,0.065292,0.136597,0.972229,0.711017,-0.20524,-0.005014,75.509735,-4.836731,-144.780518,,,
729860220.029125,8.336534,-3.7602,-19.607478,0.063232,0.145416,0.960953,0.639486,-0.173765,-0.000677,75.509735,-4.836731,-144.780518,,,
729860220.032485,8.511313,-3.809975,-19.596427,0.063232,0.145416,0.960953,0.639486,-0.173765,-0.000677,75.509735,-4.836731,-144.780518,,,
729860220.035867,8.511313,-3.809975,-19.596427,0.063232,0.145416,0.960953,0.639486,-0.173765,-0.000677,75.509735,-4.836731,-144.780518,,,
729860220.039202,8.674285,-3.856067,-19.587353,0.065018,0.160385,0.944687,0.556139,-0.150126,-0.009307,75.509735,-4.836731,-144.780518,,,
729860220.042445,8.825228,-3.899799,-19.58024,0.065018,0.160385,0.944687,0.556139,-0.150126,-0.009307,75.509735,-4.836731,-144.780518,,,
729860220.045856,8.825228,-3.899799,-19.58024,0.065018,0.160385,0.944687,0.556139,-0.150126,-0.009307,75.509735,-4.836731,-144.780518,,,
729860220.049113,8.966653,-3.940825,-19.573514,0.062927,0.168137,0.922302,0.48628,-0.135064,-0.01126,75.509735,-4.836731,-144.780518,,,
729860220.052449,9.10251,-3.977623,-19.564477,0.062927,0.168137,0.922302,0.48628,-0.135064,-0.01126,75.509735,-4.836731,-144.780518,,,
729860220.055862,9.10251,-3.977623,-19.564477,0.062927,0.168137,0.922302,0.48628,-0.135064,-0.01126,75.509735,-4.836731,-144.780518,,,
729860220.059104,9.235714,-4.010352,-19.55141,0.050308,0.157791,0.946625,0.466703,-0.097335,0.013207,75.19339,-5.447189,-144.226364,,,
729860220.06248,9.368229,-4.040351,-19.533635,0.050308,0.157791,0.946625,0.466703,-0.097335,0.013207,75.19339,-5.447189,-144.226364,,,
729860220.065779,9.368229,-4.040351,-19.533635,0.050308,0.157791,0.946625,0.466703,-0.097335,0.013207,75.19339,-5.447189,-144.226364,,,
729860220.0691,9.501693,-4.0683,-19.510726,0.043396,0.145294,0.985703,0.471648,-0.081614,0.047171,75.19339,-5.447189,-144.226364,,,
729860220.072451,9.636705,-4.095318,-19.483183,0.043396,0.145294,0.985703,0.471648,-0.081614,0.047171,75.19339,-5.447189,-144.226364,,,
729860220.075931,9.636705,-4.095318,-19.483183,0.043396,0.145294,0.985703,0.471648,-0.081614,0.047171,75.19339,-5.447189,-144.226364,,,
729860220.079119,9.772479,-4.124741,-19.453136,0.049759,0.144394,0.992142,0.480971,-0.084359,0.06993,75.19339,-5.447189,-144.226364,,,
729860220.082456,9.909319,-4.159293,-19.423059,0.049759,0.144394,0.992142,0.480971,-0.084359,0.06993,75.19339,-5.447189,-144.226364,,,
729860220.085788,9.909319,-4.159293,-19.423059,0.049759,0.144394,0.992142,0.480971,-0.084359,0.06993,75.19339,-5.447189,-144.226364,,,
729860220.089175,10.047572,-4.198544,-19.394419,0.059952,0.160217,0.969116,0.48985,-0.122329,0.061272,75.19339,-5.447189,-144.226364,,,
729860220.09245,10.185124,-4.242349,-19.368334,0.059952,0.160217,0.969116,0.48985,-0.122329,0.061272,75.19339,-5.447189,-144.226364,,,
729860220.095797,10.185124,-4.242349,-19.368334,0.059952,0.160217,0.969116,0.48985,-0.122329,0.061272,75.19339,-5.447189,-144.226364,,,
729860220.099123,10.320713,-4.291176,-19.345256,0.07225,0.174728,0.94809,0.473996,-0.158037,0.03865,75.19339,-5.447189,-144.226364,,,
729860220.102456,10.453111,-4.344893,-19.325083,0.07225,0.174728,0.94809,0.473996,-0.158037,0.03865,74.873062,-6.503372,-143.665665,,,
729860220.105802,10.453111,-4.344893,-19.325083,0.07225,0.174728,0.94809,0.473996,-0.158037,0.03865,74.873062,-6.503372,-143.665665,,,
729860220.109135,10.580292,-4.402116,-19.307745,0.07666,0.185974,0.921692,0.441709,-0.189609,0.021241,74.873062,-6.503372,-143.665665,,,
729860220.112452,10.702157,-4.46159,-19.292774,0.07666,0.185974,0.921692,0.441709,-0.189609,0.021241,74.873062,-6.503372,-143.665665,,,
729860220.115857,10.702157,-4.46159,-19.292774,0.07666,0.185974,0.921692,0.441709,-0.189609,0.021241,74.873062,-6.503372,-143.665665,,,
729860220.119113,10.820379,-4.521339,-19.279231,0.081116,0.190704,0.915131,0.414608,-0.198301,0.013001,74.873062,-6.503372,-143.665665,,,
729860220.12255,10.936969,-4.577705,-19.265392,0.081116,0.190704,0.915131,0.414608,-0.198301,0.013001,74.873062,-6.503372,-143.665665,,,
729860220.125796,10.936969,-4.577705,-19.265392,0.081116,0.190704,0.915131,0.414608,-0.198301,0.013001,74.873062,-6.503372,-143.665665,,,
729860220.129125,11.053545,-4.627693,-19.250146,0.08075,0.185074,0.942123,0.407886,-0.155697,0.017806,74.873062,-6.503372,-143.665665,,,
729860220.132442,11.171228,-4.670043,-19.232122,0.08075,0.185074,0.942123,0.407886,-0.155697,0.017806,74.873062,-6.503372,-143.665665,,,
729860220.135796,11.171228,-4.670043,-19.232122,0.08075,0.185074,0.942123,0.407886,-0.155697,0.017806,74.873062,-6.503372,-143.665665,,,
729860220.139155,11.291454,-4.703095,-19.209032,0.077271,0.17218,0.98175,0.43007,-0.086066,0.047798,74.873062,-6.503372,-143.665665,,,
729860220.142448,11.415769,-4.726496,-19.17993,0.077271,0.17218,0.98175,0.43007,-0.086066,0.047798,74.687515,-7.174515,-143.245361,,,
729860220.145798,11.415769,-4.726496,-19.17993,0.077271,0.17218,0.98175,0.43007,-0.086066,0.047798,74.687515,-7.174515,-143.245361,,,
729860220.149128,11.54389,-4.742243,-19.145566,0.073303,0.167465,1.006241,0.460952,-0.021594,0.083593,74.687515,-7.174515,-143.245361,,,
729860220.152452,11.676175,-4.753124,-19.107305,0.073303,0.167465,1.006241,0.460952,-0.021594,0.083593,74.687515,-7.174515,-143.245361,,,
729860220.155793,11.676175,-4.753124,-19.107305,0.073303,0.167465,1.006241,0.460952,-0.021594,0.083593,74.687515,-7.174515,-143.245361,,,
729860220.159123,11.812686,-4.763053,-19.066781,0.078918,0.171341,1.000977,0.489194,1e-06,0.097438,74.687515,-7.174515,-143.245361,,,
729860220.162443,11.952669,-4.775752,-19.02571,0.078918,0.171341,1.000977,0.489194,1e-06,0.097438,74.687515,-7.174515,-143.245361,,,
729860220.165867,11.952669,-4.775752,-19.02571,0.078918,0.171341,1.000977,0.489194,1e-06,0.097438,74.687515,-7.174515,-143.245361,,,
729860220.169126,12.096343,-4.793026,-18.986377,0.08905,0.186539,0.977448,0.513758,-0.030869,0.088027,74.687515,-7.174515,-143.245361,,,
729860220.172453,12.243604,-4.816088,-18.950636,0.08905,0.186539,0.977448,0.513758,-0.030869,0.088027,74.687515,-7.174515,-143.245361,,,
729860220.1758,12.243604,-4.816088,-18.950636,0.08905,0.186539,0.977448,0.513758,-0.030869,0.088027,74.687515,-7.174515,-143.245361,,,
729860220.17912,12.394632,-4.845562,-18.919212,0.10051,0.2005,0.963074,0.538052,-0.083483,0.055735,74.687515,-7.174515,-143.245361,,,
729860220.182455,12.550667,-4.881743,-18.892304,0.10051,0.2005,0.963074,0.538052,-0.083483,0.055735,74.422287,-8.096283,-142.721405,,,
729860220.185802,12.550667,-4.881743,-18.892304,0.10051,0.2005,0.963074,0.538052,-0.083483,0.055735,74.422287,-8.096283,-142.721405,,,
729860220.189124,12.713862,-4.923398,-18.86918,0.104736,0.206024,0.970886,0.577588,-0.13137,0.024562,74.422287,-8.096283,-142.721405,,,
729860220.192454,12.886566,-4.969206,-18.848489,0.104736,0.206024,0.970886,0.577588,-0.13137,0.024562,74.422287,-8.096283,-142.721405,,,
729860220.195794,12.886566,-4.969206,-18.848489,0.104736,0.206024,0.970886,0.577588,-0.13137,0.024562,74.422287,-8.096283,-142.721405,,,
729860220.199141,13.070655,-5.018888,-18.828352,0.099869,0.197144,1.008743,0.653856,-0.157416,0.009482,74.422287,-8.096283,-142.721405,,,
729860220.202467,13.267257,-5.07165,-18.807798,0.099869,0.197144,1.008743,0.653856,-0.157416,0.009482,74.422287,-8.096283,-142.721405,,,
729860220.205841,13.267257,-5.07165,-18.807798,0.099869,0.197144,1.008743,0.653856,-0.157416,0.009482,74.422287,-8.096283,-142.721405,,,
729860220.209126,13.477507,-5.124852,-18.786171,0.097427,0.189468,1.044174,0.750714,-0.166236,0.006702,74.422287,-8.096283,-142.721405,,,
729860220.212464,13.703885,-5.175401,-18.762203,0.097427,0.189468,1.044174,0.750714,-0.166236,0.006702,74.422287,-8.096283,-142.721405,,,
729860220.21579,13.703885,-5.175401,-18.762203,0.097427,0.189468,1.044174,0.750714,-0.166236,0.006702,74.422287,-8.096283,-142.721405,,,
729860220.219192,13.945646,-5.220459,-18.736113,0.097198,0.189453,1.07872,0.86027,-0.124627,0.012488,74.422287,-8.096283,-142.721405,,,
729860220.222452,14.197961,-5.256527,-18.7107,0.097198,0.189453,1.07872,0.86027,-0.124627,0.012488,74.422287,-8.096283,-142.721405,,,
729860220.225801,14.197961,-5.256527,-18.7107,0.097198,0.189453,1.07872,0.86027,-0.124627,0.012488,74.129669,-9.335205,-141.577606,,,
729860220.229129,14.45876,-5.285228,-18.690597,0.096268,0.186356,1.082977,0.917179,-0.075581,-0.025603,74.129669,-9.335205,-141.577606,,,
729860220.232498,14.72861,-5.312166,-18.674742,0.096268,0.186356,1.082977,0.917179,-0.075581,-0.025603,74.129669,-9.335205,-141.577606,,,
729860220.235823,14.72861,-5.312166,-18.674742,0.096268,0.186356,1.082977,0.917179,-0.075581,-0.025603,74.129669,-9.335205,-141.577606,,,
729860220.239135,15.002863,-5.341809,-18.659477,0.111908,0.232712,1.039612,0.960788,-0.090832,-0.037068,74.129669,-9.335205,-141.577606,,,
729860220.242452,15.275303,-5.376177,-18.643718,0.111908,0.232712,1.039612,0.960788,-0.090832,-0.037068,74.129669,-9.335205,-141.577606,,,
729860220.245862,15.275303,-5.376177,-18.643718,0.111908,0.232712,1.039612,0.960788,-0.090832,-0.037068,74.129669,-9.335205,-141.577606,,,
729860220.249122,15.543659,-5.411495,-18.627666,0.099289,0.261108,0.980209,0.932636,-0.104782,-0.033343,74.129669,-9.335205,-141.577606,,,
729860220.252457,15.808749,-5.442137,-18.613031,0.099289,0.261108,0.980209,0.932636,-0.104782,-0.033343,74.129669,-9.335205,-141.577606,,,
729860220.255796,15.808749,-5.442137,-18.613031,0.099289,0.261108,0.980209,0.932636,-0.104782,-0.033343,74.129669,-9.335205,-141.577606,,,
729860220.259173,16.072649,-5.463131,-18.599743,0.102814,0.253235,0.951569,0.918041,-0.048169,-0.046824,74.129669,-9.335205,-141.577606,,,
729860220.262452,16.338159,-5.471769,-18.586861,0.102814,0.253235,0.951569,0.918041,-0.048169,-0.046824,74.129669,-9.335205,-141.577606,,,
729860220.265818,16.338159,-5.471769,-18.586861,0.102814,0.253235,0.951569,0.918041,-0.048169,-0.046824,74.096909,-10.936905,-140.023544,,,
729860220.269144,16.608736,-5.469224,-18.572189,0.086395,0.271774,0.997772,0.949419,0.036408,-0.039289,74.096909,-10.936905,-140.023544,,,
729860220.272456,16.88809,-5.459381,-18.552431,0.086395,0.271774,0.997772,0.949419,0.036408,-0.039289,74.096909,-10.936905,-140.023544,,,
729860220.275792,16.88809,-5.459381,-18.552431,0.086395,0.271774,0.997772,0.949419,0.036408,-0.039289,74.096909,-10.936905,-140.023544,,,
729860220.279134,17.18,-5.447753,-18.524763,0.067688,0.245636,1.037994,1.033461,0.074928,0.000181,74.096909,-10.936905,-140.023544,,,
729860220.282545,17.486858,-5.440256,-18.487229,0.067688,0.245636,1.037994,1.033461,0.074928,0.000181,74.096909,-10.936905,-140.023544,,,
729860220.285867,17.486858,-5.440256,-18.487229,0.067688,0.245636,1.037994,1.033461,0.074928,0.000181,74.096909,-10.936905,-140.023544,,,
729860220.289124,17.80789,-5.44093,-18.439808,0.04985,0.238998,1.054764,1.140696,0.045843,0.056638,74.096909,-10.936905,-140.023544,,,
729860220.292459,18.140182,-5.452351,-18.384299,0.04985,0.238998,1.054764,1.140696,0.045843,0.056638,74.096909,-10.936905,-140.023544,,,
729860220.295807,18.140182,-5.452351,-18.384299,0.04985,0.238998,1.054764,1.140696,0.045843,0.056638,74.096909,-10.936905,-140.023544,,,
729860220.299192,18.480474,-5.47481,-18.323648,0.048737,0.250412,1.02951,1.205089,-0.016244,0.089485,74.096909,-10.936905,-140.023544,,,
729860220.302449,18.82714,-5.507493,-18.261394,0.048737,0.250412,1.02951,1.205089,-0.016244,0.089485,74.096909,-10.936905,-140.023544,,,
729860220.30579,18.82714,-5.507493,-18.261394,0.048737,0.250412,1.02951,1.205089,-0.016244,0.089485,74.060501,-12.90596,-138.72168,,,
729860220.309146,19.179108,-5.54927,-18.200479,0.066345,0.282303,0.989044,1.243367,-0.080376,0.078498,74.060501,-12.90596,-138.72168,,,
729860220.312455,19.534101,-5.599935,-18.141919,0.066345,0.282303,0.989044,1.243367,-0.080376,0.078498,74.060501,-12.90596,-138.72168,,,
729860220.31587,19.534101,-5.599935,-18.141919,0.066345,0.282303,0.989044,1.243367,-0.080376,0.078498,74.060501,-12.90596,-138.72168,,,
729860220.31912,19.890766,-5.660605,-18.086653,0.08313,0.309341,0.958099,1.255857,-0.153507,0.052737,74.060501,-12.90596,-138.72168,,,
729860220.322459,20.247858,-5.731287,-18.035878,0.08313,0.309341,0.958099,1.255857,-0.153507,0.052737,74.060501,-12.90596,-138.72168,,,
729860220.325783,20.247858,-5.731287,-18.035878,0.08313,0.309341,0.958099,1.255857,-0.153507,0.052737,74.060501,-12.90596,-138.72168,,,
729860220.329129,20.603043,-5.810427,-17.990186,0.094635,0.333313,0.927917,1.244577,-0.224987,0.016609,74.060501,-12.90596,-138.72168,,,
729860220.332497,20.954118,-5.895832,-17.950669,0.094635,0.333313,0.927917,1.244577,-0.224987,0.016609,74.060501,-12.90596,-138.72168,,,
729860220.335863,20.954118,-5.895832,-17.950669,0.094635,0.333313,0.927917,1.244577,-0.224987,0.016609,74.060501,-12.90596,-138.72168,,,
729860220.339127,21.299176,-5.984726,-17.918255,0.108688,0.356049,0.899002,1.200393,-0.271033,-0.025482,74.060501,-12.90596,-138.72168,,,
729860220.342455,21.638321,-6.074805,-17.892834,0.108688,0.356049,0.899002,1.200393,-0.271033,-0.025482,74.060501,-12.90596,-138.72168,,,
729860220.345789,21.638321,-6.074805,-17.892834,0.108688,0.356049,0.899002,1.200393,-0.271033,-0.025482,73.483551,-14.661011,-137.390717,,,
729860220.349186,21.9728,-6.161339,-17.873006,0.122238,0.376419,0.88295,1.161713,-0.271363,-0.065138,73.483551,-14.661011,-137.390717,,,
729860220.352442,22.302483,-6.238686,-17.855371,0.122238,0.376419,0.88295,1.161713,-0.271363,-0.065138,73.483551,-14.661011,-137.390717,,,
729860220.355808,22.302483,-6.238686,-17.855371,0.122238,0.376419,0.88295,1.161713,-0.271363,-0.065138,73.483551,-14.661011,-137.390717,,,
729860220.359138,22.629286,-6.303599,-17.836243,0.112793,0.382187,0.913589,1.134313,-0.186676,-0.063589,73.483551,-14.661011,-137.390717,,,
729860220.362446,22.958291,-6.355552,-17.812096,0.112793,0.382187,0.913589,1.134313,-0.186676,-0.063589,73.483551,-14.661011,-137.390717,,,
729860220.365862,22.958291,-6.355552,-17.812096,0.112793,0.382187,0.913589,1.134313,-0.186676,-0.063589,73.483551,-14.661011,-137.390717,,,
729860220.369127,23.297047,-6.395852,-17.779761,0.098038,0.361252,0.963837,1.194544,-0.079264,-0.021947,73.483551,-14.661011,-137.390717,,,
729860220.372461,23.650898,-6.427052,-17.737398,0.098038,0.361252,0.963837,1.194544,-0.079264,-0.021947,73.483551,-14.661011,-137.390717,,,
729860220.375858,23.650898,-6.427052,-17.737398,0.098038,0.361252,0.963837,1.194544,-0.079264,-0.021947,73.483551,-14.661011,-137.390717,,,
729860220.379118,24.022722,-6.452549,-17.683887,0.083923,0.333923,1.041061,1.324906,-0.00014,0.028549,73.483551,-14.661011,-137.390717,,,
729860220.382502,24.414944,-6.475488,-17.619445,0.083923,0.333923,1.041061,1.324906,-0.00014,0.028549,73.483551,-14.661011,-137.390717,,,
729860220.385801,24.414944,-6.475488,-17.619445,0.083923,0.333923,1.041061,1.324906,-0.00014,0.028549,73.483551,-14.661011,-137.390717,,,
729860220.389192,24.827391,-6.498098,-17.546156,0.078751,0.322311,1.069244,1.469834,0.034901,0.071211,73.02388,-16.593719,-135.329071,,,
729860220.392453,25.258265,-6.522697,-17.466733,0.078751,0.322311,1.069244,1.469834,0.034901,0.071211,73.02388,-16.593719,-135.329071,,,
729860220.3958,25.258265,-6.522697,-17.466733,0.078751,0.322311,1.069244,1.469834,0.034901,0.071211,73.02388,-16.593719,-135.329071,,,
729860220.399222,25.704528,-6.550765,-17.383932,0.089493,0.341934,1.048401,1.588436,0.026217,0.07996,73.02388,-16.593719,-135.329071,,,
729860220.402442,26.161524,-6.582446,-17.301093,0.089493,0.341934,1.048401,1.588436,0.026217,0.07996,73.02388,-16.593719,-135.329071,,,
729860220.405805,26.161524,-6.582446,-17.301093,0.089493,0.341934,1.048401,1.588436,0.026217,0.07996,73.02388,-16.593719,-135.329071,,,
729860220.40912,26.624081,-6.618334,-17.219878,0.103867,0.374832,0.98938,1.633933,0.000283,0.062337,73.02388,-16.593719,-135.329071,,,
729860220.412454,27.087131,-6.658556,-17.14117,0.103867,0.374832,0.98938,1.633933,0.000283,0.062337,73.02388,-16.593719,-135.329071,,,
729860220.415849,27.087131,-6.658556,-17.14117,0.103867,0.374832,0.98938,1.633933,0.000283,0.062337,73.02388,-16.593719,-135.329071,,,
729860220.419231,27.545552,-6.702037,-17.06685,0.115448,0.414032,0.908875,1.606379,-0.036276,0.038163,73.02388,-16.593719,-135.329071,,,
729860220.422469,27.993362,-6.747623,-16.998462,0.115448,0.414032,0.908875,1.606379,-0.036276,0.038163,73.02388,-16.593719,-135.329071,,,
729860220.425801,27.993362,-6.747623,-16.998462,0.115448,0.414032,0.908875,1.606379,-0.036276,0.038163,73.02388,-16.593719,-135.329071,,,
729860220.42912,28.426722,-6.793302,-16.937897,0.12619,0.462219,0.826141,1.507744,-0.058858,0.000551,73.185181,-18.832611,-132.755615,,,
729860220.432513,28.843652,-6.836792,-16.885408,0.12619,0.462219,0.826141,1.507744,-0.058858,0.000551,73.185181,-18.832611,-132.755615,,,
729860220.4358,28.843652,-6.836792,-16.885408,0.12619,0.462219,0.826141,1.507744,-0.058858,0.000551,73.185181,-18.832611,-132.755615,,,
729860220.439226,29.243649,-6.87672,-16.840196,0.130722,0.502533,0.771271,1.388213,-0.0625,-0.035914,73.185181,-18.832611,-132.755615,,,
729860220.442457,29.626941,-6.913184,-16.800441,0.130722,0.502533,0.771271,1.388213,-0.0625,-0.035914,73.185181,-18.832611,-132.755615,,,
729860220.445813,29.626941,-6.913184,-16.800441,0.130722,0.502533,0.771271,1.388213,-0.0625,-0.035914,73.185181,-18.832611,-132.755615,,,
729860220.449182,29.993693,-6.944546,-16.764539,0.122971,0.514847,0.756195,1.269403,-0.039408,-0.04621,73.185181,-18.832611,-132.755615,,,
729860220.452454,30.346079,-6.969559,-16.730897,0.122971,0.514847,0.756195,1.269403,-0.039408,-0.04621,73.185181,-18.832611,-132.755615,,,
729860220.455804,30.346079,-6.969559,-16.730897,0.122971,0.514847,0.756195,1.269403,-0.039408,-0.04621,73.185181,-18.832611,-132.755615,,,
729860220.459138,30.685367,-6.987881,-16.696189,0.113052,0.507355,0.763412,1.17432,0.009559,-0.038635,73.185181,-18.832611,-132.755615,,,
729860220.462459,31.012036,-6.999249,-16.656876,0.113052,0.507355,0.763412,1.17432,0.009559,-0.038635,73.185181,-18.832611,-132.755615,,,
729860220.465853,31.012036,-6.999249,-16.656876,0.113052,0.507355,0.763412,1.17432,0.009559,-0.038635,73.185181,-18.832611,-132.755615,,,
729860220.469118,31.327843,-7.005374,-16.610015,0.098297,0.512741,0.779694,1.100126,0.07608,0.010367,73.184952,-20.390366,-131.047363,,,
729860220.472467,31.635406,-7.009527,-16.553557,0.098297,0.512741,0.779694,1.100126,0.07608,0.010367,73.184952,-20.390366,-131.047363,,,
729860220.475809,31.635406,-7.009527,-16.553557,0.098297,0.512741,0.779694,1.100126,0.07608,0.010367,73.184952,-20.390366,-131.047363,,,
729860220.479201,31.939128,-7.012767,-16.488328,0.088043,0.49147,0.794144,1.073699,0.115942,0.067284,73.184952,-20.390366,-131.047363,,,
729860220.48252,32.242641,-7.015537,-16.41638,0.088043,0.49147,0.794144,1.073699,0.115942,0.067284,73.184952,-20.390366,-131.047363,,,
729860220.485885,32.242641,-7.015537,-16.41638,0.088043,0.49147,0.794144,1.073699,0.115942,0.067284,73.184952,-20.390366,-131.047363,,,
729860220.489142,32.547322,-7.01979,-16.339784,0.087433,0.482819,0.815277,1.082891,0.131913,0.093274,73.184952,-20.390366,-131.047363,,,
729860220.492548,32.853436,-7.028496,-16.261578,0.087433,0.482819,0.815277,1.082891,0.131913,0.093274,73.184952,-20.390366,-131.047363,,,
729860220.495806,32.853436,-7.028496,-16.261578,0.087433,0.482819,0.815277,1.082891,0.131913,0.093274,73.184952,-20.390366,-131.047363,,,
729860220.499236,33.162005,-7.045142,-16.183662,0.101471,0.490585,0.810883,1.099154,0.084446,0.091522,73.184952,-20.390366,-131.047363,,,
729860220.502449,33.473509,-7.071212,-16.107471,0.101471,0.490585,0.810883,1.099154,0.084446,0.091522,73.184952,-20.390366,-131.047363,,,
729860220.505827,33.473509,-7.071212,-16.107471,0.101471,0.490585,0.810883,1.099154,0.084446,0.091522,73.184952,-20.390366,-131.047363,,,
729860220.509136,33.788613,-7.106899,-16.035271,0.116898,0.501511,0.79631,1.118515,0.009544,0.068152,73.184952,-20.390366,-131.047363,,,
729860220.512497,34.104606,-7.151226,-15.969266,0.116898,0.501511,0.79631,1.118515,0.009544,0.068152,73.134201,-21.73674,-128.93866,,,
729860220.515817,34.104606,-7.151226,-15.969266,0.116898,0.501511,0.79631,1.118515,0.009544,0.068152,73.134201,-21.73674,-128.93866,,,
729860220.519127,34.417504,-7.20239,-15.911252,0.129562,0.523209,0.775757,1.103666,-0.068817,0.022416,73.134201,-21.73674,-128.93866,,,
729860220.522558,34.724728,-7.258306,-15.86244,0.129562,0.523209,0.775757,1.103666,-0.068817,0.022416,73.134201,-21.73674,-128.93866,,,
729860220.525861,34.724728,-7.258306,-15.86244,0.129562,0.523209,0.775757,1.103666,-0.068817,0.022416,73.134201,-21.73674,-128.93866,,,
729860220.529129,35.023108,-7.31413,-15.823658,0.144836,0.557327,0.737793,1.032709,-0.120238,-0.030641,73.134201,-21.73674,-128.93866,,,
729860220.532491,35.310643,-7.364411,-15.79459,0.144836,0.557327,0.737793,1.032709,-0.120238,-0.030641,73.134201,-21.73674,-128.93866,,,
729860220.535805,35.310643,-7.364411,-15.79459,0.144836,0.557327,0.737793,1.032709,-0.120238,-0.030641,73.134201,-21.73674,-128.93866,,,
729860220.539178,35.585166,-7.405183,-15.774254,0.150894,0.584503,0.717255,0.944737,-0.094802,-0.073889,73.134201,-21.73674,-128.93866,,,
729860220.542449,35.844765,-7.432986,-15.761652,0.150894,0.584503,0.717255,0.944737,-0.094802,-0.073889,73.134201,-21.73674,-128.93866,,,
729860220.54579,35.844765,-7.432986,-15.761652,0.150894,0.584503,0.717255,0.944737,-0.094802,-0.073889,73.134201,-21.73674,-128.93866,,,
729860220.549175,36.088278,-7.445245,-15.756103,0.152374,0.603912,0.707596,0.828813,-0.019419,-0.098601,73.134201,-21.73674,-128.93866,,,
729860220.552488,36.314934,-7.441715,-15.755599,0.152374,0.603912,0.707596,0.828813,-0.019419,-0.098601,73.267929,-22.934341,-127.797424,,,
729860220.555787,36.314934,-7.441715,-15.755599,0.152374,0.603912,0.707596,0.828813,-0.019419,-0.098601,73.267929,-22.934341,-127.797424,,,
729860220.559125,36.525423,-7.420835,-15.759864,0.149643,0.614273,0.697952,0.711189,0.081108,-0.113429,73.267929,-22.934341,-127.797424,,,
729860220.562469,36.721418,-7.382577,-15.769557,0.149643,0.614273,0.697952,0.711189,0.081108,-0.113429,73.267929,-22.934341,-127.797424,,,
729860220.5655,36.721418,-7.382577,-15.769557,0.149643,0.614273,0.697952,0.711189,0.081108,-0.113429,73.267929,-22.934341,-127.797424,,,
729860220.569193,36.907056,-7.331079,-15.783611,0.146378,0.614853,0.70874,0.62606,0.16112,-0.124057,73.267929,-22.934341,-127.797424,,,
729860220.572533,37.087985,-7.271008,-15.801478,0.146378,0.614853,0.70874,0.62606,0.16112,-0.124057,73.267929,-22.934341,-127.797424,,,
729860220.575805,37.087985,-7.271008,-15.801478,0.146378,0.614853,0.70874,0.62606,0.16112,-0.124057,73.267929,-22.934341,-127.797424,,,
729860220.579135,37.271021,-7.205348,-15.822938,0.137726,0.598434,0.741028,0.628663,0.188823,-0.14121,73.267929,-22.934341,-127.797424,,,
729860220.582551,37.462319,-7.136698,-15.846363,0.137726,0.598434,0.741028,0.628663,0.188823,-0.14121,73.267929,-22.934341,-127.797424,,,
729860220.585805,37.462319,-7.136698,-15.846363,0.137726,0.598434,0.741028,0.628663,0.188823,-0.14121,73.267929,-22.934341,-127.797424,,,
729860220.58913,37.665453,-7.06808,-15.869701,0.1259,0.571198,0.807999,0.704414,0.19157,-0.154594,73.267929,-22.934341,-127.797424,,,
729860220.592488,37.881199,-7.003552,-15.892048,0.1259,0.571198,0.807999,0.704414,0.19157,-0.154594,73.75795,-23.743195,-126.492523,,,
729860220.595813,37.881199,-7.003552,-15.892048,0.1259,0.571198,0.807999,0.704414,0.19157,-0.154594,73.75795,-23.743195,-126.492523,,,
729860220.599185,38.108176,-6.946727,-15.913003,0.112457,0.554428,0.844345,0.786081,0.150651,-0.154554,73.75795,-23.743195,-126.492523,,,
729860220.602516,38.345984,-6.89913,-15.9329,0.112457,0.554428,0.844345,0.786081,0.150651,-0.154554,73.75795,-23.743195,-126.492523,,,
729860220.605792,38.345984,-6.89913,-15.9329,0.112457,0.554428,0.844345,0.786081,0.150651,-0.154554,73.75795,-23.743195,-126.492523,,,
729860220.609136,38.592693,-6.859609,-15.953598,0.107162,0.560089,0.826767,0.85364,0.087695,-0.160596,73.75795,-23.743195,-126.492523,,,
729860220.612499,38.846348,-6.825418,-15.976891,0.107162,0.560089,0.826767,0.85364,0.087695,-0.160596,73.75795,-23.743195,-126.492523,,,
729860220.615856,38.846348,-6.825418,-15.976891,0.107162,0.560089,0.826767,0.85364,0.087695,-0.160596,73.75795,-23.743195,-126.492523,,,
729860220.619132,39.106324,-6.7946,-16.003852,0.109589,0.578262,0.810257,0.895159,0.047031,-0.180854,73.75795,-23.743195,-126.492523,,,
729860220.622492,39.369638,-6.765918,-16.035023,0.109589,0.578262,0.810257,0.895159,0.047031,-0.180854,73.75795,-23.743195,-126.492523,,,
729860220.6258,39.369638,-6.765918,-16.035023,0.109589,0.578262,0.810257,0.895159,0.047031,-0.180854,73.75795,-23.743195,-126.492523,,,
729860220.629123,39.633701,-6.737504,-16.071358,0.113037,0.601791,0.790985,0.901316,0.01878,-0.20971,73.75795,-23.743195,-126.492523,,,
729860220.632546,39.896727,-6.708827,-16.113841,0.113037,0.601791,0.790985,0.901316,0.01878,-0.20971,74.152527,-24.747009,-124.902634,,,
