Time (sec),Pitch (deg),Roll (deg),Yaw(deg),X-Acceleration (g),Y-Acceleration (g),Z-Acceleration (g),Pitch Rate (deg/sec),Roll Rate (deg/sec),Yaw Rate (deg/sec),Magnetic Field in X direction (uT),Magnetic Field in Y direction (uT),Magnetic Field in Z Direction (uT),Latitude (deg),Longitude (deg),Altitude (m)
729863023.995904,0.913747,3.115835,52.738086,-0.034088,0.025101,0.991516,0.004159,0.033049,-0.009028,57.740479,7.563751,-148.813263,,,
729863023.999156,0.914499,3.123659,52.735689,-0.037689,0.021896,0.992493,0.004159,0.033049,-0.009028,57.740479,7.563751,-148.813263,,,
729863024.002588,0.914499,3.123659,52.735689,-0.037689,0.021896,0.992493,0.004159,0.033049,-0.009028,57.740479,7.563751,-148.813263,,,
729863024.005872,0.914698,3.135726,52.73274,-0.037689,0.021896,0.992493,-0.006069,0.037606,-0.009543,57.716187,7.441589,-148.982285,,,
729863024.009169,0.912748,3.145058,52.730111,-0.045837,0.019211,0.993042,-0.006069,0.037606,-0.009543,57.716187,7.441589,-148.982285,,,
729863024.012551,0.912748,3.145058,52.730111,-0.045837,0.019211,0.993042,-0.006069,0.037606,-0.009543,57.716187,7.441589,-148.982285,,,
729863024.015875,0.910696,3.158546,52.727878,-0.045837,0.019211,0.993042,-0.009879,0.025403,-0.009977,57.716187,7.441589,-148.982285,,,
729863024.019167,0.907771,3.165296,52.726117,-0.051529,0.019012,0.993881,-0.009879,0.025403,-0.009977,57.716187,7.441589,-148.982285,,,
729863024.022534,0.907771,3.165296,52.726117,-0.051529,0.019012,0.993881,-0.009879,0.025403,-0.009977,57.716187,7.441589,-148.982285,,,
729863024.02585,0.90439,3.172659,52.724065,-0.051529,0.019012,0.993881,-0.005226,0.007468,-0.010131,57.716187,7.441589,-148.982285,,,
729863024.029178,0.902342,3.174699,52.721873,-0.054703,0.019363,0.991119,-0.005226,0.007468,-0.010131,57.716187,7.441589,-148.982285,,,
729863024.032573,0.902342,3.174699,52.721873,-0.054703,0.019363,0.991119,-0.005226,0.007468,-0.010131,57.716187,7.441589,-148.982285,,,
729863024.035854,0.900428,3.175295,52.71957,-0.054703,0.019363,0.991119,-0.006005,-0.00595,-0.015042,57.716187,7.441589,-148.982285,,,
729863024.039166,0.899002,3.173607,52.716229,-0.053665,0.024567,0.987228,-0.006005,-0.00595,-0.015042,57.716187,7.441589,-148.982285,,,
729863024.042524,0.899002,3.173607,52.716229,-0.053665,0.024567,0.987228,-0.006005,-0.00595,-0.015042,57.716187,7.441589,-148.982285,,,
729863024.045879,0.896002,3.170617,52.712074,-0.053665,0.024567,0.987228,-0.011717,-0.00685,-0.017795,57.66452,7.416473,-148.818893,,,
729863024.049162,0.893314,3.167646,52.707733,-0.050476,0.024567,0.984055,-0.011717,-0.00685,-0.017795,57.66452,7.416473,-148.818893,,,
729863024.052525,0.893314,3.167646,52.707733,-0.050476,0.024567,0.984055,-0.011717,-0.00685,-0.017795,57.66452,7.416473,-148.818893,,,
729863024.055825,0.88962,3.163598,52.703291,-0.050476,0.024567,0.984055,-0.01559,0.006584,-0.019288,57.66452,7.416473,-148.818893,,,
729863024.059168,0.885019,3.164274,52.698638,-0.053192,0.02359,0.982086,-0.01559,0.006584,-0.019288,57.66452,7.416473,-148.818893,,,
729863024.06254,0.885019,3.164274,52.698638,-0.053192,0.02359,0.982086,-0.01559,0.006584,-0.019288,57.66452,7.416473,-148.818893,,,
729863024.065837,0.880649,3.162004,52.694158,-0.053192,0.02359,0.982086,-0.021706,0.019868,-0.020291,57.66452,7.416473,-148.818893,,,
729863024.069166,0.873517,3.166598,52.689393,-0.051132,0.026031,0.981567,-0.021706,0.019868,-0.020291,57.66452,7.416473,-148.818893,,,
729863024.072542,0.873517,3.166598,52.689393,-0.051132,0.026031,0.981567,-0.021706,0.019868,-0.020291,57.66452,7.416473,-148.818893,,,
729863024.075851,0.867654,3.165515,52.684114,-0.051132,0.026031,0.981567,-0.031978,0.017258,-0.026398,57.66452,7.416473,-148.818893,,,
729863024.079162,0.858318,3.170437,52.677816,-0.054169,0.025711,0.980026,-0.031978,0.017258,-0.026398,57.66452,7.416473,-148.818893,,,
729863024.082586,0.858318,3.170437,52.677816,-0.054169,0.025711,0.980026,-0.031978,0.017258,-0.026398,57.66452,7.416473,-148.818893,,,
729863024.085822,0.849287,3.170544,52.670357,-0.054169,0.025711,0.980026,-0.036348,0.018946,-0.031673,57.795044,7.337265,-149.084198,,,
729863024.089172,0.838084,3.175003,52.662595,-0.059952,0.021942,0.98291,-0.036348,0.018946,-0.031673,57.795044,7.337265,-149.084198,,,
729863024.092513,0.838084,3.175003,52.662595,-0.059952,0.021942,0.98291,-0.036348,0.018946,-0.031673,57.795044,7.337265,-149.084198,,,
729863024.09583,0.827147,3.178219,52.655475,-0.059952,0.021942,0.98291,-0.042145,0.027329,-0.022303,57.795044,7.337265,-149.084198,,,
729863024.099161,0.813951,3.185298,52.649247,-0.064194,0.017975,0.991653,-0.042145,0.027329,-0.022303,57.795044,7.337265,-149.084198,,,
729863024.102498,0.813951,3.185298,52.649247,-0.064194,0.017975,0.991653,-0.042145,0.027329,-0.022303,57.795044,7.337265,-149.084198,,,
729863024.105834,0.800868,3.192372,52.64462,-0.064194,0.017975,0.991653,-0.048046,0.029799,-0.012491,57.795044,7.337265,-149.084198,,,
729863024.109157,0.786372,3.20011,52.641737,-0.064499,0.020584,0.991104,-0.048046,0.029799,-0.012491,57.795044,7.337265,-149.084198,,,
729863024.112522,0.786372,3.20011,52.641737,-0.064499,0.020584,0.991104,-0.048046,0.029799,-0.012491,57.795044,7.337265,-149.084198,,,
729863024.115837,0.773981,3.206498,52.639597,-0.064499,0.020584,0.991104,-0.047134,0.019422,-0.012061,57.795044,7.337265,-149.084198,,,
729863024.119165,0.760619,3.211294,52.637538,-0.063522,0.016159,0.995087,-0.047134,0.019422,-0.012061,57.795044,7.337265,-149.084198,,,
729863024.122496,0.760619,3.211294,52.637538,-0.063522,0.016159,0.995087,-0.047134,0.019422,-0.012061,57.795044,7.337265,-149.084198,,,
729863024.125886,0.750659,3.213412,52.634874,-0.063522,0.016159,0.995087,-0.030977,0.002994,-0.019809,57.91008,7.500214,-149.312042,,,
729863024.129209,0.740391,3.214471,52.630714,-0.056961,0.01149,1.003342,-0.030977,0.002994,-0.019809,57.91008,7.500214,-149.312042,,,
729863024.132591,0.740391,3.214471,52.630714,-0.056961,0.01149,1.003342,-0.030977,0.002994,-0.019809,57.91008,7.500214,-149.312042,,,
729863024.135844,0.735572,3.211838,52.625365,-0.056961,0.01149,1.003342,-0.015824,-0.009489,-0.025416,57.91008,7.500214,-149.312042,,,
729863024.139179,0.730301,3.2086,52.619037,-0.05159,0.008972,1.009262,-0.015824,-0.009489,-0.025416,57.91008,7.500214,-149.312042,,,
729863024.142595,0.730301,3.2086,52.619037,-0.05159,0.008972,1.009262,-0.015824,-0.009489,-0.025416,57.91008,7.500214,-149.312042,,,
729863024.145832,0.729154,3.204441,52.611964,-0.05159,0.008972,1.009262,0.000658,-0.001071,-0.027983,57.91008,7.500214,-149.312042,,,
729863024.149172,0.727428,3.202824,52.604483,-0.054123,0.010025,1.013458,0.000658,-0.001071,-0.027983,57.91008,7.500214,-149.312042,,,
729863024.152521,0.727428,3.202824,52.604483,-0.054123,0.010025,1.013458,0.000658,-0.001071,-0.027983,57.91008,7.500214,-149.312042,,,
729863024.155829,0.731323,3.203023,52.597385,-0.054123,0.010025,1.013458,0.014579,0.023478,-0.019102,57.91008,7.500214,-149.312042,,,
729863024.1592,0.734138,3.207646,52.591688,-0.058441,0.003891,1.023056,0.014579,0.023478,-0.019102,57.91008,7.500214,-149.312042,,,
729863024.162508,0.734138,3.207646,52.591688,-0.058441,0.003891,1.023056,0.014579,0.023478,-0.019102,57.91008,7.500214,-149.312042,,,
729863024.165851,0.741904,3.217111,52.587474,-0.058441,0.003891,1.023056,0.025811,0.045084,-0.013581,57.91008,7.500214,-149.312042,,,
729863024.169157,0.748683,3.229105,52.583862,-0.054291,0.008209,1.020584,0.025811,0.045084,-0.013581,57.792328,7.444336,-148.8927,,,
729863024.172492,0.748683,3.229105,52.583862,-0.054291,0.008209,1.020584,0.025811,0.045084,-0.013581,57.792328,7.444336,-148.8927,,,
729863024.175828,0.759024,3.241868,52.580111,-0.054291,0.008209,1.020584,0.04357,0.029416,-0.011315,57.792328,7.444336,-148.8927,,,
729863024.179159,0.770052,3.250312,52.576203,-0.054352,0.009338,1.006821,0.04357,0.029416,-0.011315,57.792328,7.444336,-148.8927,,,
729863024.182602,0.770052,3.250312,52.576203,-0.054352,0.009338,1.006821,0.04357,0.029416,-0.011315,57.792328,7.444336,-148.8927,,,
729863024.185847,0.783489,3.257633,52.571141,-0.054352,0.009338,1.006821,0.044391,-0.001829,-0.023218,57.792328,7.444336,-148.8927,,,
729863024.189168,0.795569,3.257964,52.564461,-0.058487,0.010452,0.995575,0.044391,-0.001829,-0.023218,57.792328,7.444336,-148.8927,,,
729863024.192505,0.795569,3.257964,52.564461,-0.058487,0.010452,0.995575,0.044391,-0.001829,-0.023218,57.792328,7.444336,-148.8927,,,
729863024.195909,0.808277,3.255597,52.557584,-0.058487,0.010452,0.995575,0.036653,-0.041489,-0.023236,57.792328,7.444336,-148.8927,,,
729863024.199159,0.818666,3.245135,52.55147,-0.060776,0.013824,0.983826,0.036653,-0.041489,-0.023236,57.792328,7.444336,-148.8927,,,
729863024.202543,0.818666,3.245135,52.55147,-0.060776,0.013824,0.983826,0.036653,-0.041489,-0.023236,57.792328,7.444336,-148.8927,,,
729863024.205858,0.827771,3.232486,52.546456,-0.060776,0.013824,0.983826,0.02505,-0.054007,-0.013155,57.792328,7.444336,-148.8927,,,
729863024.209171,0.834849,3.215963,52.542631,-0.058975,0.015305,0.98381,0.02505,-0.054007,-0.013155,57.70813,7.229691,-148.659561,,,
729863024.212512,0.834849,3.215963,52.542631,-0.058975,0.015305,0.98381,0.02505,-0.054007,-0.013155,57.70813,7.229691,-148.659561,,,
729863024.21586,0.838448,3.199227,52.539411,-0.058975,0.015305,0.98381,0.005201,-0.045249,-0.010285,57.70813,7.229691,-148.659561,,,
729863024.219169,0.83978,3.185225,52.536646,-0.05481,0.019775,0.987625,0.005201,-0.045249,-0.010285,57.70813,7.229691,-148.659561,,,
729863024.222493,0.83978,3.185225,52.536646,-0.05481,0.019775,0.987625,0.005201,-0.045249,-0.010285,57.70813,7.229691,-148.659561,,,
729863024.225835,0.838613,3.172888,52.534244,-0.05481,0.019775,0.987625,-0.007224,-0.01659,-0.011604,57.70813,7.229691,-148.659561,,,
729863024.229255,0.837061,3.165854,52.531733,-0.046112,0.018829,0.997559,-0.007224,-0.01659,-0.011604,57.70813,7.229691,-148.659561,,,
729863024.232553,0.837061,3.165854,52.531733,-0.046112,0.018829,0.997559,-0.007224,-0.01659,-0.011604,57.70813,7.229691,-148.659561,,,
729863024.235842,0.832573,3.164118,52.528302,-0.046112,0.018829,0.997559,-0.015413,0.024323,-0.019738,57.70813,7.229691,-148.659561,,,
729863024.239182,0.828323,3.168876,52.523936,-0.042953,0.015915,1.008667,-0.015413,0.024323,-0.019738,57.70813,7.229691,-148.659561,,,
729863024.242514,0.828323,3.168876,52.523936,-0.042953,0.015915,1.008667,-0.015413,0.024323,-0.019738,57.70813,7.229691,-148.659561,,,
729863024.24584,0.820999,3.180001,52.518703,-0.042953,0.015915,1.008667,-0.01448,0.057794,-0.025066,57.70813,7.229691,-148.659561,,,
729863024.249175,0.816752,3.194985,52.512731,-0.046463,0.011078,1.010818,-0.01448,0.057794,-0.025066,57.611221,7.187012,-149.081375,,,
729863024.252502,0.816752,3.194985,52.512731,-0.046463,0.011078,1.010818,-0.01448,0.057794,-0.025066,57.611221,7.187012,-149.081375,,,
729863024.255843,0.81307,3.211313,52.506824,-0.046463,0.011078,1.010818,0.007371,0.062835,-0.020376,57.611221,7.187012,-149.081375,,,
729863024.259171,0.813341,3.228829,52.501246,-0.059402,0.008011,1.013824,0.007371,0.062835,-0.020376,57.611221,7.187012,-149.081375,,,
729863024.262514,0.813341,3.228829,52.501246,-0.059402,0.008011,1.013824,0.007371,0.062835,-0.020376,57.611221,7.187012,-149.081375,,,
729863024.265856,0.815765,3.245578,52.495614,-0.059402,0.008011,1.013824,0.027431,0.056252,-0.020131,57.611221,7.187012,-149.081375,,,
729863024.269168,0.822155,3.261219,52.48978,-0.067871,0.006393,1.01384,0.027431,0.056252,-0.020131,57.611221,7.187012,-149.081375,,,
729863024.272581,0.822155,3.261219,52.48978,-0.067871,0.006393,1.01384,0.027431,0.056252,-0.020131,57.611221,7.187012,-149.081375,,,
729863024.275845,0.830847,3.274146,52.485252,-0.067871,0.006393,1.01384,0.046129,0.020025,-0.003431,57.611221,7.187012,-149.081375,,,
729863024.279165,0.842892,3.280569,52.483214,-0.076523,0.006042,1.007263,0.046129,0.020025,-0.003431,57.611221,7.187012,-149.081375,,,
729863024.282584,0.842892,3.280569,52.483214,-0.076523,0.006042,1.007263,0.046129,0.020025,-0.003431,57.611221,7.187012,-149.081375,,,
729863024.285846,0.857194,3.282795,52.483158,-0.076523,0.006042,1.007263,0.057554,-0.007688,0.00631,57.611221,7.187012,-149.081375,,,
729863024.289194,0.873435,3.280007,52.484402,-0.074234,0.007401,1.001785,0.057554,-0.007688,0.00631,57.611221,7.187012,-149.081375,,,
729863024.29253,0.873435,3.280007,52.484402,-0.074234,0.007401,1.001785,0.057554,-0.007688,0.00631,57.770813,7.065094,-148.985992,,,
729863024.295894,0.891378,3.275628,52.486356,-0.074234,0.007401,1.001785,0.069383,-0.024271,0.010704,57.770813,7.065094,-148.985992,,,
729863024.299175,0.910221,3.268775,52.488435,-0.062057,0.012024,1.002441,0.069383,-0.024271,0.010704,57.770813,7.065094,-148.985992,,,
729863024.302526,0.910221,3.268775,52.488435,-0.062057,0.012024,1.002441,0.069383,-0.024271,0.010704,57.770813,7.065094,-148.985992,,,
729863024.305852,0.930135,3.259027,52.489983,-0.062057,0.012024,1.002441,0.062617,-0.030018,0.000992,57.770813,7.065094,-148.985992,,,
729863024.309221,0.947641,3.250101,52.490227,-0.051926,0.01416,1.000473,0.062617,-0.030018,0.000992,57.770813,7.065094,-148.985992,,,
729863024.312499,0.947641,3.250101,52.490227,-0.051926,0.01416,1.000473,0.062617,-0.030018,0.000992,57.770813,7.065094,-148.985992,,,
729863024.315867,0.963448,3.239211,52.489081,-0.051926,0.01416,1.000473,0.042499,-0.009771,-0.006728,57.770813,7.065094,-148.985992,,,
729863024.319232,0.976383,3.235006,52.48701,-0.044922,0.020584,0.993835,0.042499,-0.009771,-0.006728,57.770813,7.065094,-148.985992,,,
729863024.322526,0.976383,3.235006,52.48701,-0.044922,0.020584,0.993835,0.042499,-0.009771,-0.006728,57.770813,7.065094,-148.985992,,,
729863024.325536,0.9852,3.229717,52.484992,-0.044922,0.020584,0.993835,0.014827,0.006408,-0.006979,57.770813,7.065094,-148.985992,,,
729863024.329215,0.990128,3.230481,52.483219,-0.044662,0.022049,0.98381,0.014827,0.006408,-0.006979,57.770813,7.065094,-148.985992,,,
729863024.33259,0.990128,3.230481,52.483219,-0.044662,0.022049,0.98381,0.014827,0.006408,-0.006979,57.334412,6.893982,-148.753677,,,
729863024.335846,0.989808,3.230745,52.481313,-0.044662,0.022049,0.98381,-0.006516,0.018232,-0.009541,57.334412,6.893982,-148.753677,,,
729863024.339166,0.988196,3.234818,52.478726,-0.04657,0.024261,0.98317,-0.006516,0.018232,-0.009541,57.334412,6.893982,-148.753677,,,
729863024.342494,0.988196,3.234818,52.478726,-0.04657,0.024261,0.98317,-0.006516,0.018232,-0.009541,57.334412,6.893982,-148.753677,,,
729863024.345833,0.982486,3.241513,52.47594,-0.04657,0.024261,0.98317,-0.008212,0.023389,-0.011432,57.334412,6.893982,-148.753677,,,
729863024.349187,0.978782,3.247387,52.473561,-0.048401,0.020981,0.989105,-0.008212,0.023389,-0.011432,57.334412,6.893982,-148.753677,,,
729863024.352312,0.978782,3.247387,52.473561,-0.048401,0.020981,0.989105,-0.008212,0.023389,-0.011432,57.334412,6.893982,-148.753677,,,
729863024.355861,0.973402,3.256795,52.470756,-0.048401,0.020981,0.989105,0.002428,0.026479,-0.014406,57.334412,6.893982,-148.753677,,,
729863024.359154,0.972343,3.263322,52.467409,-0.047958,0.018784,1.000763,0.002428,0.026479,-0.014406,57.334412,6.893982,-148.753677,,,
729863024.362517,0.972343,3.263322,52.467409,-0.047958,0.018784,1.000763,0.002428,0.026479,-0.014406,57.334412,6.893982,-148.753677,,,
729863024.365827,0.970771,3.276476,52.463511,-0.047958,0.018784,1.000763,0.009758,0.030337,-0.016256,57.334412,6.893982,-148.753677,,,
729863024.369157,0.973342,3.284096,52.459372,-0.051926,0.014847,1.005875,0.009758,0.030337,-0.016256,57.334412,6.893982,-148.753677,,,
729863024.372501,0.973342,3.284096,52.459372,-0.051926,0.014847,1.005875,0.009758,0.030337,-0.016256,57.494919,6.760803,-148.907578,,,
729863024.375848,0.976459,3.296375,52.455737,-0.051926,0.014847,1.005875,0.029801,0.031684,-0.011403,57.494919,6.760803,-148.907578,,,
729863024.379158,0.983902,3.305004,52.452852,-0.055969,0.013397,1.009796,0.029801,0.031684,-0.011403,57.494919,6.760803,-148.907578,,,
729863024.382495,0.983902,3.305004,52.452852,-0.055969,0.013397,1.009796,0.029801,0.031684,-0.011403,57.494919,6.760803,-148.907578,,,
729863024.385828,0.992185,3.314206,52.45044,-0.055969,0.013397,1.009796,0.042509,0.025842,-0.006452,57.494919,6.760803,-148.907578,,,
729863024.389159,1.003463,3.321532,52.448178,-0.056885,0.01091,1.00885,0.042509,0.025842,-0.006452,57.494919,6.760803,-148.907578,,,
729863024.392496,1.003463,3.321532,52.448178,-0.056885,0.01091,1.00885,0.042509,0.025842,-0.006452,57.494919,6.760803,-148.907578,,,
729863024.395849,1.016107,3.323509,52.445628,-0.056885,0.01091,1.00885,0.050866,0.008133,-0.014068,57.494919,6.760803,-148.907578,,,
729863024.399183,1.029445,3.32596,52.441727,-0.052139,0.014954,1.002411,0.050866,0.008133,-0.014068,57.494919,6.760803,-148.907578,,,
729863024.402494,1.029445,3.32596,52.441727,-0.052139,0.014954,1.002411,0.050866,0.008133,-0.014068,57.494919,6.760803,-148.907578,,,
729863024.405836,1.042762,3.323989,52.435967,-0.052139,0.014954,1.002411,0.04051,0.012757,-0.027218,57.494919,6.760803,-148.907578,,,
729863024.409161,1.053658,3.326987,52.428344,-0.047714,0.018036,0.998215,0.04051,0.012757,-0.027218,57.494919,6.760803,-148.907578,,,
729863024.412492,1.053658,3.326987,52.428344,-0.047714,0.018036,0.998215,0.04051,0.012757,-0.027218,57.56752,6.61351,-148.604446,,,
729863024.415841,1.062515,3.327677,52.419308,-0.047714,0.018036,0.998215,0.016613,0.02821,-0.034741,57.56752,6.61351,-148.604446,,,
729863024.41916,1.066763,3.334491,52.409679,-0.052673,0.022339,0.989944,0.016613,0.02821,-0.034741,57.56752,6.61351,-148.604446,,,
729863024.422502,1.066763,3.334491,52.409679,-0.052673,0.022339,0.989944,0.016613,0.02821,-0.034741,57.56752,6.61351,-148.604446,,,
729863024.425837,1.068231,3.339815,52.40032,-0.052673,0.022339,0.989944,-0.01012,0.029333,-0.027818,57.56752,6.61351,-148.604446,,,
729863024.42917,1.065169,3.347467,52.392216,-0.061371,0.022812,0.977478,-0.01012,0.029333,-0.027818,57.56752,6.61351,-148.604446,,,
729863024.432493,1.065169,3.347467,52.392216,-0.061371,0.022812,0.977478,-0.01012,0.029333,-0.027818,57.56752,6.61351,-148.604446,,,
729863024.435827,1.060619,3.351243,52.386493,-0.061371,0.022812,0.977478,-0.017546,0.015687,-0.013489,57.56752,6.61351,-148.604446,,,
729863024.439175,1.055328,3.356033,52.382701,-0.071884,0.018723,0.981659,-0.017546,0.015687,-0.013489,57.56752,6.61351,-148.604446,,,
729863024.44249,1.055328,3.356033,52.382701,-0.071884,0.018723,0.981659,-0.017546,0.015687,-0.013489,57.56752,6.61351,-148.604446,,,
729863024.44594,1.050885,3.355394,52.380724,-0.071884,0.018723,0.981659,-0.006587,0.000724,-0.002048,57.56752,6.61351,-148.604446,,,
729863024.44917,1.048106,3.355758,52.380273,-0.072403,0.017517,0.991257,-0.006587,0.000724,-0.002048,57.56752,6.61351,-148.604446,,,
729863024.452294,1.048106,3.355758,52.380273,-0.072403,0.017517,0.991257,-0.006587,0.000724,-0.002048,57.56752,6.61351,-148.604446,,,
729863024.455896,1.04696,3.35214,52.38018,-0.072403,0.017517,0.991257,0.013878,-0.012047,0.00103,57.485931,6.794647,-148.353897,,,
729863024.459165,1.049771,3.348523,52.380348,-0.065872,0.015305,1.001831,0.013878,-0.012047,0.00103,57.485931,6.794647,-148.353897,,,
729863024.462523,1.049771,3.348523,52.380348,-0.065872,0.015305,1.001831,0.013878,-0.012047,0.00103,57.485931,6.794647,-148.353897,,,
729863024.465844,1.054301,3.343443,52.380525,-0.065872,0.015305,1.001831,0.033751,-0.009682,-0.001967,57.485931,6.794647,-148.353897,,,
729863024.469159,1.062104,3.34037,52.379804,-0.05687,0.014725,1.005859,0.033751,-0.009682,-0.001967,57.485931,6.794647,-148.353897,,,
729863024.472508,1.062104,3.34037,52.379804,-0.05687,0.014725,1.005859,0.033751,-0.009682,-0.001967,57.485931,6.794647,-148.353897,,,
729863024.475849,1.070183,3.339171,52.378177,-0.05687,0.014725,1.005859,0.042787,0.009562,-0.009035,57.485931,6.794647,-148.353897,,,
729863024.479162,1.082215,3.340115,52.375617,-0.052383,0.014099,1.00383,0.042787,0.009562,-0.009035,57.485931,6.794647,-148.353897,,,
729863024.482491,1.082215,3.340115,52.375617,-0.052383,0.014099,1.00383,0.042787,0.009562,-0.009035,57.485931,6.794647,-148.353897,,,
729863024.48586,1.095212,3.339574,52.372698,-0.052383,0.014099,1.00383,0.050359,0.015451,-0.00924,57.485931,6.794647,-148.353897,,,
729863024.489163,1.109468,3.342833,52.369679,-0.054001,0.011765,1.006546,0.050359,0.015451,-0.00924,57.485931,6.794647,-148.353897,,,
729863024.492497,1.109468,3.342833,52.369679,-0.054001,0.011765,1.006546,0.050359,0.015451,-0.00924,57.485931,6.794647,-148.353897,,,
729863024.495825,1.123643,3.345247,52.366042,-0.054001,0.011765,1.006546,0.046124,0.026756,-0.011002,57.565872,6.630524,-148.668381,,,
729863024.499159,1.137159,3.352463,52.361637,-0.055267,0.014206,1.001923,0.046124,0.026756,-0.011002,57.565872,6.630524,-148.668381,,,
729863024.502491,1.137159,3.352463,52.361637,-0.055267,0.014206,1.001923,0.046124,0.026756,-0.011002,57.565872,6.630524,-148.668381,,,
729863024.505845,1.150093,3.35851,52.357199,-0.055267,0.014206,1.001923,0.036168,0.023518,-0.016679,57.565872,6.630524,-148.668381,,,
729863024.509169,1.160485,3.364091,52.352169,-0.057861,0.016052,0.991882,0.036168,0.023518,-0.016679,57.565872,6.630524,-148.668381,,,
729863024.512515,1.160485,3.364091,52.352169,-0.057861,0.016052,0.991882,0.036168,0.023518,-0.016679,57.565872,6.630524,-148.668381,,,
729863024.515824,1.169785,3.36989,52.346443,-0.057861,0.016052,0.991882,0.019083,0.003362,-0.0195,57.565872,6.630524,-148.668381,,,
729863024.519159,1.17587,3.371261,52.341011,-0.06221,0.01886,0.980621,0.019083,0.003362,-0.0195,57.565872,6.630524,-148.668381,,,
729863024.52252,1.17587,3.371261,52.341011,-0.06221,0.01886,0.980621,0.019083,0.003362,-0.0195,57.565872,6.630524,-148.668381,,,
729863024.525828,1.177944,3.37523,52.335591,-0.06221,0.01886,0.980621,-0.004337,-0.008054,-0.017168,57.565872,6.630524,-148.668381,,,
729863024.52918,1.176992,3.373133,52.330728,-0.065689,0.022751,0.969467,-0.004337,-0.008054,-0.017168,57.565872,6.630524,-148.668381,,,
729863024.532492,1.176992,3.373133,52.330728,-0.065689,0.022751,0.969467,-0.004337,-0.008054,-0.017168,57.565872,6.630524,-148.668381,,,
729863024.535825,1.172908,3.372642,52.326703,-0.065689,0.022751,0.969467,-0.015443,-0.018674,-0.015024,57.667801,6.361359,-148.320969,,,
729863024.539159,1.168974,3.366583,52.323256,-0.066925,0.025101,0.96962,-0.015443,-0.018674,-0.015024,57.667801,6.361359,-148.320969,,,
729863024.542491,1.168974,3.366583,52.323256,-0.066925,0.025101,0.96962,-0.015443,-0.018674,-0.015024,57.667801,6.361359,-148.320969,,,
729863024.545938,1.16287,3.361025,52.320265,-0.066925,0.025101,0.96962,-0.015277,-0.020045,-0.011761,57.667801,6.361359,-148.320969,,,
729863024.549222,1.156943,3.354518,52.31716,-0.062378,0.024033,0.9758,-0.015277,-0.020045,-0.011761,57.667801,6.361359,-148.320969,,,
729863024.552483,1.156943,3.354518,52.31716,-0.062378,0.024033,0.9758,-0.015277,-0.020045,-0.011761,57.667801,6.361359,-148.320969,,,
729863024.555907,1.149981,3.348227,52.313587,-0.062378,0.024033,0.9758,-0.016505,-0.010818,-0.016675,57.667801,6.361359,-148.320969,,,
729863024.559161,1.14496,3.344749,52.309307,-0.054092,0.024796,0.980591,-0.016505,-0.010818,-0.016675,57.667801,6.361359,-148.320969,,,
729863024.562496,1.14496,3.344749,52.309307,-0.054092,0.024796,0.980591,-0.016505,-0.010818,-0.016675,57.667801,6.361359,-148.320969,,,
729863024.56583,1.138931,3.342041,52.304094,-0.054092,0.024796,0.980591,-0.013006,0.015613,-0.025262,57.667801,6.361359,-148.320969,,,
729863024.569158,1.134927,3.345044,52.29801,-0.050507,0.024506,0.988495,-0.013006,0.015613,-0.025262,57.667801,6.361359,-148.320969,,,
729863024.572546,1.134927,3.345044,52.29801,-0.050507,0.024506,0.988495,-0.013006,0.015613,-0.025262,57.667801,6.361359,-148.320969,,,
729863024.575826,1.129992,3.350741,52.290986,-0.050507,0.024506,0.988495,-0.004613,0.04029,-0.031232,57.606369,6.503326,-148.35553,,,
729863024.579165,1.127381,3.360786,52.283384,-0.051224,0.024292,0.992004,-0.004613,0.04029,-0.031232,57.606369,6.503326,-148.35553,,,
729863024.582598,1.127381,3.360786,52.283384,-0.051224,0.024292,0.992004,-0.004613,0.04029,-0.031232,57.606369,6.503326,-148.35553,,,
729863024.585877,1.124524,3.369582,52.27602,-0.051224,0.024292,0.992004,-0.002237,0.029258,-0.025747,57.606369,6.503326,-148.35553,,,
729863024.589177,1.122833,3.377723,52.268918,-0.056015,0.022125,0.98288,-0.002237,0.029258,-0.025747,57.606369,6.503326,-148.35553,,,
729863024.592522,1.122833,3.377723,52.268918,-0.056015,0.022125,0.98288,-0.002237,0.029258,-0.025747,57.606369,6.503326,-148.35553,,,
729863024.5959,1.119487,3.384307,52.261745,-0.056015,0.022125,0.98288,-0.015775,0.016577,-0.024389,57.606369,6.503326,-148.35553,,,
729863024.599156,1.114566,3.389343,52.254525,-0.06134,0.024582,0.973923,-0.015775,0.016577,-0.024389,57.606369,6.503326,-148.35553,,,
729863024.602508,1.114566,3.389343,52.254525,-0.06134,0.024582,0.973923,-0.015775,0.016577,-0.024389,57.606369,6.503326,-148.35553,,,
729863024.605842,1.106807,3.396036,52.247775,-0.06134,0.024582,0.973923,-0.044773,0.023839,-0.020837,57.606369,6.503326,-148.35553,,,
729863024.609165,1.09508,3.402087,52.242663,-0.062546,0.027496,0.969162,-0.044773,0.023839,-0.020837,57.606369,6.503326,-148.35553,,,
729863024.612526,1.09508,3.402087,52.242663,-0.062546,0.027496,0.969162,-0.044773,0.023839,-0.020837,57.606369,6.503326,-148.35553,,,
729863024.615876,1.079708,3.41148,52.23884,-0.062546,0.027496,0.969162,-0.073309,0.028962,-0.015137,57.606369,6.503326,-148.35553,,,
729863024.619174,1.0587,3.419135,52.235983,-0.06015,0.028687,0.964371,-0.073309,0.028962,-0.015137,57.655029,6.390686,-148.567642,,,
729863024.622501,1.0587,3.419135,52.235983,-0.06015,0.028687,0.964371,-0.073309,0.028962,-0.015137,57.655029,6.390686,-148.567642,,,
729863024.625849,1.035522,3.427473,52.234123,-0.06015,0.028687,0.964371,-0.095642,0.021249,-0.013817,57.655029,6.390686,-148.567642,,,
729863024.629203,1.008731,3.433304,52.232007,-0.057587,0.028214,0.965622,-0.095642,0.021249,-0.013817,57.655029,6.390686,-148.567642,,,
729863024.632501,1.008731,3.433304,52.232007,-0.057587,0.028214,0.965622,-0.095642,0.021249,-0.013817,57.655029,6.390686,-148.567642,,,
729863024.635839,0.981096,3.439473,52.229312,-0.057587,0.028214,0.965622,-0.099231,0.025439,-0.022856,57.655029,6.390686,-148.567642,,,
729863024.639249,0.951686,3.445922,52.225816,-0.055939,0.019455,0.978577,-0.099231,0.025439,-0.022856,57.655029,6.390686,-148.567642,,,
729863024.642503,0.951686,3.445922,52.225816,-0.055939,0.019455,0.978577,-0.099231,0.025439,-0.022856,57.655029,6.390686,-148.567642,,,
729863024.645911,0.923815,3.451659,52.221044,-0.055939,0.019455,0.978577,-0.085058,0.022373,-0.0256,57.655029,6.390686,-148.567642,,,
729863024.649216,0.897194,3.45766,52.215756,-0.055893,0.014633,0.996002,-0.085058,0.022373,-0.0256,57.655029,6.390686,-148.567642,,,
729863024.652504,0.897194,3.45766,52.215756,-0.055893,0.014633,0.996002,-0.085058,0.022373,-0.0256,57.655029,6.390686,-148.567642,,,
729863024.655838,0.875253,3.461444,52.210209,-0.055893,0.014633,0.996002,-0.058724,0.019428,-0.026007,57.655029,6.390686,-148.567642,,,
729863024.659197,0.856455,3.466123,52.204354,-0.060379,0.011063,1.008087,-0.058724,0.019428,-0.026007,57.754837,6.464142,-148.264435,,,
729863024.662535,0.856455,3.466123,52.204354,-0.060379,0.011063,1.008087,-0.058724,0.019428,-0.026007,57.754837,6.464142,-148.264435,,,
729863024.665841,0.843171,3.468643,52.198557,-0.060379,0.011063,1.008087,-0.029946,0.006943,-0.021997,57.754837,6.464142,-148.264435,,,
729863024.669254,0.833329,3.470995,52.192914,-0.059601,0.006744,1.011169,-0.029946,0.006943,-0.021997,57.754837,6.464142,-148.264435,,,
729863024.672514,0.833329,3.470995,52.192914,-0.059601,0.006744,1.011169,-0.029946,0.006943,-0.021997,57.754837,6.464142,-148.264435,,,
729863024.675837,0.827561,3.47131,52.18764,-0.059601,0.006744,1.011169,-0.010294,0.007521,-0.019575,57.754837,6.464142,-148.264435,,,
729863024.679242,0.822832,3.472227,52.182765,-0.062744,0.005585,1.010345,-0.010294,0.007521,-0.019575,57.754837,6.464142,-148.264435,,,
729863024.682574,0.822832,3.472227,52.182765,-0.062744,0.005585,1.010345,-0.010294,0.007521,-0.019575,57.754837,6.464142,-148.264435,,,
729863024.685833,0.821311,3.475046,52.177815,-0.062744,0.005585,1.010345,-0.006791,0.015047,-0.016029,57.754837,6.464142,-148.264435,,,
729863024.689164,0.81834,3.478106,52.173145,-0.063187,0.009033,1.003983,-0.006791,0.015047,-0.016029,57.754837,6.464142,-148.264435,,,
729863024.692499,0.81834,3.478106,52.173145,-0.063187,0.009033,1.003983,-0.006791,0.015047,-0.016029,57.754837,6.464142,-148.264435,,,
729863024.695902,0.817191,3.482333,52.16935,-0.063187,0.009033,1.003983,-0.023144,0.011956,-0.011065,57.754837,6.464142,-148.264435,,,
729863024.699156,0.811537,3.485112,52.166644,-0.064926,0.010208,0.992294,-0.023144,0.011956,-0.011065,57.710938,6.578278,-148.672226,,,
729863024.702529,0.811537,3.485112,52.166644,-0.064926,0.010208,0.992294,-0.023144,0.011956,-0.011065,57.710938,6.578278,-148.672226,,,
729863024.705886,0.807093,3.487066,52.164586,-0.064926,0.010208,0.992294,-0.031026,0.001478,-0.011873,57.710938,6.578278,-148.672226,,,
729863024.709173,0.798264,3.487154,52.162715,-0.067383,0.013809,0.984848,-0.031026,0.001478,-0.011873,57.710938,6.578278,-148.672226,,,
729863024.712523,0.798264,3.487154,52.162715,-0.067383,0.013809,0.984848,-0.031026,0.001478,-0.011873,57.710938,6.578278,-148.672226,,,
729863024.715849,0.791471,3.483713,52.160806,-0.067383,0.013809,0.984848,-0.035364,-0.019263,-0.006302,57.710938,6.578278,-148.672226,,,
729863024.719158,0.781531,3.4784,52.159445,-0.069534,0.012207,0.98819,-0.035364,-0.019263,-0.006302,57.710938,6.578278,-148.672226,,,
729863024.722599,0.781531,3.4784,52.159445,-0.069534,0.012207,0.98819,-0.035364,-0.019263,-0.006302,57.710938,6.578278,-148.672226,,,
729863024.725844,0.772072,3.470558,52.159199,-0.069534,0.012207,0.98819,-0.033745,-0.020593,-0.00334,57.710938,6.578278,-148.672226,,,
729863024.729232,0.772072,3.463235,52.159574,-0.070328,0.008575,0.996414,-0.033745,-0.020593,-0.00334,57.710938,6.578278,-148.672226,,,
729863024.732508,0.762082,3.463235,52.159574,-0.070328,0.008575,0.996414,-0.033745,-0.020593,-0.00334,57.710938,6.578278,-148.672226,,,
729863024.735919,0.753097,3.454369,52.16114,-0.070328,0.008575,0.996414,-0.028323,-0.026833,0.008139,57.710938,6.578278,-148.672226,,,
729863024.7392,0.745056,3.445999,52.164216,-0.068619,0.006302,1.001541,-0.028323,-0.026833,0.008139,57.710938,6.578278,-148.672226,,,
729863024.74251,0.745056,3.445999,52.164216,-0.068619,0.006302,1.001541,-0.028323,-0.026833,0.008139,57.814194,6.517441,-148.729111,,,
729863024.745841,0.737305,3.437126,52.167957,-0.068619,0.006302,1.001541,-0.020621,-0.024623,0.010848,57.814194,6.517441,-148.729111,,,
729863024.749269,0.731609,3.429367,52.172275,-0.064194,0.008408,1.005341,-0.020621,-0.024623,0.010848,57.814194,6.517441,-148.729111,,,
729863024.752491,0.731609,3.429367,52.172275,-0.064194,0.008408,1.005341,-0.020621,-0.024623,0.010848,57.814194,6.517441,-148.729111,,,
729863024.755834,0.725356,3.42349,52.176303,-0.064194,0.008408,1.005341,-0.015449,-0.006449,0.008132,57.814194,6.517441,-148.729111,,,
729863024.75925,0.720935,3.42016,52.179457,-0.060669,0.008438,1.011398,-0.015449,-0.006449,0.008132,57.814194,6.517441,-148.729111,,,
729863024.762604,0.720935,3.42016,52.179457,-0.060669,0.008438,1.011398,-0.015449,-0.006449,0.008132,57.814194,6.517441,-148.729111,,,
729863024.765843,0.714824,3.420103,52.182395,-0.060669,0.008438,1.011398,-0.013731,0.009715,0.003931,57.814194,6.517441,-148.729111,,,
729863024.769197,0.714824,3.420103,52.184663,-0.060669,0.008438,1.011398,-0.013731,0.009715,0.003931,57.814194,6.517441,-148.729111,,,
729863024.772498,0.710263,3.421567,52.184663,-0.058426,0.010712,1.010498,-0.013731,0.009715,0.003931,57.814194,6.517441,-148.729111,,,
729863024.775908,0.705743,3.424449,52.186502,-0.058426,0.010712,1.010498,-0.009238,0.008833,0.002519,57.814194,6.517441,-148.729111,,,
729863024.779008,0.705743,3.424449,52.186502,-0.058426,0.010712,1.010498,-0.009238,0.008833,0.002519,57.814194,6.517441,-148.729111,,,
729863024.782525,0.702566,3.425583,52.188292,-0.062134,0.009293,1.010651,-0.009238,0.008833,0.002519,57.754105,6.628082,-149.019211,,,
729863024.78583,0.700357,3.427521,52.18973,-0.062134,0.009293,1.010651,0.004163,-0.008642,0.005754,57.754105,6.628082,-149.019211,,,
729863024.789235,0.700357,3.427521,52.191264,-0.062134,0.009293,1.010651,0.004163,-0.008642,0.005754,57.754105,6.628082,-149.019211,,,
729863024.792494,0.700383,3.424587,52.191264,-0.065948,0.008118,1.01329,0.004163,-0.008642,0.005754,57.754105,6.628082,-149.019211,,,
729863024.795848,0.703549,3.420904,52.193135,-0.065948,0.008118,1.01329,0.021153,-0.031531,0.009419,57.754105,6.628082,-149.019211,,,
729863024.799258,0.703549,3.412013,52.195671,-0.065948,0.008118,1.01329,0.021153,-0.031531,0.009419,57.754105,6.628082,-149.019211,,,
729863024.802488,0.70901,3.412013,52.195671,-0.069366,0.005569,1.01741,0.021153,-0.031531,0.009419,57.754105,6.628082,-149.019211,,,
729863024.805833,0.71641,3.402906,52.198928,-0.069366,0.005569,1.01741,0.031801,-0.046242,0.016215,57.754105,6.628082,-149.019211,,,
729863024.809196,0.71641,3.402906,52.198928,-0.069366,0.005569,1.01741,0.031801,-0.046242,0.016215,57.754105,6.628082,-149.019211,,,
729863024.812571,0.72498,3.389133,52.20303,-0.069534,0.007446,1.015717,0.031801,-0.046242,0.016215,57.754105,6.628082,-149.019211,,,
729863024.815828,0.732553,3.379362,52.208252,-0.069534,0.007446,1.015717,0.026327,-0.03673,0.021957,57.754105,6.628082,-149.019211,,,
729863024.819195,0.732553,3.379362,52.208252,-0.069534,0.007446,1.015717,0.026327,-0.03673,0.021957,57.754105,6.628082,-149.019211,,,
729863024.822505,0.740039,3.367681,52.214194,-0.061935,0.011154,1.011719,0.026327,-0.03673,0.021957,57.597214,6.607986,-148.941788,,,
729863024.825864,0.74411,3.361024,52.219939,-0.061935,0.011154,1.011719,0.007904,-0.017041,0.018226,57.597214,6.607986,-148.941788,,,
729863024.829218,0.74411,3.361024,52.219939,-0.061935,0.011154,1.011719,0.007904,-0.017041,0.018226,57.597214,6.607986,-148.941788,,,
729863024.832551,0.747261,3.354501,52.225249,-0.052658,0.018997,1.002213,0.007904,-0.017041,0.018226,57.597214,6.607986,-148.941788,,,
729863024.835838,0.747,3.351593,52.229785,-0.052658,0.018997,1.002213,-0.001834,-0.009137,0.008897,57.597214,6.607986,-148.941788,,,
729863024.839255,0.747,3.351593,52.229785,-0.052658,0.018997,1.002213,-0.001834,-0.009137,0.008897,57.597214,6.607986,-148.941788,,,
729863024.842501,0.746036,3.348284,52.233164,-0.044022,0.021805,0.994705,-0.001834,-0.009137,0.008897,57.597214,6.607986,-148.941788,,,
729863024.845851,0.743337,3.345206,52.23442,-0.044022,0.021805,0.994705,-0.00693,-0.00166,-0.009069,57.597214,6.607986,-148.941788,,,
729863024.849169,0.743337,3.345206,52.23442,-0.044022,0.021805,0.994705,-0.00693,-0.00166,-0.009069,57.597214,6.607986,-148.941788,,,
729863024.852578,0.741738,3.343198,52.232817,-0.041138,0.018921,1.002319,-0.00693,-0.00166,-0.009069,57.597214,6.607986,-148.941788,,,
729863024.855853,0.739198,3.342625,52.228934,-0.041138,0.018921,1.002319,-0.005206,0.009942,-0.018835,57.597214,6.607986,-148.941788,,,
729863024.859221,0.739198,3.342625,52.228934,-0.041138,0.018921,1.002319,-0.005206,0.009942,-0.018835,57.597214,6.607986,-148.941788,,,
729863024.862505,0.736885,3.344413,52.223925,-0.048599,0.014725,1.009171,-0.005206,0.009942,-0.018835,57.814774,6.803574,-149.068634,,,
729863024.865835,0.734435,3.349935,52.219203,-0.048599,0.014725,1.009171,-0.004446,0.022953,-0.01181,57.814774,6.803574,-149.068634,,,
729863024.869212,0.734435,3.349935,52.219203,-0.048599,0.014725,1.009171,-0.004446,0.022953,-0.01181,57.814774,6.803574,-149.068634,,,
729863024.872488,0.733641,3.355838,52.216153,-0.057846,0.01062,1.011139,-0.004446,0.022953,-0.01181,57.814774,6.803574,-149.068634,,,
729863024.875834,0.731701,3.365334,52.214807,-0.057846,0.01062,1.011139,-0.000928,0.032559,-0.000656,57.814774,6.803574,-149.068634,,,
729863024.879276,0.731701,3.365334,52.214807,-0.057846,0.01062,1.011139,-0.000928,0.032559,-0.000656,57.814774,6.803574,-149.068634,,,
729863024.882501,0.730549,3.373754,52.215034,-0.064941,0.011368,1.00386,-0.000928,0.032559,-0.000656,57.814774,6.803574,-149.068634,,,
729863024.885837,0.726452,3.386402,52.216084,-0.064941,0.011368,1.00386,-0.016016,0.039729,0.000422,57.814774,6.803574,-149.068634,,,
729863024.889294,0.726452,3.386402,52.216084,-0.064941,0.011368,1.00386,-0.016016,0.039729,0.000422,57.814774,6.803574,-149.068634,,,
729863024.892605,0.721878,3.397265,52.216988,-0.067505,0.016083,0.994858,-0.016016,0.039729,0.000422,57.814774,6.803574,-149.068634,,,
729863024.895829,0.714353,3.410902,52.217485,-0.067505,0.016083,0.994858,-0.029944,0.040638,-0.002592,57.814774,6.803574,-149.068634,,,
729863024.899174,0.714353,3.410902,52.217485,-0.067505,0.016083,0.994858,-0.029944,0.040638,-0.002592,57.814774,6.803574,-149.068634,,,
729863024.90251,0.705812,3.421844,52.217619,-0.067093,0.017517,0.990326,-0.029944,0.040638,-0.002592,57.814774,6.803574,-149.068634,,,
729863024.905836,0.696562,3.430144,52.217857,-0.067093,0.017517,0.990326,-0.021892,0.017035,-0.003222,57.673477,6.73291,-148.781662,,,
729863024.909177,0.696562,3.430144,52.217857,-0.067093,0.017517,0.990326,-0.021892,0.017035,-0.003222,57.673477,6.73291,-148.781662,,,
729863024.912521,0.688969,3.43533,52.218151,-0.070648,0.013412,0.994217,-0.021892,0.017035,-0.003222,57.673477,6.73291,-148.781662,,,
729863024.91583,0.685955,3.433987,52.218391,-0.070648,0.013412,0.994217,-0.008627,-0.008982,0.000267,57.673477,6.73291,-148.781662,,,
729863024.919243,0.685955,3.433987,52.218391,-0.070648,0.013412,0.994217,-0.008627,-0.008982,0.000267,57.673477,6.73291,-148.781662,,,
729863024.922498,0.683109,3.43127,52.219092,-0.075562,0.007889,1.000473,-0.008627,-0.008982,0.000267,57.673477,6.73291,-148.781662,,,
729863024.925838,0.684096,3.419214,52.220385,-0.075562,0.007889,1.000473,0.008719,-0.039232,0.004412,57.673477,6.73291,-148.781662,,,
729863024.929177,0.684096,3.419214,52.220385,-0.075562,0.007889,1.000473,0.008719,-0.039232,0.004412,57.673477,6.73291,-148.781662,,,
729863024.9326,0.685956,3.408075,52.222124,-0.074127,0.006439,1.000687,0.008719,-0.039232,0.004412,57.673477,6.73291,-148.781662,,,
729863024.935834,0.691363,3.388726,52.224654,-0.074127,0.006439,1.000687,0.018002,-0.055946,0.011227,57.673477,6.73291,-148.781662,,,
729863024.939221,0.691363,3.388726,52.224654,-0.074127,0.006439,1.000687,0.018002,-0.055946,0.011227,57.673477,6.73291,-148.781662,,,
729863024.942544,0.696654,3.372465,52.227381,-0.065186,0.007248,0.998428,0.018002,-0.055946,0.011227,57.673477,6.73291,-148.781662,,,
729863024.945845,0.701997,3.352211,52.230088,-0.065186,0.007248,0.998428,0.013633,-0.054679,0.005509,57.724533,6.722107,-149.059067,,,
729863024.949199,0.701997,3.352211,52.230088,-0.065186,0.007248,0.998428,0.013633,-0.054679,0.005509,57.724533,6.722107,-149.059067,,,
729863024.952531,0.706124,3.335,52.232199,-0.056107,0.008408,0.988525,0.013633,-0.054679,0.005509,57.724533,6.722107,-149.059067,,,
729863024.955927,0.708,3.321151,52.233549,-0.056107,0.008408,0.988525,-0.003867,-0.02996,0.002197,57.724533,6.722107,-149.059067,,,
729863024.959174,0.708,3.321151,52.233549,-0.056107,0.008408,0.988525,-0.003867,-0.02996,0.002197,57.724533,6.722107,-149.059067,,,
729863024.962519,0.70771,3.311401,52.234658,-0.048996,0.011948,0.98761,-0.003867,-0.02996,0.002197,57.724533,6.722107,-149.059067,,,
729863024.965833,0.704907,3.309045,52.235757,-0.048996,0.011948,0.98761,-0.019505,0.01039,0.004257,57.724533,6.722107,-149.059067,,,
729863024.969253,0.704907,3.309045,52.235757,-0.048996,0.011948,0.98761,-0.019505,0.01039,0.004257,57.724533,6.722107,-149.059067,,,
729863024.972526,0.699931,3.310002,52.237314,-0.047394,0.011368,0.992722,-0.019505,0.01039,0.004257,57.724533,6.722107,-149.059067,,,
729863024.975833,0.69403,3.319747,52.239491,-0.047394,0.011368,0.992722,-0.02922,0.054854,0.004643,57.724533,6.722107,-149.059067,,,
729863024.979182,0.69403,3.319747,52.239491,-0.047394,0.011368,0.992722,-0.02922,0.054854,0.004643,57.724533,6.722107,-149.059067,,,
729863024.982605,0.685823,3.333283,52.241939,-0.047165,0.010422,0.997864,-0.02922,0.054854,0.004643,57.724533,6.722107,-149.059067,,,
729863024.985834,0.67858,3.354562,52.244279,-0.047165,0.010422,0.997864,-0.024586,0.070816,0.001001,57.623795,7.038589,-148.942276,,,
729863024.98919,0.67858,3.354562,52.244279,-0.047165,0.010422,0.997864,-0.024586,0.070816,0.001001,57.623795,7.038589,-148.942276,,,
729863024.992516,0.671285,3.374027,52.24591,-0.051468,0.009445,0.997391,-0.024586,0.070816,0.001001,57.623795,7.038589,-148.942276,,,
729863024.995834,0.665347,3.395555,52.246813,-0.051468,0.009445,0.997391,-0.011318,0.042817,-0.002261,57.623795,7.038589,-148.942276,,,
729863024.999207,0.665347,3.395555,52.246813,-0.051468,0.009445,0.997391,-0.011318,0.042817,-0.002261,57.623795,7.038589,-148.942276,,,
729863025.002516,0.661102,3.408204,52.247166,-0.057053,0.008896,0.990753,-0.011318,0.042817,-0.002261,57.623795,7.038589,-148.942276,,,
729863025.005883,0.656731,3.419434,52.246232,-0.057053,0.008896,0.990753,-0.008772,0.001258,-0.008836,57.623795,7.038589,-148.942276,,,
729863025.009158,0.656731,3.419434,52.246232,-0.057053,0.008896,0.990753,-0.008772,0.001258,-0.008836,57.623795,7.038589,-148.942276,,,
729863025.012536,0.653538,3.420608,52.244522,-0.061523,0.007706,0.985657,-0.008772,0.001258,-0.008836,57.623795,7.038589,-148.942276,,,
729863025.015843,0.649351,3.421559,52.24217,-0.061523,0.007706,0.985657,-0.009933,-0.018335,-0.010505,57.623795,7.038589,-148.942276,,,
729863025.019188,0.649351,3.421559,52.24217,-0.061523,0.007706,0.985657,-0.009933,-0.018335,-0.010505,57.623795,7.038589,-148.942276,,,
729863025.022501,0.646344,3.415767,52.239887,-0.068436,0.007767,0.988174,-0.009933,-0.018335,-0.010505,57.623795,7.038589,-148.942276,,,
729863025.025833,0.643051,3.407776,52.238359,-0.068436,0.007767,0.988174,-0.004557,-0.044669,-0.002557,57.84549,6.646713,-148.890686,,,
729863025.029338,0.643051,3.407776,52.238359,-0.068436,0.007767,0.988174,-0.004557,-0.044669,-0.002557,57.84549,6.646713,-148.890686,,,
729863025.032511,0.641626,3.395275,52.237873,-0.072205,0.007111,0.996506,-0.004557,-0.044669,-0.002557,57.84549,6.646713,-148.890686,,,
729863025.035943,0.641157,3.379621,52.238273,-0.072205,0.007111,0.996506,-0.001336,-0.040307,0.0058,57.84549,6.646713,-148.890686,,,
729863025.039179,0.641157,3.379621,52.238273,-0.072205,0.007111,0.996506,-0.001336,-0.040307,0.0058,57.84549,6.646713,-148.890686,,,
729863025.042485,0.640985,3.366856,52.239983,-0.073181,0.009277,1.002289,-0.001336,-0.040307,0.0058,57.84549,6.646713,-148.890686,,,
729863025.045904,0.641035,3.354755,52.24341,-0.073181,0.009277,1.002289,0.002724,-0.007848,0.016293,57.84549,6.646713,-148.890686,,,
729863025.049181,0.641035,3.354755,52.24341,-0.073181,0.009277,1.002289,0.002724,-0.007848,0.016293,57.84549,6.646713,-148.890686,,,
729863025.052525,0.642033,3.349614,52.248074,-0.068588,0.010406,1.006973,0.002724,-0.007848,0.016293,57.84549,6.646713,-148.890686,,,
729863025.055832,0.643009,3.345916,52.254414,-0.068588,0.010406,1.006973,0.001587,0.017745,0.027623,57.84549,6.646713,-148.890686,,,
729863025.059179,0.643009,3.345916,52.254414,-0.068588,0.010406,1.006973,0.001587,0.017745,0.027623,57.84549,6.646713,-148.890686,,,
729863025.0625,0.643356,3.34964,52.262376,-0.06221,0.014023,1.005798,0.001587,0.017745,0.027623,57.84549,6.646713,-148.890686,,,
729863025.065838,0.643065,3.353173,52.270378,-0.06221,0.014023,1.005798,-0.007128,0.032385,0.020073,57.84549,6.646713,-148.890686,,,
729863025.069262,0.643065,3.353173,52.270378,-0.06221,0.014023,1.005798,-0.007128,0.032385,0.020073,57.824402,7.023148,-148.967987,,,
729863025.072521,0.641737,3.36136,52.277406,-0.054031,0.018341,0.99295,-0.007128,0.032385,0.020073,57.824402,7.023148,-148.967987,,,
729863025.075839,0.63863,3.368558,52.283637,-0.054031,0.018341,0.99295,-0.016762,0.035394,0.01108,57.824402,7.023148,-148.967987,,,
729863025.079184,0.63863,3.368558,52.283637,-0.054031,0.018341,0.99295,-0.016762,0.035394,0.01108,57.824402,7.023148,-148.967987,,,
729863025.082576,0.634336,3.377853,52.288418,-0.052643,0.018188,0.983063,-0.016762,0.035394,0.01108,57.824402,7.023148,-148.967987,,,
729863025.085823,0.627796,3.386606,52.291896,-0.052643,0.018188,0.983063,-0.026515,0.023861,0.008008,57.824402,7.023148,-148.967987,,,
729863025.089176,0.627796,3.386606,52.291896,-0.052643,0.018188,0.983063,-0.026515,0.023861,0.008008,57.824402,7.023148,-148.967987,,,
729863025.092517,0.620303,3.393808,52.294983,-0.053299,0.017395,0.982468,-0.026515,0.023861,0.008008,57.824402,7.023148,-148.967987,,,
729863025.095831,0.611753,3.399896,52.297552,-0.053299,0.017395,0.982468,-0.028553,0.004725,0.005673,57.824402,7.023148,-148.967987,,,
729863025.099174,0.611753,3.399896,52.297552,-0.053299,0.017395,0.982468,-0.028553,0.004725,0.005673,57.824402,7.023148,-148.967987,,,
729863025.102505,0.603943,3.401398,52.299651,-0.059555,0.017807,0.982635,-0.028553,0.004725,0.005673,57.824402,7.023148,-148.967987,,,
729863025.105858,0.596594,3.402419,52.301879,-0.059555,0.017807,0.982635,-0.010472,-0.023544,0.011739,57.824402,7.023148,-148.967987,,,
729863025.109163,0.596594,3.402419,52.301879,-0.059555,0.017807,0.982635,-0.010472,-0.023544,0.011739,57.84523,6.967865,-148.966537,,,
729863025.112517,0.592779,3.396295,52.305145,-0.061813,0.012924,0.990265,-0.010472,-0.023544,0.011739,57.84523,6.967865,-148.966537,,,
729863025.115836,0.591973,3.391621,52.308953,-0.061813,0.012924,0.990265,0.011349,-0.028267,0.009391,57.84523,6.967865,-148.966537,,,
729863025.119231,0.591973,3.391621,52.308953,-0.061813,0.012924,0.990265,0.011349,-0.028267,0.009391,57.84523,6.967865,-148.966537,,,
729863025.122501,0.594619,3.383081,52.31241,-0.057816,0.007996,1.008438,0.011349,-0.028267,0.009391,57.84523,6.967865,-148.966537,,,
729863025.125839,0.599643,3.381334,52.315318,-0.057816,0.007996,1.008438,0.028555,-0.000591,0.014896,57.84523,6.967865,-148.966537,,,
729863025.129286,0.599643,3.381334,52.315318,-0.057816,0.007996,1.008438,0.028555,-0.000591,0.014896,57.84523,6.967865,-148.966537,,,
729863025.132564,0.607437,3.379569,52.318684,-0.056046,0.008469,1.018051,0.028555,-0.000591,0.014896,57.84523,6.967865,-148.966537,,,
729863025.135829,0.616483,3.383059,52.323128,-0.056046,0.008469,1.018051,0.029562,0.015164,0.019717,57.84523,6.967865,-148.966537,,,
729863025.139184,0.616483,3.383059,52.323128,-0.056046,0.008469,1.018051,0.029562,0.015164,0.019717,57.84523,6.967865,-148.966537,,,
729863025.142502,0.624813,3.386396,52.328569,-0.055511,0.010391,1.005981,0.029562,0.015164,0.019717,57.84523,6.967865,-148.966537,,,
729863025.14583,0.632056,3.390316,52.334952,-0.055511,0.010391,1.005981,0.007397,0.015611,0.023045,57.84523,6.967865,-148.966537,,,
729863025.149164,0.632056,3.390316,52.334952,-0.055511,0.010391,1.005981,0.007397,0.015611,0.023045,58.005295,7.054382,-148.961487,,,
729863025.15251,0.6357,3.393959,52.342201,-0.053253,0.017532,0.984451,0.007397,0.015611,0.023045,58.005295,7.054382,-148.961487,,,
729863025.155835,0.636585,3.395537,52.349672,-0.053253,0.017532,0.984451,-0.022259,0.008407,0.02293,58.005295,7.054382,-148.961487,,,
729863025.15924,0.636585,3.395537,52.349672,-0.053253,0.017532,0.984451,-0.022259,0.008407,0.02293,58.005295,7.054382,-148.961487,,,
729863025.162506,0.631226,3.397989,52.357456,-0.050552,0.020721,0.97023,-0.022259,0.008407,0.02293,58.005295,7.054382,-148.961487,,,
729863025.165834,0.623506,3.397118,52.365716,-0.050552,0.020721,0.97023,-0.047596,-0.001343,0.021524,58.005295,7.054382,-148.961487,,,
729863025.169193,0.623506,3.397118,52.365716,-0.050552,0.020721,0.97023,-0.047596,-0.001343,0.021524,58.005295,7.054382,-148.961487,,,
729863025.172509,0.611062,3.396245,52.373575,-0.04892,0.015045,0.972595,-0.047596,-0.001343,0.021524,58.005295,7.054382,-148.961487,,,
729863025.175903,0.59783,3.39336,52.380959,-0.04892,0.015045,0.972595,-0.052431,-0.001344,0.018577,58.005295,7.054382,-148.961487,,,
729863025.179205,0.59783,3.39336,52.380959,-0.04892,0.015045,0.972595,-0.052431,-0.001344,0.018577,58.005295,7.054382,-148.961487,,,
729863025.182597,0.58258,3.391354,52.38769,-0.045105,0.015533,0.986603,-0.052431,-0.001344,0.018577,58.005295,7.054382,-148.961487,,,
729863025.185835,0.570515,3.39007,52.392994,-0.045105,0.015533,0.986603,-0.034928,-0.009543,0.007889,58.005295,7.054382,-148.961487,,,
729863025.188866,0.570515,3.39007,52.392994,-0.045105,0.015533,0.986603,-0.034928,-0.009543,0.007889,58.005295,7.054382,-148.961487,,,
729863025.192564,0.56008,3.387126,52.396863,-0.040375,0.011322,1.003403,-0.034928,-0.009543,0.007889,57.943176,7.190659,-149.017822,,,
729863025.195833,0.553155,3.38377,52.399449,-0.040375,0.011322,1.003403,-0.005366,-0.011191,0.001112,57.943176,7.190659,-149.017822,,,
729863025.199185,0.553155,3.38377,52.399449,-0.040375,0.011322,1.003403,-0.005366,-0.011191,0.001112,57.943176,7.190659,-149.017822,,,
729863025.202506,0.550315,3.379627,52.400535,-0.041565,0.006836,1.016083,-0.005366,-0.011191,0.001112,57.943176,7.190659,-149.017822,,,
729863025.205874,0.551992,3.374746,52.401166,-0.041565,0.006836,1.016083,0.024184,-0.012088,-0.002135,57.943176,7.190659,-149.017822,,,
729863025.209253,0.551992,3.374746,52.401166,-0.041565,0.006836,1.016083,0.024184,-0.012088,-0.002135,57.943176,7.190659,-149.017822,,,
729863025.21252,0.55783,3.370773,52.400871,-0.045364,0.005569,1.021652,0.024184,-0.012088,-0.002135,57.943176,7.190659,-149.017822,,,
729863025.215838,0.565293,3.364949,52.39938,-0.045364,0.005569,1.021652,0.029934,-0.019536,-0.012108,57.943176,7.190659,-149.017822,,,
729863025.219178,0.565293,3.364949,52.39938,-0.045364,0.005569,1.021652,0.029934,-0.019536,-0.012108,57.943176,7.190659,-149.017822,,,
729863025.222598,0.573527,3.359522,52.396981,-0.039474,0.012146,1.003754,0.029934,-0.019536,-0.012108,57.943176,7.190659,-149.017822,,,
729863025.225828,0.582705,3.353059,52.393041,-0.039474,0.012146,1.003754,0.027938,-0.010931,-0.018105,57.943176,7.190659,-149.017822,,,
729863025.229182,0.582705,3.353059,52.393041,-0.039474,0.012146,1.003754,0.027938,-0.010931,-0.018105,57.943176,7.190659,-149.017822,,,
729863025.232504,0.590726,3.348656,52.388356,-0.043915,0.014511,0.997559,0.027938,-0.010931,-0.018105,57.584763,7.267075,-148.933334,,,
729863025.23583,0.600356,3.343943,52.384462,-0.043915,0.014511,0.997559,0.027152,-0.004719,-0.008158,57.584763,7.267075,-148.933334,,,
729863025.239189,0.600356,3.343943,52.384462,-0.043915,0.014511,0.997559,0.027152,-0.004719,-0.008158,57.584763,7.267075,-148.933334,,,
729863025.242493,0.607443,3.342075,52.381644,-0.053101,0.011398,0.991379,0.027152,-0.004719,-0.008158,57.584763,7.267075,-148.933334,,,
729863025.245838,0.614574,3.338671,52.380027,-0.053101,0.011398,0.991379,0.010535,-0.004758,-0.000134,57.584763,7.267075,-148.933334,,,
729863025.249248,0.614574,3.338671,52.380027,-0.053101,0.011398,0.991379,0.010535,-0.004758,-0.000134,57.584763,7.267075,-148.933334,,,
729863025.252508,0.617613,3.337209,52.379633,-0.052383,0.018936,0.981033,0.010535,-0.004758,-0.000134,57.584763,7.267075,-148.933334,,,
729863025.255839,0.61909,3.333069,52.379709,-0.052383,0.018936,0.981033,-0.008913,-0.005834,-0.001619,57.584763,7.267075,-148.933334,,,
729863025.259172,0.61909,3.333069,52.379709,-0.052383,0.018936,0.981033,-0.008913,-0.005834,-0.001619,57.584763,7.267075,-148.933334,,,
729863025.262579,0.617223,3.330934,52.37953,-0.050949,0.020935,0.976944,-0.008913,-0.005834,-0.001619,57.584763,7.267075,-148.933334,,,
729863025.265824,0.614417,3.324076,52.378659,-0.050949,0.020935,0.976944,-0.016148,-0.01521,-0.00882,57.584763,7.267075,-148.933334,,,
729863025.269192,0.614417,3.324076,52.378659,-0.050949,0.020935,0.976944,-0.016148,-0.01521,-0.00882,57.584763,7.267075,-148.933334,,,
729863025.272506,0.609644,3.319799,52.377058,-0.047897,0.022842,0.981171,-0.016148,-0.01521,-0.00882,57.814789,7.111191,-149.232513,,,
729863025.275834,0.604262,3.30855,52.375031,-0.047897,0.022842,0.981171,-0.020259,-0.020184,-0.011427,57.814789,7.111191,-149.232513,,,
729863025.279176,0.604262,3.30855,52.375031,-0.047897,0.022842,0.981171,-0.020259,-0.020184,-0.011427,57.814789,7.111191,-149.232513,,,
729863025.282499,0.598495,3.301927,52.372234,-0.048615,0.018768,0.988602,-0.020259,-0.020184,-0.011427,57.814789,7.111191,-149.232513,,,
729863025.285833,0.592081,3.290429,52.368833,-0.048615,0.018768,0.988602,-0.010818,-0.025275,-0.017822,57.814789,7.111191,-149.232513,,,
729863025.289225,0.592081,3.290429,52.368833,-0.048615,0.018768,0.988602,-0.010818,-0.025275,-0.017822,57.814789,7.111191,-149.232513,,,
729863025.292515,0.588602,3.282304,52.364324,-0.047531,0.019043,0.998245,-0.010818,-0.025275,-0.017822,57.814789,7.111191,-149.232513,,,
729863025.29583,0.587055,3.268875,52.358645,-0.047531,0.019043,0.998245,0.012693,-0.032577,-0.0224,57.814789,7.111191,-149.232513,,,
729863025.299171,0.587055,3.268875,52.358645,-0.047531,0.019043,0.998245,0.012693,-0.032577,-0.0224,57.814789,7.111191,-149.232513,,,
729863025.302584,0.589669,3.258929,52.352301,-0.050369,0.015259,1.008377,0.012693,-0.032577,-0.0224,57.814789,7.111191,-149.232513,,,
729863025.305825,0.596148,3.243685,52.345924,-0.050369,0.015259,1.008377,0.032667,-0.026505,-0.022912,57.814789,7.111191,-149.232513,,,
729863025.309174,0.596148,3.243685,52.345924,-0.050369,0.015259,1.008377,0.032667,-0.026505,-0.022912,57.814789,7.111191,-149.232513,,,
729863025.312495,0.603784,3.234709,52.339406,-0.049438,0.01152,1.010574,0.032667,-0.026505,-0.022912,57.697403,7.019257,-149.134827,,,
729863025.315833,0.613058,3.225454,52.332977,-0.049438,0.01152,1.010574,0.032815,-0.00668,-0.021801,57.697403,7.019257,-149.134827,,,
729863025.319179,0.613058,3.225454,52.332977,-0.049438,0.01152,1.010574,0.032815,-0.00668,-0.021801,57.697403,7.019257,-149.134827,,,
729863025.322505,0.621845,3.222048,52.326391,-0.047577,0.012146,1.007034,0.032815,-0.00668,-0.021801,57.697403,7.019257,-149.134827,,,
729863025.325832,0.629421,3.219904,52.31965,-0.047577,0.012146,1.007034,0.015744,-0.002646,-0.022025,57.697403,7.019257,-149.134827,,,
729863025.329223,0.629421,3.219904,52.31965,-0.047577,0.012146,1.007034,0.015744,-0.002646,-0.022025,57.697403,7.019257,-149.134827,,,
729863025.33251,0.634721,3.218253,52.313124,-0.050568,0.016632,0.990082,0.015744,-0.002646,-0.022025,57.697403,7.019257,-149.134827,,,
729863025.33583,0.64073,3.215083,52.306357,-0.050568,0.016632,0.990082,0.00741,-0.00909,-0.025211,57.697403,7.019257,-149.134827,,,
729863025.339172,0.64073,3.215083,52.306357,-0.050568,0.016632,0.990082,0.00741,-0.00909,-0.025211,57.697403,7.019257,-149.134827,,,
729863025.342564,0.643129,3.211932,52.299411,-0.050446,0.016052,0.982162,0.00741,-0.00909,-0.025211,57.697403,7.019257,-149.134827,,,
729863025.34583,0.645814,3.206936,52.291684,-0.050446,0.016052,0.982162,-0.002464,-0.005577,-0.035086,57.697403,7.019257,-149.134827,,,
729863025.34917,0.645814,3.206936,52.291684,-0.050446,0.016052,0.982162,-0.002464,-0.005577,-0.035086,57.697403,7.019257,-149.134827,,,
729863025.352509,0.644941,3.204181,52.282735,-0.048798,0.015747,0.985397,-0.002464,-0.005577,-0.035086,57.697403,7.019257,-149.134827,,,
729863025.355832,0.645338,3.200879,52.27275,-0.048798,0.015747,0.985397,-0.010698,0.003084,-0.036692,57.740646,6.901764,-148.888596,,,
729863025.359159,0.645338,3.200879,52.27275,-0.048798,0.015747,0.985397,-0.010698,0.003084,-0.036692,57.740646,6.901764,-148.888596,,,
729863025.362508,0.642131,3.200991,52.262139,-0.053024,0.014999,0.991226,-0.010698,0.003084,-0.036692,57.740646,6.901764,-148.888596,,,
729863025.365836,0.639446,3.200784,52.251898,-0.053024,0.014999,0.991226,-0.020475,0.015156,-0.036449,57.740646,6.901764,-148.888596,,,
729863025.36923,0.639446,3.200784,52.251898,-0.053024,0.014999,0.991226,-0.020475,0.015156,-0.036449,57.740646,6.901764,-148.888596,,,
729863025.372498,0.633821,3.20385,52.242324,-0.057632,0.014099,0.99202,-0.020475,0.015156,-0.036449,57.740646,6.901764,-148.888596,,,
729863025.37583,0.628328,3.205941,52.23328,-0.057632,0.014099,0.99202,-0.025742,0.022319,-0.032989,57.740646,6.901764,-148.888596,,,
729863025.379165,0.628328,3.205941,52.23328,-0.057632,0.014099,0.99202,-0.025742,0.022319,-0.032989,57.740646,6.901764,-148.888596,,,
729863025.382531,0.620364,3.211652,52.224317,-0.060944,0.013962,0.995728,-0.025742,0.022319,-0.032989,57.740646,6.901764,-148.888596,,,
729863025.385826,0.613366,3.216965,52.21572,-0.060944,0.013962,0.995728,-0.017364,0.032154,-0.031068,57.740646,6.901764,-148.888596,,,
729863025.389195,0.613366,3.216965,52.21572,-0.060944,0.013962,0.995728,-0.017364,0.032154,-0.031068,57.740646,6.901764,-148.888596,,,
729863025.392492,0.607071,3.224844,52.207538,-0.065704,0.008163,1.008347,-0.017364,0.032154,-0.031068,57.740646,6.901764,-148.888596,,,
729863025.395835,0.603194,3.23001,52.199361,-0.065704,0.008163,1.008347,-0.002279,0.018076,-0.027158,57.56308,6.866058,-149.161041,,,
729863025.399176,0.603194,3.23001,52.199361,-0.065704,0.008163,1.008347,-0.002279,0.018076,-0.027158,57.56308,6.866058,-149.161041,,,
729863025.402492,0.601518,3.235291,52.191339,-0.07309,0.002518,1.015671,-0.002279,0.018076,-0.027158,57.56308,6.866058,-149.161041,,,
729863025.405831,0.602724,3.23548,52.183781,-0.07309,0.002518,1.015671,0.009775,0.005506,-0.024714,57.56308,6.866058,-149.161041,,,
729863025.409261,0.602724,3.23548,52.183781,-0.07309,0.002518,1.015671,0.009775,0.005506,-0.024714,57.56308,6.866058,-149.161041,,,
729863025.412514,0.605335,3.236973,52.177149,-0.075684,0.004257,1.01207,0.009775,0.005506,-0.024714,57.56308,6.866058,-149.161041,,,
729863025.415842,0.610191,3.236239,52.171331,-0.075684,0.004257,1.01207,0.013325,0.004553,-0.02087,57.56308,6.866058,-149.161041,,,
729863025.419181,0.610191,3.236239,52.171331,-0.075684,0.004257,1.01207,0.013325,0.004553,-0.02087,57.56308,6.866058,-149.161041,,,
729863025.42258,0.613545,3.236826,52.165367,-0.071899,0.006165,1.009598,0.013325,0.004553,-0.02087,57.56308,6.866058,-149.161041,,,
729863025.425822,0.618175,3.235828,52.159736,-0.071899,0.006165,1.009598,0.015099,0.005917,-0.017651,57.56308,6.866058,-149.161041,,,
729863025.429181,0.618175,3.235828,52.159736,-0.071899,0.006165,1.009598,0.015099,0.005917,-0.017651,57.56308,6.866058,-149.161041,,,
729863025.432525,0.622,3.236678,52.154697,-0.071518,0.006897,1.008881,0.015099,0.005917,-0.017651,57.56308,6.866058,-149.161041,,,
729863025.435831,0.626508,3.235516,52.150818,-0.071518,0.006897,1.008881,0.016214,0.001401,-0.010319,57.53801,6.898788,-149.023102,,,
729863025.439186,0.626508,3.235516,52.150818,-0.071518,0.006897,1.008881,0.016214,0.001401,-0.010319,57.53801,6.898788,-149.023102,,,
729863025.442503,0.629818,3.235786,52.147987,-0.075958,0.004761,1.004807,0.016214,0.001401,-0.010319,57.53801,6.898788,-149.023102,,,
729863025.445834,0.629818,3.235786,52.145854,-0.075958,0.004761,1.004807,0.016023,0.002362,-0.006546,57.53801,6.898788,-149.023102,,,
729863025.449234,0.63408,3.235084,52.145854,-0.075958,0.004761,1.004807,0.016023,0.002362,-0.006546,57.53801,6.898788,-149.023102,,,
729863025.452504,0.638156,3.235224,52.144014,-0.070343,0.00647,1.006302,0.016023,0.002362,-0.006546,57.53801,6.898788,-149.023102,,,
729863025.455848,0.638156,3.236259,52.142099,-0.070343,0.00647,1.006302,0.013063,0.002323,-0.005295,57.53801,6.898788,-149.023102,,,
729863025.459183,0.642914,3.236259,52.142099,-0.070343,0.00647,1.006302,0.013063,0.002323,-0.005295,57.53801,6.898788,-149.023102,,,
729863025.462591,0.646169,3.236788,52.140857,-0.070328,0.00827,1.005875,0.013063,0.002323,-0.005295,57.53801,6.898788,-149.023102,,,
729863025.465822,0.646169,3.23866,52.14062,-0.070328,0.00827,1.005875,0.012324,-0.001144,0.004384,57.53801,6.898788,-149.023102,,,
729863025.469236,0.649724,3.23866,52.14062,-0.070328,0.00827,1.005875,0.012324,-0.001144,0.004384,57.53801,6.898788,-149.023102,,,
729863025.472504,0.652642,3.238061,52.141349,-0.067474,0.008224,0.996323,0.012324,-0.001144,0.004384,57.53801,6.898788,-149.023102,,,
