Time (sec),Pitch (deg),Roll (deg),Yaw(deg),X-Acceleration (g),Y-Acceleration (g),Z-Acceleration (g),Pitch Rate (deg/sec),Roll Rate (deg/sec),Yaw Rate (deg/sec),Magnetic Field in X direction (uT),Magnetic Field in Y direction (uT),Magnetic Field in Z Direction (uT),Latitude (deg),Longitude (deg),Altitude (m)
729862186.662905,-0.547916,4.345518,44.316599,-0.086761,-0.004837,0.987152,-0.02658,0.021424,0.001473,61.859604,5.858597,-155.497772,,,
729862186.666254,-0.547916,4.345518,44.316599,-0.086761,-0.004837,0.987152,-0.02658,0.021424,0.001473,61.859604,5.858597,-155.497772,,,
729862186.669537,-0.55396,4.339079,44.320924,-0.092789,-0.004242,0.985077,-0.031381,-0.019849,0.015624,61.859604,5.858597,-155.497772,,,
729862186.672942,-0.562596,4.329756,44.327198,-0.092789,-0.004242,0.985077,-0.031381,-0.019849,0.015624,61.859604,5.858597,-155.497772,,,
729862186.676206,-0.562596,4.329756,44.327198,-0.092789,-0.004242,0.985077,-0.031381,-0.019849,0.015624,61.859604,5.858597,-155.497772,,,
729862186.679526,-0.566503,4.308813,44.334467,-0.091507,-0.006256,0.98465,-0.01973,-0.057669,0.023889,62.005188,6.01236,-155.816589,,,
729862186.682917,-0.57115,4.28951,44.342234,-0.091507,-0.006256,0.98465,-0.01973,-0.057669,0.023889,62.005188,6.01236,-155.816589,,,
729862186.686213,-0.57115,4.28951,44.342234,-0.091507,-0.006256,0.98465,-0.01973,-0.057669,0.023889,62.005188,6.01236,-155.816589,,,
729862186.689608,-0.572885,4.26011,44.349993,-0.080627,-0.007355,0.994766,-0.008636,-0.072462,0.025292,62.005188,6.01236,-155.816589,,,
729862186.692921,-0.574558,4.239357,44.357367,-0.080627,-0.007355,0.994766,-0.008636,-0.072462,0.025292,62.005188,6.01236,-155.816589,,,
729862186.696209,-0.574558,4.239357,44.357367,-0.080627,-0.007355,0.994766,-0.008636,-0.072462,0.025292,62.005188,6.01236,-155.816589,,,
729862186.699539,-0.57549,4.21399,44.364207,-0.066315,-0.00885,1.006531,-0.002608,-0.05646,0.022532,62.005188,6.01236,-155.816589,,,
729862186.702886,-0.576336,4.199573,44.370805,-0.066315,-0.00885,1.006531,-0.002608,-0.05646,0.022532,62.005188,6.01236,-155.816589,,,
729862186.706194,-0.576336,4.199573,44.370805,-0.066315,-0.00885,1.006531,-0.002608,-0.05646,0.022532,62.005188,6.01236,-155.816589,,,
729862186.709537,-0.577507,4.181504,44.376824,-0.058777,-0.005859,1.012207,-0.003109,-0.021622,0.01913,62.005188,6.01236,-155.816589,,,
729862186.712937,-0.578594,4.177038,44.382311,-0.058777,-0.005859,1.012207,-0.003109,-0.021622,0.01913,62.005188,6.01236,-155.816589,,,
729862186.716239,-0.578594,4.177038,44.382311,-0.058777,-0.005859,1.012207,-0.003109,-0.021622,0.01913,62.005188,6.01236,-155.816589,,,
729862186.719518,-0.57986,4.174137,44.387535,-0.056259,-0.005829,1.008209,-0.003892,0.01002,0.017421,61.773453,6.121552,-155.599655,,,
729862186.722904,-0.58076,4.177455,44.393065,-0.056259,-0.005829,1.008209,-0.003892,0.01002,0.017421,61.773453,6.121552,-155.599655,,,
729862186.7262,-0.58076,4.177455,44.393065,-0.056259,-0.005829,1.008209,-0.003892,0.01002,0.017421,61.773453,6.121552,-155.599655,,,
729862186.729592,-0.579171,4.181277,44.398575,-0.056824,-0.008728,1.003021,0.000229,0.014048,0.017568,61.773453,6.121552,-155.599655,,,
729862186.732867,-0.579137,4.18355,44.403993,-0.056824,-0.008728,1.003021,0.000229,0.014048,0.017568,61.773453,6.121552,-155.599655,,,
729862186.736203,-0.579137,4.18355,44.403993,-0.056824,-0.008728,1.003021,0.000229,0.014048,0.017568,61.773453,6.121552,-155.599655,,,
729862186.739532,-0.5775,4.187976,44.409161,-0.064819,-0.010025,0.992996,0.002636,-0.009104,0.015607,61.773453,6.121552,-155.599655,,,
729862186.742921,-0.575955,4.182076,44.414077,-0.064819,-0.010025,0.992996,0.002636,-0.009104,0.015607,61.773453,6.121552,-155.599655,,,
729862186.746183,-0.575955,4.182076,44.414077,-0.064819,-0.010025,0.992996,0.002636,-0.009104,0.015607,61.773453,6.121552,-155.599655,,,
729862186.749523,-0.571925,4.180357,44.419344,-0.067825,-0.006851,0.981354,0.008654,-0.043409,0.017831,61.773453,6.121552,-155.599655,,,
729862186.752871,-0.568224,4.165656,44.424938,-0.067825,-0.006851,0.981354,0.008654,-0.043409,0.017831,61.773453,6.121552,-155.599655,,,
729862186.756255,-0.568224,4.165656,44.424938,-0.067825,-0.006851,0.981354,0.008654,-0.043409,0.017831,61.773453,6.121552,-155.599655,,,
729862186.759528,-0.560968,4.1593,44.429818,-0.054916,-0.008545,0.985107,0.026198,-0.054595,0.013465,61.773453,6.121552,-155.599655,,,
729862186.762859,-0.553311,4.143968,44.432533,-0.054916,-0.008545,0.985107,0.026198,-0.054595,0.013465,61.679596,5.793442,-155.522568,,,
729862186.7662,-0.553311,4.143968,44.432533,-0.054916,-0.008545,0.985107,0.026198,-0.054595,0.013465,61.679596,5.793442,-155.522568,,,
729862186.769602,-0.545225,4.138504,44.43208,-0.039642,-0.006668,0.999069,0.025385,-0.023706,-0.009128,61.679596,5.793442,-155.522568,,,
729862186.772882,-0.538997,4.134341,44.427928,-0.039642,-0.006668,0.999069,0.025385,-0.023706,-0.009128,61.679596,5.793442,-155.522568,,,
729862186.776231,-0.538997,4.134341,44.427928,-0.039642,-0.006668,0.999069,0.025385,-0.023706,-0.009128,61.679596,5.793442,-155.522568,,,
729862186.779536,-0.533824,4.136277,44.420721,-0.039108,-0.005127,1.004562,0.018451,0.02707,-0.030909,61.679596,5.793442,-155.522568,,,
729862186.782884,-0.530805,4.146637,44.411661,-0.039108,-0.005127,1.004562,0.018451,0.02707,-0.030909,61.679596,5.793442,-155.522568,,,
729862186.786204,-0.530805,4.146637,44.411661,-0.039108,-0.005127,1.004562,0.018451,0.02707,-0.030909,61.679596,5.793442,-155.522568,,,
729862186.789527,-0.530091,4.157647,44.401814,-0.049438,-0.005432,1.007812,-0.001756,0.074536,-0.03754,61.679596,5.793442,-155.522568,,,
729862186.792877,-0.533655,4.180761,44.391159,-0.049438,-0.005432,1.007812,-0.001756,0.074536,-0.03754,61.679596,5.793442,-155.522568,,,
729862186.796203,-0.533655,4.180761,44.391159,-0.049438,-0.005432,1.007812,-0.001756,0.074536,-0.03754,61.679596,5.793442,-155.522568,,,
729862186.799523,-0.540276,4.199969,44.380205,-0.067017,-0.004883,1.001846,-0.031252,0.10054,-0.041215,61.679596,5.793442,-155.522568,,,
729862186.802936,-0.551811,4.22629,44.36961,-0.067017,-0.004883,1.001846,-0.031252,0.10054,-0.041215,61.930786,5.755966,-155.757904,,,
729862186.806234,-0.551811,4.22629,44.36961,-0.067017,-0.004883,1.001846,-0.031252,0.10054,-0.041215,61.930786,5.755966,-155.757904,,,
729862186.809533,-0.565364,4.239946,44.3608,-0.092407,-0.004684,0.989395,-0.04801,0.067523,-0.02944,61.930786,5.755966,-155.757904,,,
729862186.812906,-0.580658,4.254229,44.355263,-0.092407,-0.004684,0.989395,-0.04801,0.067523,-0.02944,61.930786,5.755966,-155.757904,,,
729862186.816188,-0.580658,4.254229,44.355263,-0.092407,-0.004684,0.989395,-0.04801,0.067523,-0.02944,61.930786,5.755966,-155.757904,,,
729862186.81952,-0.596265,4.254653,44.352373,-0.108643,-0.008743,0.982224,-0.051269,0.007262,-0.010868,61.930786,5.755966,-155.757904,,,
729862186.822891,-0.610852,4.251451,44.351359,-0.108643,-0.008743,0.982224,-0.051269,0.007262,-0.010868,61.930786,5.755966,-155.757904,,,
729862186.826191,-0.610852,4.251451,44.351359,-0.108643,-0.008743,0.982224,-0.051269,0.007262,-0.010868,61.930786,5.755966,-155.757904,,,
729862186.829595,-0.623793,4.238425,44.351424,-0.108749,-0.010818,0.987106,-0.045644,-0.04772,-0.002745,61.930786,5.755966,-155.757904,,,
729862186.832908,-0.636005,4.222029,44.352144,-0.108749,-0.010818,0.987106,-0.045644,-0.04772,-0.002745,61.930786,5.755966,-155.757904,,,
729862186.836186,-0.636005,4.222029,44.352144,-0.108749,-0.010818,0.987106,-0.045644,-0.04772,-0.002745,61.930786,5.755966,-155.757904,,,
729862186.839526,-0.644464,4.197384,44.353448,-0.098251,-0.013611,0.996338,-0.025906,-0.069264,0.003233,61.930786,5.755966,-155.757904,,,
729862186.842977,-0.64959,4.177195,44.355202,-0.098251,-0.013611,0.996338,-0.025906,-0.069264,0.003233,61.700699,5.886581,-155.870193,,,
729862186.846183,-0.64959,4.177195,44.355202,-0.098251,-0.013611,0.996338,-0.025906,-0.069264,0.003233,61.700699,5.886581,-155.870193,,,
729862186.849537,-0.648796,4.146252,44.355679,-0.082672,-0.018478,1.014053,0.010105,-0.060028,-0.002047,61.700699,5.886581,-155.870193,,,
729862186.852895,-0.643202,4.130469,44.354825,-0.082672,-0.018478,1.014053,0.010105,-0.060028,-0.002047,61.700699,5.886581,-155.870193,,,
729862186.856263,-0.643202,4.130469,44.354825,-0.082672,-0.018478,1.014053,0.010105,-0.060028,-0.002047,61.700699,5.886581,-155.870193,,,
729862186.859539,-0.630858,4.107358,44.353338,-0.073364,-0.025742,1.036896,0.047372,-0.017957,-0.00273,61.700699,5.886581,-155.870193,,,
729862186.862866,-0.630858,4.107358,44.353338,-0.073364,-0.025742,1.036896,0.047372,-0.017957,-0.00273,61.700699,5.886581,-155.870193,,,
729862186.866196,-0.616198,4.105358,44.351415,-0.073364,-0.025742,1.036896,0.047372,-0.017957,-0.00273,61.700699,5.886581,-155.870193,,,
729862186.869521,-0.59908,4.100208,44.34887,-0.07164,-0.023422,1.034363,0.056666,0.034216,-0.005664,61.700699,5.886581,-155.870193,,,
729862186.872862,-0.59908,4.100208,44.34887,-0.07164,-0.023422,1.034363,0.056666,0.034216,-0.005664,61.700699,5.886581,-155.870193,,,
729862186.876195,-0.584498,4.112742,44.346594,-0.07164,-0.023422,1.034363,0.056666,0.034216,-0.005664,61.700699,5.886581,-155.870193,,,
729862186.879519,-0.571346,4.126472,44.344109,-0.069443,-0.01445,1.012482,0.03756,0.072701,-0.008172,61.700699,5.886581,-155.870193,,,
729862186.882959,-0.571346,4.126472,44.344109,-0.069443,-0.01445,1.012482,0.03756,0.072701,-0.008172,61.700699,5.886581,-155.870193,,,
729862186.886188,-0.563036,4.146635,44.341571,-0.069443,-0.01445,1.012482,0.03756,0.072701,-0.008172,62.097153,5.731491,-155.587128,,,
729862186.889521,-0.556813,4.171731,44.340202,-0.07988,-0.00946,0.987411,0.014338,0.063502,-0.002043,62.097153,5.731491,-155.587128,,,
729862186.892848,-0.556813,4.171731,44.340202,-0.07988,-0.00946,0.987411,0.014338,0.063502,-0.002043,62.097153,5.731491,-155.587128,,,
729862186.89627,-0.554283,4.186324,44.340512,-0.07988,-0.00946,0.987411,0.014338,0.063502,-0.002043,62.097153,5.731491,-155.587128,,,
729862186.899519,-0.555011,4.209558,44.342134,-0.092926,-0.008286,0.974854,-0.010627,0.025454,0.00439,62.097153,5.731491,-155.587128,,,
729862186.902875,-0.555011,4.209558,44.342134,-0.092926,-0.008286,0.974854,-0.010627,0.025454,0.00439,62.097153,5.731491,-155.587128,,,
729862186.906198,-0.559589,4.212975,44.34466,-0.092926,-0.008286,0.974854,-0.010627,0.025454,0.00439,62.097153,5.731491,-155.587128,,,
729862186.909531,-0.566789,4.226079,44.348554,-0.093765,-0.004807,0.972488,-0.0289,-0.013042,0.011547,62.097153,5.731491,-155.587128,,,
729862186.912863,-0.566789,4.226079,44.348554,-0.093765,-0.004807,0.972488,-0.0289,-0.013042,0.011547,62.097153,5.731491,-155.587128,,,
729862186.916199,-0.575983,4.219204,44.354069,-0.093765,-0.004807,0.972488,-0.0289,-0.013042,0.011547,62.097153,5.731491,-155.587128,,,
729862186.919527,-0.587016,4.218933,44.362038,-0.089905,-0.006531,0.974762,-0.038468,-0.045705,0.027247,62.097153,5.731491,-155.587128,,,
729862186.922945,-0.587016,4.218933,44.362038,-0.089905,-0.006531,0.974762,-0.038468,-0.045705,0.027247,62.097153,5.731491,-155.587128,,,
729862186.926231,-0.59707,4.203979,44.371815,-0.089905,-0.006531,0.974762,-0.038468,-0.045705,0.027247,61.847641,5.633621,-155.951309,,,
729862186.929659,-0.606622,4.193473,44.382303,-0.079803,-0.011292,0.994049,-0.024062,-0.054192,0.032857,61.847641,5.633621,-155.951309,,,
729862186.932948,-0.606622,4.193473,44.382303,-0.079803,-0.011292,0.994049,-0.024062,-0.054192,0.032857,61.847641,5.633621,-155.951309,,,
729862186.936258,-0.610908,4.178523,44.391768,-0.079803,-0.011292,0.994049,-0.024062,-0.054192,0.032857,61.847641,5.633621,-155.951309,,,
729862186.939568,-0.614306,4.166841,44.39979,-0.064468,-0.016678,1.019318,0.004837,-0.029482,0.024917,61.847641,5.633621,-155.951309,,,
729862186.942869,-0.614306,4.166841,44.39979,-0.064468,-0.016678,1.019318,0.004837,-0.029482,0.024917,61.847641,5.633621,-155.951309,,,
729862186.946197,-0.611657,4.160037,44.406513,-0.064468,-0.016678,1.019318,0.004837,-0.029482,0.024917,61.847641,5.633621,-155.951309,,,
729862186.949518,-0.610929,4.157365,44.411869,-0.052704,-0.019226,1.018936,0.015311,0.009294,0.016243,61.847641,5.633621,-155.951309,,,
729862186.95287,-0.610929,4.157365,44.411869,-0.052704,-0.019226,1.018936,0.015311,0.009294,0.016243,61.847641,5.633621,-155.951309,,,
729862186.956223,-0.606264,4.162133,44.415474,-0.052704,-0.019226,1.018936,0.015311,0.009294,0.016243,61.847641,5.633621,-155.951309,,,
729862186.959541,-0.603915,4.170452,44.417046,-0.045746,-0.013184,1.015442,0.009575,0.05097,0.001828,61.847641,5.633621,-155.951309,,,
729862186.962878,-0.603915,4.170452,44.417046,-0.045746,-0.013184,1.015442,0.009575,0.05097,0.001828,61.847641,5.633621,-155.951309,,,
729862186.966187,-0.602471,4.186788,44.416454,-0.045746,-0.013184,1.015442,0.009575,0.05097,0.001828,61.981918,5.793076,-155.906204,,,
729862186.969524,-0.603089,4.208995,44.413899,-0.054291,-0.016678,1.010162,-0.004045,0.080419,-0.013023,61.981918,5.793076,-155.906204,,,
729862186.972962,-0.603089,4.208995,44.413899,-0.054291,-0.016678,1.010162,-0.004045,0.080419,-0.013023,61.981918,5.793076,-155.906204,,,
729862186.97619,-0.605378,4.230435,44.410198,-0.054291,-0.016678,1.010162,-0.004045,0.080419,-0.013023,61.981918,5.793076,-155.906204,,,
729862186.979524,-0.607857,4.256558,44.406615,-0.072968,-0.016876,1.000992,-0.00814,0.056368,-0.013132,61.981918,5.793076,-155.906204,,,
729862186.982849,-0.607857,4.256558,44.406615,-0.072968,-0.016876,1.000992,-0.00814,0.056368,-0.013132,61.981918,5.793076,-155.906204,,,
729862186.986278,-0.610128,4.267892,44.404388,-0.072968,-0.016876,1.000992,-0.00814,0.056368,-0.013132,61.981918,5.793076,-155.906204,,,
729862186.98952,-0.611423,4.280376,44.404708,-0.09079,-0.017914,0.992142,-0.008757,-0.002099,0.003904,61.981918,5.793076,-155.906204,,,
729862186.992858,-0.611423,4.280376,44.404708,-0.09079,-0.017914,0.992142,-0.008757,-0.002099,0.003904,61.981918,5.793076,-155.906204,,,
729862186.996211,-0.613737,4.274853,44.407588,-0.09079,-0.017914,0.992142,-0.008757,-0.002099,0.003904,61.981918,5.793076,-155.906204,,,
729862186.999524,-0.613431,4.271032,44.412093,-0.094604,-0.017258,0.988724,-0.000952,-0.048185,0.01518,61.981918,5.793076,-155.906204,,,
729862187.002869,-0.613431,4.271032,44.412093,-0.094604,-0.017258,0.988724,-0.000952,-0.048185,0.01518,61.981918,5.793076,-155.906204,,,
729862187.006193,-0.612937,4.25466,44.417376,-0.094604,-0.017258,0.988724,-0.000952,-0.048185,0.01518,61.96048,5.971054,-155.476425,,,
729862187.009529,-0.611461,4.240675,44.424,-0.08374,-0.015579,0.993652,0.005372,-0.062558,0.024748,61.96048,5.971054,-155.476425,,,
729862187.012931,-0.611461,4.240675,44.424,-0.08374,-0.015579,0.993652,0.005372,-0.062558,0.024748,61.96048,5.971054,-155.476425,,,
729862187.016198,-0.608551,4.223215,44.431782,-0.08374,-0.015579,0.993652,0.005372,-0.062558,0.024748,61.96048,5.971054,-155.476425,,,
729862187.019527,-0.605667,4.206188,44.440087,-0.072174,-0.013168,0.995895,0.011554,-0.036761,0.029106,61.96048,5.971054,-155.476425,,,
729862187.022869,-0.605667,4.206188,44.440087,-0.072174,-0.013168,0.995895,0.011554,-0.036761,0.029106,61.96048,5.971054,-155.476425,,,
729862187.026268,-0.602493,4.197917,44.448317,-0.072174,-0.013168,0.995895,0.011554,-0.036761,0.029106,61.96048,5.971054,-155.476425,,,
729862187.029518,-0.603148,4.187832,44.45496,-0.052872,-0.006058,0.990845,0.00032,0.008363,0.017806,61.96048,5.971054,-155.476425,,,
729862187.032862,-0.603148,4.187832,44.45496,-0.052872,-0.006058,0.990845,0.00032,0.008363,0.017806,61.96048,5.971054,-155.476425,,,
729862187.036209,-0.604742,4.192877,44.459811,-0.052872,-0.006058,0.990845,0.00032,0.008363,0.017806,61.96048,5.971054,-155.476425,,,
729862187.039527,-0.610031,4.191636,44.462292,-0.041595,-0.007355,0.976974,-0.018986,0.050511,0.00076,61.96048,5.971054,-155.476425,,,
729862187.042853,-0.610031,4.191636,44.462292,-0.041595,-0.007355,0.976974,-0.018986,0.050511,0.00076,61.96048,5.971054,-155.476425,,,
729862187.046223,-0.616758,4.206882,44.46167,-0.041595,-0.007355,0.976974,-0.018986,0.050511,0.00076,61.96048,5.971054,-155.476425,,,
729862187.049522,-0.627206,4.214007,44.458852,-0.045319,-0.006546,0.976074,-0.036327,0.065267,-0.015076,61.701157,6.112885,-155.611511,,,
729862187.052933,-0.627206,4.214007,44.458852,-0.045319,-0.006546,0.976074,-0.036327,0.065267,-0.015076,61.701157,6.112885,-155.611511,,,
729862187.056203,-0.638775,4.231481,44.454702,-0.045319,-0.006546,0.976074,-0.036327,0.065267,-0.015076,61.701157,6.112885,-155.611511,,,
729862187.059521,-0.652888,4.243902,44.44958,-0.063293,-0.00975,0.97583,-0.042776,0.047742,-0.022206,61.701157,6.112885,-155.611511,,,
729862187.062871,-0.652888,4.243902,44.44958,-0.063293,-0.00975,0.97583,-0.042776,0.047742,-0.022206,61.701157,6.112885,-155.611511,,,
729862187.066266,-0.665337,4.255561,44.445663,-0.063293,-0.00975,0.97583,-0.042776,0.047742,-0.022206,61.701157,6.112885,-155.611511,,,
729862187.069518,-0.678795,4.270139,44.443599,-0.076096,-0.016418,0.977203,-0.040289,0.027056,-0.009685,61.701157,6.112885,-155.611511,,,
729862187.072869,-0.678795,4.270139,44.443599,-0.076096,-0.016418,0.977203,-0.040289,0.027056,-0.009685,61.701157,6.112885,-155.611511,,,
729862187.076201,-0.690388,4.275077,44.442621,-0.076096,-0.016418,0.977203,-0.040289,0.027056,-0.009685,61.701157,6.112885,-155.611511,,,
729862187.079528,-0.703417,4.285459,44.443195,-0.078354,-0.017273,0.973846,-0.041549,-0.002176,0.000248,61.701157,6.112885,-155.611511,,,
729862187.082864,-0.703417,4.285459,44.443195,-0.078354,-0.017273,0.973846,-0.041549,-0.002176,0.000248,61.701157,6.112885,-155.611511,,,
729862187.086205,-0.716377,4.281618,44.444881,-0.078354,-0.017273,0.973846,-0.041549,-0.002176,0.000248,61.701157,6.112885,-155.611511,,,
729862187.089525,-0.731367,4.279147,44.44706,-0.07164,-0.013092,0.963333,-0.050463,-0.031089,0.002556,61.951736,6.331451,-155.96907,,,
729862187.092854,-0.731367,4.279147,44.44706,-0.07164,-0.013092,0.963333,-0.050463,-0.031089,0.002556,61.951736,6.331451,-155.96907,,,
729862187.096223,-0.746643,4.269007,44.449162,-0.07164,-0.013092,0.963333,-0.050463,-0.031089,0.002556,61.951736,6.331451,-155.96907,,,
729862187.099524,-0.76389,4.260769,44.450203,-0.060654,-0.012878,0.967941,-0.061265,-0.024007,-0.005679,61.951736,6.331451,-155.96907,,,
729862187.102904,-0.76389,4.260769,44.450203,-0.060654,-0.012878,0.967941,-0.061265,-0.024007,-0.005679,61.951736,6.331451,-155.96907,,,
729862187.106204,-0.783205,4.255653,44.449872,-0.060654,-0.012878,0.967941,-0.061265,-0.024007,-0.005679,61.951736,6.331451,-155.96907,,,
729862187.109523,-0.80309,4.249429,44.448369,-0.048691,-0.01268,0.97905,-0.074035,0.015522,-0.014163,61.951736,6.331451,-155.96907,,,
729862187.112852,-0.80309,4.249429,44.448369,-0.048691,-0.01268,0.97905,-0.074035,0.015522,-0.014163,61.951736,6.331451,-155.96907,,,
729862187.116273,-0.824075,4.255701,44.445557,-0.048691,-0.01268,0.97905,-0.074035,0.015522,-0.014163,61.951736,6.331451,-155.96907,,,
729862187.119507,-0.841687,4.257411,44.441124,-0.044434,-0.016754,0.996689,-0.059995,0.055465,-0.023383,61.951736,6.331451,-155.96907,,,
729862187.122866,-0.841687,4.257411,44.441124,-0.044434,-0.016754,0.996689,-0.059995,0.055465,-0.023383,61.951736,6.331451,-155.96907,,,
729862187.126196,-0.858181,4.27458,44.435515,-0.044434,-0.016754,0.996689,-0.059995,0.055465,-0.023383,61.951736,6.331451,-155.96907,,,
729862187.129522,-0.870614,4.285224,44.428097,-0.053543,-0.023773,1.014404,-0.040439,0.083445,-0.033474,62.072723,6.441147,-156.281982,,,
729862187.132868,-0.870614,4.285224,44.428097,-0.053543,-0.023773,1.014404,-0.040439,0.083445,-0.033474,62.072723,6.441147,-156.281982,,,
729862187.136202,-0.881647,4.308295,44.419052,-0.053543,-0.023773,1.014404,-0.040439,0.083445,-0.033474,62.072723,6.441147,-156.281982,,,
729862187.139526,-0.888685,4.325067,44.409547,-0.066727,-0.02774,1.011108,-0.022179,0.078056,-0.034743,62.072723,6.441147,-156.281982,,,
729862187.142854,-0.888685,4.325067,44.409547,-0.066727,-0.02774,1.011108,-0.022179,0.078056,-0.034743,62.072723,6.441147,-156.281982,,,
729862187.146206,-0.895945,4.344013,44.400588,-0.066727,-0.02774,1.011108,-0.022179,0.078056,-0.034743,62.072723,6.441147,-156.281982,,,
729862187.14952,-0.904051,4.357154,44.392373,-0.081238,-0.027985,0.988708,-0.028286,0.039037,-0.029963,62.072723,6.441147,-156.281982,,,
729862187.152853,-0.904051,4.357154,44.392373,-0.081238,-0.027985,0.988708,-0.028286,0.039037,-0.029963,62.072723,6.441147,-156.281982,,,
729862187.156183,-0.914271,4.36361,44.385463,-0.081238,-0.027985,0.988708,-0.028286,0.039037,-0.029963,62.072723,6.441147,-156.281982,,,
729862187.159552,-0.928064,4.365317,44.379564,-0.088455,-0.019363,0.974533,-0.051189,-0.004688,-0.024815,62.072723,6.441147,-156.281982,,,
729862187.16287,-0.928064,4.365317,44.379564,-0.088455,-0.019363,0.974533,-0.051189,-0.004688,-0.024815,62.072723,6.441147,-156.281982,,,
729862187.166273,-0.944512,4.361526,44.374725,-0.088455,-0.019363,0.974533,-0.051189,-0.004688,-0.024815,62.072723,6.441147,-156.281982,,,
729862187.169518,-0.963027,4.354802,44.371244,-0.094574,-0.018188,0.984268,-0.067785,-0.025433,-0.016636,62.340698,6.628464,-156.494797,,,
729862187.172897,-0.963027,4.354802,44.371244,-0.094574,-0.018188,0.984268,-0.067785,-0.025433,-0.016636,62.340698,6.628464,-156.494797,,,
729862187.176215,-0.98319,4.34623,44.369406,-0.094574,-0.018188,0.984268,-0.067785,-0.025433,-0.016636,62.340698,6.628464,-156.494797,,,
729862187.179525,-1.002604,4.333398,44.369466,-0.099213,-0.019287,0.994812,-0.0688,-0.032927,-0.003073,62.340698,6.628464,-156.494797,,,
729862187.18288,-1.002604,4.333398,44.369466,-0.099213,-0.019287,0.994812,-0.0688,-0.032927,-0.003073,62.340698,6.628464,-156.494797,,,
729862187.186215,-1.021313,4.323286,44.371278,-0.099213,-0.019287,0.994812,-0.0688,-0.032927,-0.003073,62.340698,6.628464,-156.494797,,,
729862187.189525,-1.037113,4.306028,44.37472,-0.097687,-0.018585,1.00737,-0.05452,-0.029001,0.010424,62.340698,6.628464,-156.494797,,,
729862187.192925,-1.037113,4.306028,44.37472,-0.097687,-0.018585,1.00737,-0.05452,-0.029001,0.010424,62.340698,6.628464,-156.494797,,,
729862187.196192,-1.051038,4.298436,44.380024,-0.097687,-0.018585,1.00737,-0.05452,-0.029001,0.010424,62.340698,6.628464,-156.494797,,,
729862187.199528,-1.061261,4.281416,44.386251,-0.09111,-0.016632,1.015259,-0.034658,-0.003172,0.020097,62.340698,6.628464,-156.494797,,,
729862187.202857,-1.061261,4.281416,44.386251,-0.09111,-0.016632,1.015259,-0.034658,-0.003172,0.020097,62.340698,6.628464,-156.494797,,,
729862187.206275,-1.070502,4.281854,44.393126,-0.09111,-0.016632,1.015259,-0.034658,-0.003172,0.020097,62.340698,6.628464,-156.494797,,,
729862187.209513,-1.080015,4.274635,44.399315,-0.083481,-0.01445,1.012115,-0.029317,0.020099,0.017204,62.340698,6.628464,-156.494797,,,
729862187.212882,-1.080015,4.274635,44.399315,-0.083481,-0.01445,1.012115,-0.029317,0.020099,0.017204,62.61734,6.840332,-156.518661,,,
729862187.216187,-1.087188,4.28086,44.404436,-0.083481,-0.01445,1.012115,-0.029317,0.020099,0.017204,62.61734,6.840332,-156.518661,,,
729862187.219522,-1.095021,4.283498,44.407401,-0.07782,-0.012039,1.010223,-0.021036,0.035663,0.003532,62.61734,6.840332,-156.518661,,,
729862187.22287,-1.095021,4.283498,44.407401,-0.07782,-0.012039,1.010223,-0.021036,0.035663,0.003532,62.61734,6.840332,-156.518661,,,
729862187.226196,-1.100325,4.293455,44.408493,-0.07782,-0.012039,1.010223,-0.021036,0.035663,0.003532,62.61734,6.840332,-156.518661,,,
729862187.229615,-1.106601,4.305595,44.40862,-0.081238,-0.012512,1.008881,-0.010958,0.040166,-0.002671,62.61734,6.840332,-156.518661,,,
729862187.232845,-1.106601,4.305595,44.40862,-0.081238,-0.012512,1.008881,-0.010958,0.040166,-0.002671,62.61734,6.840332,-156.518661,,,
729862187.236209,-1.109102,4.315714,44.40866,-0.081238,-0.012512,1.008881,-0.010958,0.040166,-0.002671,62.61734,6.840332,-156.518661,,,
729862187.239533,-1.110552,4.329443,44.410157,-0.093781,-0.018188,1.011337,-1e-06,0.024904,0.007521,62.61734,6.840332,-156.518661,,,
729862187.242928,-1.110552,4.329443,44.410157,-0.093781,-0.018188,1.011337,-1e-06,0.024904,0.007521,62.61734,6.840332,-156.518661,,,
729862187.246193,-1.10937,4.334441,44.413572,-0.093781,-0.018188,1.011337,-1e-06,0.024904,0.007521,62.61734,6.840332,-156.518661,,,
729862187.24956,-1.105693,4.344027,44.418887,-0.104156,-0.020706,1.010773,0.014396,-0.000275,0.020817,62.61734,6.840332,-156.518661,,,
729862187.252859,-1.105693,4.344027,44.418887,-0.104156,-0.020706,1.010773,0.014396,-0.000275,0.020817,62.360397,7.118454,-156.41391,,,
729862187.256259,-1.101555,4.341995,44.425926,-0.104156,-0.020706,1.010773,0.014396,-0.000275,0.020817,62.360397,7.118454,-156.41391,,,
729862187.259512,-1.097166,4.347414,44.43547,-0.103867,-0.014999,1.004379,0.014852,-0.020728,0.036972,62.360397,7.118454,-156.41391,,,
729862187.262854,-1.097166,4.347414,44.43547,-0.103867,-0.014999,1.004379,0.014852,-0.020728,0.036972,62.360397,7.118454,-156.41391,,,
729862187.2662,-1.093105,4.34002,44.446283,-0.103867,-0.014999,1.004379,0.014852,-0.020728,0.036972,62.360397,7.118454,-156.41391,,,
729862187.269518,-1.091239,4.340176,44.457319,-0.087845,-0.010727,0.995895,-0.00125,-0.034999,0.035921,62.360397,7.118454,-156.41391,,,
729862187.272865,-1.091239,4.340176,44.457319,-0.087845,-0.010727,0.995895,-0.00125,-0.034999,0.035921,62.360397,7.118454,-156.41391,,,
729862187.276203,-1.093023,4.329125,44.467587,-0.087845,-0.010727,0.995895,-0.00125,-0.034999,0.035921,62.360397,7.118454,-156.41391,,,
729862187.27952,-1.098118,4.324983,44.476621,-0.072479,-0.006302,0.984314,-0.026763,-0.036011,0.024413,62.360397,7.118454,-156.41391,,,
729862187.282731,-1.098118,4.324983,44.476621,-0.072479,-0.006302,0.984314,-0.026763,-0.036011,0.024413,62.360397,7.118454,-156.41391,,,
729862187.286337,-1.107312,4.315222,44.483463,-0.072479,-0.006302,0.984314,-0.026763,-0.036011,0.024413,62.360397,7.118454,-156.41391,,,
729862187.289531,-1.118338,4.311771,44.488509,-0.059433,-0.005615,0.987579,-0.04742,-0.018765,0.009796,62.360397,7.118454,-156.41391,,,
729862187.29286,-1.118338,4.311771,44.488509,-0.059433,-0.005615,0.987579,-0.04742,-0.018765,0.009796,62.406677,7.480164,-156.761398,,,
729862187.296209,-1.133242,4.307975,44.492703,-0.059433,-0.005615,0.987579,-0.04742,-0.018765,0.009796,62.406677,7.480164,-156.761398,,,
729862187.299537,-1.14816,4.309344,44.496195,-0.055573,-0.010574,0.996826,-0.059215,0.01037,0.003904,62.406677,7.480164,-156.761398,,,
729862187.30288,-1.14816,4.309344,44.496195,-0.055573,-0.010574,0.996826,-0.059215,0.01037,0.003904,62.406677,7.480164,-156.761398,,,
729862187.306294,-1.164854,4.314077,44.498607,-0.055573,-0.010574,0.996826,-0.059215,0.01037,0.003904,62.406677,7.480164,-156.761398,,,
729862187.309523,-1.178079,4.32415,44.500406,-0.055527,-0.019547,1.008362,-0.050065,0.036974,0.00011,62.406677,7.480164,-156.761398,,,
729862187.312879,-1.178079,4.32415,44.500406,-0.055527,-0.019547,1.008362,-0.050065,0.036974,0.00011,62.406677,7.480164,-156.761398,,,
729862187.316112,-1.190829,4.335154,44.501599,-0.055527,-0.019547,1.008362,-0.050065,0.036974,0.00011,62.406677,7.480164,-156.761398,,,
729862187.319537,-1.198765,4.353188,44.502184,-0.05986,-0.024918,1.017624,-0.023015,0.045455,-0.002973,62.406677,7.480164,-156.761398,,,
729862187.322873,-1.198765,4.353188,44.502184,-0.05986,-0.024918,1.017624,-0.023015,0.045455,-0.002973,62.406677,7.480164,-156.761398,,,
729862187.326196,-1.203984,4.366007,44.501159,-0.05986,-0.024918,1.017624,-0.023015,0.045455,-0.002973,62.406677,7.480164,-156.761398,,,
729862187.32952,-1.205938,4.390929,44.49898,-0.060608,-0.02774,1.020645,-0.00034,0.052886,-0.010929,62.406677,7.480164,-156.761398,,,
729862187.332939,-1.205938,4.390929,44.49898,-0.060608,-0.02774,1.020645,-0.00034,0.052886,-0.010929,62.406677,7.480164,-156.761398,,,
729862187.336198,-1.205165,4.405313,44.495476,-0.060608,-0.02774,1.020645,-0.00034,0.052886,-0.010929,62.681915,7.402725,-156.929062,,,
729862187.339529,-1.200928,4.431605,44.491306,-0.068878,-0.02948,1.019165,0.016687,0.052224,-0.01598,62.681915,7.402725,-156.929062,,,
729862187.342871,-1.200928,4.431605,44.491306,-0.068878,-0.02948,1.019165,0.016687,0.052224,-0.01598,62.681915,7.402725,-156.929062,,,
729862187.346261,-1.19654,4.444851,44.486644,-0.068878,-0.02948,1.019165,0.016687,0.052224,-0.01598,62.681915,7.402725,-156.929062,,,
729862187.349548,-1.189252,4.461762,44.482897,-0.079727,-0.027435,1.002441,0.021889,0.032417,-0.010156,62.681915,7.402725,-156.929062,,,
729862187.352851,-1.189252,4.461762,44.482897,-0.079727,-0.027435,1.002441,0.021889,0.032417,-0.010156,62.681915,7.402725,-156.929062,,,
729862187.356191,-1.18442,4.468833,44.480746,-0.079727,-0.027435,1.002441,0.021889,0.032417,-0.010156,62.681915,7.402725,-156.929062,,,
729862187.359518,-1.177942,4.472603,44.480341,-0.089386,-0.021042,0.987473,0.00969,0.012124,0.00113,62.681915,7.402725,-156.929062,,,
729862187.362869,-1.177942,4.472603,44.480341,-0.089386,-0.021042,0.987473,0.00969,0.012124,0.00113,62.681915,7.402725,-156.929062,,,
729862187.366196,-1.176069,4.473358,44.481579,-0.089386,-0.021042,0.987473,0.00969,0.012124,0.00113,62.681915,7.402725,-156.929062,,,
729862187.36952,-1.171201,4.463728,44.48457,-0.086227,-0.018585,0.983459,0.004183,-0.016516,0.013876,62.681915,7.402725,-156.929062,,,
729862187.372928,-1.171201,4.463728,44.48457,-0.086227,-0.018585,0.983459,0.004183,-0.016516,0.013876,62.681915,7.402725,-156.929062,,,
729862187.376188,-1.169437,4.456635,44.488478,-0.086227,-0.018585,0.983459,0.004183,-0.016516,0.013876,62.50119,7.256348,-156.493256,,,
729862187.379521,-1.164171,4.437645,44.491314,-0.078049,-0.01976,0.988892,0.010273,-0.034923,0.008174,62.50119,7.256348,-156.493256,,,
729862187.382865,-1.164171,4.437645,44.491314,-0.078049,-0.01976,0.988892,0.010273,-0.034923,0.008174,62.50119,7.256348,-156.493256,,,
729862187.386276,-1.160833,4.425968,44.493477,-0.078049,-0.01976,0.988892,0.010273,-0.034923,0.008174,62.50119,7.256348,-156.493256,,,
729862187.389518,-1.156315,4.403122,44.494123,-0.069046,-0.020935,0.991608,0.013303,-0.043759,-0.000842,62.50119,7.256348,-156.493256,,,
729862187.392875,-1.156315,4.403122,44.494123,-0.069046,-0.020935,0.991608,0.013303,-0.043759,-0.000842,62.50119,7.256348,-156.493256,,,
729862187.396212,-1.152698,4.390988,44.492923,-0.069046,-0.020935,0.991608,0.013303,-0.043759,-0.000842,62.50119,7.256348,-156.493256,,,
729862187.399528,-1.15027,4.373978,44.489866,-0.063934,-0.022141,0.997726,0.010697,-0.020431,-0.012871,62.50119,7.256348,-156.493256,,,
729862187.402876,-1.15027,4.373978,44.489866,-0.063934,-0.022141,0.997726,0.010697,-0.020431,-0.012871,62.50119,7.256348,-156.493256,,,
729862187.406209,-1.147599,4.370133,44.486174,-0.063934,-0.022141,0.997726,0.010697,-0.020431,-0.012871,62.50119,7.256348,-156.493256,,,
729862187.409528,-1.14668,4.364538,44.482444,-0.063004,-0.020508,1.003143,0.00835,0.016719,-0.01232,62.50119,7.256348,-156.493256,,,
729862187.41293,-1.14668,4.364538,44.482444,-0.063004,-0.020508,1.003143,0.00835,0.016719,-0.01232,62.50119,7.256348,-156.493256,,,
729862187.416194,-1.145178,4.370681,44.479647,-0.063004,-0.020508,1.003143,0.00835,0.016719,-0.01232,62.423294,7.347794,-156.554764,,,
729862187.419521,-1.147246,4.375844,44.477331,-0.069794,-0.019775,0.997482,-0.002325,0.046073,-0.009105,62.423294,7.347794,-156.554764,,,
729862187.42295,-1.147246,4.375844,44.477331,-0.069794,-0.019775,0.997482,-0.002325,0.046073,-0.009105,62.423294,7.347794,-156.554764,,,
729862187.426186,-1.149237,4.388896,44.475811,-0.069794,-0.019775,0.997482,-0.002325,0.046073,-0.009105,62.423294,7.347794,-156.554764,,,
729862187.429528,-1.154928,4.40333,44.474291,-0.07605,-0.0168,0.991272,-0.014587,0.056464,-0.010074,62.423294,7.347794,-156.554764,,,
729862187.432874,-1.154928,4.40333,44.474291,-0.07605,-0.0168,0.991272,-0.014587,0.056464,-0.010074,62.423294,7.347794,-156.554764,,,
729862187.436262,-1.160385,4.417966,44.471798,-0.07605,-0.0168,0.991272,-0.014587,0.056464,-0.010074,62.423294,7.347794,-156.554764,,,
729862187.439519,-1.167395,4.435098,44.468546,-0.08107,-0.020035,0.986343,-0.021976,0.0399,-0.016641,62.423294,7.347794,-156.554764,,,
729862187.442869,-1.167395,4.435098,44.468546,-0.08107,-0.020035,0.986343,-0.021976,0.0399,-0.016641,62.423294,7.347794,-156.554764,,,
729862187.446192,-1.174483,4.443608,44.46474,-0.08107,-0.020035,0.986343,-0.021976,0.0399,-0.016641,62.423294,7.347794,-156.554764,,,
729862187.449523,-1.181046,4.453051,44.461122,-0.086868,-0.021561,0.983398,-0.021463,0.010403,-0.016042,62.423294,7.347794,-156.554764,,,
729862187.452862,-1.181046,4.453051,44.461122,-0.086868,-0.021561,0.983398,-0.021463,0.010403,-0.016042,62.423294,7.347794,-156.554764,,,
729862187.456187,-1.187533,4.453649,44.457336,-0.086868,-0.021561,0.983398,-0.021463,0.010403,-0.016042,62.63649,7.733704,-156.581573,,,
729862187.459516,-1.193307,4.452775,44.454047,-0.091553,-0.022858,0.991394,-0.018124,-0.008016,-0.012419,62.63649,7.733704,-156.581573,,,
729862187.462909,-1.193307,4.452775,44.454047,-0.091553,-0.022858,0.991394,-0.018124,-0.008016,-0.012419,62.63649,7.733704,-156.581573,,,
729862187.466195,-1.198893,4.449389,44.45164,-0.091553,-0.022858,0.991394,-0.018124,-0.008016,-0.012419,62.63649,7.733704,-156.581573,,,
729862187.469521,-1.204547,4.443198,44.450058,-0.093414,-0.021942,0.999588,-0.019546,-0.00982,-0.006434,62.63649,7.733704,-156.581573,,,
729862187.472875,-1.204547,4.443198,44.450058,-0.093414,-0.021942,0.999588,-0.019546,-0.00982,-0.006434,62.63649,7.733704,-156.581573,,,
729862187.476249,-1.210307,4.439962,44.449431,-0.093414,-0.021942,0.999588,-0.019546,-0.00982,-0.006434,62.63649,7.733704,-156.581573,,,
729862187.479507,-1.210307,4.439962,44.449431,-0.088058,-0.019699,1.002426,-0.016818,0.004016,-0.002164,62.63649,7.733704,-156.581573,,,
729862187.482871,-1.21595,4.433166,44.449281,-0.088058,-0.019699,1.002426,-0.016818,0.004016,-0.002164,62.63649,7.733704,-156.581573,,,
729862187.486198,-1.219988,4.435457,44.449568,-0.088058,-0.019699,1.002426,-0.016818,0.004016,-0.002164,62.63649,7.733704,-156.581573,,,
729862187.48952,-1.221963,4.434874,44.450177,-0.087234,-0.023926,1.014633,-0.002584,0.028672,0.002165,62.63649,7.733704,-156.581573,,,
729862187.492866,-1.221963,4.434874,44.450177,-0.087234,-0.023926,1.014633,-0.002584,0.028672,0.002165,62.63649,7.733704,-156.581573,,,
729862187.496192,-1.22248,4.444574,44.451525,-0.087234,-0.023926,1.014633,-0.002584,0.028672,0.002165,62.63649,7.733704,-156.581573,,,
729862187.499542,-1.22248,4.444574,44.451525,-0.088425,-0.022186,1.019196,0.001033,0.057007,0.002845,62.46077,7.691376,-156.610764,,,
729862187.50286,-1.222304,4.45423,44.452851,-0.088425,-0.022186,1.019196,0.001033,0.057007,0.002845,62.46077,7.691376,-156.610764,,,
729862187.506197,-1.221464,4.47051,44.454201,-0.088425,-0.022186,1.019196,0.001033,0.057007,0.002845,62.46077,7.691376,-156.610764,,,
729862187.509565,-1.221464,4.47051,44.454201,-0.097702,-0.02063,1.016464,0.011707,0.05977,0.013072,62.46077,7.691376,-156.610764,,,
729862187.512884,-1.218288,4.485951,44.456872,-0.097702,-0.02063,1.016464,0.011707,0.05977,0.013072,62.46077,7.691376,-156.610764,,,
729862187.516267,-1.213851,4.500707,44.461891,-0.097702,-0.02063,1.016464,0.011707,0.05977,0.013072,62.46077,7.691376,-156.610764,,,
729862187.519558,-1.213851,4.500707,44.461891,-0.105347,-0.02301,1.003052,0.017642,0.029836,0.027006,62.46077,7.691376,-156.610764,,,
729862187.522872,-1.20783,4.512253,44.468858,-0.105347,-0.02301,1.003052,0.017642,0.029836,0.027006,62.46077,7.691376,-156.610764,,,
729862187.526207,-1.201663,4.517221,44.478196,-0.105347,-0.02301,1.003052,0.017642,0.029836,0.027006,62.46077,7.691376,-156.610764,,,
729862187.529518,-1.201663,4.517221,44.478196,-0.107208,-0.017746,0.983459,0.019658,-0.017443,0.042199,62.46077,7.691376,-156.610764,,,
729862187.532738,-1.195178,4.518741,44.489741,-0.107208,-0.017746,0.983459,0.019658,-0.017443,0.042199,62.46077,7.691376,-156.610764,,,
729862187.536209,-1.188882,4.509172,44.502214,-0.107208,-0.017746,0.983459,0.019658,-0.017443,0.042199,62.46077,7.691376,-156.610764,,,
729862187.539535,-1.188882,4.509172,44.502214,-0.107208,-0.017746,0.983459,0.020832,-0.065692,0.044802,62.455399,7.814667,-156.519745,,,
729862187.542919,-1.182843,4.498087,44.51516,-0.094635,-0.013824,0.974869,0.020832,-0.065692,0.044802,62.455399,7.814667,-156.519745,,,
729862187.546206,-1.176095,4.476655,44.527413,-0.094635,-0.013824,0.974869,0.020832,-0.065692,0.044802,62.455399,7.814667,-156.519745,,,
729862187.549566,-1.176095,4.476655,44.527413,-0.094635,-0.013824,0.974869,0.018859,-0.074121,0.033459,62.455399,7.814667,-156.519745,,,
729862187.552871,-1.170229,4.460622,44.5382,-0.074631,-0.011826,0.980179,0.018859,-0.074121,0.033459,62.455399,7.814667,-156.519745,,,
729862187.55626,-1.165513,4.440769,44.547251,-0.074631,-0.011826,0.980179,0.018859,-0.074121,0.033459,62.455399,7.814667,-156.519745,,,
729862187.559518,-1.165513,4.440769,44.547251,-0.074631,-0.011826,0.980179,0.008946,-0.041075,0.027956,62.455399,7.814667,-156.519745,,,
729862187.562876,-1.162192,4.430323,44.555722,-0.056412,-0.013657,0.985336,0.008946,-0.041075,0.027956,62.455399,7.814667,-156.519745,,,
729862187.566204,-1.15986,4.421793,44.563282,-0.056412,-0.013657,0.985336,0.008946,-0.041075,0.027956,62.455399,7.814667,-156.519745,,,
729862187.569561,-1.15986,4.421793,44.563282,-0.056412,-0.013657,0.985336,0.005861,0.014613,0.019614,62.455399,7.814667,-156.519745,,,
729862187.57287,-1.158657,4.424525,44.569746,-0.042847,-0.012192,0.997833,0.005861,0.014613,0.019614,62.455399,7.814667,-156.519745,,,
729862187.576199,-1.156557,4.43171,44.574847,-0.042847,-0.012192,0.997833,0.005861,0.014613,0.019614,62.455399,7.814667,-156.519745,,,
729862187.579576,-1.156557,4.43171,44.574847,-0.042847,-0.012192,0.997833,0.01011,0.067068,0.005967,62.241028,8.083817,-156.571121,,,
729862187.582885,-1.154574,4.450099,44.578028,-0.038864,-0.018036,1.006332,0.01011,0.067068,0.005967,62.241028,8.083817,-156.571121,,,
729862187.586188,-1.151677,4.470979,44.578973,-0.038864,-0.018036,1.006332,0.01011,0.067068,0.005967,62.241028,8.083817,-156.571121,,,
729862187.589525,-1.151677,4.470979,44.578973,-0.038864,-0.018036,1.006332,0.01011,0.067068,0.005967,62.241028,8.083817,-156.571121,,,
729862187.592943,-1.148935,4.501422,44.57803,-0.047058,-0.02005,1.004883,0.009711,0.09081,-0.008101,62.241028,8.083817,-156.571121,,,
729862187.596184,-1.146344,4.525534,44.575128,-0.047058,-0.02005,1.004883,0.009711,0.09081,-0.008101,62.241028,8.083817,-156.571121,,,
729862187.599522,-1.146344,4.525534,44.575128,-0.047058,-0.02005,1.004883,0.009711,0.09081,-0.008101,62.241028,8.083817,-156.571121,,,
729862187.60288,-1.143915,4.554146,44.570961,-0.056702,-0.020584,0.989166,0.01332,0.060014,-0.017976,62.241028,8.083817,-156.571121,,,
729862187.606195,-1.140431,4.565845,44.56584,-0.056702,-0.020584,0.989166,0.01332,0.060014,-0.017976,62.241028,8.083817,-156.571121,,,
729862187.609559,-1.140431,4.565845,44.56584,-0.056702,-0.020584,0.989166,0.01332,0.060014,-0.017976,62.241028,8.083817,-156.571121,,,
729862187.61288,-1.137273,4.578874,44.560414,-0.070801,-0.01976,0.975586,0.010204,-0.005179,-0.02183,62.241028,8.083817,-156.571121,,,
729862187.616192,-1.135723,4.572109,44.554063,-0.070801,-0.01976,0.975586,0.010204,-0.005179,-0.02183,62.241028,8.083817,-156.571121,,,
729862187.619563,-1.135723,4.572109,44.554063,-0.070801,-0.01976,0.975586,0.003005,-0.057373,-0.024589,62.287491,7.785995,-156.490952,,,
729862187.622866,-1.134207,4.565807,44.547551,-0.072784,-0.019119,0.969055,0.003005,-0.057373,-0.024589,62.287491,7.785995,-156.490952,,,
729862187.626189,-1.13479,4.546688,44.541185,-0.072784,-0.019119,0.969055,0.003005,-0.057373,-0.024589,62.287491,7.785995,-156.490952,,,
729862187.629651,-1.13479,4.546688,44.541185,-0.072784,-0.019119,0.969055,0.003005,-0.057373,-0.024589,62.287491,7.785995,-156.490952,,,
729862187.632916,-1.135232,4.526525,44.535273,-0.069748,-0.018738,0.973755,-0.007952,-0.072048,-0.02247,62.287491,7.785995,-156.490952,,,
729862187.636178,-1.138185,4.506239,44.529503,-0.069748,-0.018738,0.973755,-0.007952,-0.072048,-0.02247,62.287491,7.785995,-156.490952,,,
729862187.639538,-1.138185,4.506239,44.529503,-0.069748,-0.018738,0.973755,-0.007952,-0.072048,-0.02247,62.287491,7.785995,-156.490952,,,
729862187.642851,-1.139476,4.482978,44.523539,-0.064972,-0.019043,0.99231,-0.00611,-0.043909,-0.022677,62.287491,7.785995,-156.490952,,,
729862187.64619,-1.140691,4.472616,44.516935,-0.064972,-0.019043,0.99231,-0.00611,-0.043909,-0.022677,62.287491,7.785995,-156.490952,,,
729862187.649535,-1.140691,4.472616,44.516935,-0.064972,-0.019043,0.99231,-0.00611,-0.043909,-0.022677,62.287491,7.785995,-156.490952,,,
729862187.652868,-1.137972,4.456552,44.509079,-0.058029,-0.023407,1.015381,0.00904,0.007011,-0.028399,62.287491,7.785995,-156.490952,,,
729862187.656198,-1.135214,4.460729,44.500291,-0.058029,-0.023407,1.015381,0.00904,0.007011,-0.028399,62.287491,7.785995,-156.490952,,,
729862187.659551,-1.135214,4.460729,44.500291,-0.058029,-0.023407,1.015381,0.00904,0.007011,-0.028399,62.287491,7.785995,-156.490952,,,
729862187.662875,-1.128396,4.454888,44.490857,-0.063126,-0.028366,1.027344,0.031664,0.05225,-0.028867,62.429764,7.784088,-156.269806,,,
729862187.666188,-1.118858,4.471624,44.482388,-0.063126,-0.028366,1.027344,0.031664,0.05225,-0.028867,62.429764,7.784088,-156.269806,,,
729862187.66963,-1.118858,4.471624,44.482388,-0.063126,-0.028366,1.027344,0.031664,0.05225,-0.028867,62.429764,7.784088,-156.269806,,,
729862187.672887,-1.106994,4.47787,44.474687,-0.077011,-0.028351,1.02388,0.049123,0.080336,-0.020174,62.429764,7.784088,-156.269806,,,
729862187.676202,-1.093099,4.499266,44.46906,-0.077011,-0.028351,1.02388,0.049123,0.080336,-0.020174,62.429764,7.784088,-156.269806,,,
729862187.679591,-1.093099,4.499266,44.46906,-0.077011,-0.028351,1.02388,0.049123,0.080336,-0.020174,62.429764,7.784088,-156.269806,,,
729862187.682936,-1.078694,4.508028,44.463983,-0.08638,-0.022079,1.001694,0.054158,0.064403,-0.014451,62.429764,7.784088,-156.269806,,,
729862187.686191,-1.064258,4.522288,44.459347,-0.08638,-0.022079,1.001694,0.054158,0.064403,-0.014451,62.429764,7.784088,-156.269806,,,
729862187.689576,-1.064258,4.522288,44.459347,-0.08638,-0.022079,1.001694,0.054158,0.064403,-0.014451,62.429764,7.784088,-156.269806,,,
729862187.692852,-1.052139,4.525194,44.455223,-0.093948,-0.016556,0.97525,0.04054,0.016223,-0.011358,62.429764,7.784088,-156.269806,,,
729862187.696191,-1.0429,4.526021,44.451185,-0.093948,-0.016556,0.97525,0.04054,0.016223,-0.011358,62.429764,7.784088,-156.269806,,,
729862187.699548,-1.0429,4.526021,44.451185,-0.093948,-0.016556,0.97525,0.04054,0.016223,-0.011358,62.429764,7.784088,-156.269806,,,
729862187.70286,-1.038821,4.519398,44.447242,-0.093384,-0.010345,0.955688,0.007176,-0.025951,-0.013138,62.496765,7.6017,-156.22789,,,
729862187.706196,-1.040171,4.508551,44.443869,-0.093384,-0.010345,0.955688,0.007176,-0.025951,-0.013138,62.496765,7.6017,-156.22789,,,
729862187.709592,-1.040171,4.508551,44.443869,-0.093384,-0.010345,0.955688,0.007176,-0.025951,-0.013138,62.496765,7.6017,-156.22789,,,
729862187.71285,-1.047516,4.492274,44.44024,-0.08374,-0.003448,0.945389,-0.032586,-0.048596,-0.0178,62.496765,7.6017,-156.22789,,,
729862187.716197,-1.059378,4.477202,44.436197,-0.08374,-0.003448,0.945389,-0.032586,-0.048596,-0.0178,62.496765,7.6017,-156.22789,,,
729862187.719524,-1.059378,4.477202,44.436197,-0.08374,-0.003448,0.945389,-0.032586,-0.048596,-0.0178,62.496765,7.6017,-156.22789,,,
729862187.722904,-1.074539,4.45921,44.431842,-0.07663,-0.007629,0.963181,-0.05472,-0.043083,-0.021155,62.496765,7.6017,-156.22789,,,
729862187.726195,-1.09059,4.447479,44.426865,-0.07663,-0.007629,0.963181,-0.05472,-0.043083,-0.021155,62.496765,7.6017,-156.22789,,,
729862187.729546,-1.09059,4.447479,44.426865,-0.07663,-0.007629,0.963181,-0.05472,-0.043083,-0.021155,62.496765,7.6017,-156.22789,,,
729862187.73287,-1.106982,4.433542,44.421315,-0.073837,-0.017761,0.99472,-0.052647,-0.015317,-0.024154,62.496765,7.6017,-156.22789,,,
729862187.736198,-1.122012,4.43119,44.415909,-0.073837,-0.017761,0.99472,-0.052647,-0.015317,-0.024154,62.496765,7.6017,-156.22789,,,
729862187.739539,-1.122012,4.43119,44.415909,-0.073837,-0.017761,0.99472,-0.052647,-0.015317,-0.024154,62.496765,7.6017,-156.22789,,,
729862187.742859,-1.13626,4.428688,44.41074,-0.07724,-0.025574,1.010559,-0.038506,0.02465,-0.020575,62.386658,7.641068,-156.236267,,,
729862187.746206,-1.146896,4.438499,44.406345,-0.07724,-0.025574,1.010559,-0.038506,0.02465,-0.020575,62.386658,7.641068,-156.236267,,,
729862187.749598,-1.146896,4.438499,44.406345,-0.07724,-0.025574,1.010559,-0.038506,0.02465,-0.020575,62.386658,7.641068,-156.236267,,,
729862187.752862,-1.15644,4.45295,44.402242,-0.082031,-0.03064,1.023972,-0.021647,0.069531,-0.017043,62.386658,7.641068,-156.236267,,,
729862187.756235,-1.16172,4.473737,44.399114,-0.082031,-0.03064,1.023972,-0.021647,0.069531,-0.017043,62.386658,7.641068,-156.236267,,,
729862187.75963,-1.16172,4.473737,44.399114,-0.082031,-0.03064,1.023972,-0.021647,0.069531,-0.017043,62.386658,7.641068,-156.236267,,,
729862187.762915,-1.165032,4.497942,44.397037,-0.090485,-0.034088,1.020432,-0.005109,0.082744,-0.008615,62.386658,7.641068,-156.236267,,,
729862187.766189,-1.166631,4.519152,44.395819,-0.090485,-0.034088,1.020432,-0.005109,0.082744,-0.008615,62.386658,7.641068,-156.236267,,,
729862187.769537,-1.166631,4.519152,44.395819,-0.090485,-0.034088,1.020432,-0.005109,0.082744,-0.008615,62.386658,7.641068,-156.236267,,,
729862187.772863,-1.167406,4.539292,44.395937,-0.097961,-0.029572,0.995392,-0.002277,0.048651,0.000383,62.386658,7.641068,-156.236267,,,
729862187.776192,-1.16832,4.549225,44.396783,-0.097961,-0.029572,0.995392,-0.002277,0.048651,0.000383,62.386658,7.641068,-156.236267,,,
729862187.779538,-1.16832,4.549225,44.396783,-0.097961,-0.029572,0.995392,-0.002277,0.048651,0.000383,62.386658,7.641068,-156.236267,,,
729862187.782907,-1.168386,4.557351,44.397709,-0.099731,-0.026657,0.97847,-0.004146,0.000298,0.000114,62.481033,7.71431,-156.240753,,,
729862187.786193,-1.169797,4.553145,44.398181,-0.099731,-0.026657,0.97847,-0.004146,0.000298,0.000114,62.481033,7.71431,-156.240753,,,
729862187.789594,-1.169797,4.553145,44.398181,-0.099731,-0.026657,0.97847,-0.004146,0.000298,0.000114,62.481033,7.71431,-156.240753,,,
729862187.792869,-1.169367,4.545825,44.398753,-0.093735,-0.024597,0.974167,-0.008753,-0.0446,-5.8e-05,62.481033,7.71431,-156.240753,,,
729862187.796191,-1.172126,4.530041,44.399056,-0.093735,-0.024597,0.974167,-0.008753,-0.0446,-5.8e-05,62.481033,7.71431,-156.240753,,,
729862187.799523,-1.172126,4.530041,44.399056,-0.093735,-0.024597,0.974167,-0.008753,-0.0446,-5.8e-05,62.481033,7.71431,-156.240753,,,
729862187.802946,-1.172578,4.512049,44.400165,-0.085953,-0.024658,0.981735,-0.008238,-0.065762,0.005555,62.481033,7.71431,-156.240753,,,
729862187.806191,-1.174739,4.49238,44.402624,-0.085953,-0.024658,0.981735,-0.008238,-0.065762,0.005555,62.481033,7.71431,-156.240753,,,
729862187.809531,-1.174739,4.49238,44.402624,-0.085953,-0.024658,0.981735,-0.008238,-0.065762,0.005555,62.481033,7.71431,-156.240753,,,
729862187.812889,-1.176101,4.473232,44.405857,-0.074982,-0.026703,0.996521,-0.008716,-0.05459,0.01107,62.481033,7.71431,-156.240753,,,
729862187.816196,-1.178806,4.457916,44.409585,-0.074982,-0.026703,0.996521,-0.008716,-0.05459,0.01107,62.481033,7.71431,-156.240753,,,
729862187.819542,-1.178806,4.457916,44.409585,-0.074982,-0.026703,0.996521,-0.008716,-0.05459,0.01107,62.481033,7.71431,-156.240753,,,
729862187.822889,-1.183436,4.444868,44.412516,-0.062668,-0.023834,0.998199,-0.016999,-0.033831,0.004941,62.481033,7.71431,-156.240753,,,
729862187.826195,-1.18909,4.435928,44.414034,-0.062668,-0.023834,0.998199,-0.016999,-0.033831,0.004941,62.290512,7.757538,-156.111511,,,
729862187.8296,-1.18909,4.435928,44.414034,-0.062668,-0.023834,0.998199,-0.016999,-0.033831,0.004941,62.290512,7.757538,-156.111511,,,
729862187.832864,-1.198329,4.430928,44.413498,-0.049667,-0.020401,0.993011,-0.029456,-0.010389,-0.010465,62.290512,7.757538,-156.111511,,,
729862187.836234,-1.208237,4.429394,44.409755,-0.049667,-0.020401,0.993011,-0.029456,-0.010389,-0.010465,62.290512,7.757538,-156.111511,,,
729862187.839549,-1.208237,4.429394,44.409755,-0.049667,-0.020401,0.993011,-0.029456,-0.010389,-0.010465,62.290512,7.757538,-156.111511,,,
729862187.84295,-1.22366,4.437728,44.403213,-0.045837,-0.019333,0.992462,-0.04683,0.031979,-0.03192,62.290512,7.757538,-156.111511,,,
729862187.846192,-1.238871,4.449435,44.394808,-0.045837,-0.019333,0.992462,-0.04683,0.031979,-0.03192,62.290512,7.757538,-156.111511,,,
729862187.849556,-1.238871,4.449435,44.394808,-0.045837,-0.019333,0.992462,-0.04683,0.031979,-0.03192,62.290512,7.757538,-156.111511,,,
729862187.852887,-1.257836,4.474943,44.385914,-0.054489,-0.021194,0.996582,-0.059065,0.075055,-0.037424,62.290512,7.757538,-156.111511,,,
729862187.856197,-1.276169,4.497622,44.377931,-0.054489,-0.021194,0.996582,-0.059065,0.075055,-0.037424,62.290512,7.757538,-156.111511,,,
729862187.859619,-1.276169,4.497622,44.377931,-0.054489,-0.021194,0.996582,-0.059065,0.075055,-0.037424,62.290512,7.757538,-156.111511,,,
729862187.86286,-1.294949,4.532533,44.371996,-0.077454,-0.02597,0.995499,-0.05489,0.089535,-0.024441,62.290512,7.757538,-156.111511,,,
729862187.866204,-1.3114,4.55692,44.367302,-0.077454,-0.02597,0.995499,-0.05489,0.089535,-0.024441,62.627777,7.832108,-156.45546,,,
729862187.869626,-1.3114,4.55692,44.367302,-0.077454,-0.02597,0.995499,-0.05489,0.089535,-0.024441,62.627777,7.832108,-156.45546,,,
729862187.872873,-1.327348,4.587411,44.36433,-0.090652,-0.027573,0.997421,-0.047265,0.07575,-0.013095,62.627777,7.832108,-156.45546,,,
729862187.8762,-1.340757,4.606661,44.362079,-0.090652,-0.027573,0.997421,-0.047265,0.07575,-0.013095,62.627777,7.832108,-156.45546,,,
729862187.87954,-1.340757,4.606661,44.362079,-0.090652,-0.027573,0.997421,-0.047265,0.07575,-0.013095,62.627777,7.832108,-156.45546,,,
729862187.882923,-1.353492,4.625954,44.360003,-0.096573,-0.027863,0.994354,-0.039104,0.046225,-0.011926,62.627777,7.832108,-156.45546,,,
729862187.886192,-1.363621,4.634799,44.358219,-0.096573,-0.027863,0.994354,-0.039104,0.046225,-0.011926,62.627777,7.832108,-156.45546,,,
729862187.889532,-1.363621,4.634799,44.358219,-0.096573,-0.027863,0.994354,-0.039104,0.046225,-0.011926,62.627777,7.832108,-156.45546,,,
729862187.892878,-1.372373,4.635068,44.356912,-0.09906,-0.029022,0.989288,-0.024886,-0.00321,-0.007172,62.627777,7.832108,-156.45546,,,
729862187.89619,-1.378769,4.63076,44.356018,-0.09906,-0.029022,0.989288,-0.024886,-0.00321,-0.007172,62.627777,7.832108,-156.45546,,,
729862187.899533,-1.378769,4.63076,44.356018,-0.09906,-0.029022,0.989288,-0.024886,-0.00321,-0.007172,62.627777,7.832108,-156.45546,,,
729862187.902864,-1.384246,4.616577,44.355421,-0.097168,-0.027191,0.993851,-0.01716,-0.029745,-0.003412,62.627777,7.832108,-156.45546,,,
729862187.906196,-1.388563,4.607024,44.355055,-0.097168,-0.027191,0.993851,-0.01716,-0.029745,-0.003412,62.566544,8.02832,-156.737732,,,
729862187.909523,-1.388563,4.607024,44.355055,-0.097168,-0.027191,0.993851,-0.01716,-0.029745,-0.003412,62.566544,8.02832,-156.737732,,,
729862187.91288,-1.391783,4.58605,44.354763,-0.091431,-0.023727,1.002884,-0.015884,-0.026376,-0.00071,62.566544,8.02832,-156.737732,,,
729862187.916194,-1.396163,4.578584,44.355625,-0.091431,-0.023727,1.002884,-0.015884,-0.026376,-0.00071,62.566544,8.02832,-156.737732,,,
729862187.919591,-1.396163,4.578584,44.355625,-0.091431,-0.023727,1.002884,-0.015884,-0.026376,-0.00071,62.566544,8.02832,-156.737732,,,
729862187.92289,-1.399829,4.558596,44.357544,-0.087555,-0.022232,1.004837,-0.018374,-0.011976,0.008928,62.566544,8.02832,-156.737732,,,
729862187.926202,-1.405075,4.555345,44.361036,-0.087555,-0.022232,1.004837,-0.018374,-0.011976,0.008928,62.566544,8.02832,-156.737732,,,
729862187.929542,-1.405075,4.555345,44.361036,-0.087555,-0.022232,1.004837,-0.018374,-0.011976,0.008928,62.566544,8.02832,-156.737732,,,
729862187.932974,-1.409157,4.541719,44.364447,-0.079758,-0.020721,0.999847,-0.01771,0.001852,0.010479,62.566544,8.02832,-156.737732,,,
729862187.936195,-1.414552,4.543017,44.368071,-0.079758,-0.020721,0.999847,-0.01771,0.001852,0.010479,62.566544,8.02832,-156.737732,,,
729862187.939542,-1.414552,4.543017,44.368071,-0.079758,-0.020721,0.999847,-0.01771,0.001852,0.010479,62.566544,8.02832,-156.737732,,,
729862187.942882,-1.421448,4.54468,44.370887,-0.071869,-0.020523,0.997726,-0.027684,0.02613,0.004603,62.566544,8.02832,-156.737732,,,
729862187.94619,-1.430858,4.552565,44.372897,-0.071869,-0.020523,0.997726,-0.027684,0.02613,0.004603,62.566544,8.02832,-156.737732,,,
729862187.949543,-1.430858,4.552565,44.372897,-0.071869,-0.020523,0.997726,-0.027684,0.02613,0.004603,62.568024,8.276337,-156.741852,,,
729862187.952871,-1.443218,4.566484,44.374362,-0.07019,-0.019852,0.992188,-0.043787,0.039213,-0.001195,62.568024,8.276337,-156.741852,,,
729862187.956199,-1.457231,4.577026,44.375347,-0.07019,-0.019852,0.992188,-0.043787,0.039213,-0.001195,62.568024,8.276337,-156.741852,,,
729862187.95953,-1.457231,4.577026,44.375347,-0.07019,-0.019852,0.992188,-0.043787,0.039213,-0.001195,62.568024,8.276337,-156.741852,,,
729862187.962876,-1.472905,4.59457,44.376425,-0.072739,-0.020523,0.987106,-0.052777,0.040923,-0.002535,62.568024,8.276337,-156.741852,,,
729862187.96619,-1.487115,4.60538,44.376841,-0.072739,-0.020523,0.987106,-0.052777,0.040923,-0.002535,62.568024,8.276337,-156.741852,,,
729862187.96961,-1.487115,4.60538,44.376841,-0.072739,-0.020523,0.987106,-0.052777,0.040923,-0.002535,62.568024,8.276337,-156.741852,,,
729862187.972874,-1.499583,4.623576,44.376234,-0.073349,-0.02446,0.999985,-0.035231,0.03513,-0.009825,62.568024,8.276337,-156.741852,,,
729862187.976197,-1.508751,4.63213,44.373896,-0.073349,-0.02446,0.999985,-0.035231,0.03513,-0.009825,62.568024,8.276337,-156.741852,,,
729862187.979539,-1.508751,4.63213,44.373896,-0.073349,-0.02446,0.999985,-0.035231,0.03513,-0.009825,62.568024,8.276337,-156.741852,,,
729862187.98293,-1.515816,4.647453,44.370454,-0.075134,-0.029373,1.01503,-0.016814,0.028003,-0.017598,62.568024,8.276337,-156.741852,,,
729862187.986195,-1.51891,4.653965,44.365695,-0.075134,-0.029373,1.01503,-0.016814,0.028003,-0.017598,62.568024,8.276337,-156.741852,,,
729862187.989529,-1.51891,4.653965,44.365695,-0.075134,-0.029373,1.01503,-0.016814,0.028003,-0.017598,62.66217,8.451141,-156.742279,,,
729862187.992878,-1.5175,4.664087,44.360999,-0.079773,-0.033615,1.015671,0.011614,0.02076,-0.015728,62.66217,8.451141,-156.742279,,,
729862187.996205,-1.513011,4.667765,44.357019,-0.079773,-0.033615,1.015671,0.011614,0.02076,-0.015728,62.66217,8.451141,-156.742279,,,
729862187.999542,-1.513011,4.667765,44.357019,-0.079773,-0.033615,1.015671,0.011614,0.02076,-0.015728,62.66217,8.451141,-156.742279,,,
729862188.00288,-1.505021,4.672349,44.353308,-0.082413,-0.032822,1.017502,0.02899,0.00813,-0.012908,62.66217,8.451141,-156.742279,,,
729862188.006195,-1.496824,4.673235,44.34976,-0.082413,-0.032822,1.017502,0.02899,0.00813,-0.012908,62.66217,8.451141,-156.742279,,,
729862188.009615,-1.496824,4.673235,44.34976,-0.082413,-0.032822,1.017502,0.02899,0.00813,-0.012908,62.66217,8.451141,-156.742279,,,
729862188.012871,-1.487631,4.673985,44.346167,-0.081284,-0.026733,1.009903,0.027076,0.006439,-0.013385,62.66217,8.451141,-156.742279,,,
729862188.016198,-1.481435,4.675419,44.342109,-0.081284,-0.026733,1.009903,0.027076,0.006439,-0.013385,62.66217,8.451141,-156.742279,,,
729862188.019417,-1.481435,4.675419,44.342109,-0.081284,-0.026733,1.009903,0.027076,0.006439,-0.013385,62.66217,8.451141,-156.742279,,,
729862188.022947,-1.476141,4.674234,44.338271,-0.081024,-0.022171,1.001373,0.012113,0.013196,-0.012415,62.66217,8.451141,-156.742279,,,
729862188.026189,-1.474017,4.677524,44.335923,-0.081024,-0.022171,1.001373,0.012113,0.013196,-0.012415,62.66217,8.451141,-156.742279,,,
729862188.02953,-1.474017,4.677524,44.335923,-0.081024,-0.022171,1.001373,0.012113,0.013196,-0.012415,62.83989,8.315002,-156.668304,,,
729862188.032775,-1.473131,4.677003,44.335448,-0.087494,-0.021225,0.992203,-0.007637,0.019683,-8.1e-05,62.83989,8.315002,-156.668304,,,
729862188.036208,-1.477326,4.6817,44.336342,-0.087494,-0.021225,0.992203,-0.007637,0.019683,-8.1e-05,62.83989,8.315002,-156.668304,,,
729862188.039542,-1.477326,4.6817,44.336342,-0.087494,-0.021225,0.992203,-0.007637,0.019683,-8.1e-05,62.83989,8.315002,-156.668304,,,
729862188.042871,-1.482551,4.682759,44.337779,-0.086655,-0.015335,0.985367,-0.023903,0.018361,0.002959,62.83989,8.315002,-156.668304,,,
729862188.046193,-1.489929,4.686433,44.338802,-0.086655,-0.015335,0.985367,-0.023903,0.018361,0.002959,62.83989,8.315002,-156.668304,,,
729862188.049593,-1.489929,4.686433,44.338802,-0.086655,-0.015335,0.985367,-0.023903,0.018361,0.002959,62.83989,8.315002,-156.668304,,,
729862188.052873,-1.496091,4.686021,44.33866,-0.084702,-0.017838,0.995743,-0.019966,0.012953,-0.00422,62.83989,8.315002,-156.668304,,,
729862188.056197,-1.501339,4.689008,44.337488,-0.084702,-0.017838,0.995743,-0.019966,0.012953,-0.00422,62.83989,8.315002,-156.668304,,,
729862188.059535,-1.501339,4.689008,44.337488,-0.084702,-0.017838,0.995743,-0.019966,0.012953,-0.00422,62.83989,8.315002,-156.668304,,,
729862188.062928,-1.504517,4.687857,44.335439,-0.090942,-0.02533,1.011642,-0.003137,0.011024,-0.008265,62.83989,8.315002,-156.668304,,,
729862188.066198,-1.504147,4.68967,44.333931,-0.090942,-0.02533,1.011642,-0.003137,0.011024,-0.008265,62.83989,8.315002,-156.668304,,,
729862188.069524,-1.504147,4.68967,44.333931,-0.090942,-0.02533,1.011642,-0.003137,0.011024,-0.008265,62.447403,8.381592,-156.67543,,,
729862188.072881,-1.501805,4.688571,44.334321,-0.100113,-0.026306,1.007446,0.019519,0.004214,0.007212,62.447403,8.381592,-156.67543,,,
729862188.076188,-1.495111,4.688416,44.337632,-0.100113,-0.026306,1.007446,0.019519,0.004214,0.007212,62.447403,8.381592,-156.67543,,,
729862188.079535,-1.495111,4.688416,44.337632,-0.100113,-0.026306,1.007446,0.019519,0.004214,0.007212,62.447403,8.381592,-156.67543,,,
729862188.082874,-1.48778,4.686366,44.342783,-0.101288,-0.02507,1.002136,0.035196,-0.003036,0.021515,62.447403,8.381592,-156.67543,,,
729862188.086203,-1.475974,4.685111,44.348674,-0.101288,-0.02507,1.002136,0.035196,-0.003036,0.021515,62.447403,8.381592,-156.67543,,,
729862188.089586,-1.475974,4.685111,44.348674,-0.101288,-0.02507,1.002136,0.035196,-0.003036,0.021515,62.447403,8.381592,-156.67543,,,
729862188.092869,-1.461204,4.684393,44.353484,-0.086197,-0.024811,1.015869,0.059871,0.002135,0.016069,62.447403,8.381592,-156.67543,,,
729862188.096202,-1.442281,4.684158,44.355635,-0.086197,-0.024811,1.015869,0.059871,0.002135,0.016069,62.447403,8.381592,-156.67543,,,
729862188.099544,-1.442281,4.684158,44.355635,-0.086197,-0.024811,1.015869,0.059871,0.002135,0.016069,62.447403,8.381592,-156.67543,,,
729862188.102908,-1.419992,4.684047,44.355522,-0.077118,-0.031021,1.026291,0.079957,0.008873,0.002041,62.447403,8.381592,-156.67543,,,
729862188.106185,-1.396683,4.685967,44.354283,-0.077118,-0.031021,1.026291,0.079957,0.008873,0.002041,62.447403,8.381592,-156.67543,,,
729862188.109534,-1.396683,4.685967,44.354283,-0.077118,-0.031021,1.026291,0.079957,0.008873,0.002041,62.447403,8.381592,-156.67543,,,
729862188.112874,-1.373025,4.6896,44.353312,-0.080383,-0.025558,1.010666,0.078528,0.007494,0.003445,62.608002,8.332367,-156.48764,,,
729862188.116191,-1.351986,4.690775,44.353705,-0.080383,-0.025558,1.010666,0.078528,0.007494,0.003445,62.608002,8.332367,-156.48764,,,
729862188.119539,-1.351986,4.690775,44.353705,-0.080383,-0.025558,1.010666,0.078528,0.007494,0.003445,62.608002,8.332367,-156.48764,,,
729862188.122874,-1.332681,4.693751,44.356279,-0.084717,-0.017166,0.982971,0.055243,0.00162,0.01638,62.608002,8.332367,-156.48764,,,
