Time (sec),Pitch (deg),Roll (deg),Yaw(deg),X-Acceleration (g),Y-Acceleration (g),Z-Acceleration (g),Pitch Rate (deg/sec),Roll Rate (deg/sec),Yaw Rate (deg/sec),Magnetic Field in X direction (uT),Magnetic Field in Y direction (uT),Magnetic Field in Z Direction (uT),Latitude (deg),Longitude (deg),Altitude (m)
729861904.614815,1.363896,3.261838,123.255831,-0.06041,0.023483,0.993744,-0.08607,-0.036385,0.01951,67.596558,31.855164,-146.268234,,,
729861904.618046,1.348606,3.24395,123.261246,-0.06041,0.023483,0.993744,-0.061252,-0.060593,0.016701,67.596558,31.855164,-146.268234,,,
729861904.621293,1.348606,3.24395,123.261246,-0.06041,0.023483,0.993744,-0.061252,-0.060593,0.016701,67.648514,32.142532,-146.497452,,,
729861904.624844,1.338088,3.226203,123.265769,-0.050659,0.018539,1.018555,-0.061252,-0.060593,0.016701,67.648514,32.142532,-146.497452,,,
729861904.628162,1.331912,3.212657,123.26907,-0.050659,0.018539,1.018555,-0.023413,-0.048543,0.00733,67.648514,32.142532,-146.497452,,,
729861904.631517,1.331912,3.212657,123.26907,-0.050659,0.018539,1.018555,-0.023413,-0.048543,0.00733,67.648514,32.142532,-146.497452,,,
729861904.634668,1.330547,3.201706,123.271164,-0.046005,0.014847,1.031906,-0.023413,-0.048543,0.00733,67.648514,32.142532,-146.497452,,,
729861904.637973,1.332852,3.200688,123.272095,-0.046005,0.014847,1.031906,0.003124,-0.007823,0.001883,67.648514,32.142532,-146.497452,,,
729861904.641566,1.332852,3.200688,123.272095,-0.046005,0.014847,1.031906,0.003124,-0.007823,0.001883,67.648514,32.142532,-146.497452,,,
729861904.644801,1.338303,3.203211,123.272879,-0.040665,0.013535,1.033234,0.003124,-0.007823,0.001883,67.648514,32.142532,-146.497452,,,
729861904.648144,1.343846,3.215069,123.273963,-0.040665,0.013535,1.033234,0.021453,0.040837,0.004268,67.648514,32.142532,-146.497452,,,
729861904.651328,1.343846,3.215069,123.273963,-0.040665,0.013535,1.033234,0.021453,0.040837,0.004268,67.648514,32.142532,-146.497452,,,
729861904.654702,1.350244,3.228997,123.275867,-0.042877,0.014969,1.025742,0.021453,0.040837,0.004268,67.648514,32.142532,-146.497452,,,
729861904.658153,1.355691,3.248394,123.278215,-0.042877,0.014969,1.025742,0.02163,0.069327,0.006083,67.648514,32.142532,-146.497452,,,
729861904.661506,1.355691,3.248394,123.278215,-0.042877,0.014969,1.025742,0.02163,0.069327,0.006083,67.865845,32.046982,-146.652618,,,
729861904.664795,1.361851,3.270883,123.280576,-0.05191,0.016708,1.006302,0.02163,0.069327,0.006083,67.865845,32.046982,-146.652618,,,
729861904.668135,1.366229,3.29202,123.282228,-0.05191,0.016708,1.006302,0.01394,0.075947,0.004823,67.865845,32.046982,-146.652618,,,
729861904.671293,1.366229,3.29202,123.282228,-0.05191,0.016708,1.006302,0.01394,0.075947,0.004823,67.865845,32.046982,-146.652618,,,
729861904.674842,1.369819,3.315588,123.28282,-0.055496,0.021973,0.992172,0.01394,0.075947,0.004823,67.865845,32.046982,-146.652618,,,
729861904.678146,1.371474,3.33389,123.28273,-0.055496,0.021973,0.992172,0.007587,0.071958,-0.003341,67.865845,32.046982,-146.652618,,,
729861904.681585,1.371474,3.33389,123.28273,-0.055496,0.021973,0.992172,0.007587,0.071958,-0.003341,67.865845,32.046982,-146.652618,,,
729861904.684803,1.371228,3.350534,123.282013,-0.056778,0.026611,0.985672,0.007587,0.071958,-0.003341,67.865845,32.046982,-146.652618,,,
729861904.687966,1.368126,3.359655,123.281336,-0.056778,0.026611,0.985672,-0.006155,0.03939,-0.003786,67.865845,32.046982,-146.652618,,,
729861904.691511,1.368126,3.359655,123.281336,-0.056778,0.026611,0.985672,-0.006155,0.03939,-0.003786,67.865845,32.046982,-146.652618,,,
729861904.694876,1.362241,3.362704,123.281407,-0.064804,0.0271,0.977539,-0.006155,0.03939,-0.003786,67.865845,32.046982,-146.652618,,,
729861904.698129,1.354304,3.361852,123.282554,-0.064804,0.0271,0.977539,-0.024616,0.00474,-0.000717,67.865845,32.046982,-146.652618,,,
729861904.701467,1.354304,3.361852,123.282554,-0.064804,0.0271,0.977539,-0.024616,0.00474,-0.000717,67.880814,31.976669,-146.650101,,,
729861904.704591,1.343986,3.353896,123.284807,-0.072464,0.025421,0.973846,-0.024616,0.00474,-0.000717,67.880814,31.976669,-146.650101,,,
729861904.708225,1.333612,3.347446,123.287864,-0.072464,0.025421,0.973846,-0.035504,-0.019619,0.007964,67.880814,31.976669,-146.650101,,,
729861904.711567,1.333612,3.347446,123.287864,-0.072464,0.025421,0.973846,-0.035504,-0.019619,0.007964,67.880814,31.976669,-146.650101,,,
729861904.714823,1.320966,3.336209,123.291542,-0.071487,0.022812,0.982117,-0.035504,-0.019619,0.007964,67.880814,31.976669,-146.650101,,,
729861904.71814,1.310427,3.330594,123.29621,-0.071487,0.022812,0.982117,-0.037834,-0.018773,0.013199,67.880814,31.976669,-146.650101,,,
729861904.721363,1.310427,3.330594,123.29621,-0.071487,0.022812,0.982117,-0.037834,-0.018773,0.013199,67.880814,31.976669,-146.650101,,,
729861904.724857,1.300262,3.321199,123.301597,-0.065002,0.020187,0.997665,-0.037834,-0.018773,0.013199,67.880814,31.976669,-146.650101,,,
729861904.72818,1.293932,3.319542,123.306943,-0.065002,0.020187,0.997665,-0.027875,-0.003427,0.014409,67.880814,31.976669,-146.650101,,,
729861904.731551,1.293932,3.319542,123.306943,-0.065002,0.020187,0.997665,-0.027875,-0.003427,0.014409,67.880814,31.976669,-146.650101,,,
729861904.734801,1.289931,3.317183,123.312882,-0.061768,0.016113,1.013626,-0.027875,-0.003427,0.014409,67.880814,31.976669,-146.650101,,,
729861904.737988,1.291165,3.320939,123.319096,-0.061768,0.016113,1.013626,-0.001275,0.018307,0.019768,67.880814,31.976669,-146.650101,,,
729861904.741555,1.291165,3.320939,123.319096,-0.061768,0.016113,1.013626,-0.001275,0.018307,0.019768,67.880814,31.976669,-146.650101,,,
729861904.744872,1.295982,3.325957,123.325335,-0.058487,0.013748,1.025681,-0.001275,0.018307,0.019768,67.849472,32.047165,-146.502151,,,
729861904.748131,1.305265,3.33406,123.331236,-0.058487,0.013748,1.025681,0.02841,0.03136,0.022237,67.849472,32.047165,-146.502151,,,
729861904.751493,1.305265,3.33406,123.331236,-0.058487,0.013748,1.025681,0.02841,0.03136,0.022237,67.849472,32.047165,-146.502151,,,
729861904.754659,1.318016,3.34341,123.336488,-0.054092,0.013885,1.02684,0.02841,0.03136,0.022237,67.849472,32.047165,-146.502151,,,
729861904.758158,1.33193,3.355158,123.340837,-0.054092,0.013885,1.02684,0.050016,0.043127,0.017913,67.849472,32.047165,-146.502151,,,
729861904.761491,1.33193,3.355158,123.340837,-0.054092,0.013885,1.02684,0.050016,0.043127,0.017913,67.849472,32.047165,-146.502151,,,
729861904.764811,1.347092,3.367505,123.344322,-0.049942,0.018005,1.020508,0.050016,0.043127,0.017913,67.849472,32.047165,-146.502151,,,
729861904.768132,1.361068,3.379518,123.347122,-0.049942,0.018005,1.020508,0.04881,0.047016,0.014039,67.849472,32.047165,-146.502151,,,
729861904.771291,1.361068,3.379518,123.347122,-0.049942,0.018005,1.020508,0.04881,0.047016,0.014039,67.849472,32.047165,-146.502151,,,
729861904.774842,1.374572,3.394781,123.349304,-0.052368,0.023453,1.004395,0.04881,0.047016,0.014039,67.849472,32.047165,-146.502151,,,
729861904.778138,1.384837,3.403765,123.350866,-0.052368,0.023453,1.004395,0.038224,0.037149,0.005432,67.849472,32.047165,-146.502151,,,
729861904.781497,1.384837,3.403765,123.350866,-0.052368,0.023453,1.004395,0.038224,0.037149,0.005432,67.849472,32.047165,-146.502151,,,
729861904.784805,1.392041,3.417102,123.351242,-0.053055,0.029205,0.988052,0.038224,0.037149,0.005432,67.922165,31.96048,-146.926315,,,
729861904.788069,1.395381,3.421852,123.351015,-0.053055,0.029205,0.988052,0.015278,0.022652,-0.000892,67.922165,31.96048,-146.926315,,,
729861904.791529,1.395381,3.421852,123.351015,-0.053055,0.029205,0.988052,0.015278,0.022652,-0.000892,67.922165,31.96048,-146.926315,,,
729861904.79491,1.393722,3.428333,123.349651,-0.054276,0.034012,0.976456,0.015278,0.022652,-0.000892,67.922165,31.96048,-146.926315,,,
729861904.798137,1.388445,3.429093,123.346865,-0.054276,0.034012,0.976456,-0.015728,0.007452,-0.011677,67.922165,31.96048,-146.926315,,,
729861904.801475,1.388445,3.429093,123.346865,-0.054276,0.034012,0.976456,-0.015728,0.007452,-0.011677,67.922165,31.96048,-146.926315,,,
729861904.804674,1.379424,3.429729,123.342416,-0.054901,0.033615,0.972672,-0.015728,0.007452,-0.011677,67.922165,31.96048,-146.926315,,,
729861904.808166,1.369377,3.427817,123.336814,-0.054901,0.033615,0.972672,-0.029104,-0.003631,-0.019881,67.922165,31.96048,-146.926315,,,
729861904.811491,1.369377,3.427817,123.336814,-0.054901,0.033615,0.972672,-0.029104,-0.003631,-0.019881,67.922165,31.96048,-146.926315,,,
729861904.814824,1.356894,3.42418,123.33143,-0.054947,0.03244,0.981827,-0.029104,-0.003631,-0.019881,67.922165,31.96048,-146.926315,,,
729861904.818145,1.346946,3.420255,123.327162,-0.054947,0.03244,0.981827,-0.035243,-0.010094,-0.024712,67.922165,31.96048,-146.926315,,,
729861904.821343,1.346946,3.420255,123.327162,-0.054947,0.03244,0.981827,-0.035243,-0.010094,-0.024712,67.922165,31.96048,-146.926315,,,
729861904.824841,1.337317,3.414032,123.323824,-0.060333,0.025406,0.995621,-0.035243,-0.010094,-0.024712,68.028915,31.779358,-146.660187,,,
729861904.828142,1.332823,3.410494,123.321312,-0.060333,0.025406,0.995621,-0.016844,-0.011399,-0.012635,68.028915,31.779358,-146.660187,,,
729861904.831478,1.332823,3.410494,123.321312,-0.060333,0.025406,0.995621,-0.016844,-0.011399,-0.012635,68.028915,31.779358,-146.660187,,,
729861904.834809,1.330185,3.404795,123.320193,-0.065506,0.015869,1.014145,-0.016844,-0.011399,-0.012635,68.028915,31.779358,-146.660187,,,
729861904.837969,1.33292,3.404241,123.320592,-0.065506,0.015869,1.014145,0.007053,-0.001063,-0.000545,68.028915,31.779358,-146.660187,,,
729861904.841504,1.33292,3.404241,123.320592,-0.065506,0.015869,1.014145,0.007053,-0.001063,-0.000545,68.028915,31.779358,-146.660187,,,
729861904.844887,1.339373,3.401677,123.32221,-0.065308,0.009598,1.025818,0.007053,-0.001063,-0.000545,68.028915,31.779358,-146.660187,,,
729861904.84813,1.351166,3.404545,123.324328,-0.065308,0.009598,1.025818,0.037131,0.012835,0.005868,68.028915,31.779358,-146.660187,,,
729861904.851494,1.351166,3.404545,123.324328,-0.065308,0.009598,1.025818,0.037131,0.012835,0.005868,68.028915,31.779358,-146.660187,,,
729861904.854592,1.366814,3.405838,123.327478,-0.06488,0.010315,1.029587,0.037131,0.012835,0.005868,68.028915,31.779358,-146.660187,,,
729861904.858164,1.384364,3.411094,123.330975,-0.06488,0.010315,1.029587,0.06028,0.018996,0.012529,68.028915,31.779358,-146.660187,,,
729861904.861465,1.384364,3.411094,123.330975,-0.06488,0.010315,1.029587,0.06028,0.018996,0.012529,68.028915,31.779358,-146.660187,,,
729861904.864809,1.405077,3.415051,123.333803,-0.062424,0.011978,1.023758,0.06028,0.018996,0.012529,67.889038,31.954788,-146.909225,,,
729861904.868134,1.423847,3.421144,123.335837,-0.062424,0.011978,1.023758,0.066386,0.027761,0.009551,67.889038,31.954788,-146.909225,,,
729861904.871303,1.423847,3.421144,123.335837,-0.062424,0.011978,1.023758,0.066386,0.027761,0.009551,67.889038,31.954788,-146.909225,,,
729861904.874875,1.4421,3.425349,123.337364,-0.058945,0.017136,1.007263,0.066386,0.027761,0.009551,67.889038,31.954788,-146.909225,,,
729861904.878141,1.45547,3.429341,123.338566,-0.058945,0.017136,1.007263,0.049741,0.019,0.006344,67.889038,31.954788,-146.909225,,,
729861904.881475,1.45547,3.429341,123.338566,-0.058945,0.017136,1.007263,0.049741,0.019,0.006344,67.889038,31.954788,-146.909225,,,
729861904.884806,1.466794,3.428513,123.339851,-0.062744,0.025467,0.984253,0.049741,0.019,0.006344,67.889038,31.954788,-146.909225,,,
729861904.888009,1.471944,3.426365,123.340525,-0.062744,0.025467,0.984253,0.023579,-0.001707,0.003416,67.889038,31.954788,-146.909225,,,
729861904.891545,1.471944,3.426365,123.340525,-0.062744,0.025467,0.984253,0.023579,-0.001707,0.003416,67.889038,31.954788,-146.909225,,,
729861904.894827,1.473999,3.421379,123.340278,-0.063156,0.028839,0.970047,0.023579,-0.001707,0.003416,67.889038,31.954788,-146.909225,,,
729861904.898149,1.471014,3.415567,123.339119,-0.063156,0.028839,0.970047,-0.006226,-0.016678,-0.001657,67.889038,31.954788,-146.909225,,,
729861904.901409,1.471014,3.415567,123.339119,-0.063156,0.028839,0.970047,-0.006226,-0.016678,-0.001657,67.889038,31.954788,-146.909225,,,
729861904.90473,1.463323,3.408899,123.337302,-0.061356,0.033051,0.965317,-0.006226,-0.016678,-0.001657,67.889038,31.954788,-146.909225,,,
729861904.908203,1.453109,3.400154,123.33562,-0.061356,0.033051,0.965317,-0.030015,-0.02652,-0.008869,68.027359,31.844254,-146.93544,,,
729861904.911516,1.453109,3.400154,123.33562,-0.061356,0.033051,0.965317,-0.030015,-0.02652,-0.008869,68.027359,31.844254,-146.93544,,,
729861904.914819,1.438731,3.393022,123.333833,-0.060486,0.033142,0.967667,-0.030015,-0.02652,-0.008869,68.027359,31.844254,-146.93544,,,
729861904.919872,1.426796,3.385797,123.331789,-0.060486,0.033142,0.967667,-0.040583,-0.022881,-0.00882,68.027359,31.844254,-146.93544,,,
729861904.921333,1.426796,3.385797,123.331789,-0.060486,0.033142,0.967667,-0.040583,-0.022881,-0.00882,68.027359,31.844254,-146.93544,,,
729861904.924847,1.414285,3.382226,123.330537,-0.061066,0.027191,0.984329,-0.040583,-0.022881,-0.00882,68.027359,31.844254,-146.93544,,,
729861904.928136,1.407484,3.379866,123.330223,-0.061066,0.027191,0.984329,-0.026261,-0.008674,-0.004183,68.027359,31.844254,-146.93544,,,
729861904.931527,1.407484,3.379866,123.330223,-0.061066,0.027191,0.984329,-0.026261,-0.008674,-0.004183,68.027359,31.844254,-146.93544,,,
729861904.934701,1.401063,3.381511,123.330772,-0.058853,0.020203,1.001984,-0.026261,-0.008674,-0.004183,68.027359,31.844254,-146.93544,,,
729861904.937966,1.400256,3.385727,123.33192,-0.058853,0.020203,1.001984,-0.005008,0.01567,0.003276,68.027359,31.844254,-146.93544,,,
729861904.94152,1.400256,3.385727,123.33192,-0.058853,0.020203,1.001984,-0.005008,0.01567,0.003276,68.027359,31.844254,-146.93544,,,
729861904.944899,1.40052,3.393968,123.333524,-0.058914,0.015152,1.012222,-0.005008,0.01567,0.003276,68.027359,31.844254,-146.93544,,,
729861904.947879,1.405342,3.404437,123.336008,-0.058914,0.015152,1.012222,0.015129,0.039209,0.008194,67.868118,31.915482,-146.698685,,,
729861904.951378,1.405342,3.404437,123.336008,-0.058914,0.015152,1.012222,0.015129,0.039209,0.008194,67.868118,31.915482,-146.698685,,,
729861904.954655,1.41227,3.416512,123.339276,-0.061157,0.014282,1.016647,0.015129,0.039209,0.008194,67.868118,31.915482,-146.698685,,,
729861904.95817,1.422148,3.428272,123.343213,-0.061157,0.014282,1.016647,0.030598,0.043869,0.015695,67.868118,31.915482,-146.698685,,,
729861904.961469,1.422148,3.428272,123.343213,-0.061157,0.014282,1.016647,0.030598,0.043869,0.015695,67.868118,31.915482,-146.698685,,,
729861904.964825,1.433539,3.441117,123.347415,-0.064941,0.014206,1.009003,0.030598,0.043869,0.015695,67.868118,31.915482,-146.698685,,,
729861904.968026,1.444695,3.450791,123.35162,-0.064941,0.014206,1.009003,0.037583,0.038263,0.015823,67.868118,31.915482,-146.698685,,,
729861904.971415,1.444695,3.450791,123.35162,-0.064941,0.014206,1.009003,0.037583,0.038263,0.015823,67.868118,31.915482,-146.698685,,,
729861904.974849,1.456081,3.460511,123.355429,-0.062988,0.020035,0.996811,0.037583,0.038263,0.015823,67.868118,31.915482,-146.698685,,,
729861904.978137,1.464741,3.466219,123.358733,-0.062988,0.020035,0.996811,0.032329,0.027643,0.012422,67.868118,31.915482,-146.698685,,,
729861904.981471,1.464741,3.466219,123.358733,-0.062988,0.020035,0.996811,0.032329,0.027643,0.012422,67.868118,31.915482,-146.698685,,,
729861904.984757,1.474152,3.470374,123.361611,-0.064224,0.02597,0.98378,0.032329,0.027643,0.012422,67.868118,31.915482,-146.698685,,,
729861904.987968,1.4803,3.470771,123.364358,-0.064224,0.02597,0.98378,0.02424,0.007483,0.010014,68.012222,32.116837,-146.793747,,,
729861904.991513,1.4803,3.470771,123.364358,-0.064224,0.02597,0.98378,0.02424,0.007483,0.010014,68.012222,32.116837,-146.793747,,,
729861904.994816,1.485565,3.46985,123.367286,-0.066818,0.028214,0.974121,0.02424,0.007483,0.010014,68.012222,32.116837,-146.793747,,,
729861904.998141,1.487955,3.467264,123.371026,-0.066818,0.028214,0.974121,0.010399,-0.00377,0.011042,68.012222,32.116837,-146.793747,,,
729861905.001443,1.487955,3.467264,123.371026,-0.066818,0.028214,0.974121,0.010399,-0.00377,0.011042,68.012222,32.116837,-146.793747,,,
729861905.00466,1.48828,3.464136,123.375812,-0.066711,0.026337,0.977158,0.010399,-0.00377,0.011042,68.012222,32.116837,-146.793747,,,
729861905.00816,1.487216,3.460293,123.381251,-0.066711,0.026337,0.977158,-0.001899,-0.008312,0.018017,68.012222,32.116837,-146.793747,,,
729861905.011557,1.487216,3.460293,123.381251,-0.066711,0.026337,0.977158,-0.001899,-0.008312,0.018017,68.012222,32.116837,-146.793747,,,
729861905.014815,1.482964,3.454837,123.387196,-0.064972,0.026352,0.980301,-0.001899,-0.008312,0.018017,68.012222,32.116837,-146.793747,,,
729861905.017922,1.478417,3.449468,123.393233,-0.064972,0.026352,0.980301,-0.014585,-0.014404,0.017511,68.012222,32.116837,-146.793747,,,
729861905.021313,1.478417,3.449468,123.393233,-0.064972,0.026352,0.980301,-0.014585,-0.014404,0.017511,68.012222,32.116837,-146.793747,,,
729861905.024902,1.469995,3.443313,123.398909,-0.062057,0.028931,0.980789,-0.014585,-0.014404,0.017511,68.012222,32.116837,-146.793747,,,
729861905.028136,1.462393,3.437801,123.404318,-0.062057,0.028931,0.980789,-0.025337,-0.015545,0.015287,68.012222,32.116837,-146.793747,,,
729861905.031493,1.462393,3.437801,123.404318,-0.062057,0.028931,0.980789,-0.025337,-0.015545,0.015287,67.876709,32.027054,-146.661148,,,
729861905.034817,1.45214,3.432899,123.408945,-0.057922,0.029999,0.985977,-0.025337,-0.015545,0.015287,67.876709,32.027054,-146.661148,,,
729861905.038041,1.444377,3.427983,123.412334,-0.057922,0.029999,0.985977,-0.029629,-0.015881,0.010907,67.876709,32.027054,-146.661148,,,
729861905.041514,1.444377,3.427983,123.412334,-0.057922,0.029999,0.985977,-0.029629,-0.015881,0.010907,67.876709,32.027054,-146.661148,,,
729861905.044807,1.435975,3.427402,123.414392,-0.051453,0.026627,0.99437,-0.029629,-0.015881,0.010907,67.876709,32.027054,-146.661148,,,
729861905.048148,1.430504,3.428578,123.414486,-0.051453,0.026627,0.99437,-0.018956,0.00419,0.000334,67.876709,32.027054,-146.661148,,,
729861905.051557,1.430504,3.428578,123.414486,-0.051453,0.026627,0.99437,-0.018956,0.00419,0.000334,67.876709,32.027054,-146.661148,,,
729861905.054593,1.42636,3.435997,123.412447,-0.045242,0.024063,1.006302,-0.018956,0.00419,0.000334,67.876709,32.027054,-146.661148,,,
729861905.058167,1.424949,3.445982,123.409802,-0.045242,0.024063,1.006302,-0.00485,0.031576,-0.00949,67.876709,32.027054,-146.661148,,,
729861905.061497,1.424949,3.445982,123.409802,-0.045242,0.024063,1.006302,-0.00485,0.031576,-0.00949,67.876709,32.027054,-146.661148,,,
729861905.064807,1.426483,3.460397,123.408145,-0.049332,0.021622,1.016006,-0.00485,0.031576,-0.00949,67.876709,32.027054,-146.661148,,,
729861905.068139,1.429076,3.473653,123.408058,-0.049332,0.021622,1.016006,0.008536,0.05035,-0.005063,67.876709,32.027054,-146.661148,,,
729861905.071338,1.429076,3.473653,123.408058,-0.049332,0.021622,1.016006,0.008536,0.05035,-0.005063,67.893341,31.984146,-146.956482,,,
729861905.07482,1.433259,3.491233,123.409137,-0.061035,0.016281,1.013977,0.008536,0.05035,-0.005063,67.893341,31.984146,-146.956482,,,
729861905.078137,1.437227,3.505476,123.411381,-0.061035,0.016281,1.013977,0.014669,0.055457,0.006904,67.893341,31.984146,-146.956482,,,
729861905.081484,1.437227,3.505476,123.411381,-0.061035,0.016281,1.013977,0.014669,0.055457,0.006904,67.893341,31.984146,-146.956482,,,
729861905.084804,1.441233,3.521172,123.414282,-0.066864,0.014877,1.008209,0.014669,0.055457,0.006904,67.893341,31.984146,-146.956482,,,
729861905.087965,1.444706,3.531876,123.417851,-0.066864,0.014877,1.008209,0.013482,0.043503,0.011041,67.893341,31.984146,-146.956482,,,
729861905.091494,1.444706,3.531876,123.417851,-0.066864,0.014877,1.008209,0.013482,0.043503,0.011041,67.893341,31.984146,-146.956482,,,
729861905.094799,1.448898,3.539065,123.421359,-0.067688,0.021805,1.001816,0.013482,0.043503,0.011041,67.893341,31.984146,-146.956482,,,
729861905.098138,1.452299,3.538574,123.424396,-0.067688,0.021805,1.001816,0.011466,0.006502,0.011568,67.893341,31.984146,-146.956482,,,
729861905.10153,1.452299,3.538574,123.424396,-0.067688,0.021805,1.001816,0.011466,0.006502,0.011568,67.893341,31.984146,-146.956482,,,
729861905.10463,1.455435,3.532308,123.42711,-0.068298,0.024673,0.990295,0.011466,0.006502,0.011568,67.893341,31.984146,-146.956482,,,
729861905.108161,1.455893,3.521954,123.428979,-0.068298,0.024673,0.990295,0.003598,-0.029563,0.00799,67.893341,31.984146,-146.956482,,,
729861905.11147,1.455893,3.521954,123.428979,-0.068298,0.024673,0.990295,0.003598,-0.029563,0.00799,67.828156,32.021667,-146.892731,,,
729861905.114834,1.454612,3.506804,123.429867,-0.063248,0.028214,0.980988,0.003598,-0.029563,0.00799,67.828156,32.021667,-146.892731,,,
729861905.118135,1.450485,3.492193,123.429831,-0.063248,0.028214,0.980988,-0.013055,-0.046346,-0.000909,67.828156,32.021667,-146.892731,,,
729861905.121283,1.450485,3.492193,123.429831,-0.063248,0.028214,0.980988,-0.013055,-0.046346,-0.000909,67.828156,32.021667,-146.892731,,,
729861905.124841,1.444067,3.473015,123.428811,-0.054825,0.03212,0.981689,-0.013055,-0.046346,-0.000909,67.828156,32.021667,-146.892731,,,
729861905.128134,1.435214,3.460847,123.426558,-0.054825,0.03212,0.981689,-0.024687,-0.042369,-0.008788,67.828156,32.021667,-146.892731,,,
729861905.131491,1.435214,3.460847,123.426558,-0.054825,0.03212,0.981689,-0.024687,-0.042369,-0.008788,67.828156,32.021667,-146.892731,,,
729861905.134815,1.424372,3.446116,123.423881,-0.051254,0.032562,0.986328,-0.024687,-0.042369,-0.008788,67.828156,32.021667,-146.892731,,,
729861905.137952,1.413326,3.441438,123.421332,-0.051254,0.032562,0.986328,-0.038904,-0.016224,-0.012791,67.828156,32.021667,-146.892731,,,
729861905.141602,1.413326,3.441438,123.421332,-0.051254,0.032562,0.986328,-0.038904,-0.016224,-0.012791,67.828156,32.021667,-146.892731,,,
729861905.14482,1.401411,3.437427,123.419209,-0.050705,0.029205,0.996399,-0.038904,-0.016224,-0.012791,67.828156,32.021667,-146.892731,,,
729861905.148142,1.391192,3.439696,123.417506,-0.050705,0.029205,0.996399,-0.03426,0.009768,-0.008394,67.828156,32.021667,-146.892731,,,
729861905.151498,1.391192,3.439696,123.417506,-0.050705,0.029205,0.996399,-0.03426,0.009768,-0.008394,67.877945,31.997635,-146.807251,,,
729861905.15463,1.380268,3.446824,123.416493,-0.05368,0.023514,1.005096,-0.03426,0.009768,-0.008394,67.877945,31.997635,-146.807251,,,
729861905.158166,1.373152,3.4551,123.415582,-0.05368,0.023514,1.005096,-0.030069,0.030217,-0.005726,67.877945,31.997635,-146.807251,,,
729861905.161476,1.373152,3.4551,123.415582,-0.05368,0.023514,1.005096,-0.030069,0.030217,-0.005726,67.877945,31.997635,-146.807251,,,
729861905.164814,1.368116,3.46771,123.414354,-0.055313,0.020767,1.012161,-0.030069,0.030217,-0.005726,67.877945,31.997635,-146.807251,,,
729861905.16814,1.368452,3.478372,123.412988,-0.055313,0.020767,1.012161,0.000264,0.041207,-0.003608,67.877945,31.997635,-146.807251,,,
729861905.171325,1.368452,3.478372,123.412988,-0.055313,0.020767,1.012161,0.000264,0.041207,-0.003608,67.877945,31.997635,-146.807251,,,
729861905.174838,1.373628,3.49098,123.411732,-0.057297,0.016861,1.021088,0.000264,0.041207,-0.003608,67.877945,31.997635,-146.807251,,,
729861905.178133,1.38343,3.498415,123.410974,-0.057297,0.016861,1.021088,0.030621,0.032615,-0.001863,67.877945,31.997635,-146.807251,,,
729861905.18156,1.38343,3.498415,123.410974,-0.057297,0.016861,1.021088,0.030621,0.032615,-0.001863,67.877945,31.997635,-146.807251,,,
729861905.184819,1.396718,3.505018,123.409971,-0.060959,0.013596,1.020782,0.030621,0.032615,-0.001863,67.877945,31.997635,-146.807251,,,
729861905.187994,1.412435,3.505671,123.40847,-0.060959,0.013596,1.020782,0.055191,0.005724,-0.000837,67.877945,31.997635,-146.807251,,,
729861905.191506,1.412435,3.505671,123.40847,-0.060959,0.013596,1.020782,0.055191,0.005724,-0.000837,67.877945,31.997635,-146.807251,,,
729861905.194879,1.431189,3.502707,123.4069,-0.064453,0.017151,1.014954,0.055191,0.005724,-0.000837,67.929062,31.954269,-146.94722,,,
729861905.198155,1.449939,3.49721,123.405031,-0.064453,0.017151,1.014954,0.064469,-0.015049,-0.004223,67.929062,31.954269,-146.94722,,,
729861905.2015,1.449939,3.49721,123.405031,-0.064453,0.017151,1.014954,0.064469,-0.015049,-0.004223,67.929062,31.954269,-146.94722,,,
729861905.204648,1.470464,3.487041,123.403145,-0.065338,0.022827,1.010864,0.064469,-0.015049,-0.004223,67.929062,31.954269,-146.94722,,,
729861905.208197,1.48981,3.47905,123.401468,-0.065338,0.022827,1.010864,0.06767,-0.024629,-0.004918,67.929062,31.954269,-146.94722,,,
729861905.211516,1.48981,3.47905,123.401468,-0.065338,0.022827,1.010864,0.06767,-0.024629,-0.004918,67.929062,31.954269,-146.94722,,,
729861905.214817,1.509833,3.468084,123.399815,-0.066879,0.02713,1.005737,0.06767,-0.024629,-0.004918,67.929062,31.954269,-146.94722,,,
729861905.218211,1.527533,3.461716,123.398412,-0.066879,0.02713,1.005737,0.064099,-0.019538,-0.003527,67.929062,31.954269,-146.94722,,,
729861905.221368,1.527533,3.461716,123.398412,-0.066879,0.02713,1.005737,0.064099,-0.019538,-0.003527,67.929062,31.954269,-146.94722,,,
729861905.224837,1.543344,3.453217,123.397078,-0.06459,0.030563,0.999405,0.064099,-0.019538,-0.003527,67.929062,31.954269,-146.94722,,,
729861905.228139,1.556428,3.448934,123.395307,-0.06459,0.030563,0.999405,0.050561,-0.012696,-0.005787,67.929062,31.954269,-146.94722,,,
729861905.231487,1.556428,3.448934,123.395307,-0.06459,0.030563,0.999405,0.050561,-0.012696,-0.005787,67.929062,31.954269,-146.94722,,,
729861905.234889,1.565547,3.443393,123.393317,-0.061676,0.035187,0.990265,0.050561,-0.012696,-0.005787,67.9272,32.014404,-146.621826,,,
729861905.237978,1.565547,3.443393,123.393317,-0.061676,0.035187,0.990265,0.024989,-0.004238,-0.011786,67.9272,32.014404,-146.621826,,,
729861905.241525,1.572002,3.442106,123.389951,-0.061676,0.035187,0.990265,0.024989,-0.004238,-0.011786,67.9272,32.014404,-146.621826,,,
729861905.244815,1.572512,3.440418,123.38541,-0.058167,0.038483,0.980576,0.024989,-0.004238,-0.011786,67.9272,32.014404,-146.621826,,,
729861905.248169,1.569697,3.442365,123.380006,-0.058167,0.038483,0.980576,-0.003311,0.008993,-0.020222,67.9272,32.014404,-146.621826,,,
729861905.251475,1.569697,3.442365,123.380006,-0.058167,0.038483,0.980576,-0.003311,0.008993,-0.020222,67.9272,32.014404,-146.621826,,,
729861905.254666,1.561494,3.445151,123.374528,-0.059174,0.038177,0.977173,-0.003311,0.008993,-0.020222,67.9272,32.014404,-146.621826,,,
729861905.258202,1.554634,3.451376,123.370152,-0.059174,0.038177,0.977173,-0.021057,0.023532,-0.018422,67.9272,32.014404,-146.621826,,,
729861905.261521,1.554634,3.451376,123.370152,-0.059174,0.038177,0.977173,-0.021057,0.023532,-0.018422,67.9272,32.014404,-146.621826,,,
729861905.26483,1.545601,3.460499,123.367188,-0.065109,0.032471,0.982285,-0.021057,0.023532,-0.018422,67.9272,32.014404,-146.621826,,,
729861905.268164,1.539514,3.471279,123.366545,-0.065109,0.032471,0.982285,-0.019734,0.037657,-0.004664,67.9272,32.014404,-146.621826,,,
729861905.271306,1.539514,3.471279,123.366545,-0.065109,0.032471,0.982285,-0.019734,0.037657,-0.004664,67.9272,32.014404,-146.621826,,,
729861905.274837,1.532162,3.484542,123.368248,-0.072235,0.022659,0.991165,-0.019734,0.037657,-0.004664,67.903564,32.051193,-146.757996,,,
729861905.278181,1.526084,3.497534,123.371667,-0.072235,0.022659,0.991165,-0.020131,0.047435,0.006688,67.903564,32.051193,-146.757996,,,
729861905.281489,1.526084,3.497534,123.371667,-0.072235,0.022659,0.991165,-0.020131,0.047435,0.006688,67.903564,32.051193,-146.757996,,,
729861905.284877,1.520244,3.511217,123.376458,-0.077484,0.020142,0.99115,-0.020131,0.047435,0.006688,67.903564,32.051193,-146.757996,,,
729861905.288054,1.520244,3.511217,123.376458,-0.077484,0.020142,0.99115,-0.017648,0.037704,0.016408,67.903564,32.051193,-146.757996,,,
729861905.29151,1.515822,3.520286,123.382441,-0.077484,0.020142,0.99115,-0.017648,0.037704,0.016408,67.903564,32.051193,-146.757996,,,
729861905.294822,1.512575,3.526704,123.389345,-0.078064,0.019348,0.985168,-0.017648,0.037704,0.016408,67.903564,32.051193,-146.757996,,,
729861905.298181,1.512575,3.526355,123.396259,-0.078064,0.019348,0.985168,-0.009908,0.005324,0.023098,67.903564,32.051193,-146.757996,,,
729861905.301474,1.510523,3.526355,123.396259,-0.078064,0.019348,0.985168,-0.009908,0.005324,0.023098,67.903564,32.051193,-146.757996,,,
729861905.304594,1.511337,3.522208,123.402872,-0.077469,0.018753,0.981552,-0.009908,0.005324,0.023098,67.903564,32.051193,-146.757996,,,
729861905.308217,1.512252,3.51201,123.409621,-0.077469,0.018753,0.981552,0.002292,-0.029281,0.020085,67.903564,32.051193,-146.757996,,,
729861905.311544,1.512252,3.51201,123.409621,-0.077469,0.018753,0.981552,0.002292,-0.029281,0.020085,67.903564,32.051193,-146.757996,,,
729861905.314866,1.515048,3.497205,123.415575,-0.073746,0.02095,0.983246,0.002292,-0.029281,0.020085,67.81897,31.970734,-146.6427,,,
729861905.318221,1.515048,3.478907,123.421395,-0.073746,0.02095,0.983246,0.000243,-0.058235,0.020259,67.81897,31.970734,-146.6427,,,
729861905.321303,1.515301,3.478907,123.421395,-0.073746,0.02095,0.983246,0.000243,-0.058235,0.020259,67.81897,31.970734,-146.6427,,,
729861905.324831,1.516445,3.457588,123.427425,-0.068665,0.023422,0.984039,0.000243,-0.058235,0.020259,67.81897,31.970734,-146.6427,,,
729861905.328139,1.516445,3.457588,123.427425,-0.068665,0.023422,0.984039,0.000243,-0.058235,0.020259,67.81897,31.970734,-146.6427,,,
729861905.331486,1.513642,3.435716,123.432721,-0.068665,0.023422,0.984039,-0.009355,-0.074745,0.017961,67.81897,31.970734,-146.6427,,,
729861905.334814,1.512441,3.414738,123.437281,-0.060898,0.023941,0.981934,-0.009355,-0.074745,0.017961,67.81897,31.970734,-146.6427,,,
729861905.338057,1.512441,3.414738,123.437281,-0.060898,0.023941,0.981934,-0.009355,-0.074745,0.017961,67.81897,31.970734,-146.6427,,,
729861905.341509,1.509669,3.395389,123.440804,-0.060898,0.023941,0.981934,-0.010605,-0.06814,0.010067,67.81897,31.970734,-146.6427,,,
729861905.34486,1.508497,3.384611,123.442745,-0.052185,0.026886,0.992111,-0.010605,-0.06814,0.010067,67.81897,31.970734,-146.6427,,,
729861905.348145,1.508497,3.384611,123.442745,-0.052185,0.026886,0.992111,-0.010605,-0.06814,0.010067,67.81897,31.970734,-146.6427,,,
729861905.351537,1.508445,3.375579,123.443948,-0.052185,0.026886,0.992111,0.001234,-0.033484,0.001927,67.81897,31.970734,-146.6427,,,
729861905.354652,1.509017,3.378716,123.445089,-0.046631,0.025131,1.005478,0.001234,-0.033484,0.001927,67.81897,31.970734,-146.6427,,,
729861905.358162,1.509017,3.378716,123.445089,-0.046631,0.025131,1.005478,0.001234,-0.033484,0.001927,67.843811,31.962219,-146.647644,,,
729861905.361484,1.512015,3.381758,123.446446,-0.046631,0.025131,1.005478,0.010142,0.008147,0.002638,67.843811,31.962219,-146.647644,,,
729861905.364872,1.514301,3.398579,123.447749,-0.045486,0.021988,1.010513,0.010142,0.008147,0.002638,67.843811,31.962219,-146.647644,,,
729861905.368163,1.514301,3.398579,123.447749,-0.045486,0.021988,1.010513,0.010142,0.008147,0.002638,67.843811,31.962219,-146.647644,,,
729861905.371273,1.517372,3.411424,123.450601,-0.045486,0.021988,1.010513,0.011145,0.04592,0.00719,67.843811,31.962219,-146.647644,,,
729861905.374837,1.518208,3.433236,123.454937,-0.050232,0.021332,1.00119,0.011145,0.04592,0.00719,67.843811,31.962219,-146.647644,,,
729861905.378205,1.518208,3.433236,123.454937,-0.050232,0.021332,1.00119,0.011145,0.04592,0.00719,67.843811,31.962219,-146.647644,,,
729861905.381477,1.51842,3.447146,123.460351,-0.050232,0.021332,1.00119,0.003478,0.054513,0.018197,67.843811,31.962219,-146.647644,,,
729861905.38482,1.515716,3.46547,123.465682,-0.055862,0.024048,0.98555,0.003478,0.054513,0.018197,67.843811,31.962219,-146.647644,,,
729861905.388017,1.515716,3.46547,123.465682,-0.055862,0.024048,0.98555,0.003478,0.054513,0.018197,67.843811,31.962219,-146.647644,,,
729861905.391528,1.512591,3.473667,123.470317,-0.055862,0.024048,0.98555,-0.007731,0.036408,0.014103,67.843811,31.962219,-146.647644,,,
729861905.394867,1.507388,3.482212,123.473628,-0.054642,0.027023,0.973923,-0.007731,0.036408,0.014103,67.843811,31.962219,-146.647644,,,
729861905.398181,1.507388,3.482212,123.473628,-0.054642,0.027023,0.973923,-0.007731,0.036408,0.014103,67.940598,31.949615,-146.451004,,,
729861905.401517,1.502601,3.482576,123.475689,-0.054642,0.027023,0.973923,-0.015421,0.011935,0.002576,67.940598,31.949615,-146.451004,,,
729861905.404758,1.497154,3.482912,123.475589,-0.052246,0.029434,0.978806,-0.015421,0.011935,0.002576,67.940598,31.949615,-146.451004,,,
729861905.408252,1.497154,3.482912,123.475589,-0.052246,0.029434,0.978806,-0.015421,0.011935,0.002576,67.940598,31.949615,-146.451004,,,
729861905.411495,1.492533,3.478572,123.473527,-0.052246,0.029434,0.978806,-0.01644,-0.011141,-0.007478,67.940598,31.949615,-146.451004,,,
729861905.41483,1.48872,3.472385,123.470338,-0.04686,0.028671,0.987732,-0.01644,-0.011141,-0.007478,67.940598,31.949615,-146.451004,,,
729861905.418249,1.48872,3.472385,123.470338,-0.04686,0.028671,0.987732,-0.01644,-0.011141,-0.007478,67.940598,31.949615,-146.451004,,,
729861905.421273,1.486236,3.468222,123.466075,-0.04686,0.028671,0.987732,-0.009714,-0.015553,-0.016234,67.940598,31.949615,-146.451004,,,
729861905.424838,1.485224,3.462019,123.461293,-0.046097,0.026062,0.999283,-0.009714,-0.015553,-0.016234,67.940598,31.949615,-146.451004,,,
729861905.428185,1.485224,3.462019,123.461293,-0.046097,0.026062,0.999283,-0.009714,-0.015553,-0.016234,67.940598,31.949615,-146.451004,,,
729861905.431558,1.485051,3.463075,123.456361,-0.046097,0.026062,0.999283,0.002049,0.001795,-0.016641,67.940598,31.949615,-146.451004,,,
729861905.434803,1.485184,3.460904,123.451955,-0.048874,0.026382,1.003281,0.002049,0.001795,-0.016641,67.940598,31.949615,-146.451004,,,
729861905.43797,1.485184,3.460904,123.451955,-0.048874,0.026382,1.003281,0.002049,0.001795,-0.016641,68.18367,32.130753,-146.779373,,,
729861905.441519,1.48511,3.467027,123.447983,-0.048874,0.026382,1.003281,-8.5e-05,0.021326,-0.015667,68.18367,32.130753,-146.779373,,,
729861905.444809,1.481451,3.469252,123.444346,-0.052628,0.026108,0.99556,-8.5e-05,0.021326,-0.015667,68.18367,32.130753,-146.779373,,,
729861905.448178,1.481451,3.469252,123.444346,-0.052628,0.026108,0.99556,-8.5e-05,0.021326,-0.015667,68.18367,32.130753,-146.779373,,,
729861905.451482,1.475985,3.478675,123.440288,-0.052628,0.026108,0.99556,-0.014194,0.034247,-0.016508,68.18367,32.130753,-146.779373,,,
729861905.454635,1.467597,3.485647,123.435491,-0.053421,0.030579,0.980225,-0.014194,0.034247,-0.016508,68.18367,32.130753,-146.779373,,,
729861905.458265,1.467597,3.485647,123.435491,-0.053421,0.030579,0.980225,-0.014194,0.034247,-0.016508,68.18367,32.130753,-146.779373,,,
729861905.46148,1.457562,3.495068,123.430062,-0.053421,0.030579,0.980225,-0.029011,0.037191,-0.022138,68.18367,32.130753,-146.779373,,,
729861905.464813,1.445689,3.502359,123.424982,-0.056122,0.032623,0.971344,-0.029011,0.037191,-0.022138,68.18367,32.130753,-146.779373,,,
729861905.468188,1.445689,3.502359,123.424982,-0.056122,0.032623,0.971344,-0.029011,0.037191,-0.022138,68.18367,32.130753,-146.779373,,,
729861905.471302,1.432148,3.51051,123.419886,-0.056122,0.032623,0.971344,-0.04664,0.032726,-0.023055,68.18367,32.130753,-146.779373,,,
729861905.474832,1.418521,3.514916,123.415483,-0.062347,0.029633,0.97435,-0.04664,0.032726,-0.023055,68.18367,32.130753,-146.779373,,,
729861905.478153,1.418521,3.514916,123.415483,-0.062347,0.029633,0.97435,-0.04664,0.032726,-0.023055,68.18367,32.130753,-146.779373,,,
729861905.481498,1.402953,3.520212,123.412225,-0.062347,0.029633,0.97435,-0.052857,0.021558,-0.015568,67.87384,31.910553,-146.844101,,,
729861905.484807,1.386852,3.520111,123.40915,-0.067474,0.024445,0.983002,-0.052857,0.021558,-0.015568,67.87384,31.910553,-146.844101,,,
729861905.487974,1.386852,3.520111,123.40915,-0.067474,0.024445,0.983002,-0.052857,0.021558,-0.015568,67.87384,31.910553,-146.844101,,,
729861905.491499,1.36902,3.521676,123.406181,-0.067474,0.024445,0.983002,-0.059669,0.010456,-0.014597,67.87384,31.910553,-146.844101,,,
729861905.494806,1.351569,3.515205,123.403738,-0.069275,0.022247,0.989258,-0.059669,0.010456,-0.014597,67.87384,31.910553,-146.844101,,,
729861905.498205,1.351569,3.515205,123.403738,-0.069275,0.022247,0.989258,-0.059669,0.010456,-0.014597,67.87384,31.910553,-146.844101,,,
729861905.501477,1.332888,3.512917,123.400981,-0.069275,0.022247,0.989258,-0.065528,-0.001582,-0.016084,67.87384,31.910553,-146.844101,,,
729861905.504635,1.313609,3.50317,123.397754,-0.067001,0.024567,0.993683,-0.065528,-0.001582,-0.016084,67.87384,31.910553,-146.844101,,,
729861905.508179,1.313609,3.50317,123.397754,-0.067001,0.024567,0.993683,-0.065528,-0.001582,-0.016084,67.87384,31.910553,-146.844101,,,
729861905.511554,1.29363,3.498,123.393836,-0.067001,0.024567,0.993683,-0.068181,-0.016189,-0.01676,67.87384,31.910553,-146.844101,,,
729861905.514805,1.274343,3.48841,123.390087,-0.065231,0.021683,0.995529,-0.068181,-0.016189,-0.01676,67.87384,31.910553,-146.844101,,,
729861905.518142,1.274343,3.48841,123.390087,-0.065231,0.021683,0.995529,-0.068181,-0.016189,-0.01676,67.87384,31.910553,-146.844101,,,
729861905.52131,1.253932,3.483607,123.386081,-0.065231,0.021683,0.995529,-0.069048,-0.016544,-0.020433,67.779846,32.179031,-146.661209,,,
729861905.524835,1.234431,3.477694,123.382156,-0.063766,0.019958,0.997345,-0.069048,-0.016544,-0.020433,67.779846,32.179031,-146.661209,,,
729861905.52815,1.234431,3.477694,123.382156,-0.063766,0.019958,0.997345,-0.069048,-0.016544,-0.020433,67.779846,32.179031,-146.661209,,,
729861905.531491,1.21486,3.476481,123.379066,-0.063766,0.019958,0.997345,-0.068655,-0.004215,-0.01739,67.779846,32.179031,-146.661209,,,
729861905.534812,1.19973,3.475528,123.376779,-0.066727,0.017502,1.003677,-0.068655,-0.004215,-0.01739,67.779846,32.179031,-146.661209,,,
729861905.538037,1.19973,3.475528,123.376779,-0.066727,0.017502,1.003677,-0.068655,-0.004215,-0.01739,67.779846,32.179031,-146.661209,,,
729861905.541535,1.184916,3.478022,123.375653,-0.066727,0.017502,1.003677,-0.051632,0.007967,-0.008747,67.779846,32.179031,-146.661209,,,
729861905.544808,1.174481,3.481684,123.375732,-0.07048,0.012115,1.011185,-0.051632,0.007967,-0.008747,67.779846,32.179031,-146.661209,,,
729861905.548144,1.174481,3.481684,123.375732,-0.07048,0.012115,1.011185,-0.051632,0.007967,-0.008747,67.779846,32.179031,-146.661209,,,
729861905.551563,1.163531,3.487223,123.376884,-0.07048,0.012115,1.011185,-0.038575,0.022034,-0.000505,67.779846,32.179031,-146.661209,,,
729861905.55463,1.155259,3.494786,123.378946,-0.069168,0.010742,1.010147,-0.038575,0.022034,-0.000505,67.779846,32.179031,-146.661209,,,
729861905.558185,1.155259,3.494786,123.378946,-0.069168,0.010742,1.010147,-0.038575,0.022034,-0.000505,67.779846,32.179031,-146.661209,,,
729861905.561479,1.14621,3.500415,123.381634,-0.069168,0.010742,1.010147,-0.034478,0.023043,0.00309,67.79924,32.289658,-146.636322,,,
729861905.564814,1.139358,3.50861,123.38465,-0.068878,0.011551,1.004929,-0.034478,0.023043,0.00309,67.79924,32.289658,-146.636322,,,
729861905.56817,1.139358,3.50861,123.38465,-0.068878,0.011551,1.004929,-0.034478,0.023043,0.00309,67.79924,32.289658,-146.636322,,,
729861905.571331,1.134556,3.512488,123.387552,-0.068878,0.011551,1.004929,-0.021872,0.019114,0.00741,67.79924,32.289658,-146.636322,,,
729861905.574837,1.132034,3.518641,123.389546,-0.066345,0.012985,1.004272,-0.021872,0.019114,0.00741,67.79924,32.289658,-146.636322,,,
729861905.578215,1.132034,3.518641,123.389546,-0.066345,0.012985,1.004272,-0.021872,0.019114,0.00741,67.79924,32.289658,-146.636322,,,
729861905.581483,1.129827,3.521587,123.390464,-0.066345,0.012985,1.004272,-0.007519,0.012978,0.001557,67.79924,32.289658,-146.636322,,,
729861905.584814,1.128953,3.526921,123.390569,-0.063019,0.014771,1.004593,-0.007519,0.012978,0.001557,67.79924,32.289658,-146.636322,,,
729861905.587954,1.128953,3.526921,123.390569,-0.063019,0.014771,1.004593,-0.007519,0.012978,0.001557,67.79924,32.289658,-146.636322,,,
729861905.591565,1.127761,3.531607,123.389697,-0.063019,0.014771,1.004593,-0.004318,0.01763,-0.004151,67.79924,32.289658,-146.636322,,,
729861905.594798,1.126656,3.5389,123.388345,-0.062378,0.020401,1.000122,-0.004318,0.01763,-0.004151,67.79924,32.289658,-146.636322,,,
729861905.598155,1.126656,3.5389,123.388345,-0.062378,0.020401,1.000122,-0.004318,0.01763,-0.004151,67.79924,32.289658,-146.636322,,,
729861905.60148,1.123906,3.545583,123.387634,-0.062378,0.020401,1.000122,-0.004963,0.025423,-0.002903,67.926086,32.314117,-146.459305,,,
729861905.604666,1.118221,3.552305,123.388331,-0.068893,0.021606,0.986801,-0.004963,0.025423,-0.002903,67.926086,32.314117,-146.459305,,,
729861905.608292,1.118221,3.552305,123.388331,-0.068893,0.021606,0.986801,-0.004963,0.025423,-0.002903,67.926086,32.314117,-146.459305,,,
729861905.611492,1.108967,3.557363,123.390848,-0.068893,0.021606,0.986801,-0.029969,0.022182,0.003029,67.926086,32.314117,-146.459305,,,
729861905.614815,1.095469,3.564046,123.394535,-0.074127,0.024551,0.967026,-0.029969,0.022182,0.003029,67.926086,32.314117,-146.459305,,,
729861905.618248,1.095469,3.564046,123.394535,-0.074127,0.024551,0.967026,-0.029969,0.022182,0.003029,67.926086,32.314117,-146.459305,,,
729861905.621285,1.079494,3.56788,123.399406,-0.074127,0.024551,0.967026,-0.051884,0.017036,0.011119,67.926086,32.314117,-146.459305,,,
729861905.624846,1.058978,3.572309,123.405126,-0.073837,0.026276,0.961517,-0.051884,0.017036,0.011119,67.926086,32.314117,-146.459305,,,
729861905.628164,1.058978,3.572309,123.405126,-0.073837,0.026276,0.961517,-0.051884,0.017036,0.011119,67.926086,32.314117,-146.459305,,,
729861905.631566,1.036216,3.570314,123.411306,-0.073837,0.026276,0.961517,-0.072983,0.001203,0.015617,67.926086,32.314117,-146.459305,,,
729861905.634804,1.008078,3.56664,123.417783,-0.071884,0.025558,0.959442,-0.072983,0.001203,0.015617,67.926086,32.314117,-146.459305,,,
729861905.63804,1.008078,3.56664,123.417783,-0.071884,0.025558,0.959442,-0.072983,0.001203,0.015617,67.926086,32.314117,-146.459305,,,
729861905.641523,0.976905,3.556756,123.423854,-0.071884,0.025558,0.959442,-0.105509,-0.028226,0.016226,67.926086,32.314117,-146.459305,,,
729861905.644817,0.941421,3.547044,123.428666,-0.065598,0.027542,0.953949,-0.105509,-0.028226,0.016226,67.986084,32.517776,-146.548141,,,
729861905.648161,0.941421,3.547044,123.428666,-0.065598,0.027542,0.953949,-0.105509,-0.028226,0.016226,67.986084,32.517776,-146.548141,,,
729861905.651509,0.904683,3.534861,123.432547,-0.065598,0.027542,0.953949,-0.127235,-0.041109,0.005466,67.986084,32.517776,-146.548141,,,
729861905.654643,0.867621,3.524382,123.436151,-0.057602,0.028244,0.964935,-0.127235,-0.041109,0.005466,67.986084,32.517776,-146.548141,,,
729861905.658252,0.867621,3.524382,123.436151,-0.057602,0.028244,0.964935,-0.127235,-0.041109,0.005466,67.986084,32.517776,-146.548141,,,
729861905.661478,0.833665,3.515444,123.439424,-0.057602,0.028244,0.964935,-0.122434,-0.031464,0.004463,67.986084,32.517776,-146.548141,,,
729861905.664816,0.804045,3.509502,123.442526,-0.051559,0.020355,0.993515,-0.122434,-0.031464,0.004463,67.986084,32.517776,-146.548141,,,
729861905.668163,0.804045,3.509502,123.442526,-0.051559,0.020355,0.993515,-0.122434,-0.031464,0.004463,67.986084,32.517776,-146.548141,,,
729861905.671362,0.777871,3.506181,123.445919,-0.051559,0.020355,0.993515,-0.093981,-0.01155,0.004292,67.986084,32.517776,-146.548141,,,
729861905.674823,0.757682,3.506793,123.450072,-0.04892,0.011642,1.013428,-0.093981,-0.01155,0.004292,67.986084,32.517776,-146.548141,,,
729861905.678151,0.757682,3.506793,123.450072,-0.04892,0.011642,1.013428,-0.093981,-0.01155,0.004292,67.986084,32.517776,-146.548141,,,
729861905.681481,0.740408,3.509208,123.454544,-0.04892,0.011642,1.013428,-0.063834,0.007683,0.011776,67.986084,32.517776,-146.548141,,,
729861905.684812,0.728087,3.517531,123.458641,-0.049332,0.010452,1.020416,-0.063834,0.007683,0.011776,68.046555,32.359192,-146.420822,,,
729861905.68794,0.728087,3.517531,123.458641,-0.049332,0.010452,1.020416,-0.063834,0.007683,0.011776,68.046555,32.359192,-146.420822,,,
729861905.691514,0.716928,3.522921,123.462699,-0.049332,0.010452,1.020416,-0.03974,0.024054,0.010872,68.046555,32.359192,-146.420822,,,
729861905.694814,0.709751,3.532853,123.466074,-0.046112,0.008743,1.019516,-0.03974,0.024054,0.010872,68.046555,32.359192,-146.420822,,,
729861905.698215,0.709751,3.532853,123.466074,-0.046112,0.008743,1.019516,-0.03974,0.024054,0.010872,68.046555,32.359192,-146.420822,,,
729861905.701488,0.702974,3.536527,123.468465,-0.046112,0.008743,1.019516,-0.026174,0.016262,0.005722,68.046555,32.359192,-146.420822,,,
729861905.704673,0.701061,3.543058,123.469985,-0.045273,0.010971,1.013596,-0.026174,0.016262,0.005722,68.046555,32.359192,-146.420822,,,
729861905.708234,0.701061,3.543058,123.469985,-0.045273,0.010971,1.013596,-0.026174,0.016262,0.005722,68.046555,32.359192,-146.420822,,,
729861905.711542,0.699706,3.543691,123.470788,-0.045273,0.010971,1.013596,-0.006973,0.006374,0.000861,68.046555,32.359192,-146.420822,,,
729861905.714833,0.703137,3.546016,123.47063,-0.046692,0.011749,1.016678,-0.006973,0.006374,0.000861,68.046555,32.359192,-146.420822,,,
729861905.718185,0.703137,3.546016,123.47063,-0.046692,0.011749,1.016678,-0.006973,0.006374,0.000861,68.046555,32.359192,-146.420822,,,
729861905.72139,0.707157,3.54465,123.469864,-0.046692,0.011749,1.016678,0.014196,-0.004719,0.001108,68.046555,32.359192,-146.420822,,,
729861905.724837,0.715772,3.544788,123.468259,-0.044601,0.009491,1.025299,0.014196,-0.004719,0.001108,67.885147,32.740677,-146.23996,,,
729861905.728166,0.715772,3.544788,123.468259,-0.044601,0.009491,1.025299,0.014196,-0.004719,0.001108,67.885147,32.740677,-146.23996,,,
729861905.731496,0.725526,3.545992,123.465644,-0.044601,0.009491,1.025299,0.029017,0.004354,-0.008712,67.885147,32.740677,-146.23996,,,
729861905.734817,0.742771,3.549455,123.461868,-0.041687,0.008331,1.038147,0.029017,0.004354,-0.008712,67.885147,32.740677,-146.23996,,,
729861905.737975,0.742771,3.549455,123.461868,-0.041687,0.008331,1.038147,0.029017,0.004354,-0.008712,67.885147,32.740677,-146.23996,,,
729861905.741513,0.768055,3.559267,123.456837,-0.041687,0.008331,1.038147,0.079908,0.032286,-0.012771,67.885147,32.740677,-146.23996,,,
729861905.744805,0.80513,3.574695,123.450855,-0.045181,0.003036,1.067169,0.079908,0.032286,-0.012771,67.885147,32.740677,-146.23996,,,
729861905.748153,0.80513,3.574695,123.450855,-0.045181,0.003036,1.067169,0.079908,0.032286,-0.012771,67.885147,32.740677,-146.23996,,,
729861905.751568,0.85564,3.598642,123.444399,-0.045181,0.003036,1.067169,0.16436,0.080771,-0.015368,67.885147,32.740677,-146.23996,,,
729861905.754637,0.921373,3.627776,123.438094,-0.046906,-0.008987,1.108231,0.16436,0.080771,-0.015368,67.885147,32.740677,-146.23996,,,
729861905.758187,0.921373,3.627776,123.438094,-0.046906,-0.008987,1.108231,0.16436,0.080771,-0.015368,67.885147,32.740677,-146.23996,,,
729861905.761483,1.003079,3.664106,123.432078,-0.046906,-0.008987,1.108231,0.270699,0.120819,-0.006602,67.885147,32.740677,-146.23996,,,
729861905.764811,1.100049,3.70459,123.426404,-0.054031,-0.016205,1.127533,0.270699,0.120819,-0.006602,68.005814,32.517395,-146.543182,,,
729861905.768151,1.100049,3.70459,123.426404,-0.054031,-0.016205,1.127533,0.270699,0.120819,-0.006602,68.005814,32.517395,-146.543182,,,
729861905.771307,1.210848,3.749225,123.42168,-0.054031,-0.016205,1.127533,0.375584,0.158545,0.009077,68.005814,32.517395,-146.543182,,,
729861905.774834,1.331385,3.794626,123.417604,-0.064346,-0.012115,1.131989,0.375584,0.158545,0.009077,68.005814,32.517395,-146.543182,,,
729861905.778224,1.331385,3.794626,123.417604,-0.064346,-0.012115,1.131989,0.375584,0.158545,0.009077,68.005814,32.517395,-146.543182,,,
729861905.781494,1.458998,3.841116,123.412777,-0.064346,-0.012115,1.131989,0.439421,0.164079,0.010618,68.005814,32.517395,-146.543182,,,
729861905.78475,1.591251,3.884903,123.406275,-0.073257,-0.014435,1.107712,0.439421,0.164079,0.010618,68.005814,32.517395,-146.543182,,,
729861905.788053,1.591251,3.884903,123.406275,-0.073257,-0.014435,1.107712,0.439421,0.164079,0.010618,68.005814,32.517395,-146.543182,,,
729861905.791603,1.726462,3.926124,123.397693,-0.073257,-0.014435,1.107712,0.471213,0.153309,0.002653,68.005814,32.517395,-146.543182,,,
729861905.794804,1.861627,3.960651,123.387661,-0.075989,0.014191,1.074173,0.471213,0.153309,0.002653,68.005814,32.517395,-146.543182,,,
729861905.798165,1.861627,3.960651,123.387661,-0.075989,0.014191,1.074173,0.471213,0.153309,0.002653,68.005814,32.517395,-146.543182,,,
729861905.801487,1.997036,3.991129,123.376563,-0.075989,0.014191,1.074173,0.473701,0.111153,-0.007163,68.005814,32.517395,-146.543182,,,
729861905.804647,2.133337,4.016031,123.364924,-0.079514,0.025635,1.040024,0.473701,0.111153,-0.007163,68.005814,32.517395,-146.543182,,,
729861905.80819,2.133337,4.016031,123.364924,-0.079514,0.025635,1.040024,0.473701,0.111153,-0.007163,68.351822,31.57132,-146.641479,,,
729861905.811479,2.273444,4.039497,123.353349,-0.079514,0.025635,1.040024,0.485207,0.084408,-0.006115,68.351822,31.57132,-146.641479,,,
729861905.814812,2.419499,4.0612,123.342928,-0.087814,0.029587,1.037628,0.485207,0.084408,-0.006115,68.351822,31.57132,-146.641479,,,
729861905.818232,2.419499,4.0612,123.342928,-0.087814,0.029587,1.037628,0.485207,0.084408,-0.006115,68.351822,31.57132,-146.641479,,,
729861905.821316,2.576874,4.084683,123.334257,-0.087814,0.029587,1.037628,0.533902,0.083086,0.003019,68.351822,31.57132,-146.641479,,,
729861905.824831,2.746551,4.108622,123.32771,-0.094193,0.024139,1.063492,0.533902,0.083086,0.003019,68.351822,31.57132,-146.641479,,,
729861905.828159,2.746551,4.108622,123.32771,-0.094193,0.024139,1.063492,0.533902,0.083086,0.003019,68.351822,31.57132,-146.641479,,,
729861905.831558,2.930847,4.134931,123.323675,-0.094193,0.024139,1.063492,0.629818,0.094353,0.026607,68.351822,31.57132,-146.641479,,,
729861905.834807,3.129466,4.16138,123.321845,-0.098618,0.013748,1.095856,0.629818,0.094353,0.026607,68.351822,31.57132,-146.641479,,,
729861905.837987,3.129466,4.16138,123.321845,-0.098618,0.013748,1.095856,0.629818,0.094353,0.026607,68.351822,31.57132,-146.641479,,,
729861905.841519,3.342574,4.186137,123.320814,-0.098618,0.013748,1.095856,0.727521,0.092108,0.048909,68.351822,31.57132,-146.641479,,,
729861905.844814,3.567801,4.207522,123.320206,-0.10173,0.016296,1.102829,0.727521,0.092108,0.048909,68.351822,31.57132,-146.641479,,,
729861905.848164,3.567801,4.207522,123.320206,-0.10173,0.016296,1.102829,0.727521,0.092108,0.048909,68.568253,30.375717,-146.948502,,,
729861905.851505,3.801581,4.224445,123.319838,-0.10173,0.016296,1.102829,0.808354,0.066046,0.056596,68.568253,30.375717,-146.948502,,,
729861905.854669,4.040477,4.235478,123.31902,-0.099869,0.02739,1.086761,0.808354,0.066046,0.056596,68.568253,30.375717,-146.948502,,,
729861905.858229,4.040477,4.235478,123.31902,-0.099869,0.02739,1.086761,0.808354,0.066046,0.056596,68.568253,30.375717,-146.948502,,,
729861905.861477,4.281204,4.238526,123.317504,-0.099869,0.02739,1.086761,0.831256,0.020812,0.055518,68.568253,30.375717,-146.948502,,,
729861905.864815,4.521817,4.233361,123.315203,-0.099731,0.048096,1.04303,0.831256,0.020812,0.055518,68.568253,30.375717,-146.948502,,,
729861905.868159,4.521817,4.233361,123.315203,-0.099731,0.048096,1.04303,0.831256,0.020812,0.055518,68.568253,30.375717,-146.948502,,,
729861905.871374,4.762701,4.221757,123.312845,-0.099731,0.048096,1.04303,0.837481,-0.035932,0.054362,68.568253,30.375717,-146.948502,,,
729861905.87483,5.003902,4.2059,123.311828,-0.094452,0.064423,1.016006,0.837481,-0.035932,0.054362,68.568253,30.375717,-146.948502,,,
729861905.878181,5.003902,4.2059,123.311828,-0.094452,0.064423,1.016006,0.837481,-0.035932,0.054362,68.568253,30.375717,-146.948502,,,
729861905.881492,5.246884,4.189084,123.312708,-0.094452,0.064423,1.016006,0.838554,-0.055142,0.062246,68.568253,30.375717,-146.948502,,,
729861905.884815,5.496789,4.175126,123.315118,-0.090271,0.061966,1.018463,0.838554,-0.055142,0.062246,68.568253,30.375717,-146.948502,,,
729861905.887968,5.496789,4.175126,123.315118,-0.090271,0.061966,1.018463,0.838554,-0.055142,0.062246,68.709885,28.454315,-147.071182,,,
729861905.891516,5.758981,4.166544,123.3194,-0.090271,0.061966,1.018463,0.897587,-0.030181,0.077209,68.709885,28.454315,-147.071182,,,
729861905.894816,6.034726,4.164429,123.325323,-0.083984,0.071289,1.054306,0.897587,-0.030181,0.077209,68.709885,28.454315,-147.071182,,,
729861905.898211,6.034726,4.164429,123.325323,-0.083984,0.071289,1.054306,0.897587,-0.030181,0.077209,68.709885,28.454315,-147.071182,,,
729861905.901494,6.321673,4.169683,123.331741,-0.083984,0.071289,1.054306,0.989723,0.018877,0.093113,68.709885,28.454315,-147.071182,,,
729861905.904635,6.321673,4.181193,123.337717,-0.072769,0.084442,1.090622,0.989723,0.018877,0.093113,68.709885,28.454315,-147.071182,,,
729861905.908214,6.617274,4.181193,123.337717,-0.072769,0.084442,1.090622,0.989723,0.018877,0.093113,68.709885,28.454315,-147.071182,,,
729861905.911491,6.919373,4.197477,123.342253,-0.072769,0.084442,1.090622,1.046001,0.058376,0.092423,68.709885,28.454315,-147.071182,,,
729861905.914814,7.226146,4.216443,123.345192,-0.064804,0.079422,1.06308,1.046001,0.058376,0.092423,68.709885,28.454315,-147.071182,,,
729861905.918164,7.226146,4.216443,123.345192,-0.064804,0.079422,1.06308,1.046001,0.058376,0.092423,68.709885,28.454315,-147.071182,,,
729861905.921353,7.535362,4.235246,123.345957,-0.064804,0.079422,1.06308,1.072942,0.070333,0.081676,68.709885,28.454315,-147.071182,,,
729861905.924831,7.844187,4.2502,123.345584,-0.066055,0.098175,1.021149,1.072942,0.070333,0.081676,68.709885,28.454315,-147.071182,,,
729861905.928202,7.844187,4.2502,123.345584,-0.066055,0.098175,1.021149,1.072942,0.070333,0.081676,68.709885,28.454315,-147.071182,,,
729861905.932346,8.148004,4.258503,123.344715,-0.066055,0.098175,1.021149,1.064575,0.040527,0.074136,68.532745,26.165665,-147.985092,,,
729861905.934757,8.441232,4.258599,123.342451,-0.06813,0.12323,0.975723,1.064575,0.040527,0.074136,68.532745,26.165665,-147.985092,,,
729861905.938036,8.441232,4.258599,123.342451,-0.06813,0.12323,0.975723,1.064575,0.040527,0.074136,68.532745,26.165665,-147.985092,,,
729861905.941524,8.720297,4.248988,123.338807,-0.06813,0.12323,0.975723,0.987183,-0.02553,0.060761,68.532745,26.165665,-147.985092,,,
729861905.944844,8.982992,4.229496,123.334246,-0.065262,0.150452,0.925385,0.987183,-0.02553,0.060761,68.532745,26.165665,-147.985092,,,
729861905.948148,8.982992,4.229496,123.334246,-0.065262,0.150452,0.925385,0.987183,-0.02553,0.060761,68.532745,26.165665,-147.985092,,,
729861905.951491,9.228946,4.202009,123.32822,-0.065262,0.150452,0.925385,0.870766,-0.086884,0.043517,68.532745,26.165665,-147.985092,,,
729861905.954685,9.228946,4.202009,123.320249,-0.059631,0.174225,0.899338,0.870766,-0.086884,0.043517,68.532745,26.165665,-147.985092,,,
729861905.958262,9.459474,4.167597,123.320249,-0.059631,0.174225,0.899338,0.870766,-0.086884,0.043517,68.532745,26.165665,-147.985092,,,
729861905.961527,9.677893,4.127132,123.310572,-0.059631,0.174225,0.899338,0.769611,-0.138073,0.022432,68.532745,26.165665,-147.985092,,,
729861905.964813,9.888967,4.081323,123.299532,-0.057404,0.185562,0.910995,0.769611,-0.138073,0.022432,68.532745,26.165665,-147.985092,,,
729861905.968199,9.888967,4.081323,123.299532,-0.057404,0.185562,0.910995,0.769611,-0.138073,0.022432,68.532745,26.165665,-147.985092,,,
729861905.971385,10.096342,4.030358,123.287478,-0.057404,0.185562,0.910995,0.724737,-0.174809,0.008806,68.446091,24.678604,-147.832428,,,
729861905.974831,10.302161,3.972747,123.27535,-0.057983,0.181274,0.94371,0.724737,-0.174809,0.008806,68.446091,24.678604,-147.832428,,,
729861905.978179,10.302161,3.972747,123.27535,-0.057983,0.181274,0.94371,0.724737,-0.174809,0.008806,68.446091,24.678604,-147.832428,,,
729861905.981481,10.508827,3.905308,123.264442,-0.057983,0.181274,0.94371,0.720136,-0.227856,0.008972,68.446091,24.678604,-147.832428,,,
729861905.98481,10.717067,3.824899,123.25464,-0.069031,0.168549,0.965729,0.720136,-0.227856,0.008972,68.446091,24.678604,-147.832428,,,
729861905.988001,10.717067,3.824899,123.25464,-0.069031,0.168549,0.965729,0.720136,-0.227856,0.008972,68.446091,24.678604,-147.832428,,,
729861905.991517,10.926845,3.732079,123.245434,-0.069031,0.168549,0.965729,0.73039,-0.316178,0.01549,68.446091,24.678604,-147.832428,,,
729861905.994815,11.140386,3.629295,123.235839,-0.072586,0.167679,0.965103,0.73039,-0.316178,0.01549,68.446091,24.678604,-147.832428,,,
729861905.998216,11.140386,3.629295,123.235839,-0.072586,0.167679,0.965103,0.73039,-0.316178,0.01549,68.446091,24.678604,-147.832428,,,
729861906.001496,11.360924,3.520629,123.22422,-0.072586,0.167679,0.965103,0.761686,-0.379678,0.012284,68.446091,24.678604,-147.832428,,,
729861906.004643,11.360924,3.520629,123.22422,-0.062119,0.167221,0.989975,0.761686,-0.379678,0.012284,68.446091,24.678604,-147.832428,,,
729861906.0082,11.591168,3.410587,123.209339,-0.062119,0.167221,0.989975,0.761686,-0.379678,0.012284,68.446091,24.678604,-147.832428,,,
729861906.011477,11.834361,3.303408,123.191264,-0.062119,0.167221,0.989975,0.836178,-0.387503,-0.01118,67.76741,23.00824,-148.188461,,,
729861906.01481,12.093929,3.202125,123.170567,-0.042313,0.167007,1.041397,0.836178,-0.387503,-0.01118,67.76741,23.00824,-148.188461,,,
729861906.018159,12.093929,3.202125,123.170567,-0.042313,0.167007,1.041397,0.836178,-0.387503,-0.01118,67.76741,23.00824,-148.188461,,,
729861906.021262,12.372612,3.110076,123.147817,-0.042313,0.167007,1.041397,0.952953,-0.344583,-0.025241,67.76741,23.00824,-148.188461,,,
729861906.024837,12.372612,3.110076,123.147817,-0.031921,0.159027,1.091995,0.952953,-0.344583,-0.025241,67.76741,23.00824,-148.188461,,,
729861906.028168,12.672303,3.030993,123.123252,-0.031921,0.159027,1.091995,0.952953,-0.344583,-0.025241,67.76741,23.00824,-148.188461,,,
729861906.031652,12.992957,2.967035,123.097165,-0.031921,0.159027,1.091995,1.104745,-0.253525,-0.030761,67.76741,23.00824,-148.188461,,,
729861906.034872,12.992957,2.967035,123.070454,-0.028458,0.156281,1.127548,1.104745,-0.253525,-0.030761,67.76741,23.00824,-148.188461,,,
729861906.037956,13.333047,2.919642,123.070454,-0.028458,0.156281,1.127548,1.104745,-0.253525,-0.030761,67.76741,23.00824,-148.188461,,,
729861906.041535,13.690483,2.889177,123.043315,-0.028458,0.156281,1.127548,1.236802,-0.139946,-0.033245,67.76741,23.00824,-148.188461,,,
729861906.04481,13.690483,2.889177,123.043315,-0.030167,0.164246,1.112946,1.236802,-0.139946,-0.033245,67.76741,23.00824,-148.188461,,,
729861906.048253,14.061112,2.87435,123.014744,-0.030167,0.164246,1.112946,1.236802,-0.139946,-0.033245,67.76741,23.00824,-148.188461,,,
729861906.051482,14.438202,2.872379,122.984821,-0.030167,0.164246,1.112946,1.319867,-0.035792,-0.033524,67.325394,20.644882,-148.296783,,,
729861906.054726,14.438202,2.872379,122.984821,-0.032089,0.181763,1.055969,1.319867,-0.035792,-0.033524,67.325394,20.644882,-148.296783,,,
729861906.058188,14.813593,2.877702,122.954665,-0.032089,0.181763,1.055969,1.319867,-0.035792,-0.033524,67.325394,20.644882,-148.296783,,,
729861906.061551,15.180517,2.887018,122.923297,-0.032089,0.181763,1.055969,1.291355,0.005865,-0.038446,67.325394,20.644882,-148.296783,,,
729861906.064824,15.180517,2.887018,122.923297,-0.033188,0.21936,0.956955,1.291355,0.005865,-0.038446,67.325394,20.644882,-148.296783,,,
729861906.068155,15.533276,2.898828,122.889558,-0.033188,0.21936,0.956955,1.291355,0.005865,-0.038446,67.325394,20.644882,-148.296783,,,
729861906.07133,15.869315,2.912794,122.852799,-0.033188,0.21936,0.956955,1.192744,0.01568,-0.061586,67.325394,20.644882,-148.296783,,,
