Time (sec),Pitch (deg),Roll (deg),Yaw(deg),X-Acceleration (g),Y-Acceleration (g),Z-Acceleration (g),Pitch Rate (deg/sec),Roll Rate (deg/sec),Yaw Rate (deg/sec),Magnetic Field in X direction (uT),Magnetic Field in Y direction (uT),Magnetic Field in Z Direction (uT),Latitude (deg),Longitude (deg),Altitude (m)
729863044.566021,1.175416,5.278945,52.914494,-0.086319,0.016815,0.998459,0.015862,0.004376,-0.009766,58.759567,5.286469,-148.706009,,,
729863044.569275,1.181244,5.280727,52.911715,-0.086319,0.016815,0.998459,0.022738,0.00647,-0.006393,58.759567,5.286469,-148.706009,,,
729863044.572594,1.187106,5.281662,52.909291,-0.092209,0.017334,0.999863,0.022738,0.00647,-0.006393,58.759567,5.286469,-148.706009,,,
729863044.575941,1.187106,5.281662,52.909291,-0.092209,0.017334,0.999863,0.022738,0.00647,-0.006393,58.759567,5.286469,-148.706009,,,
729863044.579357,1.195895,5.282288,52.90773,-0.092209,0.017334,0.999863,0.030021,0.00374,-0.002121,58.755234,5.152191,-148.466507,,,
729863044.582582,1.203317,5.282449,52.906815,-0.095978,0.01474,0.998062,0.030021,0.00374,-0.002121,58.755234,5.152191,-148.466507,,,
729863044.585924,1.203317,5.282449,52.906815,-0.095978,0.01474,0.998062,0.030021,0.00374,-0.002121,58.755234,5.152191,-148.466507,,,
729863044.589271,1.212399,5.280913,52.905475,-0.095978,0.01474,0.998062,0.028654,0.000947,-0.005832,58.755234,5.152191,-148.466507,,,
729863044.592296,1.220688,5.280603,52.903538,-0.09375,0.016586,0.996887,0.028654,0.000947,-0.005832,58.755234,5.152191,-148.466507,,,
729863044.595962,1.220688,5.280603,52.903538,-0.09375,0.016586,0.996887,0.028654,0.000947,-0.005832,58.755234,5.152191,-148.466507,,,
729863044.599276,1.229784,5.278065,52.90169,-0.09375,0.016586,0.996887,0.033153,0.001073,-0.000995,58.755234,5.152191,-148.466507,,,
729863044.602591,1.238517,5.277293,52.900492,-0.096786,0.012009,1.000534,0.033153,0.001073,-0.000995,58.755234,5.152191,-148.466507,,,
729863044.605921,1.238517,5.277293,52.900492,-0.096786,0.012009,1.000534,0.033153,0.001073,-0.000995,58.755234,5.152191,-148.466507,,,
729863044.609273,1.248046,5.276054,52.900433,-0.096786,0.012009,1.000534,0.031107,0.0007,0.00701,58.755234,5.152191,-148.466507,,,
729863044.61259,1.257662,5.275837,52.90178,-0.103485,0.01178,0.998016,0.031107,0.0007,0.00701,58.755234,5.152191,-148.466507,,,
729863044.61593,1.257662,5.275837,52.90178,-0.103485,0.01178,0.998016,0.031107,0.0007,0.00701,58.755234,5.152191,-148.466507,,,
729863044.619325,1.26565,5.274947,52.904577,-0.103485,0.01178,0.998016,0.025459,-0.011439,0.01648,58.752121,5.06105,-148.67569,,,
729863044.622665,1.273288,5.271273,52.90854,-0.1008,0.016937,0.990356,0.025459,-0.011439,0.01648,58.752121,5.06105,-148.67569,,,
729863044.625924,1.273288,5.271273,52.90854,-0.1008,0.016937,0.990356,0.025459,-0.011439,0.01648,58.752121,5.06105,-148.67569,,,
729863044.629305,1.279212,5.265991,52.912722,-0.1008,0.016937,0.990356,0.017383,-0.018362,0.012088,58.752121,5.06105,-148.67569,,,
729863044.632606,1.284977,5.260479,52.916037,-0.092545,0.01976,0.987762,0.017383,-0.018362,0.012088,58.752121,5.06105,-148.67569,,,
729863044.635951,1.284977,5.260479,52.916037,-0.092545,0.01976,0.987762,0.017383,-0.018362,0.012088,58.752121,5.06105,-148.67569,,,
729863044.639273,1.288347,5.253257,52.918972,-0.092545,0.01976,0.987762,0.010238,-0.013648,0.005686,58.752121,5.06105,-148.67569,,,
729863044.642584,1.291875,5.248888,52.921394,-0.088608,0.019791,0.989151,0.010238,-0.013648,0.005686,58.752121,5.06105,-148.67569,,,
729863044.646023,1.291875,5.248888,52.921394,-0.088608,0.019791,0.989151,0.010238,-0.013648,0.005686,58.752121,5.06105,-148.67569,,,
729863044.649274,1.293157,5.244871,52.922988,-0.088608,0.019791,0.989151,0.001981,0.003874,0.001212,58.752121,5.06105,-148.67569,,,
729863044.652592,1.293566,5.244579,52.923722,-0.086197,0.022034,0.989273,0.001981,0.003874,0.001212,58.752121,5.06105,-148.67569,,,
729863044.655925,1.293566,5.244579,52.923722,-0.086197,0.022034,0.989273,0.001981,0.003874,0.001212,58.752121,5.06105,-148.67569,,,
729863044.659277,1.291438,5.248257,52.923556,-0.086197,0.022034,0.989273,-0.004154,0.026924,-0.003972,58.680191,5.232056,-148.638824,,,
729863044.662591,1.290293,5.254352,52.922861,-0.08609,0.021912,0.995636,-0.004154,0.026924,-0.003972,58.680191,5.232056,-148.638824,,,
729863044.665934,1.290293,5.254352,52.922861,-0.08609,0.021912,0.995636,-0.004154,0.026924,-0.003972,58.680191,5.232056,-148.638824,,,
729863044.669257,1.287926,5.263932,52.921599,-0.08609,0.021912,0.995636,0.00096,0.033939,-0.003725,58.680191,5.232056,-148.638824,,,
729863044.672591,1.28784,5.273157,52.920152,-0.093536,0.019272,0.996765,0.00096,0.033939,-0.003725,58.680191,5.232056,-148.638824,,,
729863044.675928,1.28784,5.273157,52.920152,-0.093536,0.019272,0.996765,0.00096,0.033939,-0.003725,58.680191,5.232056,-148.638824,,,
729863044.67931,1.287018,5.283215,52.919067,-0.093536,0.019272,0.996765,0.003662,0.031911,-0.002855,58.680191,5.232056,-148.638824,,,
729863044.682587,1.28764,5.291669,52.918387,-0.098846,0.020828,0.993362,0.003662,0.031911,-0.002855,58.680191,5.232056,-148.638824,,,
729863044.686015,1.28764,5.291669,52.918387,-0.098846,0.020828,0.993362,0.003662,0.031911,-0.002855,58.680191,5.232056,-148.638824,,,
729863044.68927,1.28674,5.299463,52.917409,-0.098846,0.020828,0.993362,0.00959,0.007091,-0.008501,58.680191,5.232056,-148.638824,,,
729863044.692582,1.28885,5.302196,52.915237,-0.096237,0.024033,0.987396,0.00959,0.007091,-0.008501,58.680191,5.232056,-148.638824,,,
729863044.695944,1.28885,5.302196,52.915237,-0.096237,0.024033,0.987396,0.00959,0.007091,-0.008501,58.680191,5.232056,-148.638824,,,
729863044.699349,1.289143,5.304905,52.911756,-0.096237,0.024033,0.987396,0.00849,-0.015404,-0.015263,58.680191,5.232056,-148.638824,,,
729863044.702582,1.291349,5.301268,52.907791,-0.098129,0.023895,0.982178,0.00849,-0.015404,-0.015263,58.619003,5.263443,-148.79834,,,
729863044.705935,1.291349,5.301268,52.907791,-0.098129,0.023895,0.982178,0.00849,-0.015404,-0.015263,58.619003,5.263443,-148.79834,,,
729863044.709269,1.291618,5.298192,52.90416,-0.098129,0.023895,0.982178,0.00276,-0.021613,-0.011523,58.619003,5.263443,-148.79834,,,
729863044.712485,1.291928,5.292431,52.901199,-0.095093,0.024796,0.977859,0.00276,-0.021613,-0.011523,58.619003,5.263443,-148.79834,,,
729863044.715944,1.291928,5.292431,52.901199,-0.095093,0.024796,0.977859,0.00276,-0.021613,-0.011523,58.619003,5.263443,-148.79834,,,
729863044.719272,1.291284,5.286073,52.899206,-0.095093,0.024796,0.977859,4.6e-05,-0.014993,-0.004751,58.619003,5.263443,-148.79834,,,
729863044.722583,1.290803,5.280905,52.898078,-0.089584,0.027374,0.981308,4.6e-05,-0.014993,-0.004751,58.619003,5.263443,-148.79834,,,
729863044.725997,1.290803,5.280905,52.898078,-0.089584,0.027374,0.981308,4.6e-05,-0.014993,-0.004751,58.619003,5.263443,-148.79834,,,
729863044.729268,1.288416,5.277278,52.897095,-0.089584,0.027374,0.981308,-0.013057,0.014148,-0.004384,58.619003,5.263443,-148.79834,,,
729863044.732635,1.284615,5.278684,52.896464,-0.086197,0.026276,0.983337,-0.013057,0.014148,-0.004384,58.619003,5.263443,-148.79834,,,
729863044.735923,1.284615,5.278684,52.896464,-0.086197,0.026276,0.983337,-0.013057,0.014148,-0.004384,58.619003,5.263443,-148.79834,,,
729863044.739332,1.278501,5.283554,52.896249,-0.086197,0.026276,0.983337,-0.029496,0.050936,-0.010507,58.619003,5.263443,-148.79834,,,
729863044.742574,1.269896,5.295251,52.895116,-0.078064,0.027725,0.986389,-0.029496,0.050936,-0.010507,58.742554,5.300217,-148.284149,,,
729863044.745929,1.269896,5.295251,52.895116,-0.078064,0.027725,0.986389,-0.029496,0.050936,-0.010507,58.742554,5.300217,-148.284149,,,
729863044.749274,1.259774,5.310089,52.891861,-0.078064,0.027725,0.986389,-0.030639,0.068826,-0.022844,58.742554,5.300217,-148.284149,,,
729863044.752582,1.249874,5.329394,52.886699,-0.079407,0.027496,0.995911,-0.030639,0.068826,-0.022844,58.742554,5.300217,-148.284149,,,
729863044.75593,1.249874,5.329394,52.886699,-0.079407,0.027496,0.995911,-0.030639,0.068826,-0.022844,58.742554,5.300217,-148.284149,,,
729863044.759259,1.240252,5.350013,52.880671,-0.079407,0.027496,0.995911,-0.024717,0.067927,-0.025624,58.742554,5.300217,-148.284149,,,
729863044.762587,1.232084,5.368995,52.874727,-0.098221,0.018509,1.001099,-0.024717,0.067927,-0.025624,58.742554,5.300217,-148.284149,,,
729863044.76597,1.232084,5.368995,52.874727,-0.098221,0.018509,1.001099,-0.024717,0.067927,-0.025624,58.742554,5.300217,-148.284149,,,
729863044.769264,1.226166,5.387232,52.869588,-0.098221,0.018509,1.001099,-0.005637,0.038664,-0.012871,58.742554,5.300217,-148.284149,,,
729863044.772585,1.223624,5.39902,52.865991,-0.110764,0.017197,1.001984,-0.005637,0.038664,-0.012871,58.742554,5.300217,-148.284149,,,
729863044.775925,1.223624,5.39902,52.865991,-0.110764,0.017197,1.001984,-0.005637,0.038664,-0.012871,58.742554,5.300217,-148.284149,,,
729863044.779346,1.224815,5.405131,52.863875,-0.110764,0.017197,1.001984,0.016486,-0.005436,-0.000524,58.742554,5.300217,-148.284149,,,
729863044.782615,1.228098,5.403842,52.863127,-0.117554,0.014343,1.002777,0.016486,-0.005436,-0.000524,58.693619,5.526962,-148.39888,,,
729863044.785947,1.228098,5.403842,52.863127,-0.117554,0.014343,1.002777,0.016486,-0.005436,-0.000524,58.693619,5.526962,-148.39888,,,
729863044.789351,1.234028,5.398648,52.864198,-0.117554,0.014343,1.002777,0.020903,-0.037663,0.012307,58.693619,5.526962,-148.39888,,,
729863044.792573,1.239881,5.387919,52.866793,-0.113892,0.013855,0.994781,0.020903,-0.037663,0.012307,58.693619,5.526962,-148.39888,,,
729863044.795949,1.239881,5.387919,52.866793,-0.113892,0.013855,0.994781,0.020903,-0.037663,0.012307,58.693619,5.526962,-148.39888,,,
729863044.799273,1.24605,5.376113,52.870495,-0.113892,0.013855,0.994781,0.015232,-0.036992,0.014842,58.693619,5.526962,-148.39888,,,
729863044.802683,1.250006,5.364492,52.874348,-0.095642,0.023087,0.991959,0.015232,-0.036992,0.014842,58.693619,5.526962,-148.39888,,,
729863044.805917,1.250006,5.364492,52.874348,-0.095642,0.023087,0.991959,0.015232,-0.036992,0.014842,58.693619,5.526962,-148.39888,,,
729863044.809259,1.254835,5.353851,52.876778,-0.095642,0.023087,0.991959,0.010003,-0.01335,0.001594,58.693619,5.526962,-148.39888,,,
729863044.812598,1.257729,5.347928,52.878004,-0.08429,0.027023,0.997665,0.010003,-0.01335,0.001594,58.693619,5.526962,-148.39888,,,
729863044.815995,1.257729,5.347928,52.878004,-0.08429,0.027023,0.997665,0.010003,-0.01335,0.001594,58.693619,5.526962,-148.39888,,,
729863044.819254,1.260837,5.344633,52.87832,-0.08429,0.027023,0.997665,0.00011,0.018028,-0.00229,58.693619,5.526962,-148.39888,,,
729863044.82266,1.262245,5.34766,52.878027,-0.08252,0.025574,0.99614,0.00011,0.018028,-0.00229,58.609299,5.496185,-148.625717,,,
729863044.825934,1.262245,5.34766,52.878027,-0.08252,0.025574,0.99614,0.00011,0.018028,-0.00229,58.609299,5.496185,-148.625717,,,
729863044.829314,1.263485,5.349095,52.878194,-0.08252,0.025574,0.99614,-0.007664,0.032965,0.000733,58.609299,5.496185,-148.625717,,,
729863044.832617,1.263485,5.357264,52.878984,-0.089096,0.025604,0.988892,-0.007664,0.032965,0.000733,58.609299,5.496185,-148.625717,,,
729863044.835922,1.261049,5.357264,52.878984,-0.089096,0.025604,0.988892,-0.007664,0.032965,0.000733,58.609299,5.496185,-148.625717,,,
729863044.839259,1.257207,5.363189,52.880642,-0.089096,0.025604,0.988892,-0.021762,0.028733,0.006567,58.609299,5.496185,-148.625717,,,
729863044.842611,1.251559,5.37152,52.88274,-0.098694,0.026703,0.980011,-0.021762,0.028733,0.006567,58.609299,5.496185,-148.625717,,,
729863044.845922,1.251559,5.37152,52.88274,-0.098694,0.026703,0.980011,-0.021762,0.028733,0.006567,58.609299,5.496185,-148.625717,,,
729863044.849265,1.243609,5.380037,52.885568,-0.098694,0.026703,0.980011,-0.034684,0.012938,0.007914,58.609299,5.496185,-148.625717,,,
729863044.852615,1.234881,5.383455,52.889293,-0.095261,0.023346,0.97345,-0.034684,0.012938,0.007914,58.609299,5.496185,-148.625717,,,
729863044.855999,1.234881,5.383455,52.889293,-0.095261,0.023346,0.97345,-0.034684,0.012938,0.007914,58.609299,5.496185,-148.625717,,,
729863044.859256,1.223705,5.388918,52.892984,-0.095261,0.023346,0.97345,-0.031785,-0.016754,0.005577,58.609299,5.496185,-148.625717,,,
729863044.86264,1.214018,5.384224,52.895779,-0.088104,0.025711,0.975769,-0.031785,-0.016754,0.005577,58.609299,5.496185,-148.625717,,,
729863044.865921,1.214018,5.384224,52.895779,-0.088104,0.025711,0.975769,-0.031785,-0.016754,0.005577,58.659912,5.453323,-148.506104,,,
729863044.869304,1.204036,5.38201,52.897081,-0.088104,0.025711,0.975769,-0.020972,-0.041037,-0.002156,58.659912,5.453323,-148.506104,,,
729863044.87262,1.197384,5.370192,52.897461,-0.088104,0.025711,0.975769,-0.020972,-0.041037,-0.002156,58.659912,5.453323,-148.506104,,,
729863044.875933,1.197384,5.370192,52.897461,-0.085007,0.021484,0.986008,-0.020972,-0.041037,-0.002156,58.659912,5.453323,-148.506104,,,
729863044.879263,1.191735,5.363231,52.896516,-0.085007,0.021484,0.986008,-0.007577,-0.028644,-0.007033,58.659912,5.453323,-148.506104,,,
729863044.882634,1.191735,5.353795,52.894882,-0.080368,0.015579,0.999664,-0.007577,-0.028644,-0.007033,58.659912,5.453323,-148.506104,,,
729863044.885925,1.188628,5.353795,52.894882,-0.080368,0.015579,0.999664,-0.007577,-0.028644,-0.007033,58.659912,5.453323,-148.506104,,,
729863044.88927,1.188906,5.347656,52.893222,-0.080368,0.015579,0.999664,0.006404,0.001137,-0.007819,58.659912,5.453323,-148.506104,,,
729863044.892693,1.188906,5.346502,52.891368,-0.080368,0.015579,0.999664,0.006404,0.001137,-0.007819,58.659912,5.453323,-148.506104,,,
729863044.895918,1.190563,5.346502,52.891368,-0.075302,0.016403,1.011429,0.006404,0.001137,-0.007819,58.659912,5.453323,-148.506104,,,
729863044.89926,1.194448,5.34727,52.889114,-0.075302,0.016403,1.011429,0.017227,0.0331,-0.008938,58.659912,5.453323,-148.506104,,,
729863044.902617,1.194448,5.35499,52.886418,-0.075302,0.016403,1.011429,0.017227,0.0331,-0.008938,58.659912,5.453323,-148.506104,,,
729863044.905931,1.198102,5.35499,52.886418,-0.07605,0.01535,1.010086,0.017227,0.0331,-0.008938,58.828156,5.404251,-148.695831,,,
729863044.909308,1.203256,5.362427,52.883296,-0.07605,0.01535,1.010086,0.013285,0.035004,-0.012737,58.828156,5.404251,-148.695831,,,
729863044.912586,1.203256,5.362427,52.883296,-0.07605,0.01535,1.010086,0.013285,0.035004,-0.012737,58.828156,5.404251,-148.695831,,,
729863044.915925,1.206648,5.372691,52.8796,-0.084045,0.017639,0.995804,0.013285,0.035004,-0.012737,58.828156,5.404251,-148.695831,,,
729863044.919268,1.209801,5.380583,52.875597,-0.084045,0.017639,0.995804,0.005371,0.022534,-0.01722,58.828156,5.404251,-148.695831,,,
729863044.922654,1.209801,5.386724,52.871209,-0.084045,0.017639,0.995804,0.005371,0.022534,-0.01722,58.828156,5.404251,-148.695831,,,
729863044.92593,1.210919,5.386724,52.871209,-0.088882,0.021332,0.985336,0.005371,0.022534,-0.01722,58.828156,5.404251,-148.695831,,,
729863044.929256,1.21198,5.392481,52.866613,-0.088882,0.021332,0.985336,-0.003328,-0.002272,-0.019129,58.828156,5.404251,-148.695831,,,
729863044.93259,1.21198,5.392481,52.866613,-0.088882,0.021332,0.985336,-0.003328,-0.002272,-0.019129,58.828156,5.404251,-148.695831,,,
729863044.935976,1.210563,5.392804,52.86199,-0.098557,0.023087,0.981201,-0.003328,-0.002272,-0.019129,58.828156,5.404251,-148.695831,,,
729863044.939249,1.20861,5.389148,52.858046,-0.098557,0.023087,0.981201,-0.010884,-0.031814,-0.010708,58.828156,5.404251,-148.695831,,,
729863044.942622,1.20861,5.389148,52.858046,-0.098557,0.023087,0.981201,-0.010884,-0.031814,-0.010708,58.828156,5.404251,-148.695831,,,
729863044.945922,1.205727,5.381017,52.855417,-0.105103,0.023193,0.980026,-0.010884,-0.031814,-0.010708,58.659668,5.430084,-148.263626,,,
729863044.94925,1.20353,5.369094,52.853795,-0.105103,0.023193,0.980026,-0.010258,-0.038283,0.000352,58.659668,5.430084,-148.263626,,,
729863044.952636,1.20353,5.369094,52.853795,-0.105103,0.023193,0.980026,-0.010258,-0.038283,0.000352,58.659668,5.430084,-148.263626,,,
729863044.955919,1.199753,5.358386,52.853646,-0.106674,0.02533,0.98793,-0.010258,-0.038283,0.000352,58.659668,5.430084,-148.263626,,,
729863044.959311,1.195359,5.345423,52.854652,-0.106674,0.02533,0.98793,-0.016671,-0.024791,0.005738,58.659668,5.430084,-148.263626,,,
729863044.962611,1.195359,5.345423,52.854652,-0.106674,0.02533,0.98793,-0.016671,-0.024791,0.005738,58.659668,5.430084,-148.263626,,,
729863044.965922,1.190215,5.336554,52.856259,-0.099945,0.025696,0.988464,-0.016671,-0.024791,0.005738,58.659668,5.430084,-148.263626,,,
729863044.969253,1.182837,5.326036,52.858388,-0.099945,0.025696,0.988464,-0.026488,-0.005175,0.001451,58.659668,5.430084,-148.263626,,,
729863044.972712,1.182837,5.326036,52.858388,-0.099945,0.025696,0.988464,-0.026488,-0.005175,0.001451,58.659668,5.430084,-148.263626,,,
729863044.975905,1.17542,5.323132,52.860153,-0.089722,0.026108,0.987534,-0.026488,-0.005175,0.001451,58.659668,5.430084,-148.263626,,,
729863044.979253,1.166975,5.317793,52.861428,-0.089722,0.026108,0.987534,-0.022174,0.014985,-0.003877,58.659668,5.430084,-148.263626,,,
729863044.982584,1.166975,5.317793,52.861428,-0.089722,0.026108,0.987534,-0.022174,0.014985,-0.003877,58.659668,5.430084,-148.263626,,,
729863044.985922,1.160022,5.321197,52.861386,-0.085846,0.023529,0.995361,-0.022174,0.014985,-0.003877,58.733932,5.389969,-148.319855,,,
729863044.989298,1.152978,5.322293,52.860808,-0.085846,0.023529,0.995361,-0.013295,0.032973,-0.004413,58.733932,5.389969,-148.319855,,,
729863044.992594,1.152978,5.322293,52.860808,-0.085846,0.023529,0.995361,-0.013295,0.032973,-0.004413,58.733932,5.389969,-148.319855,,,
729863044.995928,1.148509,5.330564,52.86052,-0.092667,0.018372,1.000626,-0.013295,0.032973,-0.004413,58.733932,5.389969,-148.319855,,,
729863044.99926,1.144281,5.337911,52.860863,-0.092667,0.018372,1.000626,-0.015855,0.033601,0.001964,58.733932,5.389969,-148.319855,,,
729863045.002598,1.144281,5.337911,52.860863,-0.092667,0.018372,1.000626,-0.015855,0.033601,0.001964,58.733932,5.389969,-148.319855,,,
729863045.005951,1.139915,5.346835,52.861758,-0.095352,0.020035,0.987793,-0.015855,0.033601,0.001964,58.733932,5.389969,-148.319855,,,
729863045.009259,1.136319,5.353007,52.86367,-0.095352,0.020035,0.987793,-0.011563,0.012339,0.005151,58.733932,5.389969,-148.319855,,,
729863045.012676,1.136319,5.353007,52.86367,-0.095352,0.020035,0.987793,-0.011563,0.012339,0.005151,58.733932,5.389969,-148.319855,,,
729863045.015924,1.133418,5.356604,52.866208,-0.094742,0.017548,0.983871,-0.011563,0.012339,0.005151,58.733932,5.389969,-148.319855,,,
729863045.019253,1.132965,5.359874,52.868134,-0.094742,0.017548,0.983871,0.000349,-0.009271,-0.002331,58.733932,5.389969,-148.319855,,,
729863045.022597,1.132965,5.359874,52.868134,-0.094742,0.017548,0.983871,0.000349,-0.009271,-0.002331,58.733932,5.389969,-148.319855,,,
729863045.02598,1.132794,5.357478,52.868789,-0.092697,0.01416,0.992508,0.000349,-0.009271,-0.002331,58.733932,5.389969,-148.319855,,,
729863045.029246,1.133267,5.356846,52.867934,-0.092697,0.01416,0.992508,0.000882,-0.017048,-0.013376,58.837112,5.371994,-148.218124,,,
729863045.032607,1.133267,5.356846,52.867934,-0.092697,0.01416,0.992508,0.000882,-0.017048,-0.013376,58.837112,5.371994,-148.218124,,,
729863045.035924,1.132569,5.351033,52.865522,-0.087296,0.015549,0.992111,0.000882,-0.017048,-0.013376,58.837112,5.371994,-148.218124,,,
729863045.039252,1.132819,5.350596,52.8618,-0.087296,0.015549,0.992111,-0.004825,-0.007943,-0.015148,58.837112,5.371994,-148.218124,,,
729863045.04238,1.132819,5.350596,52.8618,-0.087296,0.015549,0.992111,-0.004825,-0.007943,-0.015148,58.837112,5.371994,-148.218124,,,
729863045.046011,1.13067,5.34782,52.857837,-0.089447,0.018921,0.997131,-0.004825,-0.007943,-0.015148,58.837112,5.371994,-148.218124,,,
729863045.049281,1.128366,5.347679,52.854218,-0.089447,0.018921,0.997131,-0.01842,0.000744,-0.011768,58.837112,5.371994,-148.218124,,,
729863045.052602,1.128366,5.347679,52.854218,-0.089447,0.018921,0.997131,-0.01842,0.000744,-0.011768,58.837112,5.371994,-148.218124,,,
729863045.056094,1.123465,5.346903,52.851588,-0.095627,0.017853,0.989334,-0.01842,0.000744,-0.011768,58.837112,5.371994,-148.218124,,,
729863045.05924,1.117366,5.344514,52.850265,-0.095627,0.017853,0.989334,-0.029487,-0.006951,-3.8e-05,58.837112,5.371994,-148.218124,,,
729863045.062588,1.117366,5.344514,52.850265,-0.095627,0.017853,0.989334,-0.029487,-0.006951,-3.8e-05,58.837112,5.371994,-148.218124,,,
729863045.065924,1.108729,5.34206,52.850538,-0.102356,0.020615,0.98497,-0.029487,-0.006951,-3.8e-05,58.837112,5.371994,-148.218124,,,
729863045.069267,1.099904,5.335603,52.852525,-0.102356,0.020615,0.98497,-0.036148,-0.024634,0.008901,58.913284,5.435608,-148.626999,,,
729863045.072633,1.099904,5.335603,52.852525,-0.102356,0.020615,0.98497,-0.036148,-0.024634,0.008901,58.913284,5.435608,-148.626999,,,
729863045.075965,1.090078,5.328766,52.855952,-0.105591,0.018066,0.986191,-0.036148,-0.024634,0.008901,58.913284,5.435608,-148.626999,,,
729863045.079308,1.080038,5.32038,52.860533,-0.105591,0.018066,0.986191,-0.035245,-0.033046,0.013186,58.913284,5.435608,-148.626999,,,
729863045.082621,1.080038,5.32038,52.860533,-0.105591,0.018066,0.986191,-0.035245,-0.033046,0.013186,58.913284,5.435608,-148.626999,,,
729863045.085934,1.070472,5.310557,52.865412,-0.103378,0.017395,0.990845,-0.035245,-0.033046,0.013186,58.913284,5.435608,-148.626999,,,
729863045.089283,1.062519,5.300923,52.870093,-0.103378,0.017395,0.990845,-0.020521,-0.036001,0.012209,58.913284,5.435608,-148.626999,,,
729863045.092608,1.062519,5.300923,52.870093,-0.103378,0.017395,0.990845,-0.020521,-0.036001,0.012209,58.913284,5.435608,-148.626999,,,
729863045.096051,1.056596,5.289841,52.875108,-0.097412,0.015564,1.00174,-0.020521,-0.036001,0.012209,58.913284,5.435608,-148.626999,,,
729863045.099248,1.052458,5.28073,52.879538,-0.097412,0.015564,1.00174,-0.002106,-0.026732,0.012158,58.913284,5.435608,-148.626999,,,
729863045.102601,1.052458,5.28073,52.879538,-0.097412,0.015564,1.00174,-0.002106,-0.026732,0.012158,58.913284,5.435608,-148.626999,,,
729863045.10594,1.05138,5.271998,52.883079,-0.093872,0.01297,1.015137,-0.002106,-0.026732,0.012158,58.913284,5.435608,-148.626999,,,
729863045.109259,1.051786,5.264839,52.886482,-0.093872,0.01297,1.015137,0.008653,-0.011234,0.008952,58.782288,5.548141,-148.78653,,,
729863045.112651,1.051786,5.264839,52.886482,-0.093872,0.01297,1.015137,0.008653,-0.011234,0.008952,58.782288,5.548141,-148.78653,,,
729863045.11603,1.054624,5.260377,52.889668,-0.086105,0.011063,1.011856,0.008653,-0.011234,0.008952,58.782288,5.548141,-148.78653,,,
729863045.119256,1.057017,5.256915,52.892544,-0.086105,0.011063,1.011856,0.001154,0.001826,0.008526,58.782288,5.548141,-148.78653,,,
729863045.122602,1.057017,5.256915,52.892544,-0.086105,0.011063,1.011856,0.001154,0.001826,0.008526,58.782288,5.548141,-148.78653,,,
729863045.12603,1.057474,5.256557,52.895256,-0.082932,0.017776,1.002991,0.001154,0.001826,0.008526,58.782288,5.548141,-148.78653,,,
729863045.129255,1.055932,5.256516,52.897282,-0.082932,0.017776,1.002991,-0.015152,0.004034,0.000181,58.782288,5.548141,-148.78653,,,
729863045.132614,1.055932,5.256516,52.897282,-0.082932,0.017776,1.002991,-0.015152,0.004034,0.000181,58.782288,5.548141,-148.78653,,,
729863045.13594,1.05259,5.256677,52.898033,-0.082275,0.023758,0.989899,-0.015152,0.004034,0.000181,58.782288,5.548141,-148.78653,,,
729863045.13926,1.046016,5.2586,52.897786,-0.082275,0.023758,0.989899,-0.036707,-0.002456,-0.004396,58.782288,5.548141,-148.78653,,,
729863045.142618,1.046016,5.2586,52.897786,-0.082275,0.023758,0.989899,-0.036707,-0.002456,-0.004396,58.782288,5.548141,-148.78653,,,
729863045.145934,1.036019,5.257686,52.897797,-0.085175,0.023972,0.980637,-0.036707,-0.002456,-0.004396,58.782288,5.548141,-148.78653,,,
729863045.149289,1.024589,5.25932,52.898269,-0.085175,0.023972,0.980637,-0.045012,-0.010937,-0.000323,58.782288,5.548141,-148.78653,,,
729863045.15265,1.024589,5.25932,52.898269,-0.085175,0.023972,0.980637,-0.045012,-0.010937,-0.000323,58.727463,5.785858,-148.733551,,,
729863045.155932,1.012093,5.255653,52.899196,-0.091354,0.021362,0.980789,-0.045012,-0.010937,-0.000323,58.727463,5.785858,-148.733551,,,
729863045.159342,0.99991,5.255518,52.901384,-0.091354,0.021362,0.980789,-0.036816,-0.00683,0.005326,58.727463,5.785858,-148.733551,,,
729863045.162603,0.99991,5.255518,52.901384,-0.091354,0.021362,0.980789,-0.036816,-0.00683,0.005326,58.727463,5.785858,-148.733551,,,
729863045.165999,0.989371,5.25201,52.904629,-0.094269,0.017654,1.000732,-0.036816,-0.00683,0.005326,58.727463,5.785858,-148.733551,,,
729863045.169251,0.980144,5.254051,52.908108,-0.094269,0.017654,1.000732,-0.023836,0.008493,0.009593,58.727463,5.785858,-148.733551,,,
729863045.172603,0.980144,5.254051,52.908108,-0.094269,0.017654,1.000732,-0.023836,0.008493,0.009593,58.727463,5.785858,-148.733551,,,
729863045.175941,0.972766,5.255067,52.911808,-0.091812,0.012375,1.010422,-0.023836,0.008493,0.009593,58.727463,5.785858,-148.733551,,,
729863045.179254,0.966894,5.259344,52.915486,-0.091812,0.012375,1.010422,-0.007074,0.020092,0.010117,58.727463,5.785858,-148.733551,,,
729863045.182603,0.966894,5.259344,52.915486,-0.091812,0.012375,1.010422,-0.007074,0.020092,0.010117,58.727463,5.785858,-148.733551,,,
729863045.185938,0.963467,5.264424,52.918855,-0.089584,0.013977,1.014084,-0.007074,0.020092,0.010117,58.727463,5.785858,-148.733551,,,
729863045.189254,0.961714,5.269487,52.921459,-0.089584,0.013977,1.014084,0.007074,0.021976,0.002108,58.727463,5.785858,-148.733551,,,
729863045.192593,0.961714,5.269487,52.921459,-0.089584,0.013977,1.014084,0.007074,0.021976,0.002108,58.741119,5.615372,-148.689774,,,
729863045.195931,0.962844,5.274954,52.922612,-0.086853,0.013504,1.013947,0.007074,0.021976,0.002108,58.741119,5.615372,-148.689774,,,
729863045.199254,0.963859,5.27742,52.921843,-0.086853,0.013504,1.013947,0.011147,0.011485,-0.009241,58.741119,5.615372,-148.689774,,,
729863045.202674,0.963859,5.27742,52.921843,-0.086853,0.013504,1.013947,0.011147,0.011485,-0.009241,58.741119,5.615372,-148.689774,,,
729863045.20594,0.966304,5.28114,52.91972,-0.085663,0.013489,1.0056,0.011147,0.011485,-0.009241,58.741119,5.615372,-148.689774,,,
729863045.209263,0.969507,5.280399,52.917202,-0.085663,0.013489,1.0056,0.009343,0.004135,-0.009931,58.741119,5.615372,-148.689774,,,
729863045.212601,0.969507,5.280399,52.917202,-0.085663,0.013489,1.0056,0.009343,0.004135,-0.009931,58.741119,5.615372,-148.689774,,,
729863045.215925,0.972384,5.280805,52.914615,-0.091019,0.01358,1.000076,0.009343,0.004135,-0.009931,58.741119,5.615372,-148.689774,,,
729863045.21926,0.977066,5.276999,52.912826,-0.091019,0.01358,1.000076,0.015563,-0.002472,0.001903,58.741119,5.615372,-148.689774,,,
729863045.222619,0.977066,5.276999,52.912826,-0.091019,0.01358,1.000076,0.015563,-0.002472,0.001903,58.741119,5.615372,-148.689774,,,
729863045.225935,0.980277,5.275926,52.912615,-0.100067,0.011536,1.002625,0.015563,-0.002472,0.001903,58.741119,5.615372,-148.689774,,,
729863045.22926,0.985675,5.274361,52.914203,-0.100067,0.011536,1.002625,0.018675,0.006779,0.014852,58.741119,5.615372,-148.689774,,,
729863045.232584,0.985675,5.274361,52.914203,-0.100067,0.011536,1.002625,0.018675,0.006779,0.014852,58.789703,5.47612,-148.505981,,,
729863045.235936,0.990121,5.274983,52.917654,-0.101608,0.012527,1.008209,0.018675,0.006779,0.014852,58.789703,5.47612,-148.505981,,,
729863045.239256,0.996166,5.27761,52.922278,-0.101608,0.012527,1.008209,0.021679,0.013432,0.019193,58.789703,5.47612,-148.505981,,,
729863045.242674,0.996166,5.27761,52.922278,-0.101608,0.012527,1.008209,0.021679,0.013432,0.019193,58.789703,5.47612,-148.505981,,,
729863045.245931,1.00215,5.280651,52.927374,-0.103455,0.015518,1.009384,0.021679,0.013432,0.019193,58.789703,5.47612,-148.505981,,,
729863045.249258,1.008013,5.283785,52.932729,-0.103455,0.015518,1.009384,0.019977,0.008224,0.021206,58.789703,5.47612,-148.505981,,,
729863045.252601,1.008013,5.283785,52.932729,-0.103455,0.015518,1.009384,0.019977,0.008224,0.021206,58.789703,5.47612,-148.505981,,,
729863045.255998,1.014053,5.284883,52.938435,-0.10321,0.020355,0.995117,0.019977,0.008224,0.021206,58.789703,5.47612,-148.505981,,,
729863045.259246,1.018458,5.283786,52.944856,-0.10321,0.020355,0.995117,0.012676,-0.008592,0.026563,58.789703,5.47612,-148.505981,,,
729863045.262619,1.018458,5.283786,52.944856,-0.10321,0.020355,0.995117,0.012676,-0.008592,0.026563,58.789703,5.47612,-148.505981,,,
729863045.26594,1.023175,5.281186,52.952144,-0.101456,0.021652,0.981781,0.012676,-0.008592,0.026563,58.789703,5.47612,-148.505981,,,
729863045.269252,1.026122,5.274548,52.960309,-0.101456,0.021652,0.981781,0.006546,-0.026085,0.030095,58.789703,5.47612,-148.505981,,,
729863045.272669,1.026122,5.274548,52.960309,-0.101456,0.021652,0.981781,0.006546,-0.026085,0.030095,58.789703,5.47612,-148.505981,,,
729863045.275932,1.028602,5.266571,52.968964,-0.09967,0.021927,0.976044,0.006546,-0.026085,0.030095,58.698715,5.637299,-148.949783,,,
729863045.279014,1.029398,5.254711,52.978315,-0.09967,0.021927,0.976044,0.002978,-0.032047,0.034385,58.698715,5.637299,-148.949783,,,
729863045.282685,1.029398,5.254711,52.978315,-0.09967,0.021927,0.976044,0.002978,-0.032047,0.034385,58.698715,5.637299,-148.949783,,,
729863045.285923,1.030876,5.244499,52.9886,-0.094299,0.022461,0.980331,0.002978,-0.032047,0.034385,58.698715,5.637299,-148.949783,,,
729863045.289262,1.031189,5.233291,52.999348,-0.094299,0.022461,0.980331,0.004513,-0.025874,0.035182,58.698715,5.637299,-148.949783,,,
729863045.292598,1.031189,5.233291,52.999348,-0.094299,0.022461,0.980331,0.004513,-0.025874,0.035182,58.698715,5.637299,-148.949783,,,
729863045.295981,1.033463,5.224412,53.009784,-0.08667,0.020065,0.987823,0.004513,-0.025874,0.035182,58.698715,5.637299,-148.949783,,,
729863045.299253,1.035154,5.217812,53.019768,-0.08667,0.020065,0.987823,0.006516,-0.008102,0.029219,58.698715,5.637299,-148.949783,,,
729863045.302599,1.035154,5.217812,53.019768,-0.08667,0.020065,0.987823,0.006516,-0.008102,0.029219,58.698715,5.637299,-148.949783,,,
729863045.30596,1.037243,5.213593,53.028805,-0.07782,0.016724,0.993454,0.006516,-0.008102,0.029219,58.698715,5.637299,-148.949783,,,
729863045.309258,1.037892,5.215894,53.036912,-0.07782,0.016724,0.993454,0.00624,0.020839,0.023114,58.698715,5.637299,-148.949783,,,
729863045.312601,1.037892,5.215894,53.036912,-0.07782,0.016724,0.993454,0.00624,0.020839,0.023114,58.698715,5.637299,-148.949783,,,
729863045.31594,1.039988,5.2198,53.043869,-0.074051,0.016281,1.006836,0.00624,0.020839,0.023114,58.527374,5.666794,-148.725815,,,
729863045.31926,1.040394,5.229633,53.049574,-0.074051,0.016281,1.006836,0.002058,0.036518,0.01668,58.527374,5.666794,-148.725815,,,
729863045.322678,1.040394,5.229633,53.049574,-0.074051,0.016281,1.006836,0.002058,0.036518,0.01668,58.527374,5.666794,-148.725815,,,
729863045.325922,1.040881,5.238776,53.054762,-0.07756,0.015198,1.00528,0.002058,0.036518,0.01668,58.527374,5.666794,-148.725815,,,
729863045.329256,1.040962,5.251042,53.059125,-0.07756,0.015198,1.00528,-0.00023,0.024854,0.013076,58.527374,5.666794,-148.725815,,,
729863045.33259,1.040962,5.251042,53.059125,-0.07756,0.015198,1.00528,-0.00023,0.024854,0.013076,58.527374,5.666794,-148.725815,,,
729863045.335976,1.040997,5.257978,53.063145,-0.08699,0.016815,0.997131,-0.00023,0.024854,0.013076,58.527374,5.666794,-148.725815,,,
729863045.339244,1.041425,5.264384,53.068,-0.08699,0.016815,0.997131,-0.001036,-0.003345,0.022845,58.527374,5.666794,-148.725815,,,
729863045.342597,1.041425,5.264384,53.068,-0.08699,0.016815,0.997131,-0.001036,-0.003345,0.022845,58.527374,5.666794,-148.725815,,,
729863045.345976,1.041705,5.263455,53.074114,-0.097015,0.013763,0.991425,-0.001036,-0.003345,0.022845,58.527374,5.666794,-148.725815,,,
729863045.34928,1.043179,5.262825,53.081165,-0.097015,0.013763,0.991425,0.001509,-0.02462,0.027139,58.527374,5.666794,-148.725815,,,
729863045.352589,1.043179,5.262825,53.081165,-0.097015,0.013763,0.991425,0.001509,-0.02462,0.027139,58.527374,5.666794,-148.725815,,,
729863045.355939,1.044356,5.255882,53.089216,-0.095718,0.015671,0.991669,0.001509,-0.02462,0.027139,58.955124,5.669647,-148.861649,,,
729863045.359252,1.046605,5.249607,53.097599,-0.095718,0.015671,0.991669,8.6e-05,-0.023771,0.025981,58.955124,5.669647,-148.861649,,,
729863045.362639,1.046605,5.249607,53.097599,-0.095718,0.015671,0.991669,8.6e-05,-0.023771,0.025981,58.955124,5.669647,-148.861649,,,
729863045.365945,1.04763,5.241218,53.105975,-0.086655,0.017044,0.993454,8.6e-05,-0.023771,0.025981,58.955124,5.669647,-148.861649,,,
729863045.369259,1.049831,5.235139,53.113653,-0.086655,0.017044,0.993454,0.006523,-0.014709,0.016474,58.955124,5.669647,-148.861649,,,
729863045.37259,1.049831,5.235139,53.113653,-0.086655,0.017044,0.993454,0.006523,-0.014709,0.016474,58.955124,5.669647,-148.861649,,,
729863045.375952,1.051477,5.229318,53.119656,-0.07663,0.01825,0.998337,0.006523,-0.014709,0.016474,58.955124,5.669647,-148.861649,,,
729863045.379297,1.053548,5.222767,53.123455,-0.07663,0.01825,0.998337,0.002775,-0.009783,0.002219,58.955124,5.669647,-148.861649,,,
729863045.382592,1.053548,5.222767,53.123455,-0.07663,0.01825,0.998337,0.002775,-0.009783,0.002219,58.955124,5.669647,-148.861649,,,
729863045.385983,1.054792,5.218929,53.125086,-0.071426,0.018723,0.994064,0.002775,-0.009783,0.002219,58.955124,5.669647,-148.861649,,,
729863045.389253,1.054907,5.212528,53.124968,-0.071426,0.018723,0.994064,-0.003189,0.004262,-0.003229,58.955124,5.669647,-148.861649,,,
729863045.392605,1.054907,5.212528,53.124968,-0.071426,0.018723,0.994064,-0.003189,0.004262,-0.003229,58.955124,5.669647,-148.861649,,,
729863045.395925,1.054316,5.212654,53.124161,-0.073654,0.019897,0.99086,-0.003189,0.004262,-0.003229,58.806763,5.783661,-148.536285,,,
729863045.399254,1.052431,5.209548,53.123431,-0.073654,0.019897,0.99086,-0.005293,0.014672,-0.004107,58.806763,5.783661,-148.536285,,,
729863045.402597,1.052431,5.209548,53.123431,-0.073654,0.019897,0.99086,-0.005293,0.014672,-0.004107,58.806763,5.783661,-148.536285,,,
729863045.405931,1.050398,5.212906,53.122618,-0.080139,0.020508,0.993607,-0.005293,0.014672,-0.004107,58.806763,5.783661,-148.536285,,,
729863045.409253,1.047515,5.213003,53.121591,-0.080139,0.020508,0.993607,-0.005874,0.011755,-0.006991,58.806763,5.783661,-148.536285,,,
729863045.41264,1.047515,5.213003,53.121591,-0.080139,0.020508,0.993607,-0.005874,0.011755,-0.006991,58.806763,5.783661,-148.536285,,,
729863045.415928,1.045692,5.216156,53.120171,-0.086426,0.020874,0.992722,-0.005874,0.011755,-0.006991,58.806763,5.783661,-148.536285,,,
729863045.419261,1.045013,5.218073,53.118782,-0.086426,0.020874,0.992722,0.010372,0.004152,-0.004318,58.806763,5.783661,-148.536285,,,
729863045.422597,1.045013,5.218073,53.118782,-0.086426,0.020874,0.992722,0.010372,0.004152,-0.004318,58.806763,5.783661,-148.536285,,,
729863045.426079,1.047496,5.21883,53.117605,-0.092651,0.018112,1.000519,0.010372,0.004152,-0.004318,58.806763,5.783661,-148.536285,,,
729863045.429242,1.051043,5.220441,53.116885,-0.092651,0.018112,1.000519,0.019401,-0.001006,0.000495,58.806763,5.783661,-148.536285,,,
729863045.432609,1.051043,5.220441,53.116885,-0.092651,0.018112,1.000519,0.019401,-0.001006,0.000495,58.806763,5.783661,-148.536285,,,
729863045.435915,1.05636,5.2196,53.117073,-0.096405,0.017715,1.004166,0.019401,-0.001006,0.000495,58.727646,5.685867,-148.566803,,,
729863045.43926,1.061978,5.219806,53.118479,-0.096405,0.017715,1.004166,0.01635,0.002112,0.005185,58.727646,5.685867,-148.566803,,,
729863045.442579,1.061978,5.219806,53.118479,-0.096405,0.017715,1.004166,0.01635,0.002112,0.005185,58.727646,5.685867,-148.566803,,,
729863045.445687,1.067264,5.219543,53.120383,-0.093552,0.022812,0.994003,0.01635,0.002112,0.005185,58.727646,5.685867,-148.566803,,,
729863045.449294,1.069786,5.21803,53.121928,-0.093552,0.022812,0.994003,0.000467,-0.000137,0.001985,58.727646,5.685867,-148.566803,,,
729863045.452651,1.069786,5.21803,53.121928,-0.093552,0.022812,0.994003,0.000467,-0.000137,0.001985,58.727646,5.685867,-148.566803,,,
729863045.455929,1.070237,5.218099,53.122872,-0.085938,0.028229,0.981079,0.000467,-0.000137,0.001985,58.727646,5.685867,-148.566803,,,
729863045.459259,1.068669,5.21227,53.123298,-0.085938,0.028229,0.981079,-0.014567,-0.000801,-0.011891,58.727646,5.685867,-148.566803,,,
729863045.462606,1.068669,5.21227,53.123298,-0.085938,0.028229,0.981079,-0.014567,-0.000801,-0.011891,58.727646,5.685867,-148.566803,,,
729863045.465987,1.065252,5.211114,53.121758,-0.079147,0.028778,0.975906,-0.014567,-0.000801,-0.011891,58.727646,5.685867,-148.566803,,,
729863045.469252,1.059592,5.205239,53.118038,-0.079147,0.028778,0.975906,-0.023735,0.009665,-0.021582,58.727646,5.685867,-148.566803,,,
729863045.472603,1.059592,5.205239,53.118038,-0.079147,0.028778,0.975906,-0.023735,0.009665,-0.021582,58.727646,5.685867,-148.566803,,,
729863045.475938,1.051802,5.206764,53.112785,-0.077927,0.026016,0.980957,-0.023735,0.009665,-0.021582,58.727646,5.685867,-148.566803,,,
729863045.479261,1.043084,5.205372,53.107032,-0.077927,0.026016,0.980957,-0.032042,0.013299,-0.018903,58.650726,5.940491,-148.522537,,,
729863045.482596,1.043084,5.205372,53.107032,-0.077927,0.026016,0.980957,-0.032042,0.013299,-0.018903,58.650726,5.940491,-148.522537,,,
729863045.485951,1.033169,5.208899,53.101519,-0.085663,0.020752,0.988419,-0.032042,0.013299,-0.018903,58.650726,5.940491,-148.522537,,,
729863045.489258,1.023245,5.210235,53.097229,-0.085663,0.020752,0.988419,-0.03017,0.023785,-0.011149,58.650726,5.940491,-148.522537,,,
729863045.492661,1.023245,5.210235,53.097229,-0.085663,0.020752,0.988419,-0.03017,0.023785,-0.011149,58.650726,5.940491,-148.522537,,,
729863045.495943,1.013521,5.215382,53.094948,-0.095291,0.016129,0.993164,-0.03017,0.023785,-0.011149,58.650726,5.940491,-148.522537,,,
729863045.49926,1.00576,5.220332,53.094435,-0.095291,0.016129,0.993164,-0.023838,0.017438,-0.000436,58.650726,5.940491,-148.522537,,,
729863045.502597,1.00576,5.220332,53.094435,-0.095291,0.016129,0.993164,-0.023838,0.017438,-0.000436,58.650726,5.940491,-148.522537,,,
729863045.506003,0.998522,5.225677,53.095032,-0.098511,0.014908,1.000031,-0.023838,0.017438,-0.000436,58.650726,5.940491,-148.522537,,,
729863045.509246,0.993217,5.230476,53.096481,-0.098511,0.014908,1.000031,-0.006817,0.013916,0.0013,58.650726,5.940491,-148.522537,,,
729863045.512591,0.993217,5.230476,53.096481,-0.098511,0.014908,1.000031,-0.006817,0.013916,0.0013,58.650726,5.940491,-148.522537,,,
729863045.51593,0.990451,5.233587,53.09746,-0.091934,0.01329,1.004013,-0.006817,0.013916,0.0013,58.650726,5.940491,-148.522537,,,
729863045.519254,0.989997,5.237967,53.097688,-0.091934,0.01329,1.004013,0.005304,0.013447,-0.002945,58.723328,6.045837,-148.874252,,,
729863045.522594,0.989997,5.237967,53.097688,-0.091934,0.01329,1.004013,0.005304,0.013447,-0.002945,58.723328,6.045837,-148.874252,,,
729863045.525932,0.990974,5.24104,53.097212,-0.088318,0.013718,1.00589,0.005304,0.013447,-0.002945,58.723328,6.045837,-148.874252,,,
729863045.529251,0.99476,5.244059,53.095783,-0.088318,0.013718,1.00589,0.014326,0.009128,-0.007563,58.723328,6.045837,-148.874252,,,
729863045.532651,0.99476,5.244059,53.095783,-0.088318,0.013718,1.00589,0.014326,0.009128,-0.007563,58.723328,6.045837,-148.874252,,,
729863045.535919,0.998447,5.246495,53.093943,-0.090118,0.014877,1.000671,0.014326,0.009128,-0.007563,58.723328,6.045837,-148.874252,,,
729863045.539247,1.00522,5.245623,53.091561,-0.090118,0.014877,1.000671,0.018568,0.000361,-0.00791,58.723328,6.045837,-148.874252,,,
729863045.542609,1.00522,5.245623,53.091561,-0.090118,0.014877,1.000671,0.018568,0.000361,-0.00791,58.723328,6.045837,-148.874252,,,
729863045.546048,1.010017,5.245344,53.089275,-0.089615,0.014954,0.996109,0.018568,0.000361,-0.00791,58.723328,6.045837,-148.874252,,,
729863045.549234,1.017277,5.240409,53.086815,-0.089615,0.014954,0.996109,0.01111,-0.003836,-0.011438,58.723328,6.045837,-148.874252,,,
729863045.552596,1.017277,5.240409,53.086815,-0.089615,0.014954,0.996109,0.01111,-0.003836,-0.011438,58.723328,6.045837,-148.874252,,,
729863045.555917,1.020729,5.238258,53.083771,-0.086105,0.013123,0.989517,0.01111,-0.003836,-0.011438,58.723328,6.045837,-148.874252,,,
729863045.559245,1.020729,5.238258,53.080781,-0.086105,0.013123,0.989517,-0.010244,-0.001618,-0.013004,58.638031,5.889191,-148.679245,,,
729863045.562596,1.023549,5.23398,53.080781,-0.086105,0.013123,0.989517,-0.010244,-0.001618,-0.013004,58.638031,5.889191,-148.679245,,,
729863045.56593,1.021584,5.233386,53.077532,-0.087784,0.017807,0.981003,-0.010244,-0.001618,-0.013004,58.638031,5.889191,-148.679245,,,
729863045.569252,1.016643,5.231543,53.074553,-0.087784,0.017807,0.981003,-0.023279,-0.002378,-0.013712,58.638031,5.889191,-148.679245,,,
729863045.572637,1.016643,5.231543,53.074553,-0.087784,0.017807,0.981003,-0.023279,-0.002378,-0.013712,58.638031,5.889191,-148.679245,,,
729863045.57592,1.009477,5.230325,53.071814,-0.088409,0.01973,0.980377,-0.023279,-0.002378,-0.013712,58.638031,5.889191,-148.679245,,,
729863045.579257,1.009477,5.230325,53.071814,-0.088409,0.01973,0.980377,-0.023279,-0.002378,-0.013712,58.638031,5.889191,-148.679245,,,
729863045.582613,1.002214,5.230457,53.068983,-0.088409,0.01973,0.980377,-0.016157,-0.000827,-0.014335,58.638031,5.889191,-148.679245,,,
729863045.586004,0.997029,5.228921,53.065783,-0.091919,0.013306,0.998444,-0.016157,-0.000827,-0.014335,58.638031,5.889191,-148.679245,,,
729863045.589308,0.997029,5.228921,53.065783,-0.091919,0.013306,0.998444,-0.003022,0.006519,-0.010991,58.638031,5.889191,-148.679245,,,
729863045.592597,0.99308,5.230132,53.062508,-0.091919,0.013306,0.998444,-0.003022,0.006519,-0.010991,58.638031,5.889191,-148.679245,,,
729863045.595919,0.992189,5.230602,53.060106,-0.096268,0.009857,1.009247,-0.003022,0.006519,-0.010991,58.638031,5.889191,-148.679245,,,
729863045.5993,0.992189,5.230602,53.060106,-0.096268,0.009857,1.009247,-0.003022,0.006519,-0.010991,58.638031,5.889191,-148.679245,,,
729863045.602586,0.993083,5.230849,53.058651,-0.096268,0.009857,1.009247,0.014261,0.006749,0.001593,58.55864,5.819153,-148.430084,,,
729863045.606046,0.997346,5.23134,53.058508,-0.103287,0.009476,1.009018,0.014261,0.006749,0.001593,58.55864,5.819153,-148.430084,,,
729863045.609247,0.997346,5.23134,53.058508,-0.103287,0.009476,1.009018,0.025048,-0.002466,0.007096,58.55864,5.819153,-148.430084,,,
729863045.612674,1.002518,5.230096,53.059504,-0.103287,0.009476,1.009018,0.025048,-0.002466,0.007096,58.55864,5.819153,-148.430084,,,
729863045.61593,1.009475,5.229264,53.061174,-0.102783,0.013596,1.001724,0.025048,-0.002466,0.007096,58.55864,5.819153,-148.430084,,,
729863045.619268,1.009475,5.229264,53.061174,-0.102783,0.013596,1.001724,0.025048,-0.002466,0.007096,58.55864,5.819153,-148.430084,,,
729863045.622595,1.016766,5.228198,53.06311,-0.102783,0.013596,1.001724,0.026115,0.004702,0.007564,58.55864,5.819153,-148.430084,,,
729863045.625971,1.024256,5.228156,53.064768,-0.095581,0.016373,0.995911,0.026115,0.004702,0.007564,58.55864,5.819153,-148.430084,,,
729863045.629248,1.024256,5.228156,53.064768,-0.095581,0.016373,0.995911,0.026115,0.004702,0.001209,58.55864,5.819153,-148.430084,,,
729863045.632609,1.029159,5.228561,53.06624,-0.095581,0.016373,0.995911,0.012744,0.011488,0.001209,58.55864,5.819153,-148.430084,,,
729863045.635935,1.032985,5.230942,53.067204,-0.095093,0.018951,0.988815,0.012744,0.011488,0.001209,58.55864,5.819153,-148.430084,,,
729863045.639256,1.032985,5.230942,53.067204,-0.095093,0.018951,0.988815,0.012744,0.011488,0.001209,58.55864,5.819153,-148.430084,,,
729863045.6426,1.034648,5.23251,53.068345,-0.095093,0.018951,0.988815,0.00427,0.009223,0.009298,58.643723,5.798828,-148.396439,,,
729863045.645924,1.03599,5.23464,53.070881,-0.094559,0.020569,0.989838,0.00427,0.009223,0.009298,58.643723,5.798828,-148.396439,,,
729863045.649291,1.03599,5.23464,53.070881,-0.094559,0.020569,0.989838,0.00427,0.009223,0.009298,58.643723,5.798828,-148.396439,,,
729863045.652491,1.0376,5.235937,53.074304,-0.094559,0.020569,0.989838,0.002507,0.006383,0.01037,58.643723,5.798828,-148.396439,,,
729863045.656032,1.038913,5.237048,53.077504,-0.095551,0.019684,0.995209,0.002507,0.006383,0.01037,58.643723,5.798828,-148.396439,,,
729863045.659272,1.038913,5.237048,53.077504,-0.095551,0.019684,0.995209,0.002507,0.006383,0.01037,58.643723,5.798828,-148.396439,,,
729863045.662593,1.039929,5.236721,53.08087,-0.095551,0.019684,0.995209,0.00729,-0.009425,0.011434,58.643723,5.798828,-148.396439,,,
729863045.665969,1.041091,5.23396,53.084558,-0.095657,0.018829,0.997513,0.00729,-0.009425,0.011434,58.643723,5.798828,-148.396439,,,
729863045.669244,1.041091,5.23396,53.084558,-0.095657,0.018829,0.997513,0.00729,-0.009425,0.011434,58.643723,5.798828,-148.396439,,,
729863045.6726,1.042107,5.227863,53.08794,-0.095657,0.018829,0.997513,0.017033,-0.030202,0.010445,58.643723,5.798828,-148.396439,,,
729863045.67592,1.046204,5.218958,53.091278,-0.093323,0.017471,0.998474,0.017033,-0.030202,0.010445,58.643723,5.798828,-148.396439,,,
729863045.679312,1.046204,5.218958,53.091278,-0.093323,0.017471,0.998474,0.017033,-0.030202,0.010445,58.643723,5.798828,-148.396439,,,
729863045.682605,1.050326,5.208984,53.094599,-0.093323,0.017471,0.998474,0.025876,-0.042824,0.010086,58.549576,5.898224,-148.540665,,,
729863045.685929,1.057646,5.196579,53.097621,-0.091034,0.015533,1.002563,0.025876,-0.042824,0.010086,58.549576,5.898224,-148.540665,,,
729863045.689272,1.057646,5.196579,53.097621,-0.091034,0.015533,1.002563,0.025876,-0.042824,0.010086,58.549576,5.898224,-148.540665,,,
729863045.692667,1.063605,5.188061,53.100264,-0.091034,0.015533,1.002563,0.026419,-0.032833,0.009125,58.549576,5.898224,-148.540665,,,
729863045.695918,1.071098,5.177724,53.102688,-0.084686,0.01857,1.000397,0.026419,-0.032833,0.009125,58.549576,5.898224,-148.540665,,,
729863045.699307,1.071098,5.177724,53.102688,-0.084686,0.01857,1.000397,0.026419,-0.032833,0.009125,58.549576,5.898224,-148.540665,,,
729863045.7026,1.076897,5.174401,53.105105,-0.084686,0.01857,1.000397,0.018577,-0.00387,0.007658,58.549576,5.898224,-148.540665,,,
729863045.705929,1.082589,5.17153,53.107523,-0.077103,0.021774,0.998245,0.018577,-0.00387,0.007658,58.549576,5.898224,-148.540665,,,
729863045.7093,1.082589,5.17153,53.107523,-0.077103,0.021774,0.998245,0.018577,-0.00387,0.007658,58.549576,5.898224,-148.540665,,,
729863045.712693,1.087101,5.173173,53.109437,-0.077103,0.021774,0.998245,0.016698,0.015828,0.006116,58.549576,5.898224,-148.540665,,,
729863045.715918,1.091376,5.176652,53.111159,-0.071991,0.020859,0.993454,0.016698,0.015828,0.006116,58.549576,5.898224,-148.540665,,,
729863045.719356,1.091376,5.176652,53.111159,-0.071991,0.020859,0.993454,0.016698,0.015828,0.006116,58.549576,5.898224,-148.540665,,,
729863045.722585,1.094961,5.184367,53.112323,-0.071991,0.020859,0.993454,0.008515,0.029478,-0.002597,58.475525,5.96756,-148.646286,,,
729863045.725931,1.097624,5.192103,53.112336,-0.071716,0.024109,0.99054,0.008515,0.029478,-0.002597,58.475525,5.96756,-148.646286,,,
729863045.729289,1.097624,5.192103,53.112336,-0.071716,0.024109,0.99054,0.008515,0.029478,-0.002597,58.475525,5.96756,-148.646286,,,
729863045.732666,1.099075,5.202319,53.11141,-0.071716,0.024109,0.99054,-0.002481,0.035593,-0.007204,58.475525,5.96756,-148.646286,,,
729863045.735921,1.098375,5.211861,53.109773,-0.075027,0.023132,0.981171,-0.002481,0.035593,-0.007204,58.475525,5.96756,-148.646286,,,
729863045.739268,1.098375,5.211861,53.109773,-0.075027,0.023132,0.981171,-0.002481,0.035593,-0.007204,58.475525,5.96756,-148.646286,,,
729863045.742353,1.096043,5.221978,53.107572,-0.075027,0.023132,0.981171,-0.014224,0.028234,-0.013226,58.475525,5.96756,-148.646286,,,
729863045.74596,1.092019,5.229394,53.105136,-0.075241,0.025497,0.977036,-0.014224,0.028234,-0.013226,58.475525,5.96756,-148.646286,,,
729863045.749311,1.092019,5.229394,53.105136,-0.075241,0.025497,0.977036,-0.014224,0.028234,-0.013226,58.475525,5.96756,-148.646286,,,
729863045.752608,1.086537,5.236441,53.10152,-0.075241,0.025497,0.977036,-0.024406,0.01357,-0.02028,58.475525,5.96756,-148.646286,,,
729863045.755929,1.079457,5.2405,53.096711,-0.07576,0.023117,0.975998,-0.024406,0.01357,-0.02028,58.475525,5.96756,-148.646286,,,
729863045.759323,1.079457,5.2405,53.096711,-0.07576,0.023117,0.975998,-0.024406,0.01357,-0.02028,58.475525,5.96756,-148.646286,,,
729863045.762591,1.070396,5.242905,53.091274,-0.07576,0.023117,0.975998,-0.032561,0.008567,-0.028124,58.475525,5.96756,-148.646286,,,
729863045.765929,1.060544,5.244566,53.085408,-0.084183,0.019714,0.979065,-0.032561,0.008567,-0.028124,58.49707,5.902496,-148.251038,,,
729863045.769277,1.060544,5.244566,53.085408,-0.084183,0.019714,0.979065,-0.032561,0.008567,-0.028124,58.49707,5.902496,-148.251038,,,
729863045.77265,1.049224,5.245811,53.079588,-0.084183,0.019714,0.979065,-0.025424,0.009231,-0.020928,58.49707,5.902496,-148.251038,,,
729863045.775921,1.039337,5.248129,53.074293,-0.09108,0.018539,0.993027,-0.025424,0.009231,-0.020928,58.49707,5.902496,-148.251038,,,
729863045.779048,1.039337,5.248129,53.074293,-0.09108,0.018539,0.993027,-0.025424,0.009231,-0.020928,58.49707,5.902496,-148.251038,,,
729863045.782634,1.032127,5.248913,53.069818,-0.09108,0.018539,0.993027,-0.012986,0.019301,-0.015196,58.49707,5.902496,-148.251038,,,
729863045.785921,1.026802,5.253213,53.066312,-0.097153,0.011154,1.007858,-0.012986,0.019301,-0.015196,58.49707,5.902496,-148.251038,,,
729863045.789266,1.026802,5.253213,53.066312,-0.097153,0.011154,1.007858,-0.012986,0.019301,-0.015196,58.49707,5.902496,-148.251038,,,
729863045.792595,1.02449,5.253223,53.063502,-0.097153,0.011154,1.007858,0.001393,0.020537,-0.007422,58.49707,5.902496,-148.251038,,,
729863045.795929,1.023828,5.257877,53.060942,-0.098663,0.011612,1.006577,0.001393,0.020537,-0.007422,58.49707,5.902496,-148.251038,,,
729863045.79931,1.023828,5.257877,53.060942,-0.098663,0.011612,1.006577,0.001393,0.020537,-0.007422,58.49707,5.902496,-148.251038,,,
729863045.802589,1.025887,5.256937,53.058636,-0.098663,0.011612,1.006577,0.009084,0.017218,-0.01178,58.49707,5.902496,-148.251038,,,
729863045.805931,1.027874,5.261039,53.055367,-0.098038,0.015015,1.002563,0.009084,0.017218,-0.01178,58.694611,5.795593,-148.61676,,,
729863045.809268,1.027874,5.261039,53.055367,-0.098038,0.015015,1.002563,0.009084,0.017218,-0.01178,58.694611,5.795593,-148.61676,,,
729863045.81267,1.031468,5.258716,53.051495,-0.098038,0.015015,1.002563,0.011592,0.009016,-0.015092,58.694611,5.795593,-148.61676,,,
729863045.815915,1.034394,5.260962,53.047082,-0.096222,0.015671,0.993698,0.011592,0.009016,-0.015092,58.694611,5.795593,-148.61676,,,
729863045.819274,1.034394,5.260962,53.047082,-0.096222,0.015671,0.993698,0.011592,0.009016,-0.015092,58.694611,5.795593,-148.61676,,,
729863045.822609,1.038483,5.257348,53.042549,-0.096222,0.015671,0.993698,0.009511,0.002991,-0.014264,58.694611,5.795593,-148.61676,,,
729863045.82592,1.041017,5.257697,53.038614,-0.103424,0.015945,0.992935,0.009511,0.002991,-0.014264,58.694611,5.795593,-148.61676,,,
729863045.829268,1.041017,5.257697,53.038614,-0.103424,0.015945,0.992935,0.009511,0.002991,-0.014264,58.694611,5.795593,-148.61676,,,
729863045.8326,1.045553,5.253938,53.036161,-0.103424,0.015945,0.992935,0.011998,0.005835,-0.00404,58.694611,5.795593,-148.61676,,,
729863045.835924,1.048999,5.254692,53.035441,-0.109131,0.017349,0.999176,0.011998,0.005835,-0.00404,58.694611,5.795593,-148.61676,,,
729863045.839345,1.048999,5.254692,53.035441,-0.109131,0.017349,0.999176,0.011998,0.005835,-0.00404,58.694611,5.795593,-148.61676,,,
729863045.842596,1.053356,5.252661,53.036951,-0.109131,0.017349,0.999176,0.016584,0.009338,0.017827,58.694611,5.795593,-148.61676,,,
729863045.84593,1.057975,5.254847,53.040983,-0.113037,0.015518,0.999512,0.016584,0.009338,0.017827,58.533356,5.682541,-148.416977,,,
729863045.849305,1.057975,5.254847,53.040983,-0.113037,0.015518,0.999512,0.016584,0.009338,0.017827,58.533356,5.682541,-148.416977,,,
729863045.852656,1.063563,5.255748,53.047092,-0.113037,0.015518,0.999512,0.012597,0.008536,0.02589,58.533356,5.682541,-148.416977,,,
729863045.855923,1.06837,5.257117,53.053974,-0.111221,0.018967,0.997345,0.012597,0.008536,0.02589,58.533356,5.682541,-148.416977,,,
729863045.859272,1.06837,5.257117,53.053974,-0.111221,0.018967,0.997345,0.012597,0.008536,0.02589,58.533356,5.682541,-148.416977,,,
729863045.862603,1.071888,5.258025,53.061302,-0.111221,0.018967,0.997345,0.006001,-0.001231,0.027589,58.533356,5.682541,-148.416977,,,
729863045.865925,1.074525,5.257736,53.068988,-0.104004,0.02359,0.987457,0.006001,-0.001231,0.027589,58.533356,5.682541,-148.416977,,,
729863045.869269,1.074525,5.257736,53.068988,-0.104004,0.02359,0.987457,0.006001,-0.001231,0.027589,58.533356,5.682541,-148.416977,,,
729863045.872663,1.073776,5.256702,53.076496,-0.104004,0.02359,0.987457,-0.002385,-0.018705,0.022939,58.533356,5.682541,-148.416977,,,
729863045.875964,1.073971,5.251378,53.083951,-0.093643,0.022964,0.980392,-0.002385,-0.018705,0.022939,58.533356,5.682541,-148.416977,,,
729863045.879259,1.073971,5.251378,53.083951,-0.093643,0.022964,0.980392,-0.002385,-0.018705,0.022939,58.533356,5.682541,-148.416977,,,
729863045.882603,1.07074,5.245317,53.09088,-0.093643,0.022964,0.980392,-0.009987,-0.033038,0.016864,58.533356,5.682541,-148.416977,,,
729863045.885931,1.06726,5.235665,53.096527,-0.082611,0.026733,0.97966,-0.009987,-0.033038,0.016864,58.651321,6.008377,-148.452881,,,
729863045.88936,1.06726,5.235665,53.096527,-0.082611,0.026733,0.97966,-0.009987,-0.033038,0.016864,58.651321,6.008377,-148.452881,,,
729863045.892593,1.063191,5.227262,53.100706,-0.082611,0.026733,0.97966,-0.014149,-0.023472,0.005119,58.651321,6.008377,-148.452881,,,
729863045.89593,1.0593,5.219365,53.103337,-0.074356,0.024094,0.99118,-0.014149,-0.023472,0.005119,58.651321,6.008377,-148.452881,,,
729863045.899269,1.0593,5.219365,53.103337,-0.074356,0.024094,0.99118,-0.014149,-0.023472,0.005119,58.651321,6.008377,-148.452881,,,
729863045.90267,1.054376,5.216383,53.104053,-0.074356,0.024094,0.99118,-0.014498,0.005254,-0.008034,58.651321,6.008377,-148.452881,,,
729863045.905925,1.049785,5.21557,53.103208,-0.070541,0.017532,1.001633,-0.014498,0.005254,-0.008034,58.651321,6.008377,-148.452881,,,
729863045.909285,1.049785,5.21557,53.103208,-0.070541,0.017532,1.001633,-0.014498,0.005254,-0.008034,58.651321,6.008377,-148.452881,,,
729863045.912607,1.045742,5.223592,53.101481,-0.070541,0.017532,1.001633,-0.003842,0.030222,-0.007028,58.651321,6.008377,-148.452881,,,
729863045.915929,1.043629,5.231154,53.099671,-0.074448,0.014343,1.011902,-0.003842,0.030222,-0.007028,58.651321,6.008377,-148.452881,,,
729863045.91927,1.043629,5.231154,53.099671,-0.074448,0.014343,1.011902,-0.003842,0.030222,-0.007028,58.651321,6.008377,-148.452881,,,
729863045.922605,1.043361,5.245718,53.098278,-0.074448,0.014343,1.011902,0.013582,0.034368,-0.002821,58.651321,6.008377,-148.452881,,,
729863045.925929,1.046081,5.25488,53.097485,-0.083054,0.01207,1.012939,0.013582,0.034368,-0.002821,58.651321,6.008377,-148.452881,,,
729863045.929336,1.046081,5.25488,53.097485,-0.083054,0.01207,1.012939,0.013582,0.034368,-0.002821,58.79834,5.888733,-148.378952,,,
729863045.932593,1.050532,5.269226,53.096612,-0.083054,0.01207,1.012939,0.021387,0.026478,-0.003833,58.79834,5.888733,-148.378952,,,
729863045.93593,1.05633,5.276543,53.095534,-0.090027,0.013474,1.005035,0.021387,0.026478,-0.003833,58.79834,5.888733,-148.378952,,,
729863045.939266,1.05633,5.276543,53.095534,-0.090027,0.013474,1.005035,0.021387,0.026478,-0.003833,58.79834,5.888733,-148.378952,,,
729863045.942667,1.06261,5.28752,53.094389,-0.090027,0.013474,1.005035,0.018548,0.01303,0.000921,58.79834,5.888733,-148.378952,,,
729863045.945917,1.067916,5.290512,53.094208,-0.093826,0.016098,0.992249,0.018548,0.01303,0.000921,58.79834,5.888733,-148.378952,,,
729863045.949277,1.067916,5.290512,53.094208,-0.093826,0.016098,0.992249,0.018548,0.01303,0.000921,58.79834,5.888733,-148.378952,,,
729863045.952603,1.072588,5.29374,53.09491,-0.093826,0.016098,0.992249,0.003877,-0.007998,0.006441,58.79834,5.888733,-148.378952,,,
729863045.955939,1.074708,5.291724,53.09674,-0.094849,0.019348,0.981277,0.003877,-0.007998,0.006441,58.79834,5.888733,-148.378952,,,
729863045.959291,1.074708,5.291724,53.09674,-0.094849,0.019348,0.981277,0.003877,-0.007998,0.006441,58.79834,5.888733,-148.378952,,,
729863045.962607,1.076533,5.287704,53.099224,-0.094849,0.019348,0.981277,-0.005899,-0.014272,0.007726,58.79834,5.888733,-148.378952,,,
729863045.965932,1.075498,5.283227,53.101908,-0.088531,0.023834,0.981506,-0.005899,-0.014272,0.007726,58.79834,5.888733,-148.378952,,,
729863045.96926,1.075498,5.283227,53.101908,-0.088531,0.023834,0.981506,-0.005899,-0.014272,0.007726,58.71167,5.83519,-148.395569,,,
729863045.972616,1.074877,5.275909,53.104545,-0.088531,0.023834,0.981506,-0.012203,-0.005389,0.001474,58.71167,5.83519,-148.395569,,,
729863045.975929,1.071079,5.27352,53.10621,-0.080215,0.023849,0.987183,-0.012203,-0.005389,0.001474,58.71167,5.83519,-148.395569,,,
729863045.97932,1.071079,5.27352,53.10621,-0.080215,0.023849,0.987183,-0.012203,-0.005389,0.001474,58.71167,5.83519,-148.395569,,,
729863045.982608,1.067455,5.268253,53.106501,-0.080215,0.023849,0.987183,-0.012216,0.013952,-0.004448,58.71167,5.83519,-148.395569,,,
729863045.985928,1.063412,5.271133,53.106205,-0.079132,0.020584,0.996552,-0.012216,0.013952,-0.004448,58.71167,5.83519,-148.395569,,,
729863045.989272,1.063412,5.271133,53.106205,-0.079132,0.020584,0.996552,-0.012216,0.013952,-0.004448,58.71167,5.83519,-148.395569,,,
729863045.992683,1.059939,5.2706,53.106033,-0.079132,0.020584,0.996552,-0.001394,0.028248,-0.004123,58.71167,5.83519,-148.395569,,,
729863045.995915,1.058305,5.277928,53.105033,-0.082993,0.017288,1.000916,-0.001394,0.028248,-0.004123,58.71167,5.83519,-148.395569,,,
729863045.999254,1.058305,5.277928,53.105033,-0.082993,0.017288,1.000916,-0.001394,0.028248,-0.004123,58.71167,5.83519,-148.395569,,,
729863046.002664,1.057845,5.280539,53.10323,-0.082993,0.017288,1.000916,0.011517,0.02287,-0.011109,58.71167,5.83519,-148.395569,,,
729863046.005921,1.060471,5.287301,53.100441,-0.084885,0.01651,0.999207,0.011517,0.02287,-0.011109,58.71167,5.83519,-148.395569,,,
729863046.009258,1.060471,5.287301,53.100441,-0.084885,0.01651,0.999207,0.011517,0.02287,-0.011109,58.996094,5.749344,-148.268661,,,
729863046.012611,1.062365,5.290799,53.097264,-0.084885,0.01651,0.999207,0.014534,0.01761,-0.013958,58.996094,5.749344,-148.268661,,,
729863046.015918,1.065449,5.295138,53.093946,-0.090714,0.016251,0.990204,0.014534,0.01761,-0.013958,58.996094,5.749344,-148.268661,,,
729863046.019361,1.065449,5.295138,53.093946,-0.090714,0.016251,0.990204,0.014534,0.01761,-0.013958,58.996094,5.749344,-148.268661,,,
729863046.02261,1.067582,5.296868,53.0905,-0.090714,0.016251,0.990204,0.010647,-0.003989,-0.012684,58.996094,5.749344,-148.268661,,,
729863046.025942,1.069725,5.296193,53.087077,-0.098282,0.015411,0.984177,0.010647,-0.003989,-0.012684,58.996094,5.749344,-148.268661,,,
729863046.029042,1.069725,5.296193,53.087077,-0.098282,0.015411,0.984177,0.010647,-0.003989,-0.012684,58.996094,5.749344,-148.268661,,,
729863046.032693,1.070429,5.292113,53.084166,-0.098282,0.015411,0.984177,0.001836,-0.028811,-0.007016,58.996094,5.749344,-148.268661,,,
729863046.035908,1.070814,5.283461,53.082152,-0.100388,0.01741,0.977295,0.001836,-0.028811,-0.007016,58.996094,5.749344,-148.268661,,,
729863046.039269,1.070814,5.283461,53.082152,-0.100388,0.01741,0.977295,0.001836,-0.028811,-0.007016,58.996094,5.749344,-148.268661,,,
729863046.042597,1.069882,5.27406,53.080491,-0.100388,0.01741,0.977295,-0.011221,-0.030226,-0.004663,58.996094,5.749344,-148.268661,,,
729863046.045918,1.066457,5.264611,53.079209,-0.097015,0.017242,0.983582,-0.011221,-0.030226,-0.004663,58.996094,5.749344,-148.268661,,,
