Time (sec),Pitch (deg),Roll (deg),Yaw(deg),X-Acceleration (g),Y-Acceleration (g),Z-Acceleration (g),Pitch Rate (deg/sec),Roll Rate (deg/sec),Yaw Rate (deg/sec),Magnetic Field in X direction (uT),Magnetic Field in Y direction (uT),Magnetic Field in Z Direction (uT),Latitude (deg),Longitude (deg),Altitude (m)
729861766.064085,1.41295,3.309798,123.438621,-0.081818,0.022034,0.984451,-0.016286,0.052017,-0.034901,67.969147,32.194275,-146.575027,,,
729861766.067429,1.40785,3.308757,123.430621,-0.081818,0.022034,0.984451,-0.014159,0.005599,-0.029559,67.969147,32.194275,-146.575027,,,
729861766.070735,1.40571,3.291228,123.423766,-0.081879,0.024277,0.974701,-0.014159,0.005599,-0.029559,67.969147,32.194275,-146.575027,,,
729861766.074064,1.40571,3.291228,123.423766,-0.081879,0.024277,0.974701,-0.014159,0.005599,-0.029559,67.969147,32.194275,-146.575027,,,
729861766.07741,1.400362,3.279879,123.41687,-0.081879,0.024277,0.974701,-0.016203,-0.033907,-0.027103,67.969147,32.194275,-146.575027,,,
729861766.080734,1.39766,3.255358,123.410247,-0.080704,0.02536,0.978882,-0.016203,-0.033907,-0.027103,67.797043,32.098053,-146.69017,,,
729861766.084067,1.39766,3.255358,123.410247,-0.080704,0.02536,0.978882,-0.016203,-0.033907,-0.027103,67.797043,32.098053,-146.69017,,,
729861766.087426,1.391155,3.237443,123.404146,-0.080704,0.02536,0.978882,-0.022119,-0.058152,-0.023688,67.797043,32.098053,-146.69017,,,
729861766.090732,1.386455,3.209297,123.398828,-0.08046,0.024475,0.98497,-0.022119,-0.058152,-0.023688,67.797043,32.098053,-146.69017,,,
729861766.094079,1.386455,3.209297,123.398828,-0.08046,0.024475,0.98497,-0.022119,-0.058152,-0.023688,67.797043,32.098053,-146.69017,,,
729861766.097494,1.377942,3.18859,123.39333,-0.08046,0.024475,0.98497,-0.025444,-0.070863,-0.020763,67.797043,32.098053,-146.69017,,,
729861766.100734,1.369127,3.165615,123.387887,-0.074585,0.024109,0.991287,-0.025444,-0.070863,-0.020763,67.797043,32.098053,-146.69017,,,
729861766.104101,1.369127,3.165615,123.387887,-0.074585,0.024109,0.991287,-0.025444,-0.070863,-0.020763,67.797043,32.098053,-146.69017,,,
729861766.107409,1.360019,3.148879,123.382646,-0.074585,0.024109,0.991287,-0.03128,-0.059198,-0.020402,67.797043,32.098053,-146.69017,,,
729861766.110742,1.351489,3.135769,123.377795,-0.069458,0.024231,1.000778,-0.03128,-0.059198,-0.020402,67.797043,32.098053,-146.69017,,,
729861766.114087,1.351489,3.135769,123.377795,-0.069458,0.024231,1.000778,-0.03128,-0.059198,-0.020402,67.797043,32.098053,-146.69017,,,
729861766.117419,1.342988,3.127993,123.373423,-0.069458,0.024231,1.000778,-0.027892,-0.030707,-0.018281,67.797043,32.098053,-146.69017,,,
729861766.120743,1.334661,3.128828,123.369367,-0.066162,0.026016,1.007904,-0.027892,-0.030707,-0.018281,67.925949,32.179077,-146.826157,,,
729861766.124138,1.334661,3.128828,123.369367,-0.066162,0.026016,1.007904,-0.027892,-0.030707,-0.018281,67.925949,32.179077,-146.826157,,,
729861766.127411,1.326918,3.131759,123.366293,-0.066162,0.026016,1.007904,-0.026939,0.008752,-0.01635,67.925949,32.179077,-146.826157,,,
729861766.13074,1.320172,3.146743,123.364048,-0.064835,0.024628,1.009644,-0.026939,0.008752,-0.01635,67.925949,32.179077,-146.826157,,,
729861766.134083,1.320172,3.146743,123.364048,-0.064835,0.024628,1.009644,-0.026939,0.008752,-0.01635,67.925949,32.179077,-146.826157,,,
729861766.137475,1.316105,3.157162,123.362733,-0.064835,0.024628,1.009644,-0.01406,0.036032,-0.007921,67.925949,32.179077,-146.826157,,,
729861766.140732,1.314557,3.18079,123.36274,-0.065491,0.026505,1.008423,-0.01406,0.036032,-0.007921,67.925949,32.179077,-146.826157,,,
729861766.144082,1.314557,3.18079,123.36274,-0.065491,0.026505,1.008423,-0.01406,0.036032,-0.007921,67.925949,32.179077,-146.826157,,,
729861766.14742,1.314843,3.195268,123.364407,-0.065491,0.026505,1.008423,-0.001048,0.052711,0.002113,67.925949,32.179077,-146.826157,,,
729861766.150778,1.316634,3.220581,123.366687,-0.06781,0.023392,1.003906,-0.001048,0.052711,0.002113,67.925949,32.179077,-146.826157,,,
729861766.154087,1.316634,3.220581,123.366687,-0.06781,0.023392,1.003906,-0.001048,0.052711,0.002113,67.925949,32.179077,-146.826157,,,
729861766.157438,1.318486,3.23408,123.370421,-0.06781,0.023392,1.003906,0.008747,0.054383,0.009056,67.925949,32.179077,-146.826157,,,
729861766.160749,1.321134,3.253708,123.374994,-0.072067,0.023636,0.996368,0.008747,0.054383,0.009056,67.925949,32.179077,-146.826157,,,
729861766.164107,1.321134,3.253708,123.374994,-0.072067,0.023636,0.996368,0.008747,0.054383,0.009056,67.92627,32.237228,-146.586914,,,
729861766.167438,1.324045,3.260095,123.380618,-0.072067,0.023636,0.996368,0.011307,0.030157,0.016978,67.92627,32.237228,-146.586914,,,
729861766.17074,1.327905,3.270646,123.385963,-0.073868,0.022156,0.988998,0.011307,0.030157,0.016978,67.92627,32.237228,-146.586914,,,
729861766.174147,1.327905,3.270646,123.385963,-0.073868,0.022156,0.988998,0.011307,0.030157,0.016978,67.92627,32.237228,-146.586914,,,
729861766.177412,1.33251,3.268466,123.390454,-0.073868,0.022156,0.988998,0.015661,0.001139,0.016439,67.92627,32.237228,-146.586914,,,
729861766.180746,1.339,3.268486,123.393706,-0.069489,0.023392,0.9935,0.015661,0.001139,0.016439,67.92627,32.237228,-146.586914,,,
729861766.184075,1.339,3.268486,123.393706,-0.069489,0.023392,0.9935,0.015661,0.001139,0.016439,67.92627,32.237228,-146.586914,,,
729861766.187512,1.346018,3.259731,123.395809,-0.069489,0.023392,0.9935,0.024992,-0.025285,0.008921,67.92627,32.237228,-146.586914,,,
729861766.190735,1.353303,3.251602,123.396773,-0.065216,0.026367,0.997284,0.024992,-0.025285,0.008921,67.92627,32.237228,-146.586914,,,
729861766.194076,1.353303,3.251602,123.396773,-0.065216,0.026367,0.997284,0.024992,-0.025285,0.008921,67.92627,32.237228,-146.586914,,,
729861766.197411,1.359949,3.236918,123.396849,-0.065216,0.026367,0.997284,0.026515,-0.046419,0.0023,67.92627,32.237228,-146.586914,,,
729861766.200763,1.366316,3.223909,123.396414,-0.059937,0.028732,0.994034,0.026515,-0.046419,0.0023,67.92627,32.237228,-146.586914,,,
729861766.204111,1.366316,3.223909,123.396414,-0.059937,0.028732,0.994034,0.026515,-0.046419,0.0023,67.920151,32.094742,-146.938889,,,
729861766.207488,1.370855,3.208768,123.395911,-0.059937,0.028732,0.994034,0.016925,-0.050605,-0.000679,67.920151,32.094742,-146.938889,,,
729861766.210782,1.373304,3.19939,123.39533,-0.057297,0.033646,0.988541,0.016925,-0.050605,-0.000679,67.920151,32.094742,-146.938889,,,
729861766.214096,1.373304,3.19939,123.39533,-0.057297,0.033646,0.988541,0.016925,-0.050605,-0.000679,67.920151,32.094742,-146.938889,,,
729861766.217446,1.372462,3.190415,123.395279,-0.057297,0.033646,0.988541,0.000262,-0.032831,-0.00081,67.920151,32.094742,-146.938889,,,
729861766.22074,1.369051,3.189849,123.395506,-0.053558,0.03624,0.985626,0.000262,-0.032831,-0.00081,67.920151,32.094742,-146.938889,,,
729861766.224075,1.369051,3.189849,123.395506,-0.053558,0.03624,0.985626,0.000262,-0.032831,-0.00081,67.920151,32.094742,-146.938889,,,
729861766.227402,1.361915,3.19117,123.396315,-0.053558,0.03624,0.985626,-0.020949,0.005862,-0.000536,67.920151,32.094742,-146.938889,,,
729861766.23076,1.352165,3.203257,123.397446,-0.050674,0.03746,0.985245,-0.020949,0.005862,-0.000536,67.920151,32.094742,-146.938889,,,
729861766.234085,1.352165,3.203257,123.397446,-0.050674,0.03746,0.985245,-0.020949,0.005862,-0.000536,67.920151,32.094742,-146.938889,,,
729861766.237405,1.341936,3.215572,123.399497,-0.050674,0.03746,0.985245,-0.035815,0.044818,0.003526,67.920151,32.094742,-146.938889,,,
729861766.240739,1.341936,3.215572,123.399497,-0.049652,0.034576,0.992767,-0.035815,0.044818,0.003526,67.920151,32.094742,-146.938889,,,
729861766.244079,1.331238,3.238738,123.401751,-0.049652,0.034576,0.992767,-0.035815,0.044818,0.003526,67.92662,31.984283,-146.973541,,,
729861766.247405,1.320536,3.258078,123.403492,-0.049652,0.034576,0.992767,-0.03658,0.068536,0.004226,67.92662,31.984283,-146.973541,,,
729861766.250736,1.320536,3.258078,123.403492,-0.050034,0.028641,0.996277,-0.03658,0.068536,0.004226,67.92662,31.984283,-146.973541,,,
729861766.254116,1.310659,3.283679,123.404848,-0.050034,0.028641,0.996277,-0.03658,0.068536,0.004226,67.92662,31.984283,-146.973541,,,
729861766.257429,1.302372,3.30252,123.40601,-0.050034,0.028641,0.996277,-0.029106,0.071823,0.002197,67.92662,31.984283,-146.973541,,,
729861766.26074,1.302372,3.30252,123.40601,-0.053207,0.023682,0.999298,-0.029106,0.071823,0.002197,67.92662,31.984283,-146.973541,,,
729861766.264141,1.296686,3.323448,123.406192,-0.053207,0.023682,0.999298,-0.029106,0.071823,0.002197,67.92662,31.984283,-146.973541,,,
729861766.267405,1.293005,3.337999,123.405039,-0.053207,0.023682,0.999298,-0.012268,0.054564,-0.003249,67.92662,31.984283,-146.973541,,,
729861766.270737,1.293005,3.337999,123.405039,-0.054031,0.02272,1.003433,-0.012268,0.054564,-0.003249,67.92662,31.984283,-146.973541,,,
729861766.274082,1.292468,3.350871,123.402826,-0.054031,0.02272,1.003433,-0.012268,0.054564,-0.003249,67.92662,31.984283,-146.973541,,,
729861766.277413,1.292999,3.358429,123.400269,-0.054031,0.02272,1.003433,0.002133,0.033043,-0.009976,67.92662,31.984283,-146.973541,,,
729861766.280734,1.292999,3.358429,123.400269,-0.059235,0.022156,1.001144,0.002133,0.033043,-0.009976,67.92662,31.984283,-146.973541,,,
729861766.284071,1.297215,3.361776,123.397638,-0.059235,0.022156,1.001144,0.002133,0.033043,-0.009976,68.118057,32.111954,-146.798615,,,
729861766.287402,1.299401,3.360913,123.395855,-0.059235,0.022156,1.001144,0.008081,0.00341,-0.008647,68.118057,32.111954,-146.798615,,,
729861766.290789,1.299401,3.360913,123.395855,-0.065842,0.021835,0.995773,0.008081,0.00341,-0.008647,68.118057,32.111954,-146.798615,,,
729861766.294087,1.303958,3.356657,123.394968,-0.065842,0.021835,0.995773,0.008081,0.00341,-0.008647,68.118057,32.111954,-146.798615,,,
729861766.297434,1.3044,3.351529,123.395203,-0.065842,0.021835,0.995773,0.004751,-0.014605,-0.001437,68.118057,32.111954,-146.798615,,,
729861766.300816,1.3044,3.351529,123.395203,-0.07135,0.024094,0.992081,0.004751,-0.014605,-0.001437,68.118057,32.111954,-146.798615,,,
729861766.304172,1.307861,3.343285,123.397451,-0.07135,0.024094,0.992081,0.004751,-0.014605,-0.001437,68.118057,32.111954,-146.798615,,,
729861766.307404,1.306773,3.337388,123.401091,-0.07135,0.024094,0.992081,-0.003937,-0.018364,0.010833,68.118057,32.111954,-146.798615,,,
729861766.310744,1.306773,3.337388,123.401091,-0.070511,0.022537,0.994766,-0.003937,-0.018364,0.010833,68.118057,32.111954,-146.798615,,,
729861766.314093,1.309596,3.329979,123.405694,-0.070511,0.022537,0.994766,-0.003937,-0.018364,0.010833,68.118057,32.111954,-146.798615,,,
729861766.317489,1.310529,3.326652,123.410826,-0.070511,0.022537,0.994766,-0.001894,-0.009066,0.017104,68.118057,32.111954,-146.798615,,,
729861766.320844,1.310529,3.326652,123.410826,-0.062927,0.020966,1.005157,-0.001894,-0.009066,0.017104,68.118057,32.111954,-146.798615,,,
729861766.324081,1.31599,3.32239,123.416023,-0.062927,0.020966,1.005157,-0.001894,-0.009066,0.017104,68.118057,32.111954,-146.798615,,,
729861766.327407,1.321121,3.323635,123.420176,-0.062927,0.020966,1.005157,0.016178,0.006228,0.015866,67.71936,32.034073,-146.999176,,,
729861766.330567,1.321121,3.323635,123.420176,-0.062927,0.020966,1.005157,0.016178,0.006228,0.015866,67.71936,32.034073,-146.999176,,,
729861766.334095,1.328534,3.324844,123.422841,-0.054138,0.020493,1.017441,0.016178,0.006228,0.015866,67.71936,32.034073,-146.999176,,,
729861766.337398,1.336147,3.330169,123.424613,-0.054138,0.020493,1.017441,0.027148,0.023364,0.005521,67.71936,32.034073,-146.999176,,,
729861766.340742,1.336147,3.330169,123.424613,-0.052353,0.020645,1.014954,0.027148,0.023364,0.005521,67.71936,32.034073,-146.999176,,,
729861766.344148,1.343746,3.334255,123.425224,-0.052353,0.020645,1.014954,0.027148,0.023364,0.005521,67.71936,32.034073,-146.999176,,,
729861766.347395,1.350125,3.340374,123.424221,-0.052353,0.020645,1.014954,0.024296,0.022817,-0.001997,67.71936,32.034073,-146.999176,,,
729861766.350828,1.350125,3.340374,123.424221,-0.052353,0.020645,1.014954,0.024296,0.022817,-0.001997,67.71936,32.034073,-146.999176,,,
729861766.354085,1.354824,3.346405,123.422415,-0.053024,0.022781,1.003754,0.024296,0.022817,-0.001997,67.71936,32.034073,-146.999176,,,
729861766.357407,1.358456,3.354486,123.420149,-0.053024,0.022781,1.003754,0.01615,0.028271,-0.008114,67.71936,32.034073,-146.999176,,,
729861766.360803,1.358456,3.354486,123.420149,-0.053024,0.022781,1.003754,0.01615,0.028271,-0.008114,67.71936,32.034073,-146.999176,,,
729861766.364089,1.360535,3.36419,123.417941,-0.056061,0.022964,1.000275,0.01615,0.028271,-0.008114,67.71936,32.034073,-146.999176,,,
729861766.367414,1.362561,3.373541,123.417118,-0.056061,0.022964,1.000275,0.011369,0.033548,-0.008181,68.003494,32.301865,-146.995712,,,
729861766.370805,1.362561,3.373541,123.417118,-0.056061,0.022964,1.000275,0.011369,0.033548,-0.008181,68.003494,32.301865,-146.995712,,,
729861766.374073,1.364891,3.385943,123.417725,-0.060333,0.02269,0.999741,0.011369,0.033548,-0.008181,68.003494,32.301865,-146.995712,,,
729861766.377412,1.367991,3.394467,123.41897,-0.060333,0.02269,0.999741,0.011356,0.033741,0.000533,68.003494,32.301865,-146.995712,,,
729861766.380747,1.367991,3.394467,123.41897,-0.060333,0.02269,0.999741,0.011356,0.033741,0.000533,68.003494,32.301865,-146.995712,,,
729861766.384137,1.371621,3.407618,123.420167,-0.062637,0.018082,0.997147,0.011356,0.033741,0.000533,68.003494,32.301865,-146.995712,,,
729861766.387409,1.376157,3.416411,123.420841,-0.062637,0.018082,0.997147,0.014991,0.033393,0.003759,68.003494,32.301865,-146.995712,,,
729861766.390753,1.376157,3.416411,123.420841,-0.062637,0.018082,0.997147,0.014991,0.033393,0.003759,68.003494,32.301865,-146.995712,,,
729861766.394086,1.379764,3.429304,123.420327,-0.059738,0.021362,0.996521,0.014991,0.033393,0.003759,68.003494,32.301865,-146.995712,,,
729861766.397411,1.382359,3.439327,123.418775,-0.059738,0.021362,0.996521,0.011566,0.037976,-0.007535,68.003494,32.301865,-146.995712,,,
729861766.400859,1.382359,3.439327,123.418775,-0.057098,0.025497,0.990967,0.011566,0.037976,-0.007535,68.003494,32.301865,-146.995712,,,
729861766.404091,1.38145,3.44784,123.416234,-0.057098,0.025497,0.990967,0.011566,0.037976,-0.007535,68.003494,32.301865,-146.995712,,,
729861766.407408,1.379177,3.455318,123.413417,-0.057098,0.025497,0.990967,-0.002994,0.030243,-0.01091,68.249573,32.153625,-146.906219,,,
729861766.410818,1.379177,3.455318,123.413417,-0.057098,0.025497,0.990967,-0.002994,0.030243,-0.01091,68.249573,32.153625,-146.906219,,,
729861766.414092,1.373441,3.45852,123.410721,-0.060226,0.027863,0.981689,-0.002994,0.030243,-0.01091,68.249573,32.153625,-146.906219,,,
729861766.417408,1.366503,3.46507,123.407938,-0.060226,0.027863,0.981689,-0.02121,0.021287,-0.013125,68.249573,32.153625,-146.906219,,,
729861766.420777,1.366503,3.46507,123.407938,-0.060226,0.027863,0.981689,-0.02121,0.021287,-0.013125,68.249573,32.153625,-146.906219,,,
729861766.424148,1.356457,3.470405,123.405734,-0.06311,0.025894,0.977982,-0.02121,0.021287,-0.013125,68.249573,32.153625,-146.906219,,,
729861766.427395,1.345474,3.481297,123.404841,-0.06311,0.025894,0.977982,-0.036675,0.0388,-0.00865,68.249573,32.153625,-146.906219,,,
729861766.430778,1.345474,3.481297,123.404841,-0.06311,0.025894,0.977982,-0.036675,0.0388,-0.00865,68.249573,32.153625,-146.906219,,,
729861766.434076,1.33417,3.490243,123.405896,-0.06604,0.023544,0.985489,-0.036675,0.0388,-0.00865,68.249573,32.153625,-146.906219,,,
729861766.437402,1.323167,3.50116,123.408684,-0.06604,0.023544,0.985489,-0.039073,0.042356,0.006028,68.249573,32.153625,-146.906219,,,
729861766.440849,1.323167,3.50116,123.408684,-0.06604,0.023544,0.985489,-0.039073,0.042356,0.006028,68.249573,32.153625,-146.906219,,,
729861766.44416,1.313036,3.508347,123.413697,-0.073578,0.019073,0.990402,-0.039073,0.042356,0.006028,68.249573,32.153625,-146.906219,,,
729861766.447258,1.304407,3.51368,123.420301,-0.073578,0.019073,0.990402,-0.033594,0.024913,0.01953,68.249573,32.153625,-146.906219,,,
729861766.450797,1.304407,3.51368,123.420301,-0.073578,0.019073,0.990402,-0.033594,0.024913,0.01953,68.289474,32.116226,-146.649872,,,
729861766.454138,1.296433,3.515401,123.427168,-0.075104,0.016449,0.992188,-0.033594,0.024913,0.01953,68.289474,32.116226,-146.649872,,,
729861766.457519,1.290412,3.511386,123.433933,-0.075104,0.016449,0.992188,-0.02354,-0.004856,0.021853,68.289474,32.116226,-146.649872,,,
729861766.46085,1.290412,3.511386,123.433933,-0.075104,0.016449,0.992188,-0.02354,-0.004856,0.021853,68.289474,32.116226,-146.649872,,,
729861766.464089,1.284724,3.501791,123.440373,-0.070953,0.019012,0.990204,-0.02354,-0.004856,0.021853,68.289474,32.116226,-146.649872,,,
729861766.467524,1.281448,3.486716,123.4462,-0.070953,0.019012,0.990204,-0.012268,-0.047309,0.019125,68.289474,32.116226,-146.649872,,,
729861766.47076,1.281448,3.486716,123.4462,-0.070953,0.019012,0.990204,-0.012268,-0.047309,0.019125,68.289474,32.116226,-146.649872,,,
729861766.474159,1.279382,3.466339,123.451032,-0.063431,0.02211,0.983063,-0.012268,-0.047309,0.019125,68.289474,32.116226,-146.649872,,,
729861766.477406,1.27754,3.443939,123.454786,-0.063431,0.02211,0.983063,-0.00643,-0.076802,0.010411,68.289474,32.116226,-146.649872,,,
729861766.480742,1.27754,3.443939,123.454786,-0.063431,0.02211,0.983063,-0.00643,-0.076802,0.010411,68.289474,32.116226,-146.649872,,,
729861766.484086,1.276857,3.42071,123.458405,-0.061172,0.022736,0.980652,-0.00643,-0.076802,0.010411,68.289474,32.116226,-146.649872,,,
729861766.487422,1.274172,3.398855,123.462343,-0.061172,0.022736,0.980652,-0.009805,-0.07336,0.008638,68.289474,32.116226,-146.649872,,,
729861766.490738,1.274172,3.398855,123.462343,-0.061172,0.022736,0.980652,-0.009805,-0.07336,0.008638,67.971329,32.023071,-146.938751,,,
729861766.494084,1.271643,3.38007,123.466779,-0.058624,0.022919,0.985886,-0.009805,-0.07336,0.008638,67.971329,32.023071,-146.938751,,,
729861766.497413,1.265643,3.363746,123.471633,-0.058624,0.022919,0.985886,-0.018157,-0.059597,0.014355,67.971329,32.023071,-146.938751,,,
729861766.500799,1.265643,3.363746,123.471633,-0.058624,0.022919,0.985886,-0.018157,-0.059597,0.014355,67.971329,32.023071,-146.938751,,,
729861766.504095,1.258818,3.354081,123.476834,-0.055969,0.022629,0.986465,-0.018157,-0.059597,0.014355,67.971329,32.023071,-146.938751,,,
729861766.507411,1.249517,3.346369,123.482445,-0.055969,0.022629,0.986465,-0.030856,-0.026592,0.018674,67.971329,32.023071,-146.938751,,,
729861766.51076,1.249517,3.346369,123.482445,-0.055969,0.022629,0.986465,-0.030856,-0.026592,0.018674,67.971329,32.023071,-146.938751,,,
729861766.514139,1.238449,3.347141,123.487911,-0.055801,0.022095,0.988449,-0.030856,-0.026592,0.018674,67.971329,32.023071,-146.938751,,,
729861766.517406,1.225729,3.348195,123.493614,-0.055801,0.022095,0.988449,-0.043732,0.002131,0.016239,67.971329,32.023071,-146.938751,,,
729861766.520763,1.225729,3.348195,123.493614,-0.055801,0.022095,0.988449,-0.043732,0.002131,0.016239,67.971329,32.023071,-146.938751,,,
729861766.524083,1.211379,3.359866,123.498846,-0.052002,0.023621,0.990143,-0.043732,0.002131,0.016239,67.971329,32.023071,-146.938751,,,
729861766.527442,1.19742,3.367955,123.504014,-0.052002,0.023621,0.990143,-0.046989,0.031186,0.012466,67.971329,32.023071,-146.938751,,,
729861766.530744,1.19742,3.367955,123.504014,-0.052002,0.023621,0.990143,-0.046989,0.031186,0.012466,68.132446,32.349899,-146.606354,,,
729861766.5341,1.181502,3.38281,123.509329,-0.048553,0.023178,0.9935,-0.046989,0.031186,0.012466,68.132446,32.349899,-146.606354,,,
729861766.53741,1.164828,3.391734,123.514591,-0.048553,0.023178,0.9935,-0.056887,0.037095,0.012314,68.132446,32.349899,-146.606354,,,
729861766.54081,1.164828,3.391734,123.514591,-0.048553,0.023178,0.9935,-0.056887,0.037095,0.012314,68.132446,32.349899,-146.606354,,,
729861766.544084,1.147838,3.402719,123.519407,-0.050003,0.02478,0.992905,-0.056887,0.037095,0.012314,68.132446,32.349899,-146.606354,,,
729861766.547413,1.130926,3.408322,123.523573,-0.050003,0.02478,0.992905,-0.05964,0.025912,0.011088,68.132446,32.349899,-146.606354,,,
729861766.550753,1.130926,3.408322,123.523573,-0.050003,0.02478,0.992905,-0.05964,0.025912,0.011088,68.132446,32.349899,-146.606354,,,
729861766.554139,1.115705,3.413269,123.52687,-0.048721,0.02301,0.99437,-0.05964,0.025912,0.011088,68.132446,32.349899,-146.606354,,,
729861766.557406,1.102228,3.415967,123.529464,-0.048721,0.02301,0.99437,-0.048734,0.013769,0.004953,68.132446,32.349899,-146.606354,,,
729861766.560753,1.102228,3.415967,123.529464,-0.048721,0.02301,0.99437,-0.048734,0.013769,0.004953,68.132446,32.349899,-146.606354,,,
729861766.564088,1.0938,3.418636,123.531399,-0.049149,0.018616,1.013702,-0.048734,0.013769,0.004953,68.132446,32.349899,-146.606354,,,
729861766.567422,1.089753,3.419876,123.533177,-0.049149,0.018616,1.013702,-0.019785,0.008382,0.003443,68.132446,32.349899,-146.606354,,,
729861766.570748,1.089753,3.419876,123.533177,-0.049149,0.018616,1.013702,-0.019785,0.008382,0.003443,68.144623,32.359573,-146.688705,,,
729861766.574089,1.091649,3.419746,123.534522,-0.050293,0.011826,1.029999,-0.019785,0.008382,0.003443,68.144623,32.359573,-146.688705,,,
729861766.577417,1.096563,3.419715,123.535081,-0.050293,0.011826,1.029999,0.014763,0.001893,0.002671,68.144623,32.359573,-146.688705,,,
729861766.580841,1.096563,3.419715,123.535081,-0.050293,0.011826,1.029999,0.014763,0.001893,0.002671,68.144623,32.359573,-146.688705,,,
729861766.584069,1.106921,3.417572,123.535019,-0.050568,0.012085,1.03302,0.014763,0.001893,0.002671,68.144623,32.359573,-146.688705,,,
729861766.587407,1.119837,3.41661,123.533487,-0.050568,0.012085,1.03302,0.043335,-0.002268,-0.000629,68.144623,32.359573,-146.688705,,,
729861766.590763,1.119837,3.41661,123.533487,-0.050568,0.012085,1.03302,0.043335,-0.002268,-0.000629,68.144623,32.359573,-146.688705,,,
729861766.594155,1.135208,3.414288,123.53065,-0.050323,0.01767,1.029221,0.043335,-0.002268,-0.000629,68.144623,32.359573,-146.688705,,,
729861766.597404,1.150222,3.413572,123.527195,-0.050323,0.01767,1.029221,0.054507,8e-06,-0.010157,68.144623,32.359573,-146.688705,,,
729861766.60076,1.150222,3.413572,123.527195,-0.050323,0.01767,1.029221,0.054507,8e-06,-0.010157,68.144623,32.359573,-146.688705,,,
729861766.604075,1.164797,3.410067,123.523411,-0.049316,0.019104,1.016479,0.054507,8e-06,-0.010157,68.144623,32.359573,-146.688705,,,
729861766.607405,1.176059,3.410421,123.519184,-0.049316,0.019104,1.016479,0.045734,0.005071,-0.012503,68.144623,32.359573,-146.688705,,,
729861766.610785,1.176059,3.410421,123.519184,-0.049316,0.019104,1.016479,0.045734,0.005071,-0.012503,68.144623,32.359573,-146.688705,,,
729861766.614083,1.185815,3.40896,123.514466,-0.050583,0.023361,0.998764,0.045734,0.005071,-0.012503,68.027481,32.327393,-146.524231,,,
729861766.617412,1.191421,3.413871,123.509225,-0.050583,0.023361,0.998764,0.02435,0.015599,-0.017496,68.027481,32.327393,-146.524231,,,
729861766.620815,1.191421,3.413871,123.509225,-0.050583,0.023361,0.998764,0.02435,0.015599,-0.017496,68.027481,32.327393,-146.524231,,,
729861766.624079,1.194814,3.418244,123.503138,-0.051025,0.026642,0.988602,0.02435,0.015599,-0.017496,68.027481,32.327393,-146.524231,,,
729861766.627416,1.194095,3.43,123.495748,-0.051025,0.026642,0.988602,0.002403,0.041525,-0.025923,68.027481,32.327393,-146.524231,,,
729861766.630751,1.194095,3.43,123.495748,-0.051025,0.026642,0.988602,0.002403,0.041525,-0.025923,68.027481,32.327393,-146.524231,,,
729861766.634158,1.190724,3.441978,123.48761,-0.050629,0.029419,0.985458,0.002403,0.041525,-0.025923,68.027481,32.327393,-146.524231,,,
729861766.637411,1.184599,3.461349,123.478888,-0.050629,0.029419,0.985458,-0.016165,0.066992,-0.032091,68.027481,32.327393,-146.524231,,,
729861766.640752,1.184599,3.461349,123.478888,-0.050629,0.029419,0.985458,-0.016165,0.066992,-0.032091,68.027481,32.327393,-146.524231,,,
729861766.644105,1.174698,3.478638,123.47036,-0.052887,0.029495,0.98468,-0.016165,0.066992,-0.032091,68.027481,32.327393,-146.524231,,,
729861766.64741,1.164384,3.500536,123.462461,-0.052887,0.029495,0.98468,-0.031791,0.077915,-0.031023,68.027481,32.327393,-146.524231,,,
729861766.650757,1.164384,3.500536,123.462461,-0.052887,0.029495,0.98468,-0.031791,0.077915,-0.031023,68.027481,32.327393,-146.524231,,,
729861766.654088,1.15022,3.516787,123.455839,-0.065079,0.025864,0.978546,-0.031791,0.077915,-0.031023,68.074524,32.273987,-146.441833,,,
729861766.657408,1.136847,3.534926,123.450964,-0.065079,0.025864,0.978546,-0.043363,0.068015,-0.023329,68.074524,32.273987,-146.441833,,,
729861766.660818,1.136847,3.534926,123.450964,-0.065079,0.025864,0.978546,-0.043363,0.068015,-0.023329,68.074524,32.273987,-146.441833,,,
729861766.664083,1.120877,3.545509,123.448122,-0.07634,0.019897,0.970444,-0.043363,0.068015,-0.023329,68.074524,32.273987,-146.441833,,,
729861766.667407,1.106015,3.556515,123.447002,-0.07634,0.019897,0.970444,-0.050161,0.045091,-0.008749,68.074524,32.273987,-146.441833,,,
729861766.670746,1.106015,3.556515,123.447002,-0.07634,0.019897,0.970444,-0.050161,0.045091,-0.008749,68.074524,32.273987,-146.441833,,,
729861766.674131,1.090517,3.55727,123.448198,-0.085388,0.016922,0.970551,-0.050161,0.045091,-0.008749,68.074524,32.273987,-146.441833,,,
729861766.677398,1.076328,3.557281,123.451362,-0.085388,0.016922,0.970551,-0.046712,0.007772,0.004776,68.074524,32.273987,-146.441833,,,
729861766.680751,1.076328,3.557281,123.451362,-0.085388,0.016922,0.970551,-0.046712,0.007772,0.004776,68.074524,32.273987,-146.441833,,,
729861766.684087,1.063869,3.547089,123.456478,-0.086258,0.012802,0.969818,-0.046712,0.007772,0.004776,68.074524,32.273987,-146.441833,,,
729861766.687397,1.053299,3.535753,123.462337,-0.086258,0.012802,0.969818,-0.040683,-0.031919,0.014862,68.074524,32.273987,-146.441833,,,
729861766.690748,1.053299,3.535753,123.462337,-0.086258,0.012802,0.969818,-0.040683,-0.031919,0.014862,68.074524,32.273987,-146.441833,,,
729861766.694131,1.046795,3.517356,123.468261,-0.082855,0.009186,0.976639,-0.040683,-0.031919,0.014862,68.180695,32.317017,-146.405823,,,
729861766.697397,1.041239,3.500145,123.474063,-0.082855,0.009186,0.976639,-0.021655,-0.056042,0.019221,68.180695,32.317017,-146.405823,,,
729861766.700791,1.041239,3.500145,123.474063,-0.082855,0.009186,0.976639,-0.021655,-0.056042,0.019221,68.180695,32.317017,-146.405823,,,
729861766.704083,1.040566,3.478526,123.479222,-0.072189,0.009583,0.991318,-0.021655,-0.056042,0.019221,68.180695,32.317017,-146.405823,,,
729861766.707408,1.039491,3.460194,123.483336,-0.072189,0.009583,0.991318,-0.006763,-0.060014,0.013928,68.180695,32.317017,-146.405823,,,
729861766.71075,1.039491,3.460194,123.483336,-0.072189,0.009583,0.991318,-0.006763,-0.060014,0.013928,68.180695,32.317017,-146.405823,,,
729861766.714136,1.041803,3.439669,123.486738,-0.062683,0.014343,0.995834,-0.006763,-0.060014,0.013928,68.180695,32.317017,-146.405823,,,
729861766.717404,1.041377,3.425102,123.490128,-0.062683,0.014343,0.995834,3.4e-05,-0.050484,0.007103,68.180695,32.317017,-146.405823,,,
729861766.720757,1.041377,3.425102,123.490128,-0.062683,0.014343,0.995834,3.4e-05,-0.050484,0.007103,68.180695,32.317017,-146.405823,,,
729861766.724084,1.042434,3.413767,123.493968,-0.058319,0.015732,0.995956,3.4e-05,-0.050484,0.007103,68.180695,32.317017,-146.405823,,,
729861766.727406,1.039073,3.407469,123.498452,-0.058319,0.015732,0.995956,-0.010474,-0.024094,0.014491,68.180695,32.317017,-146.405823,,,
729861766.730759,1.039073,3.407469,123.498452,-0.058319,0.015732,0.995956,-0.010474,-0.024094,0.014491,68.180695,32.317017,-146.405823,,,
729861766.734072,1.036097,3.410201,123.503915,-0.059631,0.017532,0.994186,-0.010474,-0.024094,0.014491,68.086319,32.289337,-146.240158,,,
729861766.737405,1.029271,3.413809,123.510652,-0.059631,0.017532,0.994186,-0.023368,0.011531,0.019127,68.086319,32.289337,-146.240158,,,
729861766.740805,1.029271,3.413809,123.510652,-0.059631,0.017532,0.994186,-0.023368,0.011531,0.019127,68.086319,32.289337,-146.240158,,,
729861766.744063,1.021153,3.43016,123.518301,-0.057281,0.017746,0.990799,-0.023368,0.011531,0.019127,68.086319,32.289337,-146.240158,,,
729861766.747412,1.011766,3.442395,123.525817,-0.057281,0.017746,0.990799,-0.033425,0.042028,0.024205,68.086319,32.289337,-146.240158,,,
729861766.750748,1.011766,3.442395,123.525817,-0.057281,0.017746,0.990799,-0.033425,0.042028,0.024205,68.086319,32.289337,-146.240158,,,
729861766.754165,1.000523,3.467513,123.531997,-0.058777,0.01947,0.988007,-0.033425,0.042028,0.024205,68.086319,32.289337,-146.240158,,,
729861766.757469,0.988189,3.485612,123.536931,-0.058777,0.01947,0.988007,-0.041481,0.064395,0.013945,68.086319,32.289337,-146.240158,,,
729861766.760764,0.988189,3.485612,123.536931,-0.058777,0.01947,0.988007,-0.041481,0.064395,0.013945,68.086319,32.289337,-146.240158,,,
729861766.764168,0.972847,3.511293,123.539959,-0.052185,0.02272,0.981781,-0.041481,0.064395,0.013945,68.086319,32.289337,-146.240158,,,
729861766.767412,0.955218,3.526965,123.541806,-0.052185,0.02272,0.981781,-0.05631,0.061838,0.001727,68.086319,32.289337,-146.240158,,,
729861766.770743,0.955218,3.526965,123.541806,-0.052185,0.02272,0.981781,-0.05631,0.061838,0.001727,68.086319,32.289337,-146.240158,,,
729861766.774099,0.932357,3.542975,123.542897,-0.056137,0.024719,0.970581,-0.05631,0.061838,0.001727,68.086319,32.289337,-146.240158,,,
729861766.777415,0.906324,3.54949,123.543853,-0.056137,0.024719,0.970581,-0.087261,0.028707,-0.00207,68.205917,32.338547,-146.690002,,,
729861766.780785,0.906324,3.54949,123.543853,-0.056137,0.024719,0.970581,-0.087261,0.028707,-0.00207,68.205917,32.338547,-146.690002,,,
729861766.784108,0.876231,3.55258,123.544737,-0.063339,0.023499,0.959595,-0.087261,0.028707,-0.00207,68.205917,32.338547,-146.690002,,,
729861766.787403,0.845084,3.551769,123.545407,-0.063339,0.023499,0.959595,-0.107623,0.001619,-0.003332,68.205917,32.338547,-146.690002,,,
729861766.790746,0.845084,3.551769,123.545407,-0.063339,0.023499,0.959595,-0.107623,0.001619,-0.003332,68.205917,32.338547,-146.690002,,,
729861766.794094,0.814559,3.548817,123.54619,-0.067276,0.019012,0.969955,-0.107623,0.001619,-0.003332,68.205917,32.338547,-146.690002,,,
729861766.797407,0.787341,3.544811,123.547679,-0.067276,0.019012,0.969955,-0.097595,-0.011267,-0.001521,68.205917,32.338547,-146.690002,,,
729861766.800751,0.787341,3.544811,123.547679,-0.067276,0.019012,0.969955,-0.097595,-0.011267,-0.001521,68.205917,32.338547,-146.690002,,,
729861766.804148,0.765975,3.539033,123.55023,-0.069611,0.011002,1.001434,-0.097595,-0.011267,-0.001521,68.205917,32.338547,-146.690002,,,
729861766.807398,0.75027,3.532946,123.553251,-0.069611,0.011002,1.001434,-0.061617,-0.017367,0.00533,68.205917,32.338547,-146.690002,,,
729861766.810752,0.75027,3.532946,123.553251,-0.069611,0.011002,1.001434,-0.061617,-0.017367,0.00533,68.205917,32.338547,-146.690002,,,
729861766.814088,0.741084,3.526662,123.556243,-0.068146,0.001343,1.028503,-0.061617,-0.017367,0.00533,68.205917,32.338547,-146.690002,,,
729861766.81741,0.734466,3.522425,123.559386,-0.068146,0.001343,1.028503,-0.024227,-0.012416,0.006437,68.349258,32.485107,-146.172791,,,
729861766.820764,0.734466,3.522425,123.559386,-0.068146,0.001343,1.028503,-0.024227,-0.012416,0.006437,68.349258,32.485107,-146.172791,,,
729861766.82408,0.732364,3.518627,123.562535,-0.066864,0.002121,1.032867,-0.024227,-0.012416,0.006437,68.349258,32.485107,-146.172791,,,
729861766.827405,0.731615,3.517758,123.565593,-0.066864,0.002121,1.032867,-0.003001,-0.002894,0.008524,68.349258,32.485107,-146.172791,,,
729861766.830845,0.731615,3.517758,123.565593,-0.066864,0.002121,1.032867,-0.003001,-0.002894,0.008524,68.349258,32.485107,-146.172791,,,
729861766.834077,0.735066,3.517673,123.568846,-0.065536,0.005569,1.027832,-0.003001,-0.002894,0.008524,68.349258,32.485107,-146.172791,,,
729861766.83742,0.739085,3.52091,123.572748,-0.065536,0.005569,1.027832,0.011054,0.01394,0.012382,68.349258,32.485107,-146.172791,,,
729861766.840764,0.739085,3.52091,123.572748,-0.065536,0.005569,1.027832,0.011054,0.01394,0.012382,68.349258,32.485107,-146.172791,,,
729861766.844144,0.747762,3.523927,123.577515,-0.067017,0.004578,1.023926,0.011054,0.01394,0.012382,68.349258,32.485107,-146.172791,,,
729861766.847412,0.75587,3.532047,123.582972,-0.067017,0.004578,1.023926,0.025983,0.03224,0.019603,68.349258,32.485107,-146.172791,,,
729861766.850789,0.75587,3.532047,123.582972,-0.067017,0.004578,1.023926,0.025983,0.03224,0.019603,68.349258,32.485107,-146.172791,,,
729861766.854106,0.767868,3.542133,123.589697,-0.068817,0.004501,1.023941,0.025983,0.03224,0.019603,68.349258,32.485107,-146.172791,,,
729861766.857414,0.777298,3.552043,123.597949,-0.068817,0.004501,1.023941,0.031459,0.038042,0.028083,68.413437,32.645691,-146.248871,,,
729861766.860741,0.777298,3.552043,123.597949,-0.068817,0.004501,1.023941,0.031459,0.038042,0.028083,68.413437,32.645691,-146.248871,,,
729861766.864084,0.788135,3.560998,123.607462,-0.071518,0.007553,1.018036,0.031459,0.038042,0.028083,68.413437,32.645691,-146.248871,,,
729861766.867408,0.796596,3.566021,123.617388,-0.071518,0.007553,1.018036,0.028871,0.023489,0.031774,68.413437,32.645691,-146.248871,,,
729861766.87085,0.796596,3.566021,123.617388,-0.071518,0.007553,1.018036,0.028871,0.023489,0.031774,68.413437,32.645691,-146.248871,,,
729861766.874092,0.806119,3.570728,123.626673,-0.069504,0.011292,1.012772,0.028871,0.023489,0.031774,68.413437,32.645691,-146.248871,,,
729861766.877417,0.814571,3.570766,123.634872,-0.069504,0.011292,1.012772,0.02633,0.003306,0.031606,68.413437,32.645691,-146.248871,,,
729861766.88075,0.814571,3.570766,123.634872,-0.069504,0.011292,1.012772,0.02633,0.003306,0.031606,68.413437,32.645691,-146.248871,,,
729861766.884146,0.821184,3.570168,123.64105,-0.06015,0.016495,1.014282,0.02633,0.003306,0.031606,68.413437,32.645691,-146.248871,,,
729861766.887436,0.829233,3.566527,123.644673,-0.06015,0.016495,1.014282,0.024976,-0.008127,0.01683,68.413437,32.645691,-146.248871,,,
729861766.890759,0.829233,3.566527,123.644673,-0.06015,0.016495,1.014282,0.024976,-0.008127,0.01683,68.413437,32.645691,-146.248871,,,
729861766.894094,0.833976,3.562851,123.645858,-0.05249,0.021622,1.013367,0.024976,-0.008127,0.01683,68.413437,32.645691,-146.248871,,,
729861766.897404,0.841343,3.557346,123.645798,-0.05249,0.021622,1.013367,0.027792,-0.0159,0.001637,68.413437,32.645691,-146.248871,,,
729861766.900781,0.841343,3.557346,123.645798,-0.05249,0.021622,1.013367,0.027792,-0.0159,0.001637,68.346939,32.77095,-146.519867,,,
729861766.904076,0.845737,3.553035,123.644796,-0.048019,0.020874,1.00943,0.027792,-0.0159,0.001637,68.346939,32.77095,-146.519867,,,
729861766.907409,0.851576,3.5493,123.642614,-0.048019,0.020874,1.00943,0.020947,-0.013344,-0.004863,68.346939,32.77095,-146.519867,,,
729861766.910814,0.851576,3.5493,123.642614,-0.048019,0.020874,1.00943,0.020947,-0.013344,-0.004863,68.346939,32.77095,-146.519867,,,
729861766.914076,0.854521,3.547572,123.639354,-0.048965,0.021393,1.004959,0.020947,-0.013344,-0.004863,68.346939,32.77095,-146.519867,,,
729861766.917414,0.859244,3.547272,123.635575,-0.048965,0.021393,1.004959,0.018578,-0.000594,-0.011068,68.346939,32.77095,-146.519867,,,
729861766.92076,0.859244,3.547272,123.635575,-0.048965,0.021393,1.004959,0.018578,-0.000594,-0.011068,68.346939,32.77095,-146.519867,,,
729861766.924139,0.861164,3.550447,123.632655,-0.052475,0.020767,1.004333,0.018578,-0.000594,-0.011068,68.346939,32.77095,-146.519867,,,
729861766.927398,0.865966,3.553751,123.630341,-0.052475,0.020767,1.004333,0.019896,0.014456,-0.011508,68.346939,32.77095,-146.519867,,,
729861766.93076,0.865966,3.553751,123.630341,-0.052475,0.020767,1.004333,0.019896,0.014456,-0.011508,68.346939,32.77095,-146.519867,,,
729861766.934085,0.869101,3.559536,123.628115,-0.057556,0.016998,1.009888,0.019896,0.014456,-0.011508,68.346939,32.77095,-146.519867,,,
729861766.937413,0.874825,3.563105,123.626944,-0.057556,0.016998,1.009888,0.021069,0.015399,-0.005374,68.346939,32.77095,-146.519867,,,
729861766.940769,0.874825,3.563105,123.626944,-0.057556,0.016998,1.009888,0.021069,0.015399,-0.005374,68.334442,32.45575,-146.128479,,,
729861766.944096,0.879869,3.56766,123.626833,-0.0625,0.015961,1.008179,0.021069,0.015399,-0.005374,68.334442,32.45575,-146.128479,,,
729861766.947416,0.885982,3.57022,123.626622,-0.0625,0.015961,1.008179,0.022433,0.012452,0.000345,68.334442,32.45575,-146.128479,,,
729861766.950831,0.885982,3.57022,123.626622,-0.0625,0.015961,1.008179,0.022433,0.012452,0.000345,68.334442,32.45575,-146.128479,,,
729861766.954117,0.892627,3.573591,123.626454,-0.064362,0.017426,1.007599,0.022433,0.012452,0.000345,68.334442,32.45575,-146.128479,,,
729861766.957442,0.901049,3.575434,123.627219,-0.064362,0.017426,1.007599,0.029154,0.009217,0.002557,68.334442,32.45575,-146.128479,,,
729861766.960746,0.901049,3.575434,123.627219,-0.064362,0.017426,1.007599,0.029154,0.009217,0.002557,68.334442,32.45575,-146.128479,,,
729861766.964077,0.91036,3.575177,123.627695,-0.065872,0.019577,1.01033,0.029154,0.009217,0.002557,68.334442,32.45575,-146.128479,,,
729861766.967482,0.919243,3.575878,123.627921,-0.065872,0.019577,1.01033,0.032884,0.00558,0.003579,68.334442,32.45575,-146.128479,,,
729861766.970749,0.919243,3.575878,123.627921,-0.065872,0.019577,1.01033,0.032884,0.00558,0.003579,68.334442,32.45575,-146.128479,,,
729861766.974131,0.929215,3.574115,123.628673,-0.065521,0.017212,1.009003,0.032884,0.00558,0.003579,68.334442,32.45575,-146.128479,,,
729861766.977403,0.939235,3.574807,123.629392,-0.065521,0.017212,1.009003,0.03584,0.006395,0.000883,68.334442,32.45575,-146.128479,,,
729861766.980738,0.939235,3.574807,123.629392,-0.065521,0.017212,1.009003,0.03584,0.006395,0.000883,68.408463,32.445511,-146.260864,,,
729861766.984074,0.95059,3.571563,123.629911,-0.065048,0.016418,1.007858,0.03584,0.006395,0.000883,68.408463,32.445511,-146.260864,,,
729861766.987475,0.961881,3.57131,123.630547,-0.065048,0.016418,1.007858,0.037336,0.005804,0.000291,68.408463,32.445511,-146.260864,,,
729861766.990757,0.961881,3.57131,123.630547,-0.065048,0.016418,1.007858,0.037336,0.005804,0.000291,68.408463,32.445511,-146.260864,,,
729861766.994076,0.974829,3.566077,123.632125,-0.068665,0.013809,1.004837,0.037336,0.005804,0.000291,68.408463,32.445511,-146.260864,,,
729861766.997429,0.986599,3.563179,123.634967,-0.068665,0.013809,1.004837,0.042557,-0.003068,0.010324,68.408463,32.445511,-146.260864,,,
729861767.000816,0.986599,3.563179,123.634967,-0.068665,0.013809,1.004837,0.042557,-0.003068,0.010324,68.408463,32.445511,-146.260864,,,
729861767.004087,0.998324,3.55547,123.639699,-0.077942,0.010605,0.995834,0.042557,-0.003068,0.010324,68.408463,32.445511,-146.260864,,,
729861767.007481,1.008116,3.548149,123.646294,-0.077942,0.010605,0.995834,0.034711,-0.019059,0.021131,68.408463,32.445511,-146.260864,,,
729861767.010744,1.008116,3.548149,123.646294,-0.077942,0.010605,0.995834,0.034711,-0.019059,0.021131,68.408463,32.445511,-146.260864,,,
729861767.01413,1.015006,3.536966,123.654324,-0.077911,0.008331,0.986176,0.034711,-0.019059,0.021131,68.408463,32.445511,-146.260864,,,
729861767.017432,1.020139,3.523882,123.663364,-0.077911,0.008331,0.986176,0.0186,-0.038354,0.030994,68.408463,32.445511,-146.260864,,,
729861767.020736,1.020139,3.523882,123.663364,-0.077911,0.008331,0.986176,0.0186,-0.038354,0.030994,68.419205,32.216309,-146.226364,,,
729861767.024071,1.022092,3.508209,123.673341,-0.077271,0.012894,0.979431,0.0186,-0.038354,0.030994,68.419205,32.216309,-146.226364,,,
729861767.027431,1.021211,3.488702,123.682884,-0.077271,0.012894,0.979431,-0.002558,-0.061926,0.032814,68.419205,32.216309,-146.226364,,,
729861767.030774,1.021211,3.488702,123.682884,-0.077271,0.012894,0.979431,-0.002558,-0.061926,0.032814,68.419205,32.216309,-146.226364,,,
729861767.034086,1.018054,3.467943,123.690934,-0.070419,0.018097,0.976074,-0.002558,-0.061926,0.032814,68.419205,32.216309,-146.226364,,,
729861767.037439,1.012766,3.445113,123.697968,-0.070419,0.018097,0.976074,-0.020143,-0.076491,0.025793,68.419205,32.216309,-146.226364,,,
729861767.040749,1.012766,3.445113,123.697968,-0.070419,0.018097,0.976074,-0.020143,-0.076491,0.025793,68.419205,32.216309,-146.226364,,,
729861767.044088,1.005163,3.424692,123.703672,-0.059769,0.022522,0.978989,-0.020143,-0.076491,0.025793,68.419205,32.216309,-146.226364,,,
729861767.047441,0.995889,3.40361,123.707517,-0.059769,0.022522,0.978989,-0.032603,-0.072421,0.013019,68.419205,32.216309,-146.226364,,,
729861767.05081,0.995889,3.40361,123.707517,-0.059769,0.022522,0.978989,-0.032603,-0.072421,0.013019,68.419205,32.216309,-146.226364,,,
729861767.054094,0.986581,3.385957,123.709999,-0.050247,0.021088,0.983795,-0.032603,-0.072421,0.013019,68.419205,32.216309,-146.226364,,,
729861767.057434,0.986581,3.369801,123.711586,-0.050247,0.021088,0.983795,-0.029988,-0.054906,0.002687,68.419205,32.216309,-146.226364,,,
729861767.060747,0.977782,3.369801,123.711586,-0.050247,0.021088,0.983795,-0.029988,-0.054906,0.002687,68.419205,32.216309,-146.226364,,,
729861767.064137,0.969174,3.361019,123.712045,-0.045151,0.01944,0.990463,-0.029988,-0.054906,0.002687,68.094223,32.615906,-146.326889,,,
729861767.067468,0.969174,3.355014,123.71202,-0.045151,0.01944,0.990463,-0.022342,-0.022727,-0.00248,68.094223,32.615906,-146.326889,,,
729861767.070763,0.962796,3.355014,123.71202,-0.045151,0.01944,0.990463,-0.022342,-0.022727,-0.00248,68.094223,32.615906,-146.326889,,,
729861767.074088,0.958127,3.359184,123.712438,-0.045776,0.015793,0.99707,-0.022342,-0.022727,-0.00248,68.094223,32.615906,-146.326889,,,
729861767.077517,0.958127,3.363117,123.713829,-0.045776,0.015793,0.99707,-0.006102,0.012922,0.002058,68.094223,32.615906,-146.326889,,,
729861767.080758,0.957176,3.363117,123.713829,-0.045776,0.015793,0.99707,-0.006102,0.012922,0.002058,68.094223,32.615906,-146.326889,,,
729861767.084078,0.955633,3.377737,123.716251,-0.051788,0.01062,1.002563,-0.006102,0.012922,0.002058,68.094223,32.615906,-146.326889,,,
729861767.087477,0.955633,3.386754,123.720049,-0.051788,0.01062,1.002563,0.002941,0.032791,0.010805,68.094223,32.615906,-146.326889,,,
729861767.090791,0.956941,3.386754,123.720049,-0.051788,0.01062,1.002563,0.002941,0.032791,0.010805,68.094223,32.615906,-146.326889,,,
729861767.094083,0.956349,3.403646,123.725191,-0.06427,0.00563,0.995361,0.002941,0.032791,0.010805,68.094223,32.615906,-146.326889,,,
729861767.097413,0.956349,3.403646,123.725191,-0.06427,0.00563,0.995361,0.002941,0.033919,0.021195,68.094223,32.615906,-146.326889,,,
729861767.100758,0.956337,3.411498,123.732105,-0.06427,0.00563,0.995361,-0.000314,0.033919,0.021195,68.094223,32.615906,-146.326889,,,
729861767.104161,0.954487,3.422568,123.740005,-0.072052,0.006836,0.985306,-0.000314,0.033919,0.021195,68.209412,32.530197,-146.512558,,,
729861767.107407,0.954487,3.422568,123.740005,-0.072052,0.006836,0.985306,-0.000314,0.033919,0.021195,68.209412,32.530197,-146.512558,,,
729861767.110753,0.951215,3.421526,123.749013,-0.072052,0.006836,0.985306,-0.011411,0.006875,0.029112,68.209412,32.530197,-146.512558,,,
729861767.114089,0.947525,3.416454,123.758386,-0.075058,0.011108,0.976822,-0.011411,0.006875,0.029112,68.209412,32.530197,-146.512558,,,
729861767.117461,0.947525,3.416454,123.758386,-0.075058,0.011108,0.976822,-0.011411,0.006875,0.029112,68.209412,32.530197,-146.512558,,,
729861767.120752,0.941917,3.401351,123.76721,-0.075058,0.011108,0.976822,-0.022748,-0.043134,0.029385,68.209412,32.530197,-146.512558,,,
729861767.124076,0.938047,3.378882,123.775055,-0.071259,0.014786,0.976227,-0.022748,-0.043134,0.029385,68.209412,32.530197,-146.512558,,,
729861767.127408,0.938047,3.378882,123.775055,-0.071259,0.014786,0.976227,-0.022748,-0.043134,0.029385,68.209412,32.530197,-146.512558,,,
729861767.130817,0.932663,3.352578,123.781472,-0.071259,0.014786,0.976227,-0.020492,-0.085303,0.02094,68.209412,32.530197,-146.512558,,,
729861767.134063,0.929504,3.319193,123.786425,-0.063461,0.018066,0.983597,-0.020492,-0.085303,0.02094,68.209412,32.530197,-146.512558,,,
729861767.13742,0.929504,3.319193,123.786425,-0.063461,0.018066,0.983597,-0.020492,-0.085303,0.02094,68.209412,32.530197,-146.512558,,,
729861767.14077,0.92571,3.289157,123.789989,-0.063461,0.018066,0.983597,-0.013721,-0.102746,0.010131,68.209412,32.530197,-146.512558,,,
729861767.144073,0.922859,3.255504,123.793244,-0.056763,0.019012,0.988983,-0.013721,-0.102746,0.010131,68.186295,32.644608,-145.957153,,,
729861767.147501,0.922859,3.255504,123.793244,-0.056763,0.019012,0.988983,-0.013721,-0.102746,0.010131,68.186295,32.644608,-145.957153,,,
729861767.150751,0.91929,3.227525,123.796956,-0.056763,0.019012,0.988983,-0.012681,-0.097577,0.011469,68.186295,32.644608,-145.957153,,,
729861767.154178,0.914069,3.200228,123.801372,-0.054779,0.015381,0.985458,-0.012681,-0.097577,0.011469,68.186295,32.644608,-145.957153,,,
729861767.157431,0.914069,3.200228,123.801372,-0.054779,0.015381,0.985458,-0.012681,-0.097577,0.011469,68.186295,32.644608,-145.957153,,,
729861767.160753,0.906696,3.179989,123.806836,-0.054779,0.015381,0.985458,-0.022975,-0.070978,0.015789,68.186295,32.644608,-145.957153,,,
729861767.164084,0.895211,3.164545,123.813507,-0.054977,0.014053,0.977325,-0.022975,-0.070978,0.015789,68.186295,32.644608,-145.957153,,,
729861767.167474,0.895211,3.164545,123.813507,-0.054977,0.014053,0.977325,-0.022975,-0.070978,0.015789,68.186295,32.644608,-145.957153,,,
729861767.170732,0.882512,3.153911,123.821559,-0.054977,0.014053,0.977325,-0.044472,-0.039174,0.023737,68.186295,32.644608,-145.957153,,,
729861767.174075,0.865455,3.151629,123.830984,-0.05426,0.013779,0.968216,-0.044472,-0.039174,0.023737,68.186295,32.644608,-145.957153,,,
729861767.177448,0.865455,3.151629,123.830984,-0.05426,0.013779,0.968216,-0.044472,-0.039174,0.023737,68.186295,32.644608,-145.957153,,,
729861767.180801,0.847794,3.15076,123.841958,-0.05426,0.013779,0.968216,-0.06103,-0.004032,0.032455,68.186295,32.644608,-145.957153,,,
729861767.184068,0.826789,3.158287,123.853864,-0.05484,0.013336,0.97345,-0.06103,-0.004032,0.032455,68.093277,32.60939,-146.147507,,,
729861767.187454,0.826789,3.158287,123.853864,-0.05484,0.013336,0.97345,-0.06103,-0.004032,0.032455,68.093277,32.60939,-146.147507,,,
729861767.190739,0.804389,3.162045,123.866126,-0.05484,0.013336,0.97345,-0.074039,0.017287,0.038603,68.093277,32.60939,-146.147507,,,
729861767.194077,0.780173,3.169972,123.878246,-0.055634,0.011398,0.976044,-0.074039,0.017287,0.038603,68.093277,32.60939,-146.147507,,,
729861767.19743,0.780173,3.169972,123.878246,-0.055634,0.011398,0.976044,-0.074039,0.017287,0.038603,68.093277,32.60939,-146.147507,,,
729861767.20077,0.755545,3.170949,123.889307,-0.055634,0.011398,0.976044,-0.088509,0.01115,0.034021,68.093277,32.60939,-146.147507,,,
729861767.204142,0.731248,3.174046,123.898472,-0.050583,0.01358,0.976379,-0.088509,0.01115,0.034021,68.093277,32.60939,-146.147507,,,
729861767.207407,0.731248,3.174046,123.898472,-0.050583,0.01358,0.976379,-0.088509,0.01115,0.034021,68.093277,32.60939,-146.147507,,,
729861767.210756,0.706246,3.172067,123.906147,-0.050583,0.01358,0.976379,-0.088943,-0.001354,0.020397,68.093277,32.60939,-146.147507,,,
729861767.214076,0.68304,3.169322,123.913152,-0.046432,0.014053,0.983185,-0.088943,-0.001354,0.020397,68.093277,32.60939,-146.147507,,,
729861767.217516,0.68304,3.169322,123.913152,-0.046432,0.014053,0.983185,-0.088943,-0.001354,0.020397,68.093277,32.60939,-146.147507,,,
729861767.22074,0.661197,3.162723,123.919455,-0.046432,0.014053,0.983185,-0.079145,-0.018222,0.013519,68.093277,32.60939,-146.147507,,,
729861767.224078,0.643658,3.154756,123.924533,-0.046844,0.010651,0.992523,-0.079145,-0.018222,0.013519,68.093277,32.60939,-146.147507,,,
729861767.227426,0.643658,3.154756,123.924533,-0.046844,0.010651,0.992523,-0.079145,-0.018222,0.013519,68.054565,32.739761,-146.145233,,,
729861767.230809,0.62838,3.145276,123.929031,-0.046844,0.010651,0.992523,-0.057285,-0.031066,0.012516,68.054565,32.739761,-146.145233,,,
729861767.234074,0.616199,3.135636,123.933671,-0.048248,0.005798,0.996902,-0.057285,-0.031066,0.012516,68.054565,32.739761,-146.145233,,,
729861767.237419,0.616199,3.135636,123.933671,-0.048248,0.005798,0.996902,-0.057285,-0.031066,0.012516,68.054565,32.739761,-146.145233,,,
729861767.240756,0.604929,3.126733,123.93864,-0.048248,0.005798,0.996902,-0.038012,-0.030422,0.01622,68.054565,32.739761,-146.145233,,,
729861767.244088,0.597515,3.120695,123.94438,-0.050629,0.003296,0.999435,-0.038012,-0.030422,0.01622,68.054565,32.739761,-146.145233,,,
729861767.24742,0.597515,3.120695,123.94438,-0.050629,0.003296,0.999435,-0.038012,-0.030422,0.01622,68.054565,32.739761,-146.145233,,,
729861767.250759,0.592726,3.116107,123.951208,-0.050629,0.003296,0.999435,-0.021138,-0.015971,0.019189,68.054565,32.739761,-146.145233,,,
729861767.254083,0.590221,3.112657,123.959396,-0.053894,-7.6e-05,1.001984,-0.021138,-0.015971,0.019189,68.054565,32.739761,-146.145233,,,
729861767.257484,0.590221,3.112657,123.959396,-0.053894,-7.6e-05,1.001984,-0.021138,-0.015971,0.019189,68.054565,32.739761,-146.145233,,,
729861767.260751,0.587065,3.108464,123.969171,-0.053894,-7.6e-05,1.001984,-0.011203,-0.0106,0.033002,68.054565,32.739761,-146.145233,,,
729861767.26408,0.5829,3.103799,123.979731,-0.058838,-0.002853,0.992661,-0.011203,-0.0106,0.033002,68.054565,32.739761,-146.145233,,,
729861767.267412,0.5829,3.103799,123.979731,-0.058838,-0.002853,0.992661,-0.011203,-0.0106,0.033002,67.824646,32.790543,-146.340637,,,
729861767.270819,0.575587,3.097116,123.989225,-0.058838,-0.002853,0.992661,-0.024636,-0.019697,0.033193,67.824646,32.790543,-146.340637,,,
729861767.274072,0.56525,3.090252,123.996902,-0.053268,0.005905,0.977982,-0.024636,-0.019697,0.033193,67.824646,32.790543,-146.340637,,,
729861767.277505,0.56525,3.090252,123.996902,-0.053268,0.005905,0.977982,-0.024636,-0.019697,0.033193,67.824646,32.790543,-146.340637,,,
729861767.280771,0.551303,3.082024,124.002061,-0.053268,0.005905,0.977982,-0.045878,-0.022926,0.018544,67.824646,32.790543,-146.340637,,,
729861767.284083,0.535007,3.071801,124.004568,-0.044388,0.017853,0.9785,-0.045878,-0.022926,0.018544,67.824646,32.790543,-146.340637,,,
729861767.28743,0.535007,3.071801,124.004568,-0.044388,0.017853,0.9785,-0.045878,-0.022926,0.018544,67.824646,32.790543,-146.340637,,,
729861767.290773,0.514826,3.062504,124.005196,-0.044388,0.017853,0.9785,-0.067191,-0.028004,0.000246,67.824646,32.790543,-146.340637,,,
729861767.294083,0.493406,3.051648,124.004166,-0.039536,0.020126,0.983002,-0.067191,-0.028004,0.000246,67.824646,32.790543,-146.340637,,,
729861767.297501,0.493406,3.051648,124.004166,-0.039536,0.020126,0.983002,-0.067191,-0.028004,0.000246,67.824646,32.790543,-146.340637,,,
729861767.300753,0.469775,3.044483,124.001596,-0.039536,0.020126,0.983002,-0.080985,-0.024299,-0.014931,67.824646,32.790543,-146.340637,,,
729861767.304083,0.446185,3.039742,123.996932,-0.035522,0.016739,0.992508,-0.080985,-0.024299,-0.014931,67.824646,32.790543,-146.340637,,,
729861767.307406,0.446185,3.039742,123.996932,-0.035522,0.016739,0.992508,-0.080985,-0.024299,-0.014931,67.928452,33.065277,-146.047379,,,
729861767.310826,0.423799,3.041701,123.990719,-0.035522,0.016739,0.992508,-0.079845,0.003662,-0.02676,67.928452,33.065277,-146.047379,,,
729861767.314071,0.402446,3.048052,123.983949,-0.03125,0.011948,1.010025,-0.079845,0.003662,-0.02676,67.928452,33.065277,-146.047379,,,
729861767.317427,0.402446,3.048052,123.983949,-0.03125,0.011948,1.010025,-0.079845,0.003662,-0.02676,67.928452,33.065277,-146.047379,,,
729861767.320774,0.386174,3.061978,123.977917,-0.03125,0.011948,1.010025,-0.057758,0.045793,-0.026341,67.928452,33.065277,-146.047379,,,
729861767.324078,0.375201,3.08148,123.974058,-0.037643,0.00206,1.026382,-0.057758,0.045793,-0.026341,67.928452,33.065277,-146.047379,,,
729861767.327433,0.375201,3.08148,123.974058,-0.037643,0.00206,1.026382,-0.057758,0.045793,-0.026341,67.928452,33.065277,-146.047379,,,
729861767.330761,0.371344,3.107436,123.972491,-0.037643,0.00206,1.026382,-0.016277,0.088707,-0.009117,67.928452,33.065277,-146.047379,,,
729861767.334081,0.37141,3.138141,123.972968,-0.048584,-0.006897,1.040192,-0.016277,0.088707,-0.009117,67.928452,33.065277,-146.047379,,,
729861767.337481,0.37141,3.138141,123.972968,-0.048584,-0.006897,1.040192,-0.016277,0.088707,-0.009117,67.928452,33.065277,-146.047379,,,
729861767.340758,0.379629,3.169728,123.975463,-0.048584,-0.006897,1.040192,0.025256,0.113848,0.008246,67.928452,33.065277,-146.047379,,,
729861767.344085,0.390724,3.200908,123.979234,-0.058578,-0.010513,1.041595,0.025256,0.113848,0.008246,67.928452,33.065277,-146.047379,,,
729861767.347404,0.390724,3.200908,123.979234,-0.058578,-0.010513,1.041595,0.025256,0.113848,0.008246,67.891663,33.218964,-146.028671,,,
729861767.350804,0.406303,3.225667,123.983474,-0.058578,-0.010513,1.041595,0.053729,0.096465,0.015818,67.891663,33.218964,-146.028671,,,
729861767.354068,0.422556,3.240716,123.98757,-0.061859,-0.004181,1.02507,0.053729,0.096465,0.015818,67.891663,33.218964,-146.028671,,,
729861767.357434,0.422556,3.240716,123.98757,-0.061859,-0.004181,1.02507,0.053729,0.096465,0.015818,67.891663,33.218964,-146.028671,,,
729861767.360746,0.43666,3.249348,123.990183,-0.061859,-0.004181,1.02507,0.051566,0.040181,0.01397,67.891663,33.218964,-146.028671,,,
729861767.364114,0.452329,3.243815,123.99012,-0.060699,0.004059,0.998337,0.051566,0.040181,0.01397,67.891663,33.218964,-146.028671,,,
729861767.367418,0.452329,3.243815,123.99012,-0.060699,0.004059,0.998337,0.051566,0.040181,0.01397,67.891663,33.218964,-146.028671,,,
729861767.370751,0.461204,3.235811,123.98757,-0.060699,0.004059,0.998337,0.035998,-0.018461,-0.007478,67.891663,33.218964,-146.028671,,,
729861767.374077,0.468501,3.215802,123.982851,-0.055878,0.014648,0.983002,0.035998,-0.018461,-0.007478,67.891663,33.218964,-146.028671,,,
729861767.377471,0.468501,3.215802,123.982851,-0.055878,0.014648,0.983002,0.035998,-0.018461,-0.007478,67.891663,33.218964,-146.028671,,,
729861767.380743,0.469464,3.200475,123.976462,-0.055878,0.014648,0.983002,0.008851,-0.04971,-0.023128,67.891663,33.218964,-146.028671,,,
729861767.384078,0.468893,3.17685,123.969371,-0.051514,0.017212,0.983109,0.008851,-0.04971,-0.023128,67.891663,33.218964,-146.028671,,,
729861767.387419,0.468893,3.17685,123.969371,-0.051514,0.017212,0.983109,0.008851,-0.04971,-0.023128,67.891663,33.218964,-146.028671,,,
729861767.390807,0.46369,3.163438,123.961389,-0.051514,0.017212,0.983109,-0.015349,-0.04883,-0.029938,67.988144,33.032013,-146.179169,,,
729861767.394073,0.455899,3.144416,123.953584,-0.04866,0.016312,0.987427,-0.015349,-0.04883,-0.029938,67.988144,33.032013,-146.179169,,,
729861767.397431,0.455899,3.144416,123.953584,-0.04866,0.016312,0.987427,-0.015349,-0.04883,-0.029938,67.988144,33.032013,-146.179169,,,
729861767.400757,0.445545,3.139209,123.946681,-0.04866,0.016312,0.987427,-0.033789,-0.022344,-0.031087,67.988144,33.032013,-146.179169,,,
729861767.404076,0.431256,3.134357,123.94145,-0.052841,0.014618,0.991791,-0.033789,-0.022344,-0.031087,67.988144,33.032013,-146.179169,,,
729861767.407432,0.431256,3.134357,123.94145,-0.052841,0.014618,0.991791,-0.033789,-0.022344,-0.031087,67.988144,33.032013,-146.179169,,,
729861767.410754,0.419166,3.140199,123.938948,-0.052841,0.014618,0.991791,-0.043219,0.019688,-0.014052,67.988144,33.032013,-146.179169,,,
729861767.414074,0.404196,3.149233,123.939669,-0.056152,0.007187,1.006561,-0.043219,0.019688,-0.014052,67.988144,33.032013,-146.179169,,,
729861767.417476,0.404196,3.149233,123.939669,-0.056152,0.007187,1.006561,-0.043219,0.019688,-0.014052,67.988144,33.032013,-146.179169,,,
729861767.420747,0.39516,3.163539,123.943077,-0.056152,0.007187,1.006561,-0.033949,0.051859,0.005155,67.988144,33.032013,-146.179169,,,
729861767.424079,0.385815,3.180976,123.948067,-0.061371,-0.003784,1.022125,-0.033949,0.051859,0.005155,67.988144,33.032013,-146.179169,,,
729861767.427418,0.385815,3.180976,123.948067,-0.061371,-0.003784,1.022125,-0.033949,0.051859,0.005155,67.988144,33.032013,-146.179169,,,
729861767.430826,0.384285,3.197919,123.953765,-0.061371,-0.003784,1.022125,-0.010798,0.064353,0.018063,68.133469,32.953949,-146.094284,,,
729861767.434069,0.385003,3.215509,123.959491,-0.062851,-0.003738,1.031021,-0.010798,0.064353,0.018063,68.133469,32.953949,-146.094284,,,
729861767.437429,0.385003,3.215509,123.959491,-0.062851,-0.003738,1.031021,-0.010798,0.064353,0.018063,68.133469,32.953949,-146.094284,,,
729861767.440755,0.392354,3.228587,123.963421,-0.062851,-0.003738,1.031021,0.019559,0.050995,0.01439,68.133469,32.953949,-146.094284,,,
729861767.444085,0.403782,3.238907,123.964752,-0.054504,-0.00119,1.032806,0.019559,0.050995,0.01439,68.133469,32.953949,-146.094284,,,
729861767.447383,0.403782,3.238907,123.964752,-0.054504,-0.00119,1.032806,0.019559,0.050995,0.01439,68.133469,32.953949,-146.094284,,,
729861767.450715,0.417449,3.24379,123.963669,-0.054504,-0.00119,1.032806,0.045021,0.024113,0.000946,68.133469,32.953949,-146.094284,,,
729861767.454035,0.434373,3.243482,123.960292,-0.051666,0.004074,1.024521,0.045021,0.024113,0.000946,68.133469,32.953949,-146.094284,,,
729861767.457354,0.434373,3.243482,123.960292,-0.051666,0.004074,1.024521,0.045021,0.024113,0.000946,68.133469,32.953949,-146.094284,,,
729861767.460693,0.450528,3.239071,123.955348,-0.051666,0.004074,1.024521,0.057131,-0.009225,-0.014432,68.133469,32.953949,-146.094284,,,
729861767.464042,0.466921,3.230132,123.949546,-0.051865,0.010757,1.008057,0.057131,-0.009225,-0.014432,68.133469,32.953949,-146.094284,,,
729861767.467347,0.466921,3.230132,123.949546,-0.051865,0.010757,1.008057,0.057131,-0.009225,-0.014432,68.133469,32.953949,-146.094284,,,
729861767.470775,0.479328,3.220471,123.943961,-0.051865,0.010757,1.008057,0.047577,-0.030154,-0.020577,68.007965,33.024567,-146.182968,,,
729861767.473997,0.491148,3.208307,123.939476,-0.056961,0.01062,0.993362,0.047577,-0.030154,-0.020577,68.007965,33.024567,-146.182968,,,
729861767.477436,0.491148,3.208307,123.939476,-0.056961,0.01062,0.993362,0.047577,-0.030154,-0.020577,68.007965,33.024567,-146.182968,,,
729861767.48077,0.498965,3.199181,123.936143,-0.056961,0.01062,0.993362,0.03036,-0.02935,-0.013879,68.007965,33.024567,-146.182968,,,
729861767.48408,0.505305,3.190771,123.934174,-0.058578,0.010544,0.986298,0.03036,-0.02935,-0.013879,68.007965,33.024567,-146.182968,,,
729861767.487422,0.505305,3.190771,123.934174,-0.058578,0.010544,0.986298,0.03036,-0.02935,-0.013879,68.007965,33.024567,-146.182968,,,
729861767.490859,0.507387,3.183889,123.934102,-0.058578,0.010544,0.986298,0.013031,-0.021176,-0.00144,68.007965,33.024567,-146.182968,,,
729861767.494075,0.504837,3.178445,123.935166,-0.058319,0.013519,0.984283,0.013031,-0.021176,-0.00144,68.007965,33.024567,-146.182968,,,
729861767.497433,0.504837,3.178445,123.935166,-0.058319,0.013519,0.984283,0.013031,-0.021176,-0.00144,68.007965,33.024567,-146.182968,,,
729861767.500762,0.502465,3.172353,123.936191,-0.058319,0.013519,0.984283,-0.006147,-0.016436,0.001933,68.007965,33.024567,-146.182968,,,
729861767.504078,0.495627,3.167547,123.936505,-0.056274,0.013962,0.988953,-0.006147,-0.016436,0.001933,68.007965,33.024567,-146.182968,,,
729861767.507423,0.495627,3.167547,123.936505,-0.056274,0.013962,0.988953,-0.006147,-0.016436,0.001933,68.007965,33.024567,-146.182968,,,
729861767.510802,0.49216,3.159344,123.935141,-0.056274,0.013962,0.988953,-0.012346,-0.023735,-0.004843,68.007965,33.024567,-146.182968,,,
729861767.514078,0.486574,3.151173,123.932034,-0.051086,0.012878,0.997467,-0.012346,-0.023735,-0.004843,68.078247,33.054092,-146.282974,,,
729861767.517493,0.486574,3.151173,123.932034,-0.051086,0.012878,0.997467,-0.012346,-0.023735,-0.004843,68.078247,33.054092,-146.282974,,,
729861767.52077,0.485674,3.141943,123.927606,-0.051086,0.012878,0.997467,-0.001969,-0.028227,-0.017288,68.078247,33.054092,-146.282974,,,
