Time (sec),Pitch (deg),Roll (deg),Yaw(deg),X-Acceleration (g),Y-Acceleration (g),Z-Acceleration (g),Pitch Rate (deg/sec),Roll Rate (deg/sec),Yaw Rate (deg/sec),Magnetic Field in X direction (uT),Magnetic Field in Y direction (uT),Magnetic Field in Z Direction (uT),Latitude (deg),Longitude (deg),Altitude (m)
729860263.963258,0.38099,-3.839757,-20.470083,0.041824,-0.016327,1.075089,0.582412,-0.164798,0.047056,75.589447,2.336685,-148.002518,,,
729860263.966579,0.548426,-3.898774,-20.44247,0.034607,-0.002228,1.037216,0.587368,-0.20875,0.056139,75.589447,2.336685,-148.002518,,,
729860263.969988,0.548426,-3.898774,-20.44247,0.034607,-0.002228,1.037216,0.587368,-0.20875,0.056139,75.589447,2.336685,-148.002518,,,
729860263.973272,0.711861,-3.959989,-20.413431,0.034607,-0.002228,1.037216,0.587368,-0.20875,0.056139,75.589447,2.336685,-148.002518,,,
729860263.976576,0.870759,-4.015829,-20.383192,0.044174,0.007126,1.002014,0.554549,-0.182397,0.068151,75.589447,2.336685,-148.002518,,,
729860263.979924,0.870759,-4.015829,-20.383192,0.044174,0.007126,1.002014,0.554549,-0.182397,0.068151,75.589447,2.336685,-148.002518,,,
729860263.983313,1.024435,-4.064116,-20.351312,0.044174,0.007126,1.002014,0.554549,-0.182397,0.068151,75.589447,2.336685,-148.002518,,,
729860263.986563,1.175691,-4.108331,-20.317116,0.048767,0.019257,1.009781,0.531412,-0.143817,0.078608,75.589447,2.336685,-148.002518,,,
729860263.989924,1.175691,-4.108331,-20.317116,0.048767,0.019257,1.009781,0.531412,-0.143817,0.078608,75.589447,2.336685,-148.002518,,,
729860263.993238,1.327722,-4.151135,-20.281838,0.048767,0.019257,1.009781,0.531412,-0.143817,0.078608,75.589447,2.336685,-148.002518,,,
729860263.996576,1.486512,-4.195767,-20.247259,0.061249,0.019547,1.017883,0.565596,-0.152491,0.076945,75.589447,2.336685,-148.002518,,,
729860263.999934,1.486512,-4.195767,-20.247259,0.061249,0.019547,1.017883,0.565596,-0.152491,0.076945,75.10527,1.075516,-147.380814,,,
729860264.003256,1.657861,-4.245487,-20.214568,0.061249,0.019547,1.017883,0.565596,-0.152491,0.076945,75.10527,1.075516,-147.380814,,,
729860264.006574,1.846025,-4.302332,-20.182846,0.066711,0.016861,1.057648,0.678832,-0.197077,0.056747,75.10527,1.075516,-147.380814,,,
729860264.009973,1.846025,-4.302332,-20.182846,0.066711,0.016861,1.057648,0.678832,-0.197077,0.056747,75.10527,1.075516,-147.380814,,,
729860264.013244,2.053827,-4.367982,-20.150697,0.066711,0.016861,1.057648,0.678832,-0.197077,0.056747,75.10527,1.075516,-147.380814,,,
729860264.01658,2.282132,-4.443672,-20.116978,0.062012,0.008423,1.100845,0.819574,-0.265361,0.056789,75.10527,1.075516,-147.380814,,,
729860264.019915,2.282132,-4.443672,-20.116978,0.062012,0.008423,1.100845,0.819574,-0.265361,0.056789,75.10527,1.075516,-147.380814,,,
729860264.02334,2.53079,-4.530352,-20.080188,0.062012,0.008423,1.100845,0.819574,-0.265361,0.056789,75.10527,1.075516,-147.380814,,,
729860264.026572,2.798838,-4.627661,-20.040796,0.058731,0.006317,1.105026,0.957542,-0.339175,0.062103,75.10527,1.075516,-147.380814,,,
729860264.029926,2.798838,-4.627661,-20.040796,0.058731,0.006317,1.105026,0.957542,-0.339175,0.062103,75.10527,1.075516,-147.380814,,,
729860264.033349,3.083531,-4.733713,-20.000645,0.058731,0.006317,1.105026,0.957542,-0.339175,0.062103,75.10527,1.075516,-147.380814,,,
729860264.036575,3.381557,-4.845302,-19.961132,0.072144,0.020767,1.08934,1.057572,-0.383083,0.046244,75.10527,1.075516,-147.380814,,,
729860264.039946,3.381557,-4.845302,-19.961132,0.072144,0.020767,1.08934,1.057572,-0.383083,0.046244,75.10527,1.075516,-147.380814,,,
729860264.04325,3.690775,-4.958269,-19.923924,0.072144,0.020767,1.08934,1.057572,-0.383083,0.046244,74.370895,-0.786224,-146.577576,,,
729860264.046572,4.008984,-5.069854,-19.889137,0.095901,0.043121,1.074463,1.117199,-0.3769,0.016766,74.370895,-0.786224,-146.577576,,,
729860264.049997,4.008984,-5.069854,-19.889137,0.095901,0.043121,1.074463,1.117199,-0.3769,0.016766,74.370895,-0.786224,-146.577576,,,
729860264.053254,4.332624,-5.178286,-19.856436,0.095901,0.043121,1.074463,1.117199,-0.3769,0.016766,74.370895,-0.786224,-146.577576,,,
729860264.05658,4.657548,-5.281239,-19.826184,0.104538,0.059021,1.057434,1.13689,-0.343918,-0.003662,74.370895,-0.786224,-146.577576,,,
729860264.059922,4.657548,-5.281239,-19.826184,0.104538,0.059021,1.057434,1.13689,-0.343918,-0.003662,74.370895,-0.786224,-146.577576,,,
729860264.063303,4.982254,-5.376576,-19.79716,0.104538,0.059021,1.057434,1.13689,-0.343918,-0.003662,74.370895,-0.786224,-146.577576,,,
729860264.066573,5.303965,-5.462893,-19.768189,0.107834,0.072006,1.0354,1.123654,-0.283018,-0.006133,74.370895,-0.786224,-146.577576,,,
729860264.06994,5.303965,-5.462893,-19.768189,0.107834,0.072006,1.0354,1.123654,-0.283018,-0.006133,74.370895,-0.786224,-146.577576,,,
729860264.073274,5.61875,-5.538652,-19.73897,0.107834,0.072006,1.0354,1.123654,-0.283018,-0.006133,74.370895,-0.786224,-146.577576,,,
729860264.076537,5.924415,-5.602527,-19.70983,0.107727,0.082748,1.01593,1.060686,-0.196059,-0.001381,74.370895,-0.786224,-146.577576,,,
729860264.079935,5.924415,-5.602527,-19.70983,0.107727,0.082748,1.01593,1.060686,-0.196059,-0.001381,74.370895,-0.786224,-146.577576,,,
729860264.083249,6.219066,-5.655395,-19.681445,0.107727,0.082748,1.01593,1.060686,-0.196059,-0.001381,73.7724,-2.801956,-145.309982,,,
729860264.086576,6.504443,-5.699314,-19.654042,0.109863,0.103073,0.995422,0.990183,-0.13165,-0.007042,73.7724,-2.801956,-145.309982,,,
729860264.089965,6.504443,-5.699314,-19.654042,0.109863,0.103073,0.995422,0.990183,-0.13165,-0.007042,73.7724,-2.801956,-145.309982,,,
729860264.093263,6.786207,-5.7403,-19.627541,0.109863,0.103073,0.995422,0.990183,-0.13165,-0.007042,73.7724,-2.801956,-145.309982,,,
729860264.096579,7.07078,-5.782845,-19.60091,0.107056,0.112717,1.0,1.002981,-0.136407,-0.010325,73.7724,-2.801956,-145.309982,,,
729860264.099932,7.07078,-5.782845,-19.60091,0.107056,0.112717,1.0,1.002981,-0.136407,-0.010325,73.7724,-2.801956,-145.309982,,,
729860264.103325,7.363848,-5.828392,-19.572145,0.107056,0.112717,1.0,1.002981,-0.136407,-0.010325,73.7724,-2.801956,-145.309982,,,
729860264.106567,7.669779,-5.87778,-19.539143,0.092667,0.097198,1.044708,1.084737,-0.155652,0.005799,73.7724,-2.801956,-145.309982,,,
729860264.109925,7.669779,-5.87778,-19.539143,0.092667,0.097198,1.044708,1.084737,-0.155652,0.005799,73.7724,-2.801956,-145.309982,,,
729860264.113265,7.990707,-5.931552,-19.499629,0.092667,0.097198,1.044708,1.084737,-0.155652,0.005799,73.7724,-2.801956,-145.309982,,,
729860264.116574,8.327587,-5.991464,-19.452227,0.07785,0.085098,1.091141,1.201916,-0.18689,0.045654,73.7724,-2.801956,-145.309982,,,
729860264.119935,8.327587,-5.991464,-19.452227,0.07785,0.085098,1.091141,1.201916,-0.18689,0.045654,73.7724,-2.801956,-145.309982,,,
729860264.12324,8.680769,-6.058709,-19.396349,0.07785,0.085098,1.091141,1.201916,-0.18689,0.045654,73.532883,-4.870575,-144.12616,,,
729860264.12658,9.050569,-6.133629,-19.33183,0.069229,0.086365,1.097839,1.321127,-0.226689,0.088726,73.532883,-4.870575,-144.12616,,,
729860264.129909,9.050569,-6.133629,-19.33183,0.069229,0.086365,1.097839,1.321127,-0.226689,0.088726,73.532883,-4.870575,-144.12616,,,
729860264.133254,9.435262,-6.217162,-19.260252,0.069229,0.086365,1.097839,1.321127,-0.226689,0.088726,73.532883,-4.870575,-144.12616,,,
729860264.13658,9.82958,-6.30887,-19.185291,0.080444,0.101959,1.079895,1.402278,-0.27784,0.104639,73.532883,-4.870575,-144.12616,,,
729860264.139992,9.82958,-6.30887,-19.185291,0.080444,0.101959,1.079895,1.402278,-0.27784,0.104639,73.532883,-4.870575,-144.12616,,,
729860264.143243,10.228072,-6.408291,-19.110917,0.080444,0.101959,1.079895,1.402278,-0.27784,0.104639,73.532883,-4.870575,-144.12616,,,
729860264.146578,10.626662,-6.515535,-19.039959,0.102173,0.140152,1.028107,1.407661,-0.332238,0.081433,73.532883,-4.870575,-144.12616,,,
729860264.149923,10.626662,-6.515535,-19.039959,0.102173,0.140152,1.028107,1.407661,-0.332238,0.081433,73.532883,-4.870575,-144.12616,,,
729860264.153321,11.02254,-6.62947,-18.974416,0.102173,0.140152,1.028107,1.407661,-0.332238,0.081433,73.532883,-4.870575,-144.12616,,,
729860264.156572,11.413886,-6.748519,-18.91533,0.13092,0.179062,0.971893,1.375843,-0.376476,0.034858,73.532883,-4.870575,-144.12616,,,
729860264.159965,11.413886,-6.748519,-18.91533,0.13092,0.179062,0.971893,1.375843,-0.376476,0.034858,73.532883,-4.870575,-144.12616,,,
729860264.163292,11.799516,-6.870846,-18.86316,0.13092,0.179062,0.971893,1.375843,-0.376476,0.034858,73.532883,-4.870575,-144.12616,,,
729860264.166574,12.178888,-6.994355,-18.817247,0.145401,0.205292,0.940277,1.32446,-0.396544,-0.010739,72.98378,-7.3526,-142.913498,,,
729860264.169928,12.178888,-6.994355,-18.817247,0.145401,0.205292,0.940277,1.32446,-0.396544,-0.010739,72.98378,-7.3526,-142.913498,,,
729860264.17325,12.552448,-7.118512,-18.776509,0.145401,0.205292,0.940277,1.32446,-0.396544,-0.010739,72.98378,-7.3526,-142.913498,,,
729860264.176579,12.921591,-7.24361,-18.740119,0.149963,0.218323,0.931854,1.285897,-0.406522,-0.042298,72.98378,-7.3526,-142.913498,,,
729860264.179977,12.921591,-7.24361,-18.740119,0.149963,0.218323,0.931854,1.285897,-0.406522,-0.042298,72.98378,-7.3526,-142.913498,,,
729860264.183331,13.288473,-7.36873,-18.706957,0.149963,0.218323,0.931854,1.285897,-0.406522,-0.042298,72.98378,-7.3526,-142.913498,,,
729860264.186586,13.656773,-7.492055,-18.676289,0.153534,0.219696,0.950058,1.290033,-0.400913,-0.067331,72.98378,-7.3526,-142.913498,,,
729860264.189933,13.656773,-7.492055,-18.676289,0.153534,0.219696,0.950058,1.290033,-0.400913,-0.067331,72.98378,-7.3526,-142.913498,,,
729860264.193337,14.03113,-7.612931,-18.645791,0.153534,0.219696,0.950058,1.290033,-0.400913,-0.067331,72.98378,-7.3526,-142.913498,,,
729860264.196584,14.416982,-7.731761,-18.611866,0.145889,0.211334,0.995163,1.360176,-0.379557,-0.067912,72.98378,-7.3526,-142.913498,,,
729860264.199984,14.416982,-7.731761,-18.611866,0.145889,0.211334,0.995163,1.360176,-0.379557,-0.067912,72.98378,-7.3526,-142.913498,,,
729860264.203254,14.818682,-7.850118,-18.572336,0.145889,0.211334,0.995163,1.360176,-0.379557,-0.067912,72.98378,-7.3526,-142.913498,,,
729860264.206581,15.237329,-7.968246,-18.525539,0.134537,0.191223,1.05455,1.482681,-0.365687,-0.041386,72.157394,-9.73703,-140.913284,,,
729860264.209935,15.237329,-7.968246,-18.525539,0.134537,0.191223,1.05455,1.482681,-0.365687,-0.041386,72.157394,-9.73703,-140.913284,,,
729860264.21325,15.673306,-8.083498,-18.47067,0.134537,0.191223,1.05455,1.482681,-0.365687,-0.041386,72.157394,-9.73703,-140.913284,,,
729860264.216584,16.126059,-8.191197,-18.409114,0.126709,0.186615,1.083817,1.605224,-0.304539,-0.017714,72.157394,-9.73703,-140.913284,,,
729860264.21997,16.126059,-8.191197,-18.409114,0.126709,0.186615,1.083817,1.605224,-0.304539,-0.017714,72.157394,-9.73703,-140.913284,,,
729860264.223239,16.594458,-8.287788,-18.341881,0.126709,0.186615,1.083817,1.605224,-0.304539,-0.017714,72.157394,-9.73703,-140.913284,,,
729860264.226584,17.077049,-8.370125,-18.270437,0.134933,0.202087,1.096909,1.712503,-0.200326,-0.008343,72.157394,-9.73703,-140.913284,,,
729860264.229923,17.077049,-8.370125,-18.270437,0.134933,0.202087,1.096909,1.712503,-0.200326,-0.008343,72.157394,-9.73703,-140.913284,,,
729860264.23333,17.570947,-8.436648,-18.196481,0.134933,0.202087,1.096909,1.712503,-0.200326,-0.008343,72.157394,-9.73703,-140.913284,,,
729860264.23657,18.072225,-8.488498,-18.12152,0.145279,0.226852,1.079834,1.772203,-0.084922,-0.012864,72.157394,-9.73703,-140.913284,,,
729860264.239932,18.072225,-8.488498,-18.12152,0.145279,0.226852,1.079834,1.772203,-0.084922,-0.012864,72.157394,-9.73703,-140.913284,,,
729860264.243262,18.575612,-8.528937,-18.048355,0.145279,0.226852,1.079834,1.772203,-0.084922,-0.012864,72.157394,-9.73703,-140.913284,,,
729860264.246591,19.07829,-8.561121,-17.980275,0.163422,0.264099,1.006638,1.762954,-0.027394,-0.042742,71.979904,-12.512039,-138.964981,,,
729860264.24992,19.07829,-8.561121,-17.980275,0.163422,0.264099,1.006638,1.762954,-0.027394,-0.042742,71.979904,-12.512039,-138.964981,,,
729860264.253308,19.580905,-8.587704,-17.918327,0.163422,0.264099,1.006638,1.762954,-0.027394,-0.042742,71.979904,-12.512039,-138.964981,,,
729860264.256587,20.085003,-8.611597,-17.861742,0.181458,0.298096,0.945557,1.763199,-0.011444,-0.085449,71.979904,-12.512039,-138.964981,,,
729860264.259922,20.085003,-8.611597,-17.861742,0.181458,0.298096,0.945557,1.763199,-0.011444,-0.085449,71.979904,-12.512039,-138.964981,,,
729860264.263258,20.592114,-8.635481,-17.809174,0.181458,0.298096,0.945557,1.763199,-0.011444,-0.085449,71.979904,-12.512039,-138.964981,,,
729860264.266588,21.102876,-8.659614,-17.760488,0.170883,0.29689,0.953339,1.785242,-0.022136,-0.116613,71.979904,-12.512039,-138.964981,,,
729860264.269944,21.102876,-8.659614,-17.760488,0.170883,0.29689,0.953339,1.785242,-0.022136,-0.116613,71.979904,-12.512039,-138.964981,,,
729860264.273277,21.617054,-8.68355,-17.71576,0.170883,0.29689,0.953339,1.785242,-0.022136,-0.116613,71.979904,-12.512039,-138.964981,,,
729860264.276591,22.134376,-8.70754,-17.673305,0.160934,0.318375,0.95549,1.805928,-0.025768,-0.140224,71.979904,-12.512039,-138.964981,,,
729860264.27993,22.134376,-8.70754,-17.673305,0.160934,0.318375,0.95549,1.805928,-0.025768,-0.140224,71.979904,-12.512039,-138.964981,,,
729860264.283358,22.654815,-8.732913,-17.631009,0.160934,0.318375,0.95549,1.805928,-0.025768,-0.140224,71.979904,-12.512039,-138.964981,,,
729860264.286655,23.17874,-8.761074,-17.586682,0.144943,0.337921,0.955704,1.833361,-0.036312,-0.136562,72.127884,-15.303619,-136.148422,,,
729860264.289919,23.17874,-8.761074,-17.586682,0.144943,0.337921,0.955704,1.833361,-0.036312,-0.136562,72.127884,-15.303619,-136.148422,,,
729860264.29325,23.706036,-8.792405,-17.538592,0.144943,0.337921,0.955704,1.833361,-0.036312,-0.136562,72.127884,-15.303619,-136.148422,,,
729860264.296584,24.235934,-8.826612,-17.486074,0.13475,0.331085,0.944611,1.855987,-0.043429,-0.115185,72.127884,-15.303619,-136.148422,,,
729860264.299917,24.235934,-8.826612,-17.486074,0.13475,0.331085,0.944611,1.855987,-0.043429,-0.115185,72.127884,-15.303619,-136.148422,,,
729860264.303313,24.766692,-8.863241,-17.429872,0.13475,0.331085,0.944611,1.855987,-0.043429,-0.115185,72.127884,-15.303619,-136.148422,,,
729860264.306583,25.296096,-8.901009,-17.370851,0.13559,0.348404,0.916855,1.848975,-0.043113,-0.098561,72.127884,-15.303619,-136.148422,,,
729860264.309992,25.296096,-8.901009,-17.370851,0.13559,0.348404,0.916855,1.848975,-0.043113,-0.098561,72.127884,-15.303619,-136.148422,,,
729860264.313263,25.824119,-8.937243,-17.310124,0.13559,0.348404,0.916855,1.848975,-0.043113,-0.098561,72.127884,-15.303619,-136.148422,,,
729860264.316589,26.352,-8.969941,-17.248363,0.146866,0.369324,0.894455,1.847177,-0.009946,-0.094556,72.127884,-15.303619,-136.148422,,,
729860264.319961,26.352,-8.969941,-17.248363,0.146866,0.369324,0.894455,1.847177,-0.009946,-0.094556,72.127884,-15.303619,-136.148422,,,
729860264.32325,26.880483,-9.00015,-17.185171,0.146866,0.369324,0.894455,1.847177,-0.009946,-0.094556,72.127884,-15.303619,-136.148422,,,
729860264.326583,27.409029,-9.029527,-17.119933,0.145203,0.384048,0.893311,1.851587,0.00323,-0.087781,72.127884,-15.303619,-136.148422,,,
729860264.329916,27.409029,-9.029527,-17.119933,0.145203,0.384048,0.893311,1.851587,0.00323,-0.087781,72.202347,-18.150024,-133.61058,,,
729860264.333107,27.934654,-9.059248,-17.05215,0.145203,0.384048,0.893311,1.851587,0.00323,-0.087781,72.202347,-18.150024,-133.61058,,,
729860264.336602,28.453683,-9.088195,-16.983409,0.142075,0.400421,0.862518,1.814081,0.015326,-0.074584,72.202347,-18.150024,-133.61058,,,
729860264.339928,28.453683,-9.088195,-16.983409,0.142075,0.400421,0.862518,1.814081,0.015326,-0.074584,72.202347,-18.150024,-133.61058,,,
729860264.343257,28.962562,-9.115678,-16.915094,0.142075,0.400421,0.862518,1.814081,0.015326,-0.074584,72.202347,-18.150024,-133.61058,,,
729860264.34658,29.461818,-9.141131,-16.848396,0.151138,0.430389,0.807785,1.740505,0.028944,-0.077144,72.202347,-18.150024,-133.61058,,,
729860264.349933,29.461818,-9.141131,-16.848396,0.151138,0.430389,0.807785,1.740505,0.028944,-0.077144,72.202347,-18.150024,-133.61058,,,
729860264.353291,29.956498,-9.16317,-16.784026,0.151138,0.430389,0.807785,1.740505,0.028944,-0.077144,72.202347,-18.150024,-133.61058,,,
729860264.356568,30.452175,-9.181176,-16.721421,0.158768,0.458603,0.807922,1.736651,0.052111,-0.092342,72.202347,-18.150024,-133.61058,,,
729860264.35999,30.452175,-9.181176,-16.721421,0.158768,0.458603,0.807922,1.736651,0.052111,-0.092342,72.202347,-18.150024,-133.61058,,,
729860264.36325,30.950009,-9.196929,-16.660002,0.158768,0.458603,0.807922,1.736651,0.052111,-0.092342,72.202347,-18.150024,-133.61058,,,
729860264.366598,31.451925,-9.214385,-16.599516,0.151001,0.453217,0.853134,1.754975,0.050215,-0.106755,72.202347,-18.150024,-133.61058,,,
729860264.370037,31.451925,-9.214385,-16.599516,0.151001,0.453217,0.853134,1.754975,0.050215,-0.106755,72.610245,-20.477737,-131.010239,,,
729860264.373244,31.960824,-9.237362,-16.539787,0.151001,0.453217,0.853134,1.754975,0.050215,-0.106755,72.610245,-20.477737,-131.010239,,,
729860264.376576,32.479699,-9.265846,-16.481708,0.157562,0.453888,0.8573,1.823727,0.007586,-0.121992,72.610245,-20.477737,-131.010239,,,
729860264.379918,32.479699,-9.265846,-16.481708,0.157562,0.453888,0.8573,1.823727,0.007586,-0.121992,72.610245,-20.477737,-131.010239,,,
729860264.383252,33.00877,-9.298288,-16.425258,0.157562,0.453888,0.8573,1.823727,0.007586,-0.121992,72.610245,-20.477737,-131.010239,,,
729860264.386684,33.544309,-9.330105,-16.371327,0.161865,0.459198,0.873352,1.873195,-0.004808,-0.153444,72.610245,-20.477737,-131.010239,,,
729860264.38993,33.544309,-9.330105,-16.371327,0.161865,0.459198,0.873352,1.873195,-0.004808,-0.153444,72.610245,-20.477737,-131.010239,,,
729860264.393253,34.081374,-9.355636,-16.321348,0.161865,0.459198,0.873352,1.873195,-0.004808,-0.153444,72.610245,-20.477737,-131.010239,,,
729860264.396615,34.614471,-9.369943,-16.276855,0.165939,0.488159,0.84668,1.848791,0.047603,-0.181941,72.610245,-20.477737,-131.010239,,,
729860264.399915,34.614471,-9.369943,-16.276855,0.165939,0.488159,0.84668,1.848791,0.047603,-0.181941,72.610245,-20.477737,-131.010239,,,
729860264.403303,35.138707,-9.370532,-16.239353,0.165939,0.488159,0.84668,1.848791,0.047603,-0.181941,72.610245,-20.477737,-131.010239,,,
729860264.406575,35.651961,-9.357386,-16.209627,0.174545,0.529068,0.787689,1.768359,0.1188,-0.21227,72.610245,-20.477737,-131.010239,,,
729860264.409919,35.651961,-9.357386,-16.209627,0.174545,0.529068,0.787689,1.768359,0.1188,-0.21227,72.64325,-22.836426,-127.784683,,,
729860264.413251,36.152043,-9.330938,-16.188592,0.174545,0.529068,0.787689,1.768359,0.1188,-0.21227,72.64325,-22.836426,-127.784683,,,
729860264.416581,36.152043,-9.293081,-16.177312,0.178131,0.566193,0.728027,1.665215,0.163928,-0.247479,72.64325,-22.836426,-127.784683,,,
729860264.419968,36.638449,-9.293081,-16.177312,0.178131,0.566193,0.728027,1.665215,0.163928,-0.247479,72.64325,-22.836426,-127.784683,,,
729860264.42332,37.112526,-9.246441,-16.176726,0.178131,0.566193,0.728027,1.665215,0.163928,-0.247479,72.64325,-22.836426,-127.784683,,,
729860264.426612,37.112526,-9.194808,-16.187121,0.178131,0.566193,0.728027,1.583806,0.15841,-0.295923,72.64325,-22.836426,-127.784683,,,
729860264.429924,37.576806,-9.194808,-16.187121,0.17337,0.593719,0.698456,1.583806,0.15841,-0.295923,72.64325,-22.836426,-127.784683,,,
729860264.433257,38.034589,-9.143445,-16.207134,0.17337,0.593719,0.698456,1.583806,0.15841,-0.295923,72.64325,-22.836426,-127.784683,,,
729860264.436634,38.488911,-9.094306,-16.234924,0.160828,0.591629,0.696152,1.547697,0.102392,-0.330625,72.64325,-22.836426,-127.784683,,,
729860264.439911,38.488911,-9.094306,-16.234924,0.160828,0.591629,0.696152,1.547697,0.102392,-0.330625,72.64325,-22.836426,-127.784683,,,
729860264.44326,38.944984,-9.047476,-16.267525,0.160828,0.591629,0.696152,1.547697,0.102392,-0.330625,72.64325,-22.836426,-127.784683,,,
729860264.446581,38.944984,-9.047476,-16.267525,0.160828,0.591629,0.696152,1.547697,0.102392,-0.330625,72.64325,-22.836426,-127.784683,,,
729860264.449919,39.408005,-9.001536,-16.301004,0.148071,0.573517,0.741302,1.583698,0.088547,-0.34472,73.704987,-24.685684,-124.859207,,,
729860264.453308,39.880584,-8.956796,-16.331088,0.148071,0.573517,0.741302,1.583698,0.088547,-0.34472,73.704987,-24.685684,-124.859207,,,
729860264.456621,39.880584,-8.956796,-16.331088,0.148071,0.573517,0.741302,1.583698,0.088547,-0.34472,73.704987,-24.685684,-124.859207,,,
729860264.459985,40.364041,-8.916274,-16.354613,0.129227,0.549225,0.809631,1.663664,0.089879,-0.32171,73.704987,-24.685684,-124.859207,,,
729860264.463243,40.857364,-8.882116,-16.369815,0.129227,0.549225,0.809631,1.663664,0.089879,-0.32171,73.704987,-24.685684,-124.859207,,,
729860264.466631,40.857364,-8.882116,-16.369815,0.129227,0.549225,0.809631,1.663664,0.089879,-0.32171,73.704987,-24.685684,-124.859207,,,
729860264.469624,41.358417,-8.854577,-16.376679,0.114182,0.544815,0.81665,1.729622,0.082887,-0.282778,73.704987,-24.685684,-124.859207,,,
729860264.473298,41.862876,-8.831456,-16.377243,0.114182,0.544815,0.81665,1.729622,0.082887,-0.282778,73.704987,-24.685684,-124.859207,,,
729860264.47668,41.862876,-8.831456,-16.377243,0.114182,0.544815,0.81665,1.729622,0.082887,-0.282778,73.704987,-24.685684,-124.859207,,,
729860264.479942,42.365769,-8.810093,-16.373658,0.111481,0.564407,0.773148,1.731187,0.088214,-0.256174,73.704987,-24.685684,-124.859207,,,
729860264.483261,42.859021,-8.788764,-16.369212,0.111481,0.564407,0.773148,1.731187,0.088214,-0.256174,73.704987,-24.685684,-124.859207,,,
729860264.486683,42.859021,-8.788764,-16.369212,0.111481,0.564407,0.773148,1.608499,0.084897,-0.257328,73.704987,-24.685684,-124.859207,,,
729860264.489989,43.333128,-8.764425,-16.369295,0.11824,0.591461,0.687958,1.608499,0.084897,-0.257328,73.704987,-24.685684,-124.859207,,,
729860264.493254,43.787878,-8.733282,-16.378239,0.11824,0.591461,0.687958,1.608499,0.084897,-0.257328,74.265564,-26.578064,-122.013443,,,
729860264.496684,43.787878,-8.733282,-16.378239,0.11824,0.591461,0.687958,1.608499,0.084897,-0.257328,74.265564,-26.578064,-122.013443,,,
729860264.499928,44.231204,-8.693665,-16.396618,0.140472,0.559006,0.586807,1.512219,0.09855,-0.286656,74.265564,-26.578064,-122.013443,,,
729860264.503299,44.666742,-8.647112,-16.4234,0.140472,0.559006,0.586807,1.512219,0.09855,-0.286656,74.265564,-26.578064,-122.013443,,,
729860264.506633,44.666742,-8.647112,-16.4234,0.140472,0.559006,0.586807,1.512219,0.09855,-0.286656,74.265564,-26.578064,-122.013443,,,
729860264.509933,45.0912,-8.597145,-16.457699,0.134064,0.727982,0.602676,1.437711,0.091072,-0.308181,74.265564,-26.578064,-122.013443,,,
729860264.513304,45.500052,-8.5487,-16.499571,0.134064,0.727982,0.602676,1.437711,0.091072,-0.308181,74.265564,-26.578064,-122.013443,,,
729860264.516753,45.500052,-8.5487,-16.499571,0.134064,0.727982,0.602676,1.324407,0.025615,-0.320155,74.265564,-26.578064,-122.013443,,,
729860264.519933,45.893582,-8.504824,-16.548849,0.113724,0.80481,0.5681,1.324407,0.025615,-0.320155,74.265564,-26.578064,-122.013443,,,
729860264.523269,46.279312,-8.465866,-16.602282,0.113724,0.80481,0.5681,1.324407,0.025615,-0.320155,74.265564,-26.578064,-122.013443,,,
729860264.526651,46.279312,-8.465866,-16.602282,0.113724,0.80481,0.5681,1.324407,0.025615,-0.320155,74.265564,-26.578064,-122.013443,,,
729860264.529997,46.668582,-8.429772,-16.657119,0.113815,0.691879,0.574829,1.327781,-0.014144,-0.334208,74.265564,-26.578064,-122.013443,,,
729860264.533245,47.068506,-8.392681,-16.711801,0.113815,0.691879,0.574829,1.327781,-0.014144,-0.334208,75.140503,-27.88916,-119.412415,,,
729860264.53663,47.068506,-8.392681,-16.711801,0.113815,0.691879,0.574829,1.327781,-0.014144,-0.334208,75.140503,-27.88916,-119.412415,,,
729860264.539926,47.479022,-8.349938,-16.765194,0.101242,0.660858,0.69342,1.404665,0.023858,-0.33291,75.140503,-27.88916,-119.412415,,,
729860264.543251,47.894302,-8.304521,-16.814601,0.101242,0.660858,0.69342,1.404665,0.023858,-0.33291,75.140503,-27.88916,-119.412415,,,
729860264.546639,47.894302,-8.304521,-16.814601,0.101242,0.660858,0.69342,1.404665,0.023858,-0.33291,75.140503,-27.88916,-119.412415,,,
729860264.549917,48.310073,-8.262089,-16.858995,0.082825,0.665207,0.713196,1.421153,0.03211,-0.308852,75.140503,-27.88916,-119.412415,,,
729860264.55335,48.723634,-8.224859,-16.898758,0.082825,0.665207,0.713196,1.421153,0.03211,-0.308852,75.140503,-27.88916,-119.412415,,,
729860264.556714,48.723634,-8.224859,-16.898758,0.082825,0.665207,0.713196,1.421153,0.03211,-0.308852,75.140503,-27.88916,-119.412415,,,
729860264.559914,49.130177,-8.191128,-16.935741,0.075592,0.68515,0.639832,1.383842,0.020731,-0.284725,75.140503,-27.88916,-119.412415,,,
729860264.563257,49.522803,-8.158812,-16.972988,0.075592,0.68515,0.639832,1.383842,0.020731,-0.284725,75.140503,-27.88916,-119.412415,,,
729860264.566597,49.522803,-8.158812,-16.972988,0.075592,0.68515,0.639832,1.383842,0.020731,-0.284725,75.140503,-27.88916,-119.412415,,,
729860264.56999,49.894587,-8.124876,-17.015256,0.077515,0.729858,0.552689,1.24936,0.009473,-0.277101,75.140503,-27.88916,-119.412415,,,
729860264.573247,50.237483,-8.081226,-17.07058,0.077515,0.729858,0.552689,1.24936,0.009473,-0.277101,75.631485,-29.025055,-117.185867,,,
729860264.576613,50.237483,-8.081226,-17.07058,0.077515,0.729858,0.552689,1.24936,0.009473,-0.277101,75.631485,-29.025055,-117.185867,,,
729860264.579929,50.545352,-8.021818,-17.142427,0.090012,0.783768,0.440552,1.007517,0.023348,-0.314427,75.631485,-29.025055,-117.185867,,,
729860264.58325,50.813853,-7.948657,-17.229137,0.090012,0.783768,0.440552,1.007517,0.023348,-0.314427,75.631485,-29.025055,-117.185867,,,
729860264.586638,50.813853,-7.948657,-17.229137,0.090012,0.783768,0.440552,1.007517,0.023348,-0.314427,75.631485,-29.025055,-117.185867,,,
729860264.589924,51.038226,-7.86976,-17.330226,0.080856,0.854767,0.344223,0.705903,-0.004263,-0.33072,75.631485,-29.025055,-117.185867,,,
729860264.593257,51.215647,-7.793184,-17.445424,0.080856,0.854767,0.344223,0.705903,-0.004263,-0.33072,75.631485,-29.025055,-117.185867,,,
729860264.596656,51.215647,-7.793184,-17.445424,0.080856,0.854767,0.344223,0.705903,-0.004263,-0.33072,75.631485,-29.025055,-117.185867,,,
729860264.599927,51.345854,-7.720536,-17.573985,0.06955,0.899765,0.243301,0.367815,-0.109672,-0.342438,75.631485,-29.025055,-117.185867,,,
729860264.603295,51.431009,-7.647744,-17.715229,0.06955,0.899765,0.243301,0.367815,-0.109672,-0.342438,75.631485,-29.025055,-117.185867,,,
729860264.606603,51.431009,-7.647744,-17.715229,0.06955,0.899765,0.243301,0.367815,-0.109672,-0.342438,75.631485,-29.025055,-117.185867,,,
729860264.609998,51.475228,-7.569676,-17.867947,0.065475,0.882462,0.224869,0.074334,-0.14422,-0.352891,75.631485,-29.025055,-117.185867,,,
729860264.61325,51.483892,-7.485725,-18.028246,0.065475,0.882462,0.224869,0.074334,-0.14422,-0.352891,75.631485,-29.025055,-117.185867,,,
729860264.616606,51.483892,-7.485725,-18.028246,0.065475,0.882462,0.224869,0.074334,-0.14422,-0.352891,76.278122,-29.454224,-116.006989,,,
729860264.619966,51.460655,-7.397082,-18.191914,0.0495,0.861465,0.297928,-0.15392,-0.131177,-0.341633,76.278122,-29.454224,-116.006989,,,
729860264.623256,51.407613,-7.303911,-18.354016,0.0495,0.861465,0.297928,-0.15392,-0.131177,-0.341633,76.278122,-29.454224,-116.006989,,,
729860264.6266,51.407613,-7.303911,-18.354016,0.0495,0.861465,0.297928,-0.15392,-0.131177,-0.341633,76.278122,-29.454224,-116.006989,,,
729860264.629966,51.326233,-7.20469,-18.510231,0.034927,0.828751,0.357986,-0.346261,-0.06731,-0.29515,76.278122,-29.454224,-116.006989,,,
729860264.633257,51.218408,-7.097945,-18.657607,0.034927,0.828751,0.357986,-0.346261,-0.06731,-0.29515,76.278122,-29.454224,-116.006989,,,
729860264.636701,51.218408,-7.097945,-18.657607,0.034927,0.828751,0.357986,-0.346261,-0.06731,-0.29515,76.278122,-29.454224,-116.006989,,,
729860264.639927,51.087978,-6.984116,-18.792619,0.022537,0.797089,0.410385,-0.506386,0.050859,-0.227306,76.278122,-29.454224,-116.006989,,,
729860264.643254,50.939936,-6.866979,-18.911754,0.022537,0.797089,0.410385,-0.506386,0.050859,-0.227306,76.278122,-29.454224,-116.006989,,,
729860264.646585,50.939936,-6.866979,-18.911754,0.022537,0.797089,0.410385,-0.506386,0.050859,-0.227306,76.278122,-29.454224,-116.006989,,,
729860264.649975,50.777315,-6.753389,-19.012608,0.011841,0.764923,0.463913,-0.600571,0.134697,-0.142036,76.278122,-29.454224,-116.006989,,,
729860264.653284,50.600741,-6.648195,-19.096228,0.011841,0.764923,0.463913,-0.600571,0.134697,-0.142036,76.278122,-29.454224,-116.006989,,,
729860264.656587,50.600741,-6.648195,-19.096228,0.011841,0.764923,0.463913,-0.600571,0.134697,-0.142036,76.812103,-28.875778,-117.466415,,,
729860264.659932,50.410313,-6.552077,-19.16721,0.000809,0.735947,0.478958,-0.68746,0.146425,-0.073274,76.812103,-28.875778,-117.466415,,,
729860264.663251,50.205531,-6.464434,-19.230041,0.000809,0.735947,0.478958,-0.68746,0.146425,-0.073274,76.812103,-28.875778,-117.466415,,,
729860264.666612,50.205531,-6.464434,-19.230041,0.000809,0.735947,0.478958,-0.68746,0.146425,-0.073274,76.812103,-28.875778,-117.466415,,,
729860264.669972,49.986267,-6.383223,-19.289093,0.00531,0.736115,0.46344,-0.78469,0.122761,-0.043405,76.812103,-28.875778,-117.466415,,,
729860264.673244,49.752195,-6.308122,-19.346883,0.00531,0.736115,0.46344,-0.78469,0.122761,-0.043405,76.812103,-28.875778,-117.466415,,,
729860264.676584,49.752195,-6.308122,-19.346883,0.00531,0.736115,0.46344,-0.78469,0.122761,-0.043405,76.812103,-28.875778,-117.466415,,,
729860264.679932,49.504105,-6.240143,-19.404612,0.015152,0.738174,0.46257,-0.886909,0.080025,-0.033512,76.812103,-28.875778,-117.466415,,,
729860264.683259,49.24549,-6.182066,-19.461654,0.015152,0.738174,0.46257,-0.886909,0.080025,-0.033512,76.812103,-28.875778,-117.466415,,,
729860264.686715,49.24549,-6.182066,-19.461654,0.015152,0.738174,0.46257,-0.886909,0.080025,-0.033512,76.812103,-28.875778,-117.466415,,,
729860264.689936,48.979951,-6.1349,-19.51739,0.028107,0.731827,0.4785,-0.937505,0.00935,-0.027375,76.812103,-28.875778,-117.466415,,,
729860264.693262,48.709967,-6.097165,-19.571966,0.028107,0.731827,0.4785,-0.937505,0.00935,-0.027375,76.812103,-28.875778,-117.466415,,,
729860264.696592,48.709967,-6.097165,-19.571966,0.028107,0.731827,0.4785,-0.937505,0.00935,-0.027375,76.930161,-28.265228,-118.957626,,,
729860264.699996,48.436006,-6.068308,-19.625574,0.034195,0.715744,0.530853,-0.967066,-0.042282,-0.023553,76.930161,-28.265228,-118.957626,,,
729860264.703294,48.156426,-6.046886,-19.67867,0.034195,0.715744,0.530853,-0.967066,-0.042282,-0.023553,76.930161,-28.265228,-118.957626,,,
729860264.706597,48.156426,-6.046886,-19.67867,0.034195,0.715744,0.530853,-0.967066,-0.042282,-0.023553,76.930161,-28.265228,-118.957626,,,
729860264.709932,47.870169,-6.031953,-19.730323,0.041107,0.711716,0.561249,-1.009318,-0.082696,-0.018162,76.930161,-28.265228,-118.957626,,,
729860264.713249,47.577307,-6.021273,-19.78086,0.041107,0.711716,0.561249,-1.009318,-0.082696,-0.018162,76.930161,-28.265228,-118.957626,,,
729860264.716611,47.577307,-6.021273,-19.78086,0.041107,0.711716,0.561249,-1.009318,-0.082696,-0.018162,76.930161,-28.265228,-118.957626,,,
729860264.719965,47.274936,-6.011315,-19.831615,0.052856,0.711533,0.57608,-1.068661,-0.09309,-0.009414,76.930161,-28.265228,-118.957626,,,
729860264.723251,46.957405,-5.999585,-19.883986,0.052856,0.711533,0.57608,-1.068661,-0.09309,-0.009414,76.930161,-28.265228,-118.957626,,,
729860264.72667,46.957405,-5.999585,-19.883986,0.052856,0.711533,0.57608,-1.068661,-0.09309,-0.009414,76.930161,-28.265228,-118.957626,,,
729860264.729935,46.622257,-5.984834,-19.940635,0.063751,0.729156,0.556046,-1.191159,-0.087472,-0.013772,76.930161,-28.265228,-118.957626,,,
729860264.733274,46.271216,-5.969409,-20.001935,0.063751,0.729156,0.556046,-1.191159,-0.087472,-0.013772,76.930161,-28.265228,-118.957626,,,
729860264.736635,46.271216,-5.969409,-20.001935,0.063751,0.729156,0.556046,-1.191159,-0.087472,-0.013772,76.843033,-26.95874,-120.75972,,,
729860264.739991,45.907224,-5.953838,-20.0679,0.072617,0.736313,0.540207,-1.288314,-0.111991,-0.032395,76.843033,-26.95874,-120.75972,,,
729860264.743256,45.533045,-5.937692,-20.139641,0.072617,0.736313,0.540207,-1.288314,-0.111991,-0.032395,76.843033,-26.95874,-120.75972,,,
729860264.746616,45.533045,-5.937692,-20.139641,0.072617,0.736313,0.540207,-1.288314,-0.111991,-0.032395,76.843033,-26.95874,-120.75972,,,
729860264.749947,45.151811,-5.924514,-20.216423,0.082962,0.71637,0.573242,-1.346146,-0.147302,-0.053822,76.843033,-26.95874,-120.75972,,,
729860264.753324,44.766793,-5.916272,-20.29672,0.082962,0.71637,0.573242,-1.346146,-0.147302,-0.053822,76.843033,-26.95874,-120.75972,,,
729860264.756608,44.766793,-5.916272,-20.29672,0.082962,0.71637,0.573242,-1.346146,-0.147302,-0.053822,76.843033,-26.95874,-120.75972,,,
729860264.759936,44.380379,-5.912005,-20.379652,0.090576,0.694321,0.60878,-1.359464,-0.191325,-0.071634,76.843033,-26.95874,-120.75972,,,
729860264.763257,43.993111,-5.907905,-20.464221,0.090576,0.694321,0.60878,-1.359464,-0.191325,-0.071634,76.843033,-26.95874,-120.75972,,,
729860264.76659,43.993111,-5.907905,-20.464221,0.090576,0.694321,0.60878,-1.359464,-0.191325,-0.071634,76.843033,-26.95874,-120.75972,,,
729860264.769953,43.601707,-5.897458,-20.548246,0.090073,0.663422,0.662018,-1.380767,-0.156425,-0.068101,76.843033,-26.95874,-120.75972,,,
729860264.773266,43.201155,-5.875928,-20.631173,0.090073,0.663422,0.662018,-1.380767,-0.156425,-0.068101,76.843033,-26.95874,-120.75972,,,
729860264.776616,43.201155,-5.875928,-20.631173,0.090073,0.663422,0.662018,-1.380767,-0.156425,-0.068101,76.843033,-26.95874,-120.75972,,,
729860264.780016,42.785673,-5.843816,-20.712934,0.087341,0.652283,0.690781,-1.470385,-0.068414,-0.059939,76.76062,-25.789795,-123.573807,,,
729860264.783255,42.348854,-5.805703,-20.793969,0.087341,0.652283,0.690781,-1.470385,-0.068414,-0.059939,76.76062,-25.789795,-123.573807,,,
729860264.786643,42.348854,-5.805703,-20.793969,0.087341,0.652283,0.690781,-1.470385,-0.068414,-0.059939,76.76062,-25.789795,-123.573807,,,
729860264.789936,41.88517,-5.765481,-20.877125,0.088516,0.664673,0.63739,-1.652388,-0.052655,-0.050542,76.76062,-25.789795,-123.573807,,,
729860264.793264,41.389838,-5.725095,-20.964642,0.088516,0.664673,0.63739,-1.652388,-0.052655,-0.050542,76.76062,-25.789795,-123.573807,,,
729860264.796608,41.389838,-5.725095,-20.964642,0.088516,0.664673,0.63739,-1.652388,-0.052655,-0.050542,76.76062,-25.789795,-123.573807,,,
729860264.799946,40.861056,-5.684304,-21.059811,0.095673,0.683167,0.563202,-1.887202,-0.077748,-0.070889,76.76062,-25.789795,-123.573807,,,
729860264.803303,40.303189,-5.644828,-21.163303,0.095673,0.683167,0.563202,-1.887202,-0.077748,-0.070889,76.76062,-25.789795,-123.573807,,,
729860264.806678,40.303189,-5.644828,-21.163303,0.095673,0.683167,0.563202,-1.887202,-0.077748,-0.070889,76.76062,-25.789795,-123.573807,,,
729860264.809937,39.727119,-5.610593,-21.273932,0.098679,0.672134,0.55098,-2.043589,-0.13149,-0.102844,76.76062,-25.789795,-123.573807,,,
729860264.813264,39.148253,-5.586916,-21.390412,0.098679,0.672134,0.55098,-2.043589,-0.13149,-0.102844,76.76062,-25.789795,-123.573807,,,
729860264.81661,39.148253,-5.586916,-21.390412,0.098679,0.672134,0.55098,-2.043589,-0.13149,-0.102844,76.76062,-25.789795,-123.573807,,,
729860264.820015,38.579762,-5.57637,-21.511194,0.097672,0.610611,0.657852,-1.99301,-0.239184,-0.139159,77.102066,-23.835709,-126.788986,,,
729860264.823242,38.031303,-5.575286,-21.635277,0.097672,0.610611,0.657852,-1.99301,-0.239184,-0.139159,77.102066,-23.835709,-126.788986,,,
729860264.826602,38.031303,-5.575286,-21.635277,0.097672,0.610611,0.657852,-1.99301,-0.239184,-0.139159,77.102066,-23.835709,-126.788986,,,
729860264.829927,37.508448,-5.578035,-21.760768,0.096176,0.543884,0.807877,-1.819956,-0.277658,-0.170675,77.102066,-23.835709,-126.788986,,,
729860264.833253,37.01105,-5.582909,-21.883251,0.096176,0.543884,0.807877,-1.819956,-0.277658,-0.170675,77.102066,-23.835709,-126.788986,,,
729860264.836645,37.01105,-5.582909,-21.883251,0.096176,0.543884,0.807877,-1.819956,-0.277658,-0.170675,77.102066,-23.835709,-126.788986,,,
729860264.839923,36.533626,-5.58971,-21.997277,0.085953,0.50827,0.897491,-1.667804,-0.255925,-0.153173,77.102066,-23.835709,-126.788986,,,
729860264.843263,36.065923,-5.595847,-22.099342,0.085953,0.50827,0.897491,-1.667804,-0.255925,-0.153173,77.102066,-23.835709,-126.788986,,,
729860264.846654,36.065923,-5.595847,-22.099342,0.085953,0.50827,0.897491,-1.667804,-0.255925,-0.153173,77.102066,-23.835709,-126.788986,,,
729860264.84992,35.595275,-5.597356,-22.188196,0.069901,0.487198,0.87825,-1.659648,-0.171261,-0.081366,77.102066,-23.835709,-126.788986,,,
729860264.85331,35.11205,-5.589636,-22.265418,0.069901,0.487198,0.87825,-1.659648,-0.171261,-0.081366,77.102066,-23.835709,-126.788986,,,
729860264.856615,35.11205,-5.589636,-22.265418,0.069901,0.487198,0.87825,-1.659648,-0.171261,-0.081366,77.102066,-23.835709,-126.788986,,,
729860264.859929,34.614148,-5.569598,-22.332987,0.064484,0.521393,0.794632,-1.754636,-0.046243,-0.015663,76.928009,-21.580261,-129.800385,,,
729860264.863309,34.104649,-5.536107,-22.393134,0.064484,0.521393,0.794632,-1.754636,-0.046243,-0.015663,76.928009,-21.580261,-129.800385,,,
729860264.866605,34.104649,-5.536107,-22.393134,0.064484,0.521393,0.794632,-1.754636,-0.046243,-0.015663,76.928009,-21.580261,-129.800385,,,
729860264.870049,33.586331,-5.490407,-22.448611,0.064529,0.534409,0.771835,-1.819424,0.069577,0.015067,76.928009,-21.580261,-129.800385,,,
729860264.873345,33.059712,-5.437374,-22.500549,0.064529,0.534409,0.771835,-1.819424,0.069577,0.015067,76.928009,-21.580261,-129.800385,,,
729860264.876591,33.059712,-5.437374,-22.500549,0.064529,0.534409,0.771835,-1.819424,0.069577,0.015067,76.928009,-21.580261,-129.800385,,,
729860264.879942,32.524516,-5.384573,-22.550567,0.074493,0.527344,0.788712,-1.878135,0.093808,0.027215,76.928009,-21.580261,-129.800385,,,
729860264.883264,31.986148,-5.340889,-22.600825,0.074493,0.527344,0.788712,-1.878135,0.093808,0.027215,76.928009,-21.580261,-129.800385,,,
729860264.886644,31.986148,-5.340889,-22.600825,0.074493,0.527344,0.788712,-1.878135,0.093808,0.027215,76.928009,-21.580261,-129.800385,,,
729860264.889945,31.454381,-5.311279,-22.653821,0.083359,0.504181,0.781143,-1.85042,-0.007677,0.012023,76.928009,-21.580261,-129.800385,,,
729860264.893257,30.936785,-5.297716,-22.710734,0.083359,0.504181,0.781143,-1.85042,-0.007677,0.012023,76.928009,-21.580261,-129.800385,,,
729860264.896588,30.936785,-5.297716,-22.710734,0.083359,0.504181,0.781143,-1.85042,-0.007677,0.012023,76.928009,-21.580261,-129.800385,,,
729860264.899928,30.438111,-5.300417,-22.771136,0.096924,0.458969,0.859146,-1.730418,-0.127875,-0.026955,76.928009,-21.580261,-129.800385,,,
729860264.903297,29.960075,-5.316564,-22.834843,0.096924,0.458969,0.859146,-1.730418,-0.127875,-0.026955,76.717209,-18.936615,-132.821106,,,
729860264.906597,29.960075,-5.316564,-22.834843,0.096924,0.458969,0.859146,-1.730418,-0.127875,-0.026955,76.717209,-18.936615,-132.821106,,,
729860264.910031,29.503453,-5.345314,-22.899716,0.098465,0.428833,0.933594,-1.579392,-0.223036,-0.051125,76.717209,-18.936615,-132.821106,,,
729860264.913257,29.068958,-5.385774,-22.963323,0.098465,0.428833,0.933594,-1.579392,-0.223036,-0.051125,76.717209,-18.936615,-132.821106,,,
729860264.916598,29.068958,-5.385774,-22.963323,0.098465,0.428833,0.933594,-1.579392,-0.223036,-0.051125,76.717209,-18.936615,-132.821106,,,
729860264.919819,28.655364,-5.433094,-23.023659,0.100815,0.396667,0.975967,-1.432746,-0.265588,-0.04754,76.717209,-18.936615,-132.821106,,,
729860264.923274,28.258626,-5.48106,-23.079383,0.100815,0.396667,0.975967,-1.432746,-0.265588,-0.04754,76.717209,-18.936615,-132.821106,,,
729860264.926603,28.258626,-5.48106,-23.079383,0.100815,0.396667,0.975967,-1.432746,-0.265588,-0.04754,76.717209,-18.936615,-132.821106,,,
729860264.929932,27.872299,-5.524113,-23.130535,0.095261,0.383438,0.996658,-1.344671,-0.220969,-0.025345,76.717209,-18.936615,-132.821106,,,
729860264.933259,27.489022,-5.557877,-23.177955,0.095261,0.383438,0.996658,-1.344671,-0.220969,-0.025345,76.717209,-18.936615,-132.821106,,,
729860264.936631,27.489022,-5.557877,-23.177955,0.095261,0.383438,0.996658,-1.344671,-0.220969,-0.025345,76.717209,-18.936615,-132.821106,,,
729860264.939938,27.102467,-5.578954,-23.22475,0.096603,0.408371,0.967087,-1.354746,-0.132077,-0.012639,76.717209,-18.936615,-132.821106,,,
729860264.943258,26.70773,-5.584873,-23.273491,0.096603,0.408371,0.967087,-1.354746,-0.132077,-0.012639,76.609528,-16.998886,-134.908295,,,
729860264.946601,26.70773,-5.584873,-23.273491,0.096603,0.408371,0.967087,-1.354746,-0.132077,-0.012639,76.609528,-16.998886,-134.908295,,,
729860264.949987,26.299945,-5.573467,-23.325978,0.107697,0.442139,0.904572,-1.444886,-0.02345,-0.026609,76.609528,-16.998886,-134.908295,,,
729860264.953288,25.877041,-5.543788,-23.383733,0.107697,0.442139,0.904572,-1.444886,-0.02345,-0.026609,76.609528,-16.998886,-134.908295,,,
729860264.956608,25.877041,-5.543788,-23.383733,0.107697,0.442139,0.904572,-1.444886,-0.02345,-0.026609,76.609528,-16.998886,-134.908295,,,
729860264.959931,25.442537,-5.494851,-23.446033,0.109955,0.457565,0.856216,-1.532994,0.093752,-0.053289,76.609528,-16.998886,-134.908295,,,
729860264.96326,25.004474,-5.425638,-23.510006,0.109955,0.457565,0.856216,-1.532994,0.093752,-0.053289,76.609528,-16.998886,-134.908295,,,
729860264.966606,25.004474,-5.425638,-23.510006,0.109955,0.457565,0.856216,-1.532994,0.093752,-0.053289,76.609528,-16.998886,-134.908295,,,
729860264.969973,24.572288,-5.336167,-23.572371,0.10321,0.42009,0.907654,-1.511541,0.246546,-0.055563,76.609528,-16.998886,-134.908295,,,
729860264.973262,24.153414,-5.227508,-23.629634,0.10321,0.42009,0.907654,-1.511541,0.246546,-0.055563,76.609528,-16.998886,-134.908295,,,
729860264.976687,24.153414,-5.227508,-23.629634,0.10321,0.42009,0.907654,-1.511541,0.246546,-0.055563,76.609528,-16.998886,-134.908295,,,
729860264.979945,23.750159,-5.103706,-23.679208,0.079559,0.364487,1.018356,-1.397848,0.379748,-0.028083,76.609528,-16.998886,-134.908295,,,
729860264.983261,23.361305,-4.971227,-23.719868,0.079559,0.364487,1.018356,-1.397848,0.379748,-0.028083,77.038589,-14.957031,-136.909683,,,
729860264.986708,23.361305,-4.971227,-23.719868,0.079559,0.364487,1.018356,-1.397848,0.379748,-0.028083,77.038589,-14.957031,-136.909683,,,
729860264.989921,22.983881,-4.835424,-23.75067,0.059967,0.319244,1.045319,-1.308684,0.440716,0.021011,77.038589,-14.957031,-136.909683,,,
729860264.993299,22.614213,-4.700331,-23.773154,0.059967,0.319244,1.045319,-1.308684,0.440716,0.021011,77.038589,-14.957031,-136.909683,,,
729860264.996646,22.614213,-4.700331,-23.773154,0.059967,0.319244,1.045319,-1.308684,0.440716,0.021011,77.038589,-14.957031,-136.909683,,,
729860265.000038,22.246755,-4.568765,-23.791417,0.047958,0.318634,0.997009,-1.278579,0.435221,0.044214,77.038589,-14.957031,-136.909683,,,
729860265.003323,21.874693,-4.443874,-23.809517,0.047958,0.318634,0.997009,-1.278579,0.435221,0.044214,77.038589,-14.957031,-136.909683,,,
729860265.006625,21.874693,-4.443874,-23.809517,0.047958,0.318634,0.997009,-1.278579,0.435221,0.044214,77.038589,-14.957031,-136.909683,,,
729860265.009931,21.490901,-4.326132,-23.830418,0.047073,0.349533,0.91951,-1.348556,0.380812,0.031568,77.038589,-14.957031,-136.909683,,,
729860265.013343,21.088176,-4.215853,-23.855719,0.047073,0.349533,0.91951,-1.348556,0.380812,0.031568,77.038589,-14.957031,-136.909683,,,
729860265.016604,21.088176,-4.215853,-23.855719,0.047073,0.349533,0.91951,-1.348556,0.380812,0.031568,77.038589,-14.957031,-136.909683,,,
729860265.019955,20.661064,-4.118447,-23.886883,0.042694,0.378433,0.823318,-1.515134,0.289013,0.002642,77.038589,-14.957031,-136.909683,,,
729860265.023309,20.209509,-4.037434,-23.924606,0.042694,0.378433,0.823318,-1.515134,0.289013,0.002642,77.391312,-12.555939,-138.976089,,,
729860265.026674,20.209509,-4.037434,-23.924606,0.042694,0.378433,0.823318,-1.515134,0.289013,0.002642,77.391312,-12.555939,-138.976089,,,
729860265.029923,19.740632,-3.972069,-23.968705,0.042999,0.380081,0.75032,-1.65283,0.160977,-0.034775,77.391312,-12.555939,-138.976089,,,
729860265.033394,19.26445,-3.921371,-24.018693,0.042999,0.380081,0.75032,-1.65283,0.160977,-0.034775,77.391312,-12.555939,-138.976089,,,
729860265.036636,19.26445,-3.921371,-24.018693,0.042999,0.380081,0.75032,-1.65283,0.160977,-0.034775,77.391312,-12.555939,-138.976089,,,
729860265.039927,18.790757,-3.882169,-24.073607,0.04364,0.333344,0.821854,-1.655357,0.068607,-0.076402,77.391312,-12.555939,-138.976089,,,
729860265.043319,18.328947,-3.851448,-24.131344,0.04364,0.333344,0.821854,-1.655357,0.068607,-0.076402,77.391312,-12.555939,-138.976089,,,
729860265.046596,18.328947,-3.851448,-24.131344,0.04364,0.333344,0.821854,-1.655357,0.068607,-0.076402,77.391312,-12.555939,-138.976089,,,
729860265.050026,17.885818,-3.830076,-24.188239,0.03775,0.29866,0.934662,-1.535326,0.009237,-0.085096,77.391312,-12.555939,-138.976089,,,
729860265.053406,17.464005,-3.818866,-24.240554,0.03775,0.29866,0.934662,-1.535326,0.009237,-0.085096,77.391312,-12.555939,-138.976089,,,
729860265.056579,17.464005,-3.818866,-24.240554,0.03775,0.29866,0.934662,-1.535326,0.009237,-0.085096,77.391312,-12.555939,-138.976089,,,
729860265.059968,17.063243,-3.816106,-24.285234,0.022995,0.241623,1.012878,-1.383955,-0.041279,-0.051375,77.391312,-12.555939,-138.976089,,,
729860265.063328,16.68006,-3.819884,-24.318868,0.022995,0.241623,1.012878,-1.383955,-0.041279,-0.051375,77.391312,-12.555939,-138.976089,,,
729860265.066607,16.68006,-3.819884,-24.318868,0.022995,0.241623,1.012878,-1.383955,-0.041279,-0.051375,77.759186,-10.151978,-140.968872,,,
729860265.070037,16.309573,-3.82804,-24.339862,0.00676,0.17421,1.037323,-1.2798,-0.04551,0.024368,77.759186,-10.151978,-140.968872,,,
729860265.073285,15.94667,-3.839795,-24.349682,0.00676,0.17421,1.037323,-1.2798,-0.04551,0.024368,77.759186,-10.151978,-140.968872,,,
729860265.076648,15.94667,-3.839795,-24.349682,0.00676,0.17421,1.037323,-1.2798,-0.04551,0.024368,77.759186,-10.151978,-140.968872,,,
729860265.079947,15.58399,-3.856694,-24.350663,0.008926,0.173035,1.003571,-1.260111,-0.059088,0.090154,77.759186,-10.151978,-140.968872,,,
729860265.083266,15.212673,-3.880125,-24.346921,0.008926,0.173035,1.003571,-1.260111,-0.059088,0.090154,77.759186,-10.151978,-140.968872,,,
729860265.086646,15.212673,-3.880125,-24.346921,0.008926,0.173035,1.003571,-1.260111,-0.059088,0.090154,77.759186,-10.151978,-140.968872,,,
729860265.089927,14.823897,-3.910561,-24.344053,0.030334,0.234009,0.915726,-1.366766,-0.105632,0.099565,77.759186,-10.151978,-140.968872,,,
729860265.093314,14.414255,-3.948437,-24.348553,0.030334,0.234009,0.915726,-1.366766,-0.105632,0.099565,77.759186,-10.151978,-140.968872,,,
729860265.096605,14.414255,-3.948437,-24.348553,0.030334,0.234009,0.915726,-1.366766,-0.105632,0.099565,77.759186,-10.151978,-140.968872,,,
729860265.100024,13.989287,-3.993881,-24.366123,0.065063,0.268738,0.813538,-1.494045,-0.180466,0.032073,77.759186,-10.151978,-140.968872,,,
729860265.103402,13.560622,-4.046532,-24.399006,0.065063,0.268738,0.813538,-1.494045,-0.180466,0.032073,77.759186,-10.151978,-140.968872,,,
729860265.106596,13.560622,-4.046532,-24.399006,0.065063,0.268738,0.813538,-1.494045,-0.180466,0.032073,77.362411,-7.737473,-142.186905,,,
729860265.109929,13.140379,-4.103437,-24.447712,0.107315,0.252975,0.859848,-1.462172,-0.239443,-0.074949,77.362411,-7.737473,-142.186905,,,
729860265.113362,12.737586,-4.15917,-24.510086,0.107315,0.252975,0.859848,-1.462172,-0.239443,-0.074949,77.362411,-7.737473,-142.186905,,,
729860265.116599,12.737586,-4.15917,-24.510086,0.107315,0.252975,0.859848,-1.462172,-0.239443,-0.074949,77.362411,-7.737473,-142.186905,,,
729860265.119996,12.356329,-4.209518,-24.581293,0.120499,0.207443,0.997864,-1.326761,-0.2236,-0.15352,77.362411,-7.737473,-142.186905,,,
729860265.123298,11.994694,-4.251646,-24.654823,0.120499,0.207443,0.997864,-1.326761,-0.2236,-0.15352,77.362411,-7.737473,-142.186905,,,
729860265.126591,11.994694,-4.251646,-24.654823,0.120499,0.207443,0.997864,-1.326761,-0.2236,-0.15352,77.362411,-7.737473,-142.186905,,,
729860265.129932,11.648294,-4.28268,-24.72483,0.103439,0.175674,1.077362,-1.20583,-0.143428,-0.146739,77.362411,-7.737473,-142.186905,,,
729860265.133259,11.648294,-4.28268,-24.72483,0.103439,0.175674,1.077362,-1.20583,-0.143428,-0.146739,77.362411,-7.737473,-142.186905,,,
729860265.136651,11.312584,-4.299988,-24.785874,0.103439,0.175674,1.077362,-1.20583,-0.143428,-0.146739,77.362411,-7.737473,-142.186905,,,
729860265.13993,10.983137,-4.300598,-24.833982,0.078232,0.127655,1.081253,-1.149839,-0.01386,-0.068368,77.362411,-7.737473,-142.186905,,,
729860265.143306,10.655329,-4.283445,-24.869037,0.078232,0.127655,1.081253,-1.149839,-0.01386,-0.068368,77.362411,-7.737473,-142.186905,,,
729860265.146593,10.655329,-4.283445,-24.869037,0.078232,0.127655,1.081253,-1.149839,-0.01386,-0.068368,77.168198,-5.478836,-144.147308,,,
729860265.149929,10.323711,-4.249717,-24.89289,0.065979,0.120605,1.05162,-1.15968,0.121366,0.011573,77.168198,-5.478836,-144.147308,,,
729860265.153308,10.323711,-4.249717,-24.89289,0.065979,0.120605,1.05162,-1.15968,0.121366,0.011573,77.168198,-5.478836,-144.147308,,,
729860265.156603,9.982033,-4.202165,-24.910063,0.065979,0.120605,1.05162,-1.15968,0.121366,0.011573,77.168198,-5.478836,-144.147308,,,
729860265.159928,9.62488,-4.144704,-24.926375,0.06955,0.168869,0.975433,-1.257567,0.200203,0.035941,77.168198,-5.478836,-144.147308,,,
729860265.163276,9.62488,-4.144704,-24.926375,0.06955,0.168869,0.975433,-1.257567,0.200203,0.035941,77.168198,-5.478836,-144.147308,,,
729860265.166666,9.251237,-4.079053,-24.946984,0.06955,0.168869,0.975433,-1.257567,0.200203,0.035941,77.168198,-5.478836,-144.147308,,,
729860265.169966,8.863453,-4.006094,-24.975742,0.093384,0.184189,0.896317,-1.365018,0.247277,-0.014599,77.168198,-5.478836,-144.147308,,,
729860265.173265,8.863453,-4.006094,-24.975742,0.093384,0.184189,0.896317,-1.365018,0.247277,-0.014599,77.168198,-5.478836,-144.147308,,,
729860265.176605,8.464598,-3.929612,-25.014376,0.093384,0.184189,0.896317,-1.365018,0.247277,-0.014599,77.168198,-5.478836,-144.147308,,,
729860265.180033,8.058198,-3.853811,-25.063866,0.105835,0.174362,0.897491,-1.428936,0.238011,-0.085774,77.168198,-5.478836,-144.147308,,,
729860265.183281,8.058198,-3.853811,-25.063866,0.105835,0.174362,0.897491,-1.428936,0.238011,-0.085774,77.168198,-5.478836,-144.147308,,,
729860265.186727,7.648998,-3.780111,-25.122592,0.105835,0.174362,0.897491,-1.428936,0.238011,-0.085774,77.477081,-2.965424,-145.382324,,,
729860265.189918,7.243097,-3.709113,-25.186269,0.106506,0.148315,0.929016,-1.421112,0.216889,-0.130899,77.477081,-2.965424,-145.382324,,,
729860265.193332,7.243097,-3.709113,-25.186269,0.106506,0.148315,0.929016,-1.421112,0.216889,-0.130899,77.477081,-2.965424,-145.382324,,,
729860265.196608,6.844626,-3.641597,-25.250442,0.106506,0.148315,0.929016,-1.421112,0.216889,-0.130899,77.477081,-2.965424,-145.382324,,,
729860265.199938,6.455388,-3.578047,-25.310327,0.078796,0.111603,1.000854,-1.354887,0.195608,-0.11936,77.477081,-2.965424,-145.382324,,,
729860265.203326,6.455388,-3.578047,-25.310327,0.078796,0.111603,1.000854,-1.354887,0.195608,-0.11936,77.477081,-2.965424,-145.382324,,,
729860265.206658,6.076288,-3.519315,-25.361458,0.078796,0.111603,1.000854,-1.354887,0.195608,-0.11936,77.477081,-2.965424,-145.382324,,,
729860265.20993,5.707746,-3.466599,-25.399932,0.04718,0.061142,1.040466,-1.279155,0.168887,-0.0438,77.477081,-2.965424,-145.382324,,,
729860265.213264,5.707746,-3.466599,-25.399932,0.04718,0.061142,1.040466,-1.279155,0.168887,-0.0438,77.477081,-2.965424,-145.382324,,,
729860265.216602,5.347908,-3.421106,-25.423566,0.04718,0.061142,1.040466,-1.279155,0.168887,-0.0438,77.477081,-2.965424,-145.382324,,,
729860265.220078,4.992957,-3.383304,-25.433906,0.025696,0.025879,1.038589,-1.233189,0.128259,0.046101,77.477081,-2.965424,-145.382324,,,
729860265.223278,4.992957,-3.383304,-25.433906,0.025696,0.025879,1.038589,-1.233189,0.128259,0.046101,77.477081,-2.965424,-145.382324,,,
729860265.226609,4.639396,-3.352964,-25.435407,0.025696,0.025879,1.038589,-1.233189,0.128259,0.046101,77.477081,-2.965424,-145.382324,,,
729860265.229941,4.285064,-3.329684,-25.433279,0.033508,0.034409,1.000366,-1.229814,0.078655,0.079971,78.162582,-0.335327,-146.36528,,,
729860265.233342,4.285064,-3.329684,-25.433279,0.033508,0.034409,1.000366,-1.229814,0.078655,0.079971,78.162582,-0.335327,-146.36528,,,
729860265.236678,3.92739,-3.313229,-25.432978,0.033508,0.034409,1.000366,-1.229814,0.078655,0.079971,78.162582,-0.335327,-146.36528,,,
729860265.239926,3.562669,-3.302822,-25.438732,0.061584,0.068924,0.974747,-1.275393,0.033312,0.045436,78.162582,-0.335327,-146.36528,,,
729860265.243274,3.562669,-3.302822,-25.438732,0.061584,0.068924,0.974747,-1.275393,0.033312,0.045436,78.162582,-0.335327,-146.36528,,,
729860265.246597,3.186906,-3.298413,-25.45376,0.061584,0.068924,0.974747,-1.275393,0.033312,0.045436,78.162582,-0.335327,-146.36528,,,
729860265.249928,2.797596,-3.300928,-25.480073,0.083069,0.086411,0.933319,-1.370706,-0.016169,-0.024024,78.162582,-0.335327,-146.36528,,,
729860265.253056,2.797596,-3.300928,-25.480073,0.083069,0.086411,0.933319,-1.370706,-0.016169,-0.024024,78.162582,-0.335327,-146.36528,,,
729860265.256648,2.395585,-3.310198,-25.518386,0.083069,0.086411,0.933319,-1.370706,-0.016169,-0.024024,78.162582,-0.335327,-146.36528,,,
729860265.259937,1.985983,-3.325274,-25.567395,0.098328,0.078949,0.907242,-1.441701,-0.064064,-0.097543,78.162582,-0.335327,-146.36528,,,
729860265.263285,1.985983,-3.325274,-25.567395,0.098328,0.078949,0.907242,-1.441701,-0.064064,-0.097543,78.162582,-0.335327,-146.36528,,,
729860265.266617,1.576248,-3.343318,-25.624128,0.098328,0.078949,0.907242,-1.441701,-0.064064,-0.097543,78.162582,-0.335327,-146.36528,,,
729860265.270013,1.174301,-3.359823,-25.684054,0.098495,0.050034,0.97049,-1.402075,-0.057378,-0.130341,78.045639,2.346039,-147.584991,,,
729860265.273256,1.174301,-3.359823,-25.684054,0.098495,0.050034,0.97049,-1.402075,-0.057378,-0.130341,78.045639,2.346039,-147.584991,,,
729860265.276613,0.786637,-3.371705,-25.741135,0.098495,0.050034,0.97049,-1.402075,-0.057378,-0.130341,78.045639,2.346039,-147.584991,,,
729860265.27993,0.417889,-3.377454,-25.790108,0.06427,0.003082,1.080688,-1.274764,-0.014128,-0.088045,78.045639,2.346039,-147.584991,,,
729860265.283358,0.417889,-3.377454,-25.790108,0.06427,0.003082,1.080688,-1.274764,-0.014128,-0.088045,78.045639,2.346039,-147.584991,,,
729860265.286636,0.072196,-3.377258,-25.826271,0.06427,0.003082,1.080688,-1.274764,-0.014128,-0.088045,78.045639,2.346039,-147.584991,,,
729860265.289931,-0.246412,-3.371576,-25.846053,0.025955,-0.062637,1.164627,-1.086695,0.024968,0.007352,78.045639,2.346039,-147.584991,,,
729860265.293278,-0.246412,-3.371576,-25.846053,0.025955,-0.062637,1.164627,-1.086695,0.024968,0.007352,78.045639,2.346039,-147.584991,,,
729860265.296682,-0.535438,-3.361105,-25.847707,0.025955,-0.062637,1.164627,-1.086695,0.024968,0.007352,78.045639,2.346039,-147.584991,,,
729860265.299927,-0.795332,-3.346933,-25.832339,0.000885,-0.109268,1.212753,-0.873445,0.053168,0.118769,78.045639,2.346039,-147.584991,,,
729860265.303313,-0.795332,-3.346933,-25.832339,0.000885,-0.109268,1.212753,-0.873445,0.053168,0.118769,78.045639,2.346039,-147.584991,,,
729860265.306613,-1.028626,-3.330933,-25.803848,0.000885,-0.109268,1.212753,-0.873445,0.053168,0.118769,78.045639,2.346039,-147.584991,,,
729860265.30994,-1.241508,-3.315999,-25.767624,0.005783,-0.096588,1.208389,-0.717924,0.049554,0.172321,78.140015,4.147049,-148.36055,,,
729860265.313287,-1.241508,-3.315999,-25.767624,0.005783,-0.096588,1.208389,-0.717924,0.049554,0.172321,78.140015,4.147049,-148.36055,,,
729860265.316613,-1.442999,-3.305817,-25.729849,0.005783,-0.096588,1.208389,-0.717924,0.049554,0.172321,78.140015,4.147049,-148.36055,,,
729860265.31998,-1.64133,-3.304548,-25.695393,0.034973,-0.042206,1.128708,-0.682356,-0.003143,0.155908,78.140015,4.147049,-148.36055,,,
729860265.323316,-1.64133,-3.304548,-25.695393,0.034973,-0.042206,1.128708,-0.682356,-0.003143,0.155908,78.140015,4.147049,-148.36055,,,
729860265.326622,-1.843885,-3.314591,-25.668443,0.034973,-0.042206,1.128708,-0.682356,-0.003143,0.155908,78.140015,4.147049,-148.36055,,,
729860265.329935,-2.055172,-3.336012,-25.653023,0.071762,0.002182,1.02066,-0.741457,-0.083194,0.086935,78.140015,4.147049,-148.36055,,,
729860265.333274,-2.055172,-3.336012,-25.653023,0.071762,0.002182,1.02066,-0.741457,-0.083194,0.086935,78.140015,4.147049,-148.36055,,,
729860265.336658,-2.274273,-3.366034,-25.651308,0.071762,0.002182,1.02066,-0.741457,-0.083194,0.086935,78.140015,4.147049,-148.36055,,,
729860265.339929,-2.494216,-3.399867,-25.663091,0.098358,-0.005066,0.980347,-0.763749,-0.115252,-0.008383,78.140015,4.147049,-148.36055,,,
729860265.343319,-2.494216,-3.399867,-25.663091,0.098358,-0.005066,0.980347,-0.763749,-0.115252,-0.008383,78.140015,4.147049,-148.36055,,,
729860265.346337,-2.706183,-3.433518,-25.685497,0.098358,-0.005066,0.980347,-0.763749,-0.115252,-0.008383,78.140015,4.147049,-148.36055,,,
729860265.350055,-2.90599,-3.466348,-25.713728,0.090485,-0.037003,1.055649,-0.687974,-0.106507,-0.062961,77.604858,5.859665,-149.05397,,,
729860265.353349,-2.90599,-3.466348,-25.713728,0.090485,-0.037003,1.055649,-0.687974,-0.106507,-0.062961,77.604858,5.859665,-149.05397,,,
729860265.356616,-3.091775,-3.500476,-25.74232,0.090485,-0.037003,1.055649,-0.687974,-0.106507,-0.062961,77.604858,5.859665,-149.05397,,,
729860265.359941,-3.260834,-3.537751,-25.76603,0.059662,-0.06517,1.114487,-0.578258,-0.127422,-0.039995,77.604858,5.859665,-149.05397,,,
729860265.363352,-3.260834,-3.537751,-25.76603,0.059662,-0.06517,1.114487,-0.578258,-0.127422,-0.039995,77.604858,5.859665,-149.05397,,,
729860265.366619,-3.41197,-3.577906,-25.78104,0.059662,-0.06517,1.114487,-0.578258,-0.127422,-0.039995,77.604858,5.859665,-149.05397,,,
729860265.370032,-3.545743,-3.618403,-25.786576,0.039001,-0.099609,1.135406,-0.45124,-0.135386,0.013981,77.604858,5.859665,-149.05397,,,
729860265.373253,-3.545743,-3.618403,-25.786576,0.039001,-0.099609,1.135406,-0.45124,-0.135386,0.013981,77.604858,5.859665,-149.05397,,,
729860265.376669,-3.663379,-3.656614,-25.784253,0.039001,-0.099609,1.135406,-0.45124,-0.135386,0.013981,77.604858,5.859665,-149.05397,,,
729860265.379933,-3.767048,-3.690012,-25.775674,0.037323,-0.111755,1.154343,-0.345784,-0.106895,0.057146,77.604858,5.859665,-149.05397,,,
729860265.383294,-3.767048,-3.690012,-25.775674,0.037323,-0.111755,1.154343,-0.345784,-0.106895,0.057146,77.604858,5.859665,-149.05397,,,
729860265.386655,-3.858664,-3.716767,-25.76297,0.037323,-0.111755,1.154343,-0.345784,-0.106895,0.057146,77.604858,5.859665,-149.05397,,,
729860265.389929,-3.939305,-3.741432,-25.748417,0.050262,-0.095474,1.147308,-0.267511,-0.086199,0.06868,77.604858,5.859665,-149.05397,,,
729860265.393262,-3.939305,-3.741432,-25.748417,0.050262,-0.095474,1.147308,-0.267511,-0.086199,0.06868,77.221909,6.638168,-149.088028,,,
729860265.396615,-4.010783,-3.771948,-25.734724,0.050262,-0.095474,1.147308,-0.267511,-0.086199,0.06868,77.221909,6.638168,-149.088028,,,
729860265.399932,-4.073487,-3.811814,-25.724918,0.067215,-0.075378,1.101501,-0.20599,-0.148004,0.043819,77.221909,6.638168,-149.088028,,,
729860265.403372,-4.073487,-3.811814,-25.724918,0.067215,-0.075378,1.101501,-0.20599,-0.148004,0.043819,77.221909,6.638168,-149.088028,,,
