Time (sec),Pitch (deg),Roll (deg),Yaw(deg),X-Acceleration (g),Y-Acceleration (g),Z-Acceleration (g),Pitch Rate (deg/sec),Roll Rate (deg/sec),Yaw Rate (deg/sec),Magnetic Field in X direction (uT),Magnetic Field in Y direction (uT),Magnetic Field in Z Direction (uT),Latitude (deg),Longitude (deg),Altitude (m)
729861603.36044,0.750356,0.571176,128.6656,0.00116,0.019165,0.973053,-0.074533,0.02445,-0.013354,66.129883,33.85112,-145.566116,,,
729861603.363704,0.750356,0.571176,128.6656,-0.006348,0.006927,0.994995,-0.074533,0.02445,-0.013354,66.129883,33.85112,-145.566116,,,
729861603.36705,0.733362,0.578504,128.665056,-0.006348,0.006927,0.994995,-0.074533,0.02445,-0.013354,66.129883,33.85112,-145.566116,,,
729861603.370376,0.72525,0.590455,128.666143,-0.006348,0.006927,0.994995,-0.033411,0.042044,0.001174,66.129883,33.85112,-145.566116,,,
729861603.373723,0.72525,0.590455,128.666143,-0.010834,-0.003784,1.022522,-0.033411,0.042044,0.001174,66.129883,33.85112,-145.566116,,,
729861603.377052,0.724958,0.601124,128.669084,-0.010834,-0.003784,1.022522,-0.033411,0.042044,0.001174,66.129883,33.85112,-145.566116,,,
729861603.380388,0.733626,0.61393,128.673299,-0.010834,-0.003784,1.022522,0.028416,0.047694,0.013952,66.129883,33.85112,-145.566116,,,
729861603.38374,0.733626,0.61393,128.673299,-0.010834,-0.003784,1.022522,0.028416,0.047694,0.013952,66.129883,33.85112,-145.566116,,,
729861603.387066,0.749133,0.62113,128.67808,-0.015228,-0.007797,1.034576,0.028416,0.047694,0.013952,66.129883,33.85112,-145.566116,,,
729861603.390386,0.767816,0.627094,128.682561,-0.015228,-0.007797,1.034576,0.065739,0.028199,0.015097,66.129883,33.85112,-145.566116,,,
729861603.393773,0.767816,0.627094,128.682561,-0.015228,-0.007797,1.034576,0.065739,0.028199,0.015097,66.129883,33.85112,-145.566116,,,
729861603.397097,0.790045,0.623478,128.685834,-0.011993,-0.00148,1.024597,0.065739,0.028199,0.015097,66.129883,33.85112,-145.566116,,,
729861603.400414,0.810273,0.618465,128.686962,-0.011993,-0.00148,1.024597,0.073352,-0.011784,0.005027,66.104843,33.892899,-145.50885,,,
729861603.403733,0.810273,0.618465,128.686962,-0.011993,-0.00148,1.024597,0.073352,-0.011784,0.005027,66.104843,33.892899,-145.50885,,,
729861603.407062,0.83148,0.604482,128.685851,-0.005432,0.009079,1.002441,0.073352,-0.011784,0.005027,66.104843,33.892899,-145.50885,,,
729861603.410382,0.847329,0.590481,128.682334,-0.005432,0.009079,1.002441,0.059157,-0.043499,-0.011292,66.104843,33.892899,-145.50885,,,
729861603.413732,0.847329,0.590481,128.682334,-0.005432,0.009079,1.002441,0.059157,-0.043499,-0.011292,66.104843,33.892899,-145.50885,,,
729861603.417051,0.862016,0.571033,128.676704,0.000381,0.019836,0.987717,0.059157,-0.043499,-0.011292,66.104843,33.892899,-145.50885,,,
729861603.420379,0.869902,0.5553,128.669648,0.000381,0.019836,0.987717,0.034587,-0.052755,-0.023924,66.104843,33.892899,-145.50885,,,
729861603.423788,0.869902,0.5553,128.669648,0.000381,0.019836,0.987717,0.034587,-0.052755,-0.023924,66.104843,33.892899,-145.50885,,,
729861603.427066,0.875091,0.538718,128.661255,0.003296,0.022003,0.983139,0.034587,-0.052755,-0.023924,66.104843,33.892899,-145.50885,,,
729861603.430388,0.873589,0.528706,128.652066,0.003296,0.022003,0.983139,0.000678,-0.035207,-0.033072,66.104843,33.892899,-145.50885,,,
729861603.433755,0.873589,0.528706,128.652066,0.003296,0.022003,0.983139,0.000678,-0.035207,-0.033072,66.104843,33.892899,-145.50885,,,
729861603.43711,0.867123,0.521106,128.642741,0.002365,0.022064,0.981476,0.000678,-0.035207,-0.033072,66.104843,33.892899,-145.50885,,,
729861603.44039,0.855985,0.520157,128.632525,0.002365,0.022064,0.981476,-0.032848,-0.004776,-0.033977,65.990234,33.732605,-145.776474,,,
729861603.443761,0.855985,0.520157,128.632525,0.002365,0.022064,0.981476,-0.032848,-0.004776,-0.033977,65.990234,33.732605,-145.776474,,,
729861603.447072,0.837196,0.524241,128.621861,0.002365,0.022766,0.979507,-0.032848,-0.004776,-0.033977,65.990234,33.732605,-145.776474,,,
729861603.450379,0.818133,0.534095,128.611324,0.002365,0.022766,0.979507,-0.062988,0.031827,-0.040125,65.990234,33.732605,-145.776474,,,
729861603.453771,0.818133,0.534095,128.611324,0.002365,0.022766,0.979507,-0.062988,0.031827,-0.040125,65.990234,33.732605,-145.776474,,,
729861603.457146,0.790676,0.55129,128.60166,-0.001816,0.019669,0.980255,-0.062988,0.031827,-0.040125,65.990234,33.732605,-145.776474,,,
729861603.460385,0.76822,0.572663,128.59365,-0.001816,0.019669,0.980255,-0.076663,0.071067,-0.032041,65.990234,33.732605,-145.776474,,,
729861603.463753,0.76822,0.572663,128.59365,-0.001816,0.019669,0.980255,-0.076663,0.071067,-0.032041,65.990234,33.732605,-145.776474,,,
729861603.467101,0.741448,0.599588,128.587433,-0.011337,0.012772,0.989624,-0.076663,0.071067,-0.032041,65.990234,33.732605,-145.776474,,,
729861603.47039,0.724115,0.626628,128.583403,-0.011337,0.012772,0.989624,-0.065136,0.095746,-0.015483,65.990234,33.732605,-145.776474,,,
729861603.473827,0.724115,0.626628,128.583403,-0.011337,0.012772,0.989624,-0.065136,0.095746,-0.015483,65.990234,33.732605,-145.776474,,,
729861603.477047,0.708589,0.653152,128.581934,-0.025345,0.001038,1.00116,-0.065136,0.095746,-0.015483,65.990234,33.732605,-145.776474,,,
729861603.480392,0.702218,0.678323,128.582212,-0.025345,0.001038,1.00116,-0.030275,0.092979,-0.00136,66.194366,33.723831,-145.892654,,,
729861603.483752,0.702218,0.678323,128.582212,-0.025345,0.001038,1.00116,-0.030275,0.092979,-0.00136,66.194366,33.723831,-145.892654,,,
729861603.48715,0.703383,0.695359,128.583104,-0.032471,-0.004959,1.01355,-0.030275,0.092979,-0.00136,66.194366,33.723831,-145.892654,,,
729861603.490377,0.709765,0.709128,128.584415,-0.032471,-0.004959,1.01355,0.020904,0.058075,0.003435,66.194366,33.723831,-145.892654,,,
729861603.493737,0.709765,0.709128,128.584415,-0.032471,-0.004959,1.01355,0.020904,0.058075,0.003435,66.194366,33.723831,-145.892654,,,
729861603.497061,0.722821,0.708744,128.585544,-0.032791,-0.004913,1.012878,0.020904,0.058075,0.003435,66.194366,33.723831,-145.892654,,,
729861603.500381,0.734745,0.704644,128.586064,-0.032791,-0.004913,1.012878,0.041343,-0.004031,0.002645,66.194366,33.723831,-145.892654,,,
729861603.503716,0.734745,0.704644,128.586064,-0.032791,-0.004913,1.012878,0.041343,-0.004031,0.002645,66.194366,33.723831,-145.892654,,,
729861603.507054,0.749897,0.685873,128.586655,-0.031845,0.004318,0.994064,0.041343,-0.004031,0.002645,66.194366,33.723831,-145.892654,,,
729861603.510384,0.760212,0.666608,128.586527,-0.031845,0.004318,0.994064,0.038652,-0.059613,-0.000436,66.194366,33.723831,-145.892654,,,
729861603.51372,0.760212,0.666608,128.586527,-0.031845,0.004318,0.994064,0.038652,-0.059613,-0.000436,66.194366,33.723831,-145.892654,,,
729861603.517066,0.77105,0.636983,128.586,-0.031082,0.012161,0.978195,0.038652,-0.059613,-0.000436,66.194366,33.723831,-145.892654,,,
729861603.520381,0.775376,0.610876,128.585631,-0.031082,0.012161,0.978195,0.020807,-0.086585,-0.002317,66.194366,33.723831,-145.892654,,,
729861603.523723,0.775376,0.610876,128.585631,-0.031082,0.012161,0.978195,0.020807,-0.086585,-0.002317,65.89859,33.860657,-145.661255,,,
729861603.527138,0.779008,0.580128,128.586102,-0.026398,0.016708,0.970978,0.020807,-0.086585,-0.002317,65.89859,33.860657,-145.661255,,,
729861603.530381,0.775485,0.557795,128.587292,-0.026398,0.016708,0.970978,-0.006279,-0.079074,0.000461,65.89859,33.860657,-145.661255,,,
729861603.533718,0.775485,0.557795,128.587292,-0.026398,0.016708,0.970978,-0.006279,-0.079074,0.000461,65.89859,33.860657,-145.661255,,,
729861603.537079,0.768834,0.539509,128.589013,-0.017929,0.018692,0.970123,-0.006279,-0.079074,0.000461,65.89859,33.860657,-145.661255,,,
729861603.540386,0.755968,0.530422,128.590954,-0.017929,0.018692,0.970123,-0.038583,-0.038428,0.005657,65.89859,33.860657,-145.661255,,,
729861603.543814,0.755968,0.530422,128.590954,-0.017929,0.018692,0.970123,-0.038583,-0.038428,0.005657,65.89859,33.860657,-145.661255,,,
729861603.547046,0.738213,0.532199,128.59245,-0.009186,0.019104,0.976013,-0.038583,-0.038428,0.005657,65.89859,33.860657,-145.661255,,,
729861603.550397,0.71969,0.538753,128.593226,-0.009186,0.019104,0.976013,-0.063051,0.01809,0.003695,65.89859,33.860657,-145.661255,,,
729861603.553717,0.71969,0.538753,128.593226,-0.009186,0.019104,0.976013,-0.063051,0.01809,0.003695,65.89859,33.860657,-145.661255,,,
729861603.5571,0.69493,0.559116,128.592947,-0.001694,0.021011,0.977753,-0.063051,0.01809,0.003695,65.89859,33.860657,-145.661255,,,
729861603.560424,0.672382,0.580213,128.59172,-0.001694,0.021011,0.977753,-0.076822,0.071595,-0.00722,65.89859,33.860657,-145.661255,,,
729861603.563724,0.672382,0.580213,128.59172,-0.001694,0.021011,0.977753,-0.076822,0.071595,-0.00722,65.923965,34.053558,-145.826157,,,
729861603.56706,0.645287,0.613394,128.58958,0.000732,0.020721,0.979736,-0.076822,0.071595,-0.00722,65.923965,34.053558,-145.826157,,,
729861603.570394,0.62271,0.64441,128.587762,0.000732,0.020721,0.979736,-0.079127,0.108518,-0.010741,65.923965,34.053558,-145.826157,,,
729861603.573754,0.62271,0.64441,128.587762,0.000732,0.020721,0.979736,-0.079127,0.108518,-0.010741,65.923965,34.053558,-145.826157,,,
729861603.57709,0.598064,0.68466,128.586897,-0.005615,0.014862,0.978394,-0.079127,0.108518,-0.010741,65.923965,34.053558,-145.826157,,,
729861603.58039,0.578656,0.722601,128.587465,-0.005615,0.014862,0.978394,-0.069727,0.130291,-0.002028,65.923965,34.053558,-145.826157,,,
729861603.583751,0.578656,0.722601,128.587465,-0.005615,0.014862,0.978394,-0.069727,0.130291,-0.002028,65.923965,34.053558,-145.826157,,,
729861603.587077,0.561814,0.768697,128.589331,-0.017731,0.007706,0.985489,-0.069727,0.130291,-0.002028,65.923965,34.053558,-145.826157,,,
729861603.590364,0.549822,0.809745,128.592656,-0.017731,0.007706,0.985489,-0.048079,0.146938,0.009069,65.923965,34.053558,-145.826157,,,
729861603.593733,0.549822,0.809745,128.592656,-0.017731,0.007706,0.985489,-0.048079,0.146938,0.009069,65.923965,34.053558,-145.826157,,,
729861603.597049,0.542581,0.852613,128.597998,-0.029022,0.003754,0.996475,-0.048079,0.146938,0.009069,65.923965,34.053558,-145.826157,,,
729861603.600392,0.536522,0.882945,128.605975,-0.029022,0.003754,0.996475,-0.023574,0.116583,0.024829,65.923965,34.053558,-145.826157,,,
729861603.603725,0.536522,0.882945,128.605975,-0.029022,0.003754,0.996475,-0.023574,0.116583,0.024829,66.137787,33.991608,-145.770386,,,
729861603.607163,0.534312,0.90533,128.616118,-0.041122,0.004364,0.987076,-0.023574,0.116583,0.024829,66.137787,33.991608,-145.770386,,,
729861603.610443,0.530598,0.913432,128.627141,-0.041122,0.004364,0.987076,-0.012101,0.041949,0.037841,66.137787,33.991608,-145.770386,,,
729861603.613751,0.530598,0.913432,128.627141,-0.041122,0.004364,0.987076,-0.012101,0.041949,0.037841,66.137787,33.991608,-145.770386,,,
729861603.617064,0.529239,0.909738,128.638209,-0.044235,0.007599,0.967575,-0.012101,0.041949,0.037841,66.137787,33.991608,-145.770386,,,
729861603.620393,0.52486,0.895479,128.648604,-0.044235,0.007599,0.967575,-0.014703,-0.038055,0.034621,66.137787,33.991608,-145.770386,,,
729861603.623723,0.52486,0.895479,128.648604,-0.044235,0.007599,0.967575,-0.014703,-0.038055,0.034621,66.137787,33.991608,-145.770386,,,
729861603.627074,0.522342,0.870821,128.657904,-0.035263,0.011688,0.966949,-0.014703,-0.038055,0.034621,66.137787,33.991608,-145.770386,,,
729861603.630384,0.51665,0.84356,128.665676,-0.035263,0.011688,0.966949,-0.017167,-0.091528,0.028569,66.137787,33.991608,-145.770386,,,
729861603.633719,0.51665,0.84356,128.665676,-0.035263,0.011688,0.966949,-0.017167,-0.091528,0.028569,66.137787,33.991608,-145.770386,,,
729861603.637055,0.512783,0.810402,128.672016,-0.024811,0.011826,0.981155,-0.017167,-0.091528,0.028569,66.137787,33.991608,-145.770386,,,
729861603.640392,0.505353,0.78067,128.677497,-0.024811,0.011826,0.981155,-0.02597,-0.1041,0.018833,66.137787,33.991608,-145.770386,,,
729861603.64371,0.505353,0.78067,128.677497,-0.024811,0.011826,0.981155,-0.02597,-0.1041,0.018833,66.01268,34.213577,-145.894821,,,
729861603.647071,0.496966,0.751755,128.683367,-0.014587,0.011078,0.994904,-0.02597,-0.1041,0.018833,66.01268,34.213577,-145.894821,,,
729861603.65041,0.484398,0.731872,128.689987,-0.014587,0.011078,0.994904,-0.042603,-0.072615,0.020882,66.01268,34.213577,-145.894821,,,
729861603.65373,0.484398,0.731872,128.689987,-0.014587,0.011078,0.994904,-0.042603,-0.072615,0.020882,66.01268,34.213577,-145.894821,,,
729861603.65715,0.47023,0.71835,128.697565,-0.009491,0.007339,1.006241,-0.042603,-0.072615,0.020882,66.01268,34.213577,-145.894821,,,
729861603.660383,0.452381,0.712832,128.706821,-0.009491,0.007339,1.006241,-0.058923,-0.0234,0.028838,66.01268,34.213577,-145.894821,,,
729861603.663742,0.452381,0.712832,128.706821,-0.009491,0.007339,1.006241,-0.058923,-0.0234,0.028838,66.01268,34.213577,-145.894821,,,
729861603.667055,0.431733,0.717836,128.717361,-0.009079,0.005798,1.014282,-0.058923,-0.0234,0.028838,66.01268,34.213577,-145.894821,,,
729861603.67039,0.408641,0.727176,128.728397,-0.009079,0.005798,1.014282,-0.076677,0.032,0.035081,66.01268,34.213577,-145.894821,,,
729861603.67373,0.408641,0.727176,128.728397,-0.009079,0.005798,1.014282,-0.076677,0.032,0.035081,66.01268,34.213577,-145.894821,,,
729861603.677066,0.382914,0.747976,128.739977,-0.005646,0.008484,1.019318,-0.076677,0.032,0.035081,66.01268,34.213577,-145.894821,,,
729861603.680389,0.357444,0.764929,128.751906,-0.005646,0.008484,1.019318,-0.089163,0.061288,0.039924,66.01268,34.213577,-145.894821,,,
729861603.683718,0.357444,0.764929,128.751906,-0.005646,0.008484,1.019318,-0.089163,0.061288,0.039924,66.01268,34.213577,-145.894821,,,
729861603.687059,0.332098,0.796165,128.763194,-0.000229,0.010025,1.019775,-0.089163,0.061288,0.039924,65.907669,34.124435,-145.801575,,,
729861603.69039,0.30983,0.815939,128.774057,-0.000229,0.010025,1.019775,-0.079616,0.072772,0.036145,65.907669,34.124435,-145.801575,,,
729861603.69373,0.30983,0.815939,128.774057,-0.000229,0.010025,1.019775,-0.079616,0.072772,0.036145,65.907669,34.124435,-145.801575,,,
729861603.697121,0.294912,0.848122,128.783722,0.005219,0.009689,1.025558,-0.079616,0.072772,0.036145,65.907669,34.124435,-145.801575,,,
729861603.700397,0.285892,0.869142,128.792194,0.005219,0.009689,1.025558,-0.037141,0.077814,0.030164,65.907669,34.124435,-145.801575,,,
729861603.703758,0.285892,0.869142,128.792194,0.005219,0.009689,1.025558,-0.037141,0.077814,0.030164,65.907669,34.124435,-145.801575,,,
729861603.707059,0.286429,0.896002,128.799592,0.005768,0.00351,1.043671,-0.037141,0.077814,0.030164,65.907669,34.124435,-145.801575,,,
729861603.710415,0.291644,0.916679,128.805375,0.005768,0.00351,1.043671,0.013671,0.073942,0.021261,65.907669,34.124435,-145.801575,,,
729861603.713735,0.291644,0.916679,128.805375,0.005768,0.00351,1.043671,0.013671,0.073942,0.021261,65.907669,34.124435,-145.801575,,,
729861603.717064,0.302849,0.93534,128.809806,0.004288,-0.001389,1.052429,0.013671,0.073942,0.021261,65.907669,34.124435,-145.801575,,,
729861603.720386,0.315097,0.947789,128.813151,0.004288,-0.001389,1.052429,0.04287,0.050018,0.012382,65.907669,34.124435,-145.801575,,,
729861603.723807,0.315097,0.947789,128.813151,0.004288,-0.001389,1.052429,0.04287,0.050018,0.012382,65.907669,34.124435,-145.801575,,,
729861603.72708,0.329013,0.953578,128.815411,-0.000427,-0.000504,1.035706,0.04287,0.050018,0.012382,66.473557,34.2229,-145.680756,,,
729861603.730389,0.341628,0.954735,128.817043,-0.000427,-0.000504,1.035706,0.044291,0.012022,0.007429,66.473557,34.2229,-145.680756,,,
729861603.733717,0.341628,0.954735,128.817043,-0.000427,-0.000504,1.035706,0.044291,0.012022,0.007429,66.473557,34.2229,-145.680756,,,
729861603.737133,0.354143,0.948119,128.818503,-0.008652,0.003098,1.015717,0.044291,0.012022,0.007429,66.473557,34.2229,-145.680756,,,
729861603.740374,0.366528,0.939384,128.820474,-0.008652,0.003098,1.015717,0.045314,-0.02423,0.004351,66.473557,34.2229,-145.680756,,,
729861603.743745,0.366528,0.939384,128.820474,-0.008652,0.003098,1.015717,0.045314,-0.02423,0.004351,66.473557,34.2229,-145.680756,,,
729861603.74707,0.378452,0.926755,128.822826,-0.01239,0.003098,1.007324,0.045314,-0.02423,0.004351,66.473557,34.2229,-145.680756,,,
729861603.750396,0.390773,0.916441,128.824907,-0.01239,0.003098,1.007324,0.042518,-0.035584,0.006638,66.473557,34.2229,-145.680756,,,
729861603.753738,0.390773,0.916441,128.824907,-0.01239,0.003098,1.007324,0.042518,-0.035584,0.006638,66.473557,34.2229,-145.680756,,,
729861603.757057,0.403478,0.903952,128.826907,-0.012878,0.004715,1.012238,0.042518,-0.035584,0.006638,66.473557,34.2229,-145.680756,,,
729861603.760385,0.415084,0.897192,128.828816,-0.012878,0.004715,1.012238,0.042668,-0.022344,0.008102,66.473557,34.2229,-145.680756,,,
729861603.763722,0.415084,0.897192,128.828816,-0.012878,0.004715,1.012238,0.042668,-0.022344,0.008102,66.473557,34.2229,-145.680756,,,
729861603.767075,0.427975,0.887872,128.830269,-0.009796,0.000977,1.019318,0.042668,-0.022344,0.008102,66.196594,34.167603,-145.748108,,,
729861603.770386,0.440853,0.887952,128.830717,-0.009796,0.000977,1.019318,0.046395,-0.001634,0.002495,66.196594,34.167603,-145.748108,,,
729861603.773763,0.440853,0.887952,128.830717,-0.009796,0.000977,1.019318,0.046395,-0.001634,0.002495,66.196594,34.167603,-145.748108,,,
729861603.777156,0.45424,0.886971,128.829986,-0.00412,0.003387,1.019653,0.046395,-0.001634,0.002495,66.196594,34.167603,-145.748108,,,
729861603.780381,0.467387,0.894844,128.828372,-0.00412,0.003387,1.019653,0.044194,0.024778,-0.00424,66.196594,34.167603,-145.748108,,,
729861603.783732,0.467387,0.894844,128.828372,-0.00412,0.003387,1.019653,0.044194,0.024778,-0.00424,66.196594,34.167603,-145.748108,,,
729861603.787139,0.478908,0.902113,128.826322,-0.002609,0.006149,1.019073,0.044194,0.024778,-0.00424,66.196594,34.167603,-145.748108,,,
729861603.790385,0.491877,0.915481,128.824325,-0.002609,0.006149,1.019073,0.043493,0.050603,-0.005402,66.196594,34.167603,-145.748108,,,
729861603.793734,0.491877,0.915481,128.824325,-0.002609,0.006149,1.019073,0.043493,0.050603,-0.005402,66.196594,34.167603,-145.748108,,,
729861603.797068,0.504036,0.926443,128.82257,-0.008087,0.007492,1.009918,0.043493,0.050603,-0.005402,66.196594,34.167603,-145.748108,,,
729861603.80048,0.518089,0.941018,128.820794,-0.008087,0.007492,1.009918,0.049055,0.052402,-0.004389,66.196594,34.167603,-145.748108,,,
729861603.803716,0.518089,0.941018,128.820794,-0.008087,0.007492,1.009918,0.049055,0.052402,-0.004389,66.196594,34.167603,-145.748108,,,
729861603.807095,0.531866,0.952869,128.818941,-0.014908,0.006851,1.001633,0.049055,0.052402,-0.004389,66.196594,34.167603,-145.748108,,,
729861603.810388,0.548062,0.965222,128.816768,-0.014908,0.006851,1.001633,0.054562,0.048027,-0.008134,66.418625,34.038666,-145.885422,,,
729861603.81372,0.548062,0.965222,128.816768,-0.014908,0.006851,1.001633,0.054562,0.048027,-0.008134,66.418625,34.038666,-145.885422,,,
729861603.817058,0.563692,0.973207,128.814834,-0.019653,0.005676,0.996765,0.054562,0.048027,-0.008134,66.418625,34.038666,-145.885422,,,
729861603.820391,0.579917,0.978101,128.812898,-0.019653,0.005676,0.996765,0.057496,0.024317,-0.006903,66.418625,34.038666,-145.885422,,,
729861603.823735,0.579917,0.978101,128.812898,-0.019653,0.005676,0.996765,0.057496,0.024317,-0.006903,66.418625,34.038666,-145.885422,,,
729861603.827119,0.593072,0.97678,128.810841,-0.021896,0.004776,0.98317,0.057496,0.024317,-0.006903,66.418625,34.038666,-145.885422,,,
729861603.830384,0.605296,0.97054,128.808857,-0.021896,0.004776,0.98317,0.043814,-0.012789,-0.006867,66.418625,34.038666,-145.885422,,,
729861603.833716,0.605296,0.97054,128.808857,-0.021896,0.004776,0.98317,0.043814,-0.012789,-0.006867,66.418625,34.038666,-145.885422,,,
729861603.83708,0.612818,0.958134,128.806277,-0.025421,0.0065,0.967255,0.043814,-0.012789,-0.006867,66.418625,34.038666,-145.885422,,,
729861603.84039,0.617727,0.94445,128.802597,-0.025421,0.0065,0.967255,0.018335,-0.04318,-0.012736,66.418625,34.038666,-145.885422,,,
729861603.843737,0.617727,0.94445,128.802597,-0.025421,0.0065,0.967255,0.018335,-0.04318,-0.012736,66.418625,34.038666,-145.885422,,,
729861603.847066,0.616048,0.927306,128.798285,-0.020981,0.010086,0.95932,0.018335,-0.04318,-0.012736,66.418625,34.038666,-145.885422,,,
729861603.85039,0.611446,0.911583,128.794163,-0.020981,0.010086,0.95932,-0.011501,-0.051314,-0.015689,66.535385,33.99321,-146.044678,,,
729861603.853801,0.611446,0.911583,128.794163,-0.020981,0.010086,0.95932,-0.011501,-0.051314,-0.015689,66.535385,33.99321,-146.044678,,,
729861603.857063,0.601827,0.893272,128.790644,-0.020874,0.013779,0.961823,-0.011501,-0.051314,-0.015689,66.535385,33.99321,-146.044678,,,
729861603.860384,0.590561,0.880474,128.787292,-0.020874,0.013779,0.961823,-0.039332,-0.043151,-0.015038,66.535385,33.99321,-146.044678,,,
729861603.863739,0.590561,0.880474,128.787292,-0.020874,0.013779,0.961823,-0.039332,-0.043151,-0.015038,66.535385,33.99321,-146.044678,,,
729861603.86705,0.576363,0.868826,128.78398,-0.018173,0.011536,0.971802,-0.039332,-0.043151,-0.015038,66.535385,33.99321,-146.044678,,,
729861603.870384,0.562862,0.86514,128.780795,-0.018173,0.011536,0.971802,-0.047635,-0.01358,-0.014377,66.535385,33.99321,-146.044678,,,
729861603.873733,0.562862,0.86514,128.780795,-0.018173,0.011536,0.971802,-0.047635,-0.01358,-0.014377,66.535385,33.99321,-146.044678,,,
729861603.877092,0.550099,0.865253,128.778279,-0.014221,0.009735,0.992798,-0.047635,-0.01358,-0.014377,66.535385,33.99321,-146.044678,,,
729861603.880395,0.54096,0.871798,128.777107,-0.014221,0.009735,0.992798,-0.034549,0.021482,-0.007816,66.535385,33.99321,-146.044678,,,
729861603.883722,0.54096,0.871798,128.777107,-0.014221,0.009735,0.992798,-0.034549,0.021482,-0.007816,66.535385,33.99321,-146.044678,,,
729861603.887076,0.534387,0.883719,128.777329,-0.017517,0.006104,1.011612,-0.034549,0.021482,-0.007816,66.535385,33.99321,-146.044678,,,
729861603.8904,0.532047,0.898804,128.778986,-0.017517,0.006104,1.011612,-0.010729,0.051641,0.003715,66.214691,34.117661,-145.637344,,,
729861603.893777,0.532047,0.898804,128.778986,-0.017517,0.006104,1.011612,-0.010729,0.051641,0.003715,66.214691,34.117661,-145.637344,,,
729861603.897069,0.532592,0.918419,128.782065,-0.020554,0.000153,1.018097,-0.010729,0.051641,0.003715,66.214691,34.117661,-145.637344,,,
729861603.900428,0.538626,0.937097,128.786128,-0.020554,0.000153,1.018097,0.018077,0.068217,0.013681,66.214691,34.117661,-145.637344,,,
729861603.903724,0.538626,0.937097,128.786128,-0.020554,0.000153,1.018097,0.018077,0.068217,0.013681,66.214691,34.117661,-145.637344,,,
729861603.907103,0.547155,0.956889,128.790198,-0.023422,-0.000839,1.021698,0.018077,0.068217,0.013681,66.214691,34.117661,-145.637344,,,
729861603.910389,0.559705,0.971333,128.793862,-0.023422,-0.000839,1.021698,0.044181,0.054879,0.012996,66.214691,34.117661,-145.637344,,,
729861603.913744,0.559705,0.971333,128.793862,-0.023422,-0.000839,1.021698,0.044181,0.054879,0.012996,66.214691,34.117661,-145.637344,,,
729861603.917054,0.574887,0.985026,128.79716,-0.025711,0.001541,1.009964,0.044181,0.054879,0.012996,66.214691,34.117661,-145.637344,,,
729861603.92046,0.591774,0.992784,128.800065,-0.025711,0.001541,1.009964,0.057985,0.033069,0.01105,66.214691,34.117661,-145.637344,,,
729861603.923718,0.591774,0.992784,128.800065,-0.025711,0.001541,1.009964,0.057985,0.033069,0.01105,66.214691,34.117661,-145.637344,,,
729861603.927071,0.608254,0.998606,128.803005,-0.027222,0.00441,1.000458,0.057985,0.033069,0.01105,66.214691,34.117661,-145.637344,,,
729861603.930524,0.622733,0.997416,128.806891,-0.027222,0.00441,1.000458,0.051401,0.004198,0.010905,66.473709,34.145233,-145.558075,,,
729861603.933733,0.622733,0.997416,128.806891,-0.027222,0.00441,1.000458,0.051401,0.004198,0.010905,66.473709,34.145233,-145.558075,,,
729861603.93706,0.635734,0.992294,128.811714,-0.031174,0.005417,0.989792,0.051401,0.004198,0.010905,66.473709,34.145233,-145.558075,,,
729861603.940385,0.643942,0.980152,128.817258,-0.031174,0.005417,0.989792,0.031722,-0.035278,0.018634,66.473709,34.145233,-145.558075,,,
729861603.943825,0.643942,0.980152,128.817258,-0.031174,0.005417,0.989792,0.031722,-0.035278,0.018634,66.473709,34.145233,-145.558075,,,
729861603.947075,0.648255,0.963249,128.823513,-0.035446,0.008484,0.975769,0.031722,-0.035278,0.018634,66.473709,34.145233,-145.558075,,,
729861603.950393,0.648544,0.942695,128.829483,-0.035446,0.008484,0.975769,0.004434,-0.067524,0.023342,66.473709,34.145233,-145.558075,,,
729861603.95374,0.648544,0.942695,128.829483,-0.035446,0.008484,0.975769,0.004434,-0.067524,0.023342,66.473709,34.145233,-145.558075,,,
729861603.957125,0.644123,0.91871,128.834866,-0.028732,0.011887,0.970581,0.004434,-0.067524,0.023342,66.473709,34.145233,-145.558075,,,
729861603.96038,0.636368,0.893534,128.839035,-0.028732,0.011887,0.970581,-0.024117,-0.086535,0.015113,66.473709,34.145233,-145.558075,,,
729861603.963737,0.636368,0.893534,128.839035,-0.028732,0.011887,0.970581,-0.024117,-0.086535,0.015113,66.473709,34.145233,-145.558075,,,
729861603.967143,0.623479,0.868818,128.841992,-0.015366,0.016418,0.971664,-0.024117,-0.086535,0.015113,66.473709,34.145233,-145.558075,,,
729861603.970377,0.609742,0.844757,128.844126,-0.015366,0.016418,0.971664,-0.046031,-0.08087,0.003672,66.473709,34.145233,-145.558075,,,
729861603.973729,0.609742,0.844757,128.844126,-0.015366,0.016418,0.971664,-0.046031,-0.08087,0.003672,66.252136,33.974075,-146.02301,,,
729861603.977059,0.591138,0.825837,128.845191,-0.004684,0.016556,0.975723,-0.046031,-0.08087,0.003672,66.252136,33.974075,-146.02301,,,
729861603.980387,0.573929,0.809211,128.845873,-0.004684,0.016556,0.975723,-0.058371,-0.059289,0.001028,66.252136,33.974075,-146.02301,,,
729861603.983719,0.573929,0.809211,128.845873,-0.004684,0.016556,0.975723,-0.058371,-0.059289,0.001028,66.252136,33.974075,-146.02301,,,
729861603.987056,0.553888,0.800538,128.846001,0.003235,0.015671,0.987015,-0.058371,-0.059289,0.001028,66.252136,33.974075,-146.02301,,,
729861603.990391,0.536901,0.794581,128.845245,0.003235,0.015671,0.987015,-0.062016,-0.022721,-0.004079,66.252136,33.974075,-146.02301,,,
729861603.993732,0.536901,0.794581,128.845245,0.003235,0.015671,0.987015,-0.062016,-0.022721,-0.004079,66.252136,33.974075,-146.02301,,,
729861603.99711,0.519202,0.798797,128.843505,0.008011,0.011322,0.999176,-0.062016,-0.022721,-0.004079,66.252136,33.974075,-146.02301,,,
729861604.000397,0.506534,0.803266,128.841204,0.008011,0.011322,0.999176,-0.046801,0.013659,-0.010272,66.252136,33.974075,-146.02301,,,
729861604.00374,0.506534,0.803266,128.841204,0.008011,0.011322,0.999176,-0.046801,0.013659,-0.010272,66.252136,33.974075,-146.02301,,,
729861604.007058,0.497313,0.818184,128.838486,0.010559,0.004578,1.01326,-0.046801,0.013659,-0.010272,66.252136,33.974075,-146.02301,,,
729861604.010422,0.494071,0.830896,128.836157,0.010559,0.004578,1.01326,-0.015746,0.045505,-0.009746,66.252136,33.974075,-146.02301,,,
729861604.013784,0.494071,0.830896,128.836157,0.010559,0.004578,1.01326,-0.015746,0.045505,-0.009746,66.233597,34.343719,-145.86293,,,
729861604.017081,0.493981,0.854125,128.834281,0.0056,-0.001892,1.021973,-0.015746,0.045505,-0.009746,66.233597,34.343719,-145.86293,,,
729861604.020453,0.498293,0.870821,128.833188,0.0056,-0.001892,1.021973,0.015837,0.060281,-0.005911,66.233597,34.343719,-145.86293,,,
729861604.023794,0.498293,0.870821,128.833188,0.0056,-0.001892,1.021973,0.015837,0.060281,-0.005911,66.233597,34.343719,-145.86293,,,
729861604.027071,0.50655,0.895412,128.833095,-0.000397,-0.005859,1.01799,0.015837,0.060281,-0.005911,66.233597,34.343719,-145.86293,,,
729861604.030489,0.51521,0.910303,128.833488,-0.000397,-0.005859,1.01799,0.033342,0.058332,0.000954,66.233597,34.343719,-145.86293,,,
729861604.03371,0.51521,0.910303,128.833488,-0.000397,-0.005859,1.01799,0.033342,0.058332,0.000954,66.233597,34.343719,-145.86293,,,
729861604.037053,0.524484,0.925734,128.833703,-0.009521,0.000427,1.000732,0.033342,0.058332,0.000954,66.233597,34.343719,-145.86293,,,
729861604.040388,0.529905,0.933761,128.833736,-0.009521,0.000427,1.000732,0.024967,0.033517,-6.6e-05,66.233597,34.343719,-145.86293,,,
729861604.043735,0.529905,0.933761,128.833736,-0.009521,0.000427,1.000732,0.024967,0.033517,-6.6e-05,66.233597,34.343719,-145.86293,,,
729861604.047125,0.535175,0.935341,128.833115,-0.012314,0.010452,0.975739,0.024967,0.033517,-6.6e-05,66.233597,34.343719,-145.86293,,,
729861604.050397,0.534647,0.934871,128.831767,-0.012314,0.010452,0.975739,0.002609,0.004926,-0.003798,66.233597,34.343719,-145.86293,,,
729861604.053714,0.534647,0.934871,128.831767,-0.012314,0.010452,0.975739,0.002609,0.004926,-0.003798,66.316727,34.116135,-145.661469,,,
729861604.057059,0.53314,0.925397,128.829767,-0.011597,0.015732,0.959396,0.002609,0.004926,-0.003798,66.316727,34.116135,-145.661469,,,
729861604.060395,0.526173,0.917663,128.826742,-0.011597,0.015732,0.959396,-0.018221,-0.022424,-0.008827,66.316727,34.116135,-145.661469,,,
729861604.06377,0.526173,0.917663,128.826742,-0.011597,0.015732,0.959396,-0.018221,-0.022424,-0.008827,66.316727,34.116135,-145.661469,,,
729861604.067074,0.518262,0.899992,128.822355,-0.011688,0.015411,0.959167,-0.018221,-0.022424,-0.008827,66.316727,34.116135,-145.661469,,,
729861604.070416,0.506835,0.888828,128.815583,-0.011688,0.015411,0.959167,-0.040516,-0.036761,-0.021792,66.316727,34.116135,-145.661469,,,
729861604.073778,0.506835,0.888828,128.815583,-0.011688,0.015411,0.959167,-0.040516,-0.036761,-0.021792,66.316727,34.116135,-145.661469,,,
729861604.077053,0.493641,0.87123,128.806415,-0.007202,0.016098,0.969131,-0.040516,-0.036761,-0.021792,66.316727,34.116135,-145.661469,,,
729861604.080473,0.479537,0.862442,128.79533,-0.007202,0.016098,0.969131,-0.047767,-0.031348,-0.038655,66.316727,34.116135,-145.661469,,,
729861604.083714,0.479537,0.862442,128.79533,-0.007202,0.016098,0.969131,-0.047767,-0.031348,-0.038655,66.316727,34.116135,-145.661469,,,
729861604.087059,0.463806,0.849196,128.783481,-0.007553,0.0121,0.982971,-0.047767,-0.031348,-0.038655,66.316727,34.116135,-145.661469,,,
729861604.09044,0.450446,0.843206,128.771592,-0.007553,0.0121,0.982971,-0.047043,-0.019378,-0.042921,66.316727,34.116135,-145.661469,,,
729861604.093709,0.450446,0.843206,128.771592,-0.007553,0.0121,0.982971,-0.047043,-0.019378,-0.042921,66.283981,34.289154,-146.0345,,,
729861604.097137,0.43691,0.832526,128.76082,-0.014786,0.003693,0.995041,-0.047043,-0.019378,-0.042921,66.283981,34.289154,-146.0345,,,
729861604.100418,0.43691,0.828836,128.751431,-0.014786,0.003693,0.995041,-0.027968,-0.010218,-0.036182,66.283981,34.289154,-146.0345,,,
729861604.10372,0.429527,0.828836,128.751431,-0.014786,0.003693,0.995041,-0.027968,-0.010218,-0.036182,66.283981,34.289154,-146.0345,,,
729861604.107063,0.422037,0.823795,128.744186,-0.0271,-0.001022,1.005814,-0.027968,-0.010218,-0.036182,66.283981,34.289154,-146.0345,,,
729861604.110462,0.421611,0.824973,128.739517,-0.0271,-0.001022,1.005814,-0.002793,0.004153,-0.02269,66.283981,34.289154,-146.0345,,,
729861604.113757,0.421611,0.824973,128.739517,-0.0271,-0.001022,1.005814,-0.002793,0.004153,-0.02269,66.283981,34.289154,-146.0345,,,
729861604.117072,0.423512,0.827345,128.736898,-0.03241,-0.006821,1.014297,-0.002793,0.004153,-0.02269,66.283981,34.289154,-146.0345,,,
729861604.120423,0.423512,0.827345,128.736898,-0.03241,-0.006821,1.014297,0.01716,0.022185,-0.004443,66.283981,34.289154,-146.0345,,,
729861604.123787,0.428713,0.83231,128.736999,-0.03241,-0.006821,1.014297,0.01716,0.022185,-0.004443,66.283981,34.289154,-146.0345,,,
729861604.12706,0.436696,0.837301,128.739904,-0.035172,-0.00618,1.012192,0.01716,0.022185,-0.004443,66.283981,34.289154,-146.0345,,,
729861604.130451,0.442524,0.841824,128.744581,-0.035172,-0.00618,1.012192,0.022071,0.020246,0.012784,66.283981,34.289154,-146.0345,,,
729861604.133749,0.442524,0.841824,128.744581,-0.035172,-0.00618,1.012192,0.022071,0.020246,0.012784,66.283981,34.289154,-146.0345,,,
729861604.137119,0.448657,0.842599,128.749418,-0.034576,-0.00148,0.995682,0.022071,0.020246,0.012784,66.311783,34.177475,-145.981598,,,
729861604.140386,0.448657,0.842599,128.749418,-0.034576,-0.00148,0.995682,0.022071,0.020246,0.012784,66.311783,34.177475,-145.981598,,,
729861604.143728,0.447123,0.841427,128.753071,-0.034576,-0.00148,0.995682,-0.000978,0.00136,0.013698,66.311783,34.177475,-145.981598,,,
729861604.147108,0.442994,0.835015,128.754991,-0.02681,0.009338,0.973953,-0.000978,0.00136,0.013698,66.311783,34.177475,-145.981598,,,
729861604.15044,0.442994,0.835015,128.754991,-0.02681,0.009338,0.973953,-0.037004,-0.02502,0.000846,66.311783,34.177475,-145.981598,,,
729861604.153729,0.431064,0.825407,128.75453,-0.02681,0.009338,0.973953,-0.037004,-0.02502,0.000846,66.311783,34.177475,-145.981598,,,
729861604.157063,0.416452,0.806229,128.752434,-0.020294,0.018875,0.962097,-0.037004,-0.02502,0.000846,66.311783,34.177475,-145.981598,,,
729861604.160454,0.416452,0.806229,128.752434,-0.020294,0.018875,0.962097,-0.037004,-0.02502,0.000846,66.311783,34.177475,-145.981598,,,
729861604.163827,0.395048,0.780822,128.749515,-0.020294,0.018875,0.962097,-0.070526,-0.078421,-0.011048,66.311783,34.177475,-145.981598,,,
729861604.167054,0.371177,0.744435,128.74601,-0.021225,0.016815,0.951874,-0.070526,-0.078421,-0.011048,66.311783,34.177475,-145.981598,,,
729861604.170387,0.371177,0.744435,128.74601,-0.021225,0.016815,0.951874,-0.070526,-0.078421,-0.011048,66.311783,34.177475,-145.981598,,,
729861604.173722,0.345242,0.69958,128.742016,-0.021225,0.016815,0.951874,-0.091318,-0.145523,-0.015111,66.311783,34.177475,-145.981598,,,
729861604.177056,0.318042,0.649132,128.738228,-0.029694,0.01413,0.950485,-0.091318,-0.145523,-0.015111,65.995972,34.391769,-145.576813,,,
729861604.180464,0.318042,0.649132,128.738228,-0.029694,0.01413,0.950485,-0.091318,-0.145523,-0.015111,65.995972,34.391769,-145.576813,,,
729861604.183736,0.293064,0.59372,128.73428,-0.029694,0.01413,0.950485,-0.089859,-0.191546,-0.018041,65.995972,34.391769,-145.576813,,,
729861604.187123,0.270963,0.541185,128.73019,-0.029175,0.010132,0.965622,-0.089859,-0.191546,-0.018041,65.995972,34.391769,-145.576813,,,
729861604.190454,0.270963,0.541185,128.73019,-0.029175,0.010132,0.965622,-0.089859,-0.191546,-0.018041,65.995972,34.391769,-145.576813,,,
729861604.193729,0.255005,0.488118,128.726921,-0.029175,0.010132,0.965622,-0.060023,-0.185562,-0.014332,65.995972,34.391769,-145.576813,,,
729861604.197107,0.242515,0.443472,128.725442,-0.026093,-0.00206,0.989197,-0.060023,-0.185562,-0.014332,65.995972,34.391769,-145.576813,,,
729861604.200444,0.242515,0.443472,128.725442,-0.026093,-0.00206,0.989197,-0.060023,-0.185562,-0.014332,65.995972,34.391769,-145.576813,,,
729861604.203728,0.236525,0.40096,128.726465,-0.026093,-0.00206,0.989197,-0.025519,-0.153222,-0.000756,65.995972,34.391769,-145.576813,,,
729861604.207058,0.232591,0.373559,128.729705,-0.026535,-0.00679,1.001587,-0.025519,-0.153222,-0.000756,65.995972,34.391769,-145.576813,,,
729861604.210435,0.232591,0.373559,128.729705,-0.026535,-0.00679,1.001587,-0.025519,-0.153222,-0.000756,65.995972,34.391769,-145.576813,,,
729861604.213799,0.230977,0.351485,128.735778,-0.026535,-0.00679,1.001587,-0.00343,-0.082393,0.017097,65.995972,34.391769,-145.576813,,,
729861604.217076,0.228203,0.346754,128.745954,-0.026047,-0.008698,1.010605,-0.00343,-0.082393,0.017097,65.824249,34.497086,-145.588837,,,
729861604.220399,0.228203,0.346754,128.745954,-0.026047,-0.008698,1.010605,-0.00343,-0.082393,0.017097,65.824249,34.497086,-145.588837,,,
729861604.223727,0.223531,0.345805,128.760117,-0.026047,-0.008698,1.010605,-0.012088,-0.009932,0.043141,65.824249,34.497086,-145.588837,,,
729861604.227053,0.217968,0.360826,128.777576,-0.028091,-0.006836,1.006104,-0.012088,-0.009932,0.043141,65.824249,34.497086,-145.588837,,,
729861604.230533,0.217968,0.360826,128.777576,-0.028091,-0.006836,1.006104,-0.012088,-0.009932,0.043141,65.824249,34.497086,-145.588837,,,
729861604.233736,0.206438,0.379605,128.797702,-0.028091,-0.006836,1.006104,-0.035423,0.060208,0.068384,65.824249,34.497086,-145.588837,,,
729861604.237092,0.196128,0.411954,128.818819,-0.02095,-0.001694,0.999466,-0.035423,0.060208,0.068384,65.824249,34.497086,-145.588837,,,
729861604.240356,0.196128,0.411954,128.818819,-0.02095,-0.001694,0.999466,-0.035423,0.060208,0.068384,65.824249,34.497086,-145.588837,,,
729861604.24376,0.177588,0.44625,128.839804,-0.02095,-0.001694,0.999466,-0.066686,0.120076,0.073495,65.824249,34.497086,-145.588837,,,
729861604.247102,0.160128,0.490315,128.859368,-0.008865,0.006775,0.99791,-0.066686,0.120076,0.073495,65.824249,34.497086,-145.588837,,,
729861604.250385,0.160128,0.490315,128.859368,-0.008865,0.006775,0.99791,-0.066686,0.120076,0.073495,65.824249,34.497086,-145.588837,,,
729861604.253653,0.135778,0.528345,128.876803,-0.008865,0.006775,0.99791,-0.081505,0.13653,0.060455,65.824249,34.497086,-145.588837,,,
729861604.257018,0.112833,0.573632,128.892369,0.000214,0.012756,0.9935,-0.081505,0.13653,0.060455,65.824249,34.497086,-145.588837,,,
729861604.260314,0.112833,0.573632,128.892369,0.000214,0.012756,0.9935,-0.081505,0.13653,0.060455,65.95929,34.531586,-146.065002,,,
729861604.263695,0.085628,0.606911,128.905853,0.000214,0.012756,0.9935,-0.094846,0.123073,0.046794,65.95929,34.531586,-146.065002,,,
729861604.266987,0.059626,0.641197,128.917362,0.001434,0.012405,0.987961,-0.094846,0.123073,0.046794,65.95929,34.531586,-146.065002,,,
729861604.270317,0.059626,0.641197,128.917362,0.001434,0.012405,0.987961,-0.094846,0.123073,0.046794,65.95929,34.531586,-146.065002,,,
729861604.273663,0.033853,0.664855,128.927968,0.001434,0.012405,0.987961,-0.091112,0.09082,0.034433,65.95929,34.531586,-146.065002,,,
729861604.276985,0.009005,0.687172,128.938053,-0.001953,0.007751,0.989639,-0.091112,0.09082,0.034433,65.95929,34.531586,-146.065002,,,
729861604.28034,0.009005,0.687172,128.938053,-0.001953,0.007751,0.989639,-0.091112,0.09082,0.034433,65.95929,34.531586,-146.065002,,,
729861604.283651,-0.013255,0.698875,128.948113,-0.001953,0.007751,0.989639,-0.075389,0.050263,0.034841,65.95929,34.531586,-146.065002,,,
729861604.286983,-0.036286,0.706427,128.959013,-0.01001,0.001907,0.995743,-0.075389,0.050263,0.034841,65.95929,34.531586,-146.065002,,,
729861604.290329,-0.036286,0.706427,128.959013,-0.01001,0.001907,0.995743,-0.075389,0.050263,0.034841,65.95929,34.531586,-146.065002,,,
729861604.293664,-0.056124,0.701966,128.97053,-0.01001,0.001907,0.995743,-0.06919,-0.004777,0.036029,65.95929,34.531586,-146.065002,,,
729861604.297024,-0.076319,0.693556,128.98209,-0.012787,-0.003876,0.995331,-0.06919,-0.004777,0.036029,65.95929,34.531586,-146.065002,,,
729861604.300332,-0.076319,0.693556,128.98209,-0.012787,-0.003876,0.995331,-0.06919,-0.004777,0.036029,66.08876,34.806259,-146.069336,,,
729861604.303695,-0.093194,0.673012,128.993482,-0.012787,-0.003876,0.995331,-0.06032,-0.063941,0.037516,66.08876,34.806259,-146.069336,,,
729861604.306988,-0.108888,0.651889,129.003695,-0.00975,-0.004486,0.995056,-0.06032,-0.063941,0.037516,66.08876,34.806259,-146.069336,,,
729861604.310363,-0.108888,0.651889,129.003695,-0.00975,-0.004486,0.995056,-0.06032,-0.063941,0.037516,66.08876,34.806259,-146.069336,,,
729861604.313694,-0.122614,0.622779,129.012344,-0.00975,-0.004486,0.995056,-0.049739,-0.097397,0.031138,66.08876,34.806259,-146.069336,,,
729861604.317105,-0.133876,0.595698,129.02019,-0.000122,-0.003021,1.011276,-0.049739,-0.097397,0.031138,66.08876,34.806259,-146.069336,,,
729861604.320379,-0.133876,0.595698,129.02019,-0.000122,-0.003021,1.011276,-0.049739,-0.097397,0.031138,66.08876,34.806259,-146.069336,,,
729861604.323649,-0.1446,0.568996,129.027481,-0.000122,-0.003021,1.011276,-0.039317,-0.098829,0.022608,66.08876,34.806259,-146.069336,,,
729861604.326989,-0.149583,0.545827,129.03441,0.009796,-0.005844,1.02507,-0.039317,-0.098829,0.022608,66.08876,34.806259,-146.069336,,,
729861604.329988,-0.149583,0.545827,129.03441,0.009796,-0.005844,1.02507,-0.039317,-0.098829,0.022608,66.08876,34.806259,-146.069336,,,
729861604.333709,-0.157196,0.532881,129.041058,0.009796,-0.005844,1.02507,-0.026054,-0.050287,0.022822,66.08876,34.806259,-146.069336,,,
729861604.336981,-0.158651,0.525324,129.047296,0.018219,-0.006607,1.039337,-0.026054,-0.050287,0.022822,66.08876,34.806259,-146.069336,,,
729861604.340323,-0.158651,0.525324,129.047296,0.018219,-0.006607,1.039337,-0.026054,-0.050287,0.022822,66.01123,34.731506,-145.607224,,,
729861604.343657,-0.165103,0.531762,129.053249,0.018219,-0.006607,1.039337,-0.022006,0.017916,0.023177,66.01123,34.731506,-145.607224,,,
729861604.347006,-0.168298,0.543111,129.058428,0.023865,-0.004074,1.039978,-0.022006,0.017916,0.023177,66.01123,34.731506,-145.607224,,,
729861604.350316,-0.168298,0.543111,129.058428,0.023865,-0.004074,1.039978,-0.022006,0.017916,0.023177,66.01123,34.731506,-145.607224,,,
729861604.353654,-0.177797,0.565064,129.06262,0.023865,-0.004074,1.039978,-0.032676,0.076371,0.014113,66.01123,34.731506,-145.607224,,,
729861604.356989,-0.187313,0.588736,129.065899,0.025528,0.000702,1.023697,-0.032676,0.076371,0.014113,66.01123,34.731506,-145.607224,,,
729861604.360315,-0.187313,0.588736,129.065899,0.025528,0.000702,1.023697,-0.032676,0.076371,0.014113,66.01123,34.731506,-145.607224,,,
729861604.363697,-0.202275,0.614258,129.067946,0.025528,0.000702,1.023697,-0.049657,0.094324,0.006653,66.01123,34.731506,-145.607224,,,
729861604.366994,-0.218113,0.636838,129.0682,0.022202,0.002563,1.008942,-0.049657,0.094324,0.006653,66.01123,34.731506,-145.607224,,,
729861604.370353,-0.218113,0.636838,129.0682,0.022202,0.002563,1.008942,-0.049657,0.094324,0.006653,66.01123,34.731506,-145.607224,,,
729861604.37367,-0.237093,0.652957,129.066347,0.022202,0.002563,1.008942,-0.063327,0.066184,-0.005936,66.01123,34.731506,-145.607224,,,
729861604.376996,-0.256621,0.661778,129.062672,0.010727,0.000244,0.996765,-0.063327,0.066184,-0.005936,66.01123,34.731506,-145.607224,,,
729861604.380473,-0.256621,0.661778,129.062672,0.010727,0.000244,0.996765,-0.063327,0.066184,-0.005936,66.109344,34.877045,-145.754105,,,
729861604.383638,-0.274733,0.660525,129.057414,0.010727,0.000244,0.996765,-0.064905,0.00726,-0.021089,66.109344,34.877045,-145.754105,,,
729861604.386991,-0.290254,0.648655,129.050922,-0.001694,-0.004166,0.996307,-0.064905,0.00726,-0.021089,66.109344,34.877045,-145.754105,,,
729861604.390318,-0.290254,0.648655,129.050922,-0.001694,-0.004166,0.996307,-0.064905,0.00726,-0.021089,66.109344,34.877045,-145.754105,,,
729861604.393464,-0.302978,0.631387,129.0444,-0.001694,-0.004166,0.996307,-0.047922,-0.053035,-0.024152,66.109344,34.877045,-145.754105,,,
729861604.397044,-0.310785,0.603934,129.038471,-0.007812,-0.012817,1.006638,-0.047922,-0.053035,-0.024152,66.109344,34.877045,-145.754105,,,
729861604.400325,-0.310785,0.603934,129.038471,-0.007812,-0.012817,1.006638,-0.047922,-0.053035,-0.024152,66.109344,34.877045,-145.754105,,,
729861604.403663,-0.313543,0.580275,129.033531,-0.007812,-0.012817,1.006638,-0.014521,-0.080293,-0.020268,66.109344,34.877045,-145.754105,,,
729861604.406996,-0.310643,0.550033,129.030575,-0.015457,-0.020752,1.02562,-0.014521,-0.080293,-0.020268,66.109344,34.877045,-145.754105,,,
729861604.41032,-0.310643,0.550033,129.030575,-0.015457,-0.020752,1.02562,-0.014521,-0.080293,-0.020268,66.109344,34.877045,-145.754105,,,
729861604.413676,-0.302711,0.533881,129.030164,-0.015457,-0.020752,1.02562,0.025648,-0.059512,-0.004443,66.109344,34.877045,-145.754105,,,
729861604.416983,-0.290736,0.515662,129.032468,-0.020309,-0.026428,1.04274,0.025648,-0.059512,-0.004443,66.109344,34.877045,-145.754105,,,
729861604.420421,-0.290736,0.515662,129.032468,-0.020309,-0.026428,1.04274,0.025648,-0.059512,-0.004443,66.109344,34.877045,-145.754105,,,
729861604.423683,-0.275679,0.513956,129.037767,-0.020309,-0.026428,1.04274,0.04766,-0.008865,0.014743,65.944,35.074265,-145.761917,,,
729861604.427018,-0.259047,0.512526,129.044979,-0.019897,-0.026703,1.044281,0.04766,-0.008865,0.014743,65.944,35.074265,-145.761917,,,
729861604.430395,-0.259047,0.512526,129.044979,-0.019897,-0.026703,1.044281,0.04766,-0.008865,0.014743,65.944,35.074265,-145.761917,,,
729861604.433695,-0.243389,0.526049,129.053233,-0.019897,-0.026703,1.044281,0.056411,0.043443,0.025357,65.944,35.074265,-145.761917,,,
729861604.437011,-0.228519,0.538396,129.061297,-0.016342,-0.020401,1.033859,0.056411,0.043443,0.025357,65.944,35.074265,-145.761917,,,
729861604.440357,-0.228519,0.538396,129.061297,-0.016342,-0.020401,1.033859,0.056411,0.043443,0.025357,65.944,35.074265,-145.761917,,,
729861604.443693,-0.217043,0.560709,129.068465,-0.016342,-0.020401,1.033859,0.04352,0.078688,0.024183,65.944,35.074265,-145.761917,,,
729861604.447065,-0.20734,0.580584,129.074125,-0.007233,-0.010696,1.01915,0.04352,0.078688,0.024183,65.944,35.074265,-145.761917,,,
729861604.450318,-0.20734,0.580584,129.074125,-0.007233,-0.010696,1.01915,0.04352,0.078688,0.024183,65.944,35.074265,-145.761917,,,
729861604.453664,-0.200791,0.606115,129.077357,-0.007233,-0.010696,1.01915,0.024448,0.092264,0.012334,65.944,35.074265,-145.761917,,,
729861604.457008,-0.195172,0.627241,129.078116,-0.000916,-0.000671,1.008743,0.024448,0.092264,0.012334,65.944,35.074265,-145.761917,,,
729861604.460348,-0.195172,0.627241,129.078116,-0.000916,-0.000671,1.008743,0.024448,0.092264,0.012334,65.944,35.074265,-145.761917,,,
729861604.463726,-0.190905,0.647766,129.075906,-0.000916,-0.000671,1.008743,0.017809,0.076993,-0.003466,66.047501,35.073486,-145.753128,,,
729861604.467017,-0.187446,0.661884,129.07108,0.002258,0.004608,0.999161,0.017809,0.076993,-0.003466,66.047501,35.073486,-145.753128,,,
729861604.470429,-0.187446,0.661884,129.07108,0.002258,0.004608,0.999161,0.017809,0.076993,-0.003466,66.047501,35.073486,-145.753128,,,
729861604.473579,-0.183205,0.672267,129.064139,0.002258,0.004608,0.999161,0.01575,0.043074,-0.021627,66.047501,35.073486,-145.753128,,,
729861604.477149,-0.181049,0.677256,129.055053,0.002441,0.006561,0.993271,0.01575,0.043074,-0.021627,66.047501,35.073486,-145.753128,,,
729861604.480516,-0.181049,0.677256,129.055053,0.002441,0.006561,0.993271,0.01575,0.043074,-0.021627,66.047501,35.073486,-145.753128,,,
729861604.483795,-0.175207,0.676946,129.045059,0.002441,0.006561,0.993271,0.015893,0.008231,-0.037338,66.047501,35.073486,-145.753128,,,
729861604.487064,-0.169942,0.673364,129.03496,0.001129,0.003708,0.996262,0.015893,0.008231,-0.037338,66.047501,35.073486,-145.753128,,,
729861604.490358,-0.169942,0.673364,129.03496,0.001129,0.003708,0.996262,0.015893,0.008231,-0.037338,66.047501,35.073486,-145.753128,,,
729861604.493751,-0.156774,0.665364,129.024962,0.001129,0.003708,0.996262,0.041637,-0.021204,-0.037112,66.047501,35.073486,-145.753128,,,
729861604.497123,-0.142407,0.656878,129.015784,-0.005585,-0.002609,1.010178,0.041637,-0.021204,-0.037112,66.047501,35.073486,-145.753128,,,
729861604.500386,-0.142407,0.656878,129.015784,-0.005585,-0.002609,1.010178,0.041637,-0.021204,-0.037112,66.047501,35.073486,-145.753128,,,
729861604.503728,-0.117527,0.64572,129.007491,-0.005585,-0.002609,1.010178,0.084447,-0.036717,-0.030443,66.134415,34.750458,-145.732269,,,
729861604.507056,-0.094046,0.637203,128.999547,-0.010223,-0.010254,1.022217,0.084447,-0.036717,-0.030443,66.134415,34.750458,-145.732269,,,
729861604.510386,-0.094046,0.637203,128.999547,-0.010223,-0.010254,1.022217,0.084447,-0.036717,-0.030443,66.134415,34.750458,-145.732269,,,
729861604.513778,-0.064252,0.628019,128.992217,-0.010223,-0.010254,1.022217,0.105768,-0.030195,-0.026467,66.134415,34.750458,-145.732269,,,
729861604.517063,-0.03922,0.621474,128.985831,-0.009216,-0.007767,1.019165,0.105768,-0.030195,-0.026467,66.134415,34.750458,-145.732269,,,
729861604.520394,-0.03922,0.621474,128.985831,-0.009216,-0.007767,1.019165,0.105768,-0.030195,-0.026467,66.134415,34.750458,-145.732269,,,
729861604.523739,-0.01334,0.617289,128.980276,-0.009216,-0.007767,1.019165,0.095576,-0.014575,-0.021489,66.134415,34.750458,-145.732269,,,
729861604.527052,0.007895,0.613496,128.976104,-0.013397,-0.001862,1.003601,0.095576,-0.014575,-0.021489,66.134415,34.750458,-145.732269,,,
729861604.530462,0.007895,0.613496,128.976104,-0.013397,-0.001862,1.003601,0.095576,-0.014575,-0.021489,66.134415,34.750458,-145.732269,,,
729861604.533772,0.027031,0.612773,128.973377,-0.013397,-0.001862,1.003601,0.069898,-0.002226,-0.011576,66.134415,34.750458,-145.732269,,,
729861604.537101,0.042261,0.610637,128.97112,-0.017273,-0.001907,0.992432,0.069898,-0.002226,-0.011576,66.134415,34.750458,-145.732269,,,
729861604.540409,0.042261,0.610637,128.97112,-0.017273,-0.001907,0.992432,0.069898,-0.002226,-0.011576,66.134415,34.750458,-145.732269,,,
729861604.543732,0.053686,0.614674,128.968444,-0.017273,-0.001907,0.992432,0.041842,0.012324,-0.008417,66.085587,34.490555,-145.6315,,,
729861604.547107,0.064122,0.618538,128.96434,-0.011978,0.005157,0.991837,0.041842,0.012324,-0.008417,66.085587,34.490555,-145.6315,,,
729861604.550387,0.064122,0.618538,128.96434,-0.011978,0.005157,0.991837,0.041842,0.012324,-0.008417,66.085587,34.490555,-145.6315,,,
729861604.553751,0.072832,0.630451,128.959148,-0.011978,0.005157,0.991837,0.03139,0.043256,-0.017672,66.085587,34.490555,-145.6315,,,
729861604.557058,0.083946,0.641356,128.953507,-0.005386,0.004517,1.007767,0.03139,0.043256,-0.017672,66.085587,34.490555,-145.6315,,,
729861604.560416,0.083946,0.641356,128.953507,-0.005386,0.004517,1.007767,0.03139,0.043256,-0.017672,66.085587,34.490555,-145.6315,,,
729861604.563831,0.09644,0.658093,128.94772,-0.005386,0.004517,1.007767,0.041427,0.058885,-0.022268,66.085587,34.490555,-145.6315,,,
729861604.567049,0.111182,0.672854,128.941906,-0.005798,0.001343,1.017166,0.041427,0.058885,-0.022268,66.085587,34.490555,-145.6315,,,
729861604.570462,0.111182,0.672854,128.941906,-0.005798,0.001343,1.017166,0.041427,0.058885,-0.022268,66.085587,34.490555,-145.6315,,,
729861604.573741,0.128669,0.690403,128.936164,-0.005798,0.001343,1.017166,0.057158,0.06343,-0.02335,66.085587,34.490555,-145.6315,,,
729861604.577077,0.146568,0.70496,128.931374,-0.015488,7.6e-05,1.015564,0.057158,0.06343,-0.02335,66.085587,34.490555,-145.6315,,,
729861604.580497,0.146568,0.70496,128.931374,-0.015488,7.6e-05,1.015564,0.057158,0.06343,-0.02335,66.085587,34.490555,-145.6315,,,
729861604.583756,0.168898,0.71874,128.927841,-0.015488,7.6e-05,1.015564,0.075235,0.055998,-0.014338,66.085587,34.490555,-145.6315,,,
729861604.587061,0.187198,0.726545,128.925656,-0.024246,-0.00235,1.003937,0.075235,0.055998,-0.014338,66.265076,34.43866,-145.919327,,,
729861604.590418,0.187198,0.726545,128.925656,-0.024246,-0.00235,1.003937,0.075235,0.055998,-0.014338,66.265076,34.43866,-145.919327,,,
729861604.593813,0.208694,0.728963,128.9251,-0.024246,-0.00235,1.003937,0.075457,0.01816,-0.00328,66.265076,34.43866,-145.919327,,,
729861604.59711,0.226232,0.723485,128.925468,-0.0298,-0.001129,0.98288,0.075457,0.01816,-0.00328,66.265076,34.43866,-145.919327,,,
729861604.600389,0.226232,0.723485,128.925468,-0.0298,-0.001129,0.98288,0.075457,0.01816,-0.00328,66.265076,34.43866,-145.919327,,,
729861604.603736,0.245556,0.713045,128.926205,-0.0298,-0.001129,0.98288,0.069736,-0.031093,0.002552,66.265076,34.43866,-145.919327,,,
729861604.60706,0.262316,0.698001,128.927832,-0.032242,0.000122,0.969299,0.069736,-0.031093,0.002552,66.265076,34.43866,-145.919327,,,
729861604.610415,0.262316,0.698001,128.927832,-0.032242,0.000122,0.969299,0.069736,-0.031093,0.002552,66.265076,34.43866,-145.919327,,,
729861604.613777,0.280424,0.677084,128.929694,-0.032242,0.000122,0.969299,0.066424,-0.066339,0.00773,66.265076,34.43866,-145.919327,,,
729861604.617053,0.295516,0.65457,128.931854,-0.028305,0.000259,0.967102,0.066424,-0.066339,0.00773,66.265076,34.43866,-145.919327,,,
729861604.620465,0.295516,0.65457,128.931854,-0.028305,0.000259,0.967102,0.066424,-0.066339,0.00773,66.265076,34.43866,-145.919327,,,
729861604.623738,0.310158,0.627819,128.934376,-0.028305,0.000259,0.967102,0.054307,-0.09048,0.008546,66.265076,34.43866,-145.919327,,,
729861604.627074,0.321968,0.599636,128.936779,-0.023163,-6.1e-05,0.969849,0.054307,-0.09048,0.008546,66.00589,34.333466,-145.805862,,,
729861604.63045,0.321968,0.599636,128.936779,-0.023163,-6.1e-05,0.969849,0.054307,-0.09048,0.008546,66.00589,34.333466,-145.805862,,,
729861604.633791,0.330914,0.573347,128.939271,-0.023163,-6.1e-05,0.969849,0.035054,-0.090503,0.007538,66.00589,34.333466,-145.805862,,,
729861604.637051,0.336236,0.547147,128.942018,-0.01442,0.003479,0.971603,0.035054,-0.090503,0.007538,66.00589,34.333466,-145.805862,,,
729861604.6404,0.336236,0.547147,128.942018,-0.01442,0.003479,0.971603,0.035054,-0.090503,0.007538,66.00589,34.333466,-145.805862,,,
729861604.643747,0.340148,0.525802,128.944822,-0.01442,0.003479,0.971603,0.017068,-0.074456,0.008341,66.00589,34.333466,-145.805862,,,
729861604.64711,0.339998,0.507945,128.94709,-0.009018,0.004013,0.978348,0.017068,-0.074456,0.008341,66.00589,34.333466,-145.805862,,,
729861604.650388,0.339998,0.507945,128.94709,-0.009018,0.004013,0.978348,0.017068,-0.074456,0.008341,66.00589,34.333466,-145.805862,,,
729861604.653721,0.338155,0.494443,128.949559,-0.009018,0.004013,0.978348,-0.003206,-0.048071,0.008125,66.00589,34.333466,-145.805862,,,
729861604.657055,0.330399,0.489683,128.952034,-0.002457,0.007126,0.977341,-0.003206,-0.048071,0.008125,66.00589,34.333466,-145.805862,,,
729861604.660488,0.330399,0.489683,128.952034,-0.002457,0.007126,0.977341,-0.003206,-0.048071,0.008125,66.00589,34.333466,-145.805862,,,
729861604.663779,0.32125,0.486238,128.954368,-0.002457,0.007126,0.977341,-0.030241,-0.014806,0.006181,66.00589,34.333466,-145.805862,,,
729861604.667061,0.306878,0.493614,128.957014,-0.00058,0.009811,0.977997,-0.030241,-0.014806,0.006181,65.824173,34.226791,-145.365982,,,
729861604.670412,0.306878,0.493614,128.957014,-0.00058,0.009811,0.977997,-0.030241,-0.014806,0.006181,65.824173,34.226791,-145.365982,,,
729861604.673801,0.293437,0.498169,128.960491,-0.00058,0.009811,0.977997,-0.045709,0.015854,0.009727,65.824173,34.226791,-145.365982,,,
729861604.677053,0.293437,0.498169,128.960491,-0.001602,0.007004,0.979446,-0.045709,0.015854,0.009727,65.824173,34.226791,-145.365982,,,
729861604.680211,0.278801,0.512519,128.964848,-0.001602,0.007004,0.979446,-0.045709,0.015854,0.009727,65.824173,34.226791,-145.365982,,,
729861604.683755,0.266208,0.521728,128.969722,-0.001602,0.007004,0.979446,-0.043858,0.032852,0.013446,65.824173,34.226791,-145.365982,,,
729861604.687055,0.254441,0.538363,128.975291,-0.006882,0.000946,0.991272,-0.043858,0.032852,0.013446,65.824173,34.226791,-145.365982,,,
729861604.690387,0.254441,0.538363,128.975291,-0.006882,0.000946,0.991272,-0.043858,0.032852,0.013446,65.824173,34.226791,-145.365982,,,
729861604.69373,0.246254,0.545266,128.981372,-0.006882,0.000946,0.991272,-0.03189,0.033888,0.017527,65.824173,34.226791,-145.365982,,,
729861604.697122,0.239846,0.553604,128.987481,-0.012741,-0.004684,0.998322,-0.03189,0.033888,0.017527,65.824173,34.226791,-145.365982,,,
729861604.700386,0.239846,0.553604,128.987481,-0.012741,-0.004684,0.998322,-0.03189,0.033888,0.017527,65.824173,34.226791,-145.365982,,,
729861604.703728,0.239131,0.552073,128.993545,-0.012741,-0.004684,0.998322,-0.006698,0.001924,0.019419,65.824173,34.226791,-145.365982,,,
729861604.707129,0.243248,0.548831,128.999184,-0.013824,-0.00914,0.998764,-0.006698,0.001924,0.019419,65.824173,34.226791,-145.365982,,,
729861604.710466,0.243248,0.548831,128.999184,-0.013824,-0.00914,0.998764,-0.006698,0.001924,0.019419,65.884155,34.498322,-145.466415,,,
729861604.71377,0.253988,0.536549,129.004311,-0.013824,-0.00914,0.998764,0.032632,-0.034206,0.014763,65.884155,34.498322,-145.466415,,,
729861604.717051,0.268513,0.518726,129.00899,-0.018158,-0.009888,1.001343,0.032632,-0.034206,0.014763,65.884155,34.498322,-145.466415,,,
729861604.720405,0.268513,0.518726,129.00899,-0.018158,-0.009888,1.001343,0.032632,-0.034206,0.014763,65.884155,34.498322,-145.466415,,,
729861604.723784,0.285018,0.494874,129.012813,-0.018158,-0.009888,1.001343,0.058243,-0.077515,0.013549,65.884155,34.498322,-145.466415,,,
729861604.727048,0.301042,0.467486,129.015226,-0.014633,-0.006165,0.992386,0.058243,-0.077515,0.013549,65.884155,34.498322,-145.466415,,,
729861604.730447,0.301042,0.467486,129.015226,-0.014633,-0.006165,0.992386,0.058243,-0.077515,0.013549,65.884155,34.498322,-145.466415,,,
729861604.733724,0.314337,0.440007,129.016155,-0.014633,-0.006165,0.992386,0.04998,-0.092153,0.001927,65.884155,34.498322,-145.466415,,,
729861604.737056,0.324448,0.412505,129.016268,-0.008209,0.003174,0.980957,0.04998,-0.092153,0.001927,65.884155,34.498322,-145.466415,,,
729861604.740396,0.324448,0.412505,129.016268,-0.008209,0.003174,0.980957,0.04998,-0.092153,0.001927,65.884155,34.498322,-145.466415,,,
729861604.743727,0.329274,0.389524,129.016252,-0.008209,0.003174,0.980957,0.02152,-0.081701,-0.004492,65.884155,34.498322,-145.466415,,,
729861604.747097,0.330545,0.369785,129.016234,-0.005447,0.007584,0.975037,0.02152,-0.081701,-0.004492,65.884155,34.498322,-145.466415,,,
729861604.750385,0.330545,0.369785,129.016234,-0.005447,0.007584,0.975037,0.02152,-0.081701,-0.004492,65.69957,34.491516,-145.381088,,,
729861604.753726,0.327669,0.357007,129.015882,-0.005447,0.007584,0.975037,-0.003511,-0.04898,-0.000652,65.69957,34.491516,-145.381088,,,
729861604.757065,0.321287,0.350672,129.01458,0.001755,0.009888,0.981689,-0.003511,-0.04898,-0.000652,65.69957,34.491516,-145.381088,,,
729861604.760458,0.321287,0.350672,129.01458,0.001755,0.009888,0.981689,-0.003511,-0.04898,-0.000652,65.69957,34.491516,-145.381088,,,
729861604.763756,0.31196,0.351116,129.011521,0.001755,0.009888,0.981689,-0.029611,-0.002075,-0.009271,65.69957,34.491516,-145.381088,,,
729861604.767055,0.31196,0.357564,129.006702,0.010437,0.012283,0.989838,-0.029611,-0.002075,-0.009271,65.69957,34.491516,-145.381088,,,
729861604.770415,0.297784,0.357564,129.006702,0.010437,0.012283,0.989838,-0.029611,-0.002075,-0.009271,65.69957,34.491516,-145.381088,,,
729861604.773813,0.281957,0.369311,129.00028,0.010437,0.012283,0.989838,-0.053658,0.039323,-0.023378,65.69957,34.491516,-145.381088,,,
729861604.776858,0.281957,0.369311,129.00028,0.010437,0.012283,0.989838,-0.053658,0.039323,-0.023378,65.69957,34.491516,-145.381088,,,
729861604.780584,0.262299,0.388452,128.992489,0.014587,0.013397,0.994461,-0.053658,0.039323,-0.023378,65.69957,34.491516,-145.381088,,,
729861604.783722,0.245637,0.410683,128.984458,0.014587,0.013397,0.994461,-0.060192,0.075614,-0.029397,65.69957,34.491516,-145.381088,,,
729861604.787056,0.245637,0.410683,128.977482,0.010559,0.00618,1.003799,-0.060192,0.075614,-0.029397,65.69957,34.491516,-145.381088,,,
729861604.790394,0.228509,0.439204,128.977482,0.010559,0.00618,1.003799,-0.060192,0.075614,-0.029397,65.855347,34.498016,-145.704575,,,
729861604.793721,0.220033,0.467772,128.97248,0.010559,0.00618,1.003799,-0.032029,0.102793,-0.021392,65.855347,34.498016,-145.704575,,,
729861604.797176,0.212899,0.500931,128.970258,-0.006775,-0.009003,1.024399,-0.032029,0.102793,-0.021392,65.855347,34.498016,-145.704575,,,
729861604.800377,0.212899,0.500931,128.970258,-0.006775,-0.009003,1.024399,-0.032029,0.102793,-0.021392,65.855347,34.498016,-145.704575,,,
729861604.803725,0.217164,0.527907,128.970859,-0.006775,-0.009003,1.024399,0.009724,0.100992,-0.001852,65.855347,34.498016,-145.704575,,,
729861604.807054,0.217164,0.527907,128.970859,-0.023346,-0.019516,1.029526,0.009724,0.100992,-0.001852,65.855347,34.498016,-145.704575,,,
729861604.810459,0.226666,0.549843,128.973281,-0.023346,-0.019516,1.029526,0.009724,0.100992,-0.001852,65.855347,34.498016,-145.704575,,,
729861604.813767,0.243985,0.561156,128.976551,-0.023346,-0.019516,1.029526,0.057644,0.052666,0.008972,65.855347,34.498016,-145.704575,,,
729861604.817052,0.243985,0.561156,128.978869,-0.025482,-0.018448,1.021301,0.057644,0.052666,0.008972,65.855347,34.498016,-145.704575,,,
