Time (sec),Pitch (deg),Roll (deg),Yaw(deg),X-Acceleration (g),Y-Acceleration (g),Z-Acceleration (g),Pitch Rate (deg/sec),Roll Rate (deg/sec),Yaw Rate (deg/sec),Magnetic Field in X direction (uT),Magnetic Field in Y direction (uT),Magnetic Field in Z Direction (uT),Latitude (deg),Longitude (deg),Altitude (m)
729862085.495746,2.017269,5.679019,54.076108,-0.110916,0.046799,0.95285,-0.033721,-0.034034,0.007316,59.279114,20.349091,-153.473801,,,
729862085.498982,2.001056,5.668004,54.079176,-0.098663,0.046753,0.959839,-0.056865,-0.017348,0.003138,59.279114,20.349091,-153.473801,,,
729862085.502344,2.001056,5.668004,54.079176,-0.098663,0.046753,0.959839,-0.056865,-0.017348,0.003138,59.279114,20.349091,-153.473801,,,
729862085.505656,1.984377,5.663897,54.082182,-0.098663,0.046753,0.959839,-0.056865,-0.017348,0.003138,59.279114,20.349091,-153.473801,,,
729862085.508988,1.966743,5.657593,54.084697,-0.091812,0.039108,0.982941,-0.055532,0.015046,-0.001777,59.279114,20.349091,-153.473801,,,
729862085.512322,1.966743,5.657593,54.084697,-0.091812,0.039108,0.982941,-0.055532,0.015046,-0.001777,59.279114,20.349091,-153.473801,,,
729862085.515669,1.9525,5.663621,54.085833,-0.091812,0.039108,0.982941,-0.055532,0.015046,-0.001777,59.279114,20.349091,-153.473801,,,
729862085.518987,1.940365,5.666853,54.086518,-0.095108,0.027847,1.00592,-0.029885,0.046643,-0.004144,59.279114,20.349091,-153.473801,,,
729862085.522341,1.940365,5.666853,54.086518,-0.095108,0.027847,1.00592,-0.029885,0.046643,-0.004144,59.279114,20.349091,-153.473801,,,
729862085.52565,1.933597,5.680294,54.086038,-0.095108,0.027847,1.00592,-0.029885,0.046643,-0.004144,59.279114,20.349091,-153.473801,,,
729862085.528993,1.930129,5.691293,54.08527,-0.101379,0.023422,1.014069,0.005351,0.05298,-0.003483,59.278397,20.346695,-153.563766,,,
729862085.532385,1.930129,5.691293,54.08527,-0.101379,0.023422,1.014069,0.005351,0.05298,-0.003483,59.278397,20.346695,-153.563766,,,
729862085.535663,1.933539,5.704466,54.084266,-0.101379,0.023422,1.014069,0.005351,0.05298,-0.003483,59.278397,20.346695,-153.563766,,,
729862085.538988,1.939599,5.719905,54.082035,-0.102966,0.021225,1.011322,0.03299,0.03493,-0.008183,59.278397,20.346695,-153.563766,,,
729862085.542334,1.939599,5.719905,54.082035,-0.102966,0.021225,1.011322,0.03299,0.03493,-0.008183,59.278397,20.346695,-153.563766,,,
729862085.545749,1.949052,5.727472,54.078579,-0.102966,0.021225,1.011322,0.03299,0.03493,-0.008183,59.278397,20.346695,-153.563766,,,
729862085.548999,1.959035,5.743026,54.073642,-0.107224,0.023956,0.998215,0.036744,0.014795,-0.01561,59.278397,20.346695,-153.563766,,,
729862085.552368,1.959035,5.743026,54.073642,-0.107224,0.023956,0.998215,0.036744,0.014795,-0.01561,59.278397,20.346695,-153.563766,,,
729862085.55572,1.968366,5.744584,54.069031,-0.107224,0.023956,0.998215,0.036744,0.014795,-0.01561,59.278397,20.346695,-153.563766,,,
729862085.558983,1.968366,5.752597,54.065901,-0.114578,0.027985,0.987076,0.025385,-0.013934,-0.003798,59.278397,20.346695,-153.563766,,,
729862085.562424,1.97842,5.752597,54.065901,-0.114578,0.027985,0.987076,0.025385,-0.013934,-0.003798,59.278397,20.346695,-153.563766,,,
729862085.565656,1.984467,5.746795,54.06578,-0.114578,0.027985,0.987076,0.025385,-0.013934,-0.003798,59.278397,20.346695,-153.563766,,,
729862085.568989,1.991055,5.745995,54.067571,-0.119263,0.031418,0.980835,0.00771,-0.028936,0.009546,59.358215,20.358139,-153.518677,,,
729862085.572399,1.991055,5.745995,54.067571,-0.119263,0.031418,0.980835,0.00771,-0.028936,0.009546,59.358215,20.358139,-153.518677,,,
729862085.575697,1.992482,5.736393,54.071951,-0.119263,0.031418,0.980835,0.00771,-0.028936,0.009546,59.358215,20.358139,-153.518677,,,
729862085.579045,1.994252,5.72902,54.078446,-0.114944,0.035248,0.983627,-0.010079,-0.028243,0.023107,59.358215,20.358139,-153.518677,,,
729862085.582336,1.994252,5.72902,54.078446,-0.114944,0.035248,0.983627,-0.010079,-0.028243,0.023107,59.358215,20.358139,-153.518677,,,
729862085.585662,1.991188,5.720359,54.08585,-0.114944,0.035248,0.983627,-0.010079,-0.028243,0.023107,59.358215,20.358139,-153.518677,,,
729862085.589038,1.991188,5.720359,54.093056,-0.104355,0.036255,0.990234,-0.020684,-0.019856,0.020113,59.358215,20.358139,-153.518677,,,
729862085.592414,1.988326,5.710592,54.093056,-0.104355,0.036255,0.990234,-0.020684,-0.019856,0.020113,59.358215,20.358139,-153.518677,,,
729862085.595716,1.983212,5.7049,54.099651,-0.104355,0.036255,0.990234,-0.020684,-0.019856,0.020113,59.358215,20.358139,-153.518677,,,
729862085.598984,1.983212,5.7049,54.099651,-0.104355,0.036255,0.990234,-0.015415,-0.004122,0.014968,59.358215,20.358139,-153.518677,,,
729862085.602342,1.977617,5.698686,54.105541,-0.09729,0.035736,0.998932,-0.015415,-0.004122,0.014968,59.358215,20.358139,-153.518677,,,
729862085.605756,1.97368,5.697518,54.109971,-0.09729,0.035736,0.998932,-0.015415,-0.004122,0.014968,59.358215,20.358139,-153.518677,,,
729862085.609006,1.97368,5.697518,54.109971,-0.09317,0.035934,1.00914,-0.005033,0.008151,0.008511,59.358215,20.358139,-153.518677,,,
729862085.612393,1.968849,5.697541,54.113352,-0.09317,0.035934,1.00914,-0.005033,0.008151,0.008511,59.056396,20.296204,-153.435547,,,
729862085.615651,1.968317,5.700483,54.115866,-0.09317,0.035934,1.00914,-0.005033,0.008151,0.008511,59.056396,20.296204,-153.435547,,,
729862085.618976,1.968317,5.700483,54.115866,-0.099548,0.032196,1.016403,0.015035,0.023865,0.00792,59.056396,20.296204,-153.435547,,,
729862085.62233,1.967807,5.706111,54.117993,-0.099548,0.032196,1.016403,0.015035,0.023865,0.00792,59.056396,20.296204,-153.435547,,,
729862085.625654,1.973765,5.711846,54.120869,-0.099548,0.032196,1.016403,0.015035,0.023865,0.00792,59.056396,20.296204,-153.435547,,,
729862085.629083,1.973765,5.719062,54.125029,-0.104263,0.029831,1.013077,0.034601,0.017473,0.019509,59.056396,20.296204,-153.435547,,,
729862085.632313,1.980187,5.719062,54.125029,-0.104263,0.029831,1.013077,0.034601,0.017473,0.019509,59.056396,20.296204,-153.435547,,,
729862085.63567,1.990688,5.722521,54.12993,-0.104263,0.029831,1.013077,0.034601,0.017473,0.019509,59.056396,20.296204,-153.435547,,,
729862085.639009,1.990688,5.722521,54.12993,-0.104263,0.029831,1.013077,0.035336,0.002498,0.020012,59.056396,20.296204,-153.435547,,,
729862085.642416,1.999854,5.729495,54.134686,-0.1008,0.031067,0.999207,0.035336,0.002498,0.020012,59.056396,20.296204,-153.435547,,,
729862085.645639,2.010202,5.727778,54.139192,-0.1008,0.031067,0.999207,0.035336,0.002498,0.020012,59.056396,20.296204,-153.435547,,,
729862085.649014,2.010202,5.727778,54.139192,-0.093765,0.038101,0.98558,0.026991,-0.018607,0.007521,59.056396,20.296204,-153.435547,,,
729862085.652336,2.018363,5.732198,54.14171,-0.093765,0.038101,0.98558,0.026991,-0.018607,0.007521,59.08992,20.336945,-153.552063,,,
729862085.655648,2.025915,5.724587,54.142727,-0.093765,0.038101,0.98558,0.026991,-0.018607,0.007521,59.08992,20.336945,-153.552063,,,
729862085.659017,2.025915,5.724587,54.142727,-0.093765,0.038101,0.98558,0.017516,-0.030705,-0.000712,59.08992,20.336945,-153.552063,,,
729862085.662317,2.03182,5.723184,54.142428,-0.087433,0.036285,0.978668,0.017516,-0.030705,-0.000712,59.08992,20.336945,-153.552063,,,
729862085.665703,2.035591,5.713693,54.142186,-0.087433,0.036285,0.978668,0.017516,-0.030705,-0.000712,59.08992,20.336945,-153.552063,,,
729862085.669024,2.035591,5.713693,54.142186,-0.087433,0.040253,0.97963,-0.001589,-0.019086,-0.002679,59.08992,20.336945,-153.552063,,,
729862085.672335,2.036762,5.709483,54.14181,-0.086838,0.040253,0.97963,-0.001589,-0.019086,-0.002679,59.08992,20.336945,-153.552063,,,
729862085.675658,2.035166,5.704315,54.141085,-0.086838,0.040253,0.97963,-0.001589,-0.019086,-0.002679,59.08992,20.336945,-153.552063,,,
729862085.679089,2.035166,5.704315,54.141085,-0.088211,0.044617,0.985733,-0.013252,0.001686,-0.007101,59.08992,20.336945,-153.552063,,,
729862085.682308,2.031774,5.701315,54.139927,-0.088211,0.044617,0.985733,-0.013252,0.001686,-0.007101,59.08992,20.336945,-153.552063,,,
729862085.685678,2.027647,5.702895,54.138782,-0.088211,0.044617,0.985733,-0.013252,0.001686,-0.007101,59.08992,20.336945,-153.552063,,,
729862085.688973,2.027647,5.702895,54.138782,-0.088211,0.044617,0.985733,-0.013252,0.001686,-0.007101,59.08992,20.336945,-153.552063,,,
729862085.692314,2.023987,5.70529,54.137295,-0.089279,0.040726,0.999634,-0.010353,0.02786,-0.009851,59.157028,20.353043,-153.104279,,,
729862085.695749,2.021411,5.71322,54.134583,-0.089279,0.040726,0.999634,-0.010353,0.02786,-0.009851,59.157028,20.353043,-153.104279,,,
729862085.699059,2.021411,5.71322,54.134583,-0.089279,0.040726,0.999634,-0.010353,0.02786,-0.009851,59.157028,20.353043,-153.104279,,,
729862085.702342,2.020506,5.720298,54.131633,-0.096237,0.037521,1.008682,0.005717,0.03279,-0.010313,59.157028,20.353043,-153.104279,,,
729862085.705649,2.023524,5.728341,54.128829,-0.096237,0.037521,1.008682,0.005717,0.03279,-0.010313,59.157028,20.353043,-153.104279,,,
729862085.709045,2.023524,5.728341,54.128829,-0.096237,0.037521,1.008682,0.030773,0.021587,-0.005606,59.157028,20.353043,-153.104279,,,
729862085.712312,2.028967,5.735478,54.126315,-0.103012,0.032333,1.012009,0.030773,0.021587,-0.005606,59.157028,20.353043,-153.104279,,,
729862085.715646,2.037844,5.740396,54.124073,-0.103012,0.032333,1.012009,0.030773,0.021587,-0.005606,59.157028,20.353043,-153.104279,,,
729862085.719077,2.037844,5.740396,54.124073,-0.103012,0.032333,1.012009,0.030773,0.021587,-0.005606,59.157028,20.353043,-153.104279,,,
729862085.722325,2.046455,5.743944,54.12223,-0.105316,0.035324,1.001953,0.038388,0.009373,-0.001954,59.157028,20.353043,-153.104279,,,
729862085.725655,2.056964,5.744548,54.120849,-0.105316,0.035324,1.001953,0.038388,0.009373,-0.001954,59.157028,20.353043,-153.104279,,,
729862085.729137,2.056964,5.744548,54.120849,-0.105316,0.035324,1.001953,0.038388,0.009373,-0.001954,59.157028,20.353043,-153.104279,,,
729862085.732397,2.066741,5.740557,54.118984,-0.10466,0.042114,0.983902,0.031456,-0.014086,-0.006375,59.009216,20.406662,-153.399612,,,
729862085.735642,2.074876,5.734842,54.116535,-0.10466,0.042114,0.983902,0.031456,-0.014086,-0.006375,59.009216,20.406662,-153.399612,,,
729862085.738981,2.074876,5.734842,54.116535,-0.10466,0.042114,0.983902,0.031456,-0.014086,-0.006375,59.009216,20.406662,-153.399612,,,
729862085.742332,2.081446,5.723499,54.114153,-0.101288,0.043961,0.979156,0.018276,-0.023298,-0.008338,59.009216,20.406662,-153.399612,,,
729862085.745644,2.085738,5.716485,54.1117,-0.101288,0.043961,0.979156,0.018276,-0.023298,-0.008338,59.009216,20.406662,-153.399612,,,
729862085.748981,2.085738,5.716485,54.1117,-0.101288,0.043961,0.979156,0.018276,-0.023298,-0.008338,59.009216,20.406662,-153.399612,,,
729862085.752329,2.08923,5.706702,54.109791,-0.099274,0.040283,0.985336,0.008534,-0.009122,-0.006793,59.009216,20.406662,-153.399612,,,
729862085.755643,2.089896,5.704747,54.108407,-0.099274,0.040283,0.985336,0.008534,-0.009122,-0.006793,59.009216,20.406662,-153.399612,,,
729862085.759123,2.089896,5.704747,54.108407,-0.099274,0.040283,0.985336,0.008534,-0.009122,-0.006793,59.009216,20.406662,-153.399612,,,
729862085.762403,2.089422,5.702333,54.107577,-0.096191,0.039566,0.982468,-0.011986,0.017291,-0.006041,59.009216,20.406662,-153.399612,,,
729862085.765646,2.084452,5.708297,54.106268,-0.096191,0.039566,0.982468,-0.011986,0.017291,-0.006041,59.009216,20.406662,-153.399612,,,
729862085.769049,2.084452,5.708297,54.106268,-0.096191,0.039566,0.982468,-0.011986,0.017291,-0.006041,59.009216,20.406662,-153.399612,,,
729862085.772412,2.077461,5.713585,54.104817,-0.093826,0.040176,0.981781,-0.032103,0.042246,-0.010083,59.009216,20.406662,-153.399612,,,
729862085.775657,2.066948,5.726478,54.103054,-0.093826,0.040176,0.981781,-0.032103,0.042246,-0.010083,59.142349,20.534912,-153.626312,,,
729862085.779022,2.066948,5.726478,54.103054,-0.093826,0.040176,0.981781,-0.032103,0.042246,-0.010083,59.142349,20.534912,-153.626312,,,
729862085.782197,2.05508,5.73866,54.101558,-0.102798,0.034561,0.985565,-0.044583,0.057767,-0.01019,59.142349,20.534912,-153.626312,,,
729862085.785671,2.041583,5.754177,54.10052,-0.102798,0.034561,0.985565,-0.044583,0.057767,-0.01019,59.142349,20.534912,-153.626312,,,
729862085.789082,2.041583,5.754177,54.10052,-0.102798,0.034561,0.985565,-0.044583,0.057767,-0.01019,59.142349,20.534912,-153.626312,,,
729862085.792319,2.026949,5.767527,54.100679,-0.112305,0.029526,0.980331,-0.048625,0.043981,-0.002311,59.142349,20.534912,-153.626312,,,
729862085.795741,2.014143,5.777374,54.102754,-0.112305,0.029526,0.980331,-0.048625,0.043981,-0.002311,59.142349,20.534912,-153.626312,,,
729862085.798998,2.014143,5.777374,54.102754,-0.112305,0.029526,0.980331,-0.048625,0.043981,-0.002311,59.142349,20.534912,-153.626312,,,
729862085.802352,2.00378,5.783891,54.106403,-0.117981,0.028656,0.986328,-0.029523,0.014722,0.010819,59.142349,20.534912,-153.626312,,,
729862085.80563,1.997539,5.785109,54.110475,-0.117981,0.028656,0.986328,-0.029523,0.014722,0.010819,59.142349,20.534912,-153.626312,,,
729862085.809129,1.997539,5.785109,54.110475,-0.117981,0.028656,0.986328,-0.029523,0.014722,0.010819,59.142349,20.534912,-153.626312,,,
729862085.812314,1.995936,5.785144,54.113857,-0.113724,0.025513,0.994888,-0.005169,-0.01021,0.009008,59.142349,20.534912,-153.626312,,,
729862085.815665,1.996563,5.779655,54.116852,-0.113724,0.025513,0.994888,-0.005169,-0.01021,0.009008,59.247849,20.323593,-153.309402,,,
729862085.819003,1.996563,5.779655,54.116852,-0.113724,0.025513,0.994888,-0.005169,-0.01021,0.009008,59.247849,20.323593,-153.309402,,,
729862085.822314,2.003695,5.772481,54.119216,-0.105209,0.023071,1.000504,0.026177,-0.030317,0.008034,59.247849,20.323593,-153.309402,,,
729862085.825654,2.013228,5.76208,54.120912,-0.105209,0.023071,1.000504,0.026177,-0.030317,0.008034,59.247849,20.323593,-153.309402,,,
729862085.829077,2.013228,5.76208,54.120912,-0.105209,0.023071,1.000504,0.026177,-0.030317,0.008034,59.247849,20.323593,-153.309402,,,
729862085.832342,2.027364,5.752344,54.121846,-0.097061,0.024078,1.00766,0.049063,-0.028541,0.005091,59.247849,20.323593,-153.309402,,,
729862085.83565,2.041452,5.744522,54.122145,-0.097061,0.024078,1.00766,0.049063,-0.028541,0.005091,59.247849,20.323593,-153.309402,,,
729862085.839007,2.041452,5.744522,54.122145,-0.097061,0.024078,1.00766,0.049063,-0.028541,0.005091,59.247849,20.323593,-153.309402,,,
729862085.842328,2.055819,5.738522,54.12213,-0.089081,0.029266,1.001373,0.044691,-0.010115,0.002256,59.247849,20.323593,-153.309402,,,
729862085.84565,2.066378,5.737041,54.121942,-0.089081,0.029266,1.001373,0.044691,-0.010115,0.002256,59.247849,20.323593,-153.309402,,,
729862085.848983,2.066378,5.737041,54.121942,-0.089081,0.029266,1.001373,0.044691,-0.010115,0.002256,59.247849,20.323593,-153.309402,,,
729862085.852314,2.073509,5.73678,54.122484,-0.084671,0.037857,0.978363,0.012643,0.014278,0.003564,59.247849,20.323593,-153.309402,,,
729862085.855696,2.074147,5.741511,54.123604,-0.084671,0.037857,0.978363,0.012643,0.014278,0.003564,59.295135,20.393387,-153.468536,,,
729862085.859019,2.074147,5.741511,54.123604,-0.084671,0.037857,0.978363,0.012643,0.014278,0.003564,59.295135,20.393387,-153.468536,,,
729862085.862356,2.069025,5.748963,54.124739,-0.082504,0.047379,0.958542,-0.029424,0.031064,-0.000436,59.295135,20.393387,-153.468536,,,
729862085.865661,2.057818,5.756923,54.124978,-0.082504,0.047379,0.958542,-0.029424,0.031064,-0.000436,59.295135,20.393387,-153.468536,,,
729862085.86899,2.057818,5.756923,54.124978,-0.082504,0.047379,0.958542,-0.029424,0.031064,-0.000436,59.295135,20.393387,-153.468536,,,
729862085.872047,2.041325,5.769757,54.123606,-0.081131,0.049515,0.958389,-0.056965,0.029431,-0.013305,59.295135,20.393387,-153.468536,,,
729862085.87568,2.022848,5.777262,54.120862,-0.081131,0.049515,0.958389,-0.056965,0.029431,-0.013305,59.295135,20.393387,-153.468536,,,
729862085.878974,2.022848,5.777262,54.120862,-0.081131,0.049515,0.958389,-0.056965,0.029431,-0.013305,59.295135,20.393387,-153.468536,,,
729862085.882315,2.000688,5.791422,54.116363,-0.087769,0.044373,0.970566,-0.072821,0.028998,-0.025555,59.295135,20.393387,-153.468536,,,
729862085.885644,1.978794,5.798932,54.111312,-0.087769,0.044373,0.970566,-0.072821,0.028998,-0.025555,59.295135,20.393387,-153.468536,,,
729862085.888981,1.978794,5.798932,54.111312,-0.087769,0.044373,0.970566,-0.072821,0.028998,-0.025555,59.295135,20.393387,-153.468536,,,
729862085.89231,1.955806,5.811755,54.106313,-0.098801,0.037094,0.985107,-0.068765,0.029124,-0.02363,59.295135,20.393387,-153.468536,,,
729862085.895658,1.936495,5.818971,54.102673,-0.098801,0.037094,0.985107,-0.068765,0.029124,-0.02363,59.220032,20.616257,-153.299652,,,
729862085.899043,1.936495,5.818971,54.102673,-0.098801,0.037094,0.985107,-0.068765,0.029124,-0.02363,59.220032,20.616257,-153.299652,,,
729862085.90232,1.919228,5.827571,54.100584,-0.106628,0.031113,0.99884,-0.041568,0.023571,-0.00953,59.220032,20.616257,-153.299652,,,
729862085.905647,1.909707,5.834315,54.099357,-0.106628,0.031113,0.99884,-0.041568,0.023571,-0.00953,59.220032,20.616257,-153.299652,,,
729862085.908976,1.909707,5.834315,54.099357,-0.106628,0.031113,0.99884,-0.041568,0.023571,-0.00953,59.220032,20.616257,-153.299652,,,
729862085.912404,1.903166,5.840729,54.098014,-0.109146,0.024902,1.022354,-0.005911,0.031015,-0.007038,59.220032,20.616257,-153.299652,,,
729862085.915668,1.904016,5.849489,54.095825,-0.109146,0.024902,1.022354,-0.005911,0.031015,-0.007038,59.220032,20.616257,-153.299652,,,
729862085.919007,1.904016,5.849489,54.095825,-0.109146,0.024902,1.022354,-0.005911,0.031015,-0.007038,59.220032,20.616257,-153.299652,,,
729862085.922324,1.909148,5.854166,54.093178,-0.109863,0.022156,1.027954,0.031422,0.037863,-0.00751,59.220032,20.616257,-153.299652,,,
729862085.925648,1.91952,5.864182,54.090633,-0.109863,0.022156,1.027954,0.031422,0.037863,-0.00751,59.220032,20.616257,-153.299652,,,
729862085.929074,1.91952,5.864182,54.090633,-0.109863,0.022156,1.027954,0.031422,0.037863,-0.00751,59.220032,20.616257,-153.299652,,,
729862085.932337,1.932176,5.866743,54.089054,-0.115387,0.025009,1.011276,0.043579,0.029826,-0.000948,59.220032,20.616257,-153.299652,,,
729862085.935662,1.94404,5.873105,54.088001,-0.115387,0.025009,1.011276,0.043579,0.029826,-0.000948,59.220032,20.616257,-153.299652,,,
729862085.939013,1.94404,5.873105,54.088001,-0.115387,0.025009,1.011276,0.043579,0.029826,-0.000948,59.250595,20.482147,-153.174194,,,
729862085.942357,1.956872,5.869386,54.087772,-0.11734,0.036057,0.989319,0.029156,0.009125,0.001644,59.250595,20.482147,-153.174194,,,
729862085.945654,1.963938,5.868771,54.087928,-0.11734,0.036057,0.989319,0.029156,0.009125,0.001644,59.250595,20.482147,-153.174194,,,
729862085.94909,1.963938,5.868771,54.087928,-0.11734,0.036057,0.989319,0.029156,0.009125,0.001644,59.250595,20.482147,-153.174194,,,
729862085.952328,1.971964,5.855698,54.08868,-0.117355,0.040283,0.972397,0.009604,-0.024853,0.001987,59.250595,20.482147,-153.174194,,,
729862085.95566,1.973065,5.845431,54.090029,-0.117355,0.040283,0.972397,0.009604,-0.024853,0.001987,59.250595,20.482147,-153.174194,,,
729862085.958993,1.973065,5.845431,54.090029,-0.117355,0.040283,0.972397,0.009604,-0.024853,0.001987,59.250595,20.482147,-153.174194,,,
729862085.962318,1.974058,5.826056,54.09242,-0.114563,0.041931,0.968094,-0.010545,-0.051343,0.006005,59.250595,20.482147,-153.174194,,,
729862085.965648,1.970245,5.809314,54.095931,-0.114563,0.041931,0.968094,-0.010545,-0.051343,0.006005,59.250595,20.482147,-153.174194,,,
729862085.969004,1.970245,5.809314,54.095931,-0.114563,0.041931,0.968094,-0.010545,-0.051343,0.006005,59.250595,20.482147,-153.174194,,,
729862085.972315,1.96504,5.789724,54.101282,-0.111923,0.042358,0.9729,-0.027068,-0.058885,0.016861,59.250595,20.482147,-153.174194,,,
729862085.975648,1.956432,5.772957,54.107786,-0.111923,0.042358,0.9729,-0.027068,-0.058885,0.016861,59.250595,20.482147,-153.174194,,,
729862085.978978,1.956432,5.772957,54.107786,-0.111923,0.042358,0.9729,-0.027068,-0.058885,0.016861,59.24971,20.544937,-153.278946,,,
729862085.982343,1.945286,5.761684,54.114772,-0.103394,0.04274,0.985077,-0.042345,-0.03343,0.019212,59.24971,20.544937,-153.278946,,,
729862085.98565,1.933199,5.753125,54.121527,-0.103394,0.04274,0.985077,-0.042345,-0.03343,0.019212,59.24971,20.544937,-153.278946,,,
729862085.989067,1.933199,5.753125,54.121527,-0.103394,0.04274,0.985077,-0.042345,-0.03343,0.019212,59.24971,20.544937,-153.278946,,,
729862085.992331,1.919815,5.751351,54.127546,-0.096039,0.041016,0.999802,-0.040063,-0.003439,0.014895,59.24971,20.544937,-153.278946,,,
729862085.995663,1.910063,5.751501,54.133229,-0.096039,0.041016,0.999802,-0.040063,-0.003439,0.014895,59.24971,20.544937,-153.278946,,,
729862085.998999,1.910063,5.751501,54.133229,-0.096039,0.041016,0.999802,-0.040063,-0.003439,0.014895,59.24971,20.544937,-153.278946,,,
729862086.002383,1.90067,5.758545,54.138378,-0.092148,0.034164,1.017456,-0.020065,0.029591,0.013682,59.24971,20.544937,-153.278946,,,
729862086.005639,1.896366,5.768496,54.142232,-0.092148,0.034164,1.017456,-0.020065,0.029591,0.013682,59.24971,20.544937,-153.278946,,,
729862086.008993,1.896366,5.768496,54.142232,-0.092148,0.034164,1.017456,-0.020065,0.029591,0.013682,59.24971,20.544937,-153.278946,,,
729862086.012323,1.893314,5.785921,54.144614,-0.091431,0.029099,1.024628,0.001547,0.057464,0.006341,59.24971,20.544937,-153.278946,,,
729862086.015645,1.894787,5.801852,54.146181,-0.091431,0.029099,1.024628,0.001547,0.057464,0.006341,59.24971,20.544937,-153.278946,,,
729862086.018978,1.894787,5.801852,54.146181,-0.091431,0.029099,1.024628,0.001547,0.057464,0.006341,59.063004,20.691803,-153.030533,,,
729862086.022334,1.898669,5.822102,54.146668,-0.100662,0.028076,1.01593,0.019204,0.050347,0.001818,59.063004,20.691803,-153.030533,,,
729862086.025651,1.904348,5.834244,54.14691,-0.100662,0.028076,1.01593,0.019204,0.050347,0.001818,59.063004,20.691803,-153.030533,,,
729862086.029054,1.904348,5.834244,54.14691,-0.100662,0.028076,1.01593,0.019204,0.050347,0.001818,59.063004,20.691803,-153.030533,,,
729862086.032317,1.912966,5.849974,54.147122,-0.106384,0.026779,1.002777,0.029489,0.025533,0.004359,59.063004,20.691803,-153.030533,,,
729862086.035655,1.921704,5.853817,54.147819,-0.106384,0.026779,1.002777,0.029489,0.025533,0.004359,59.063004,20.691803,-153.030533,,,
729862086.038992,1.921704,5.853817,54.147819,-0.106384,0.026779,1.002777,0.029489,0.025533,0.004359,59.063004,20.691803,-153.030533,,,
729862086.042378,1.932316,5.86019,54.148551,-0.10791,0.02739,0.994644,0.029495,-0.003585,0.006235,59.063004,20.691803,-153.030533,,,
729862086.045649,1.940259,5.856776,54.149556,-0.10791,0.02739,0.994644,0.029495,-0.003585,0.006235,59.063004,20.691803,-153.030533,,,
729862086.048994,1.940259,5.856776,54.149556,-0.10791,0.02739,0.994644,0.029495,-0.003585,0.006235,59.063004,20.691803,-153.030533,,,
729862086.052336,1.948143,5.857286,54.149976,-0.1082,0.034348,0.988251,0.015811,-0.018343,0.002147,59.063004,20.691803,-153.030533,,,
729862086.055656,1.951201,5.850633,54.150635,-0.1082,0.034348,0.988251,0.015811,-0.018343,0.002147,59.063004,20.691803,-153.030533,,,
729862086.059037,1.951201,5.850633,54.150635,-0.1082,0.034348,0.988251,0.015811,-0.018343,0.002147,59.063004,20.691803,-153.030533,,,
729862086.062333,1.954188,5.845701,54.152072,-0.104263,0.036667,0.981873,0.001238,-0.021701,0.006563,59.274017,20.747833,-153.547241,,,
729862086.065654,1.954441,5.838549,54.154666,-0.104263,0.036667,0.981873,0.001238,-0.021701,0.006563,59.274017,20.747833,-153.547241,,,
729862086.06904,1.954441,5.838549,54.154666,-0.104263,0.036667,0.981873,0.001238,-0.021701,0.006563,59.274017,20.747833,-153.547241,,,
729862086.07234,1.956271,5.829776,54.157357,-0.09996,0.037033,0.989761,0.000881,-0.02108,0.006776,59.274017,20.747833,-153.547241,,,
729862086.075655,1.956536,5.823511,54.1591,-0.09996,0.037033,0.989761,0.000881,-0.02108,0.006776,59.274017,20.747833,-153.547241,,,
729862086.078992,1.956536,5.823511,54.1591,-0.09996,0.037033,0.989761,0.000881,-0.02108,0.006776,59.274017,20.747833,-153.547241,,,
729862086.082395,1.957366,5.81435,54.160057,-0.09436,0.033981,0.993958,0.004228,-0.010362,0.00058,59.274017,20.747833,-153.547241,,,
729862086.085644,1.958878,5.811117,54.160435,-0.09436,0.033981,0.993958,0.004228,-0.010362,0.00058,59.274017,20.747833,-153.547241,,,
729862086.088973,1.958878,5.811117,54.160435,-0.09436,0.033981,0.993958,0.004228,-0.010362,0.00058,59.274017,20.747833,-153.547241,,,
729862086.092329,1.960147,5.804224,54.160779,-0.09436,0.032623,0.994217,0.01093,0.001136,-0.000214,59.274017,20.747833,-153.547241,,,
729862086.095687,1.963565,5.803601,54.16143,-0.09436,0.032623,0.994217,0.01093,0.001136,-0.000214,59.274017,20.747833,-153.547241,,,
729862086.099006,1.963565,5.803601,54.16143,-0.09436,0.032623,0.994217,0.01093,0.001136,-0.000214,59.274017,20.747833,-153.547241,,,
729862086.102311,1.966759,5.800569,54.162672,-0.095245,0.032944,0.990692,0.018733,2.8e-05,0.004183,59.150543,20.673004,-153.178375,,,
729862086.105654,1.971809,5.800996,54.163431,-0.095245,0.032944,0.990692,0.018733,2.8e-05,0.004183,59.150543,20.673004,-153.178375,,,
729862086.10907,1.971809,5.800996,54.163431,-0.095245,0.032944,0.990692,0.018733,2.8e-05,0.004183,59.150543,20.673004,-153.178375,,,
729862086.112367,1.97412,5.805006,54.162869,-0.09169,0.034607,0.989105,0.01191,0.016692,-0.005456,59.150543,20.673004,-153.178375,,,
729862086.115647,1.976339,5.810259,54.160988,-0.09169,0.034607,0.989105,0.01191,0.016692,-0.005456,59.150543,20.673004,-153.178375,,,
729862086.119019,1.976339,5.810259,54.160988,-0.09169,0.034607,0.989105,0.01191,0.016692,-0.005456,59.150543,20.673004,-153.178375,,,
729862086.122373,1.974625,5.820377,54.158266,-0.092392,0.035416,0.984283,-0.001397,0.031426,-0.012027,59.150543,20.673004,-153.178375,,,
729862086.125646,1.972441,5.828856,54.155835,-0.092392,0.035416,0.984283,-0.001397,0.031426,-0.012027,59.150543,20.673004,-153.178375,,,
729862086.128993,1.972441,5.828856,54.155835,-0.092392,0.035416,0.984283,-0.001397,0.031426,-0.012027,59.150543,20.673004,-153.178375,,,
729862086.132323,1.967337,5.84095,54.153863,-0.097031,0.034424,0.974442,-0.019853,0.036049,-0.009918,59.150543,20.673004,-153.178375,,,
729862086.135647,1.960185,5.851802,54.15254,-0.097031,0.034424,0.974442,-0.019853,0.036049,-0.009918,59.150543,20.673004,-153.178375,,,
729862086.138991,1.960185,5.851802,54.15254,-0.097031,0.034424,0.974442,-0.019853,0.036049,-0.009918,59.150543,20.673004,-153.178375,,,
729862086.142313,1.95267,5.865601,54.152318,-0.106033,0.0336,0.978928,-0.027951,0.044908,-0.002647,59.273148,20.605545,-153.477859,,,
729862086.145649,1.944742,5.876745,54.153775,-0.106033,0.0336,0.978928,-0.027951,0.044908,-0.002647,59.273148,20.605545,-153.477859,,,
729862086.149065,1.944742,5.876745,54.153775,-0.106033,0.0336,0.978928,-0.027951,0.044908,-0.002647,59.273148,20.605545,-153.477859,,,
729862086.1524,1.937991,5.884845,54.156799,-0.115265,0.031281,0.985184,-0.025023,0.028021,0.008489,59.273148,20.605545,-153.477859,,,
729862086.155656,1.931592,5.889927,54.16082,-0.115265,0.031281,0.985184,-0.025023,0.028021,0.008489,59.273148,20.605545,-153.477859,,,
729862086.15898,1.931592,5.889927,54.16082,-0.115265,0.031281,0.985184,-0.025023,0.028021,0.008489,59.273148,20.605545,-153.477859,,,
729862086.1624,1.927056,5.887305,54.165597,-0.113632,0.029022,0.985703,-0.015006,-0.004311,0.014096,59.273148,20.605545,-153.477859,,,
729862086.165649,1.92394,5.88306,54.16982,-0.113632,0.029022,0.985703,-0.015006,-0.004311,0.014096,59.273148,20.605545,-153.477859,,,
729862086.169002,1.92394,5.88306,54.16982,-0.113632,0.029022,0.985703,-0.015006,-0.004311,0.014096,59.273148,20.605545,-153.477859,,,
729862086.172329,1.922751,5.871855,54.172779,-0.103317,0.03035,0.990677,-1.6e-05,-0.029671,0.006068,59.273148,20.605545,-153.477859,,,
729862086.17565,1.924348,5.861591,54.173711,-0.103317,0.03035,0.990677,-1.6e-05,-0.029671,0.006068,59.273148,20.605545,-153.477859,,,
729862086.17898,1.924348,5.861591,54.173711,-0.103317,0.03035,0.990677,-1.6e-05,-0.029671,0.006068,59.273148,20.605545,-153.477859,,,
729862086.18234,1.92792,5.848362,54.172213,-0.097198,0.02951,1.001022,0.017123,-0.035412,-0.009714,59.274399,20.56543,-153.297211,,,
729862086.18565,1.933457,5.838251,54.168416,-0.097198,0.02951,1.001022,0.017123,-0.035412,-0.009714,59.274399,20.56543,-153.297211,,,
729862086.189093,1.933457,5.838251,54.168416,-0.097198,0.02951,1.001022,0.017123,-0.035412,-0.009714,59.274399,20.56543,-153.297211,,,
729862086.192338,1.940741,5.82657,54.164187,-0.096237,0.029251,1.008545,0.029198,-0.021022,-0.012359,59.274399,20.56543,-153.297211,,,
729862086.195662,1.949203,5.821512,54.160618,-0.096237,0.029251,1.008545,0.029198,-0.021022,-0.012359,59.274399,20.56543,-153.297211,,,
729862086.199003,1.949203,5.821512,54.160618,-0.096237,0.029251,1.008545,0.029198,-0.021022,-0.012359,59.274399,20.56543,-153.297211,,,
729862086.202328,1.958457,5.816371,54.158178,-0.098068,0.027237,1.00827,0.032341,0.002188,-0.004929,59.274399,20.56543,-153.297211,,,
729862086.205656,1.966446,5.81739,54.157,-0.098068,0.027237,1.00827,0.032341,0.002188,-0.004929,59.274399,20.56543,-153.297211,,,
729862086.209008,1.966446,5.81739,54.157,-0.098068,0.027237,1.00827,0.032341,0.002188,-0.004929,59.274399,20.56543,-153.297211,,,
729862086.212385,1.97249,5.819104,54.157189,-0.101471,0.03363,0.996292,0.017731,0.021196,0.002638,59.274399,20.56543,-153.297211,,,
729862086.215653,1.975707,5.824627,54.157995,-0.101471,0.03363,0.996292,0.017731,0.021196,0.002638,59.274399,20.56543,-153.297211,,,
729862086.218989,1.975707,5.824627,54.157995,-0.101471,0.03363,0.996292,0.017731,0.021196,0.002638,59.274399,20.56543,-153.297211,,,
729862086.222351,1.975792,5.831997,54.159049,-0.103287,0.037689,0.981155,-0.004314,0.020413,0.00259,59.274399,20.56543,-153.297211,,,
729862086.225657,1.973137,5.836247,54.160503,-0.103287,0.037689,0.981155,-0.004314,0.020413,0.00259,59.182831,20.885681,-153.568634,,,
729862086.229081,1.973137,5.836247,54.160503,-0.103287,0.037689,0.981155,-0.004314,0.020413,0.00259,59.182831,20.885681,-153.568634,,,
729862086.232334,1.968021,5.843143,54.16213,-0.10788,0.041962,0.972519,-0.018418,0.000278,0.003733,59.182831,20.885681,-153.568634,,,
729862086.235652,1.962603,5.840891,54.164536,-0.10788,0.041962,0.972519,-0.018418,0.000278,0.003733,59.182831,20.885681,-153.568634,,,
729862086.238989,1.962603,5.840891,54.164536,-0.10788,0.041962,0.972519,-0.018418,0.000278,0.003733,59.182831,20.885681,-153.568634,,,
729862086.242312,1.957715,5.84192,54.166952,-0.107544,0.040054,0.982452,-0.007873,-0.019824,0.006386,59.182831,20.885681,-153.568634,,,
729862086.24565,1.956555,5.834838,54.169297,-0.107544,0.040054,0.982452,-0.007873,-0.019824,0.006386,59.182831,20.885681,-153.568634,,,
729862086.249071,1.956555,5.834838,54.169297,-0.107544,0.040054,0.982452,-0.007873,-0.019824,0.006386,59.182831,20.885681,-153.568634,,,
729862086.252335,1.956909,5.829482,54.171425,-0.107559,0.034409,1.000229,0.008008,-0.020655,0.006931,59.182831,20.885681,-153.568634,,,
729862086.255658,1.95977,5.823134,54.173399,-0.107559,0.034409,1.000229,0.008008,-0.020655,0.006931,59.182831,20.885681,-153.568634,,,
729862086.259002,1.95977,5.823134,54.173399,-0.107559,0.034409,1.000229,0.008008,-0.020655,0.006931,59.182831,20.885681,-153.568634,,,
729862086.262387,1.962913,5.816264,54.175725,-0.102585,0.032913,1.002213,0.016813,-0.012052,0.009911,59.182831,20.885681,-153.568634,,,
729862086.265651,1.969638,5.812458,54.178581,-0.102585,0.032913,1.002213,0.016813,-0.012052,0.009911,59.190384,20.6689,-153.555542,,,
729862086.269004,1.969638,5.812458,54.178581,-0.102585,0.032913,1.002213,0.016813,-0.012052,0.009911,59.190384,20.6689,-153.555542,,,
729862086.272333,1.978588,5.806993,54.181469,-0.098495,0.029282,1.007828,0.040017,-0.006898,0.011873,59.190384,20.6689,-153.555542,,,
729862086.275658,1.991042,5.804947,54.182925,-0.098495,0.029282,1.007828,0.040017,-0.006898,0.011873,59.190384,20.6689,-153.555542,,,
729862086.278995,1.991042,5.804947,54.182925,-0.098495,0.029282,1.007828,0.040017,-0.006898,0.011873,59.190384,20.6689,-153.555542,,,
729862086.282235,2.003681,5.802334,54.183189,-0.098373,0.026886,1.013397,0.052956,0.004054,0.00432,59.190384,20.6689,-153.555542,,,
729862086.285662,2.01806,5.802999,54.183072,-0.098373,0.026886,1.013397,0.052956,0.004054,0.00432,59.190384,20.6689,-153.555542,,,
729862086.289064,2.01806,5.802999,54.183072,-0.098373,0.026886,1.013397,0.052956,0.004054,0.00432,59.190384,20.6689,-153.555542,,,
729862086.292334,2.029889,5.80298,54.183091,-0.103958,0.030457,0.997269,0.040887,0.003506,0.003943,59.190384,20.6689,-153.555542,,,
729862086.295648,2.040155,5.801549,54.184434,-0.103958,0.030457,0.997269,0.040887,0.003506,0.003943,59.190384,20.6689,-153.555542,,,
729862086.299003,2.040155,5.801549,54.184434,-0.103958,0.030457,0.997269,0.040887,0.003506,0.003943,59.190384,20.6689,-153.555542,,,
729862086.302385,2.047444,5.798136,54.186729,-0.104752,0.038666,0.976013,0.016895,-0.016259,0.008465,59.190384,20.6689,-153.555542,,,
729862086.305659,2.051136,5.791367,54.189285,-0.104752,0.038666,0.976013,0.016895,-0.016259,0.008465,59.157455,20.603058,-153.330582,,,
729862086.309004,2.051136,5.791367,54.189285,-0.104752,0.038666,0.976013,0.016895,-0.016259,0.008465,59.157455,20.603058,-153.330582,,,
729862086.312339,2.053077,5.786676,54.191521,-0.099792,0.044235,0.971542,-0.00365,-0.026129,0.005031,59.157455,20.603058,-153.330582,,,
729862086.315649,2.050549,5.778565,54.192882,-0.099792,0.044235,0.971542,-0.00365,-0.026129,0.005031,59.157455,20.603058,-153.330582,,,
729862086.319006,2.050549,5.778565,54.192882,-0.099792,0.044235,0.971542,-0.00365,-0.026129,0.005031,59.157455,20.603058,-153.330582,,,
729862086.322345,2.047561,5.774989,54.193161,-0.100601,0.036957,0.978043,-0.015162,-0.022145,-0.002787,59.157455,20.603058,-153.330582,,,
729862086.325661,2.042258,5.768089,54.192909,-0.100601,0.036957,0.978043,-0.015162,-0.022145,-0.002787,59.157455,20.603058,-153.330582,,,
729862086.32906,2.042258,5.768089,54.192909,-0.100601,0.036957,0.978043,-0.015162,-0.022145,-0.002787,59.157455,20.603058,-153.330582,,,
729862086.332317,2.036223,5.7654,54.192834,-0.102188,0.035828,0.983643,-0.020405,-0.010328,-0.001509,59.157455,20.603058,-153.330582,,,
729862086.33571,2.030386,5.762434,54.194168,-0.102188,0.035828,0.983643,-0.020405,-0.010328,-0.001509,59.157455,20.603058,-153.330582,,,
729862086.339008,2.030386,5.762434,54.194168,-0.102188,0.035828,0.983643,-0.020405,-0.010328,-0.001509,59.157455,20.603058,-153.330582,,,
729862086.342322,2.025312,5.762903,54.196898,-0.103226,0.029221,0.992981,-0.012731,0.00206,0.009511,59.157455,20.603058,-153.330582,,,
729862086.345694,2.023317,5.763151,54.200764,-0.103226,0.029221,0.992981,-0.012731,0.00206,0.009511,59.201767,20.872223,-153.804993,,,
729862086.349012,2.023317,5.763151,54.200764,-0.103226,0.029221,0.992981,-0.012731,0.00206,0.009511,59.201767,20.872223,-153.804993,,,
729862086.352393,2.023884,5.761967,54.205226,-0.105545,0.026535,0.998367,0.012092,-0.000387,0.01585,59.201767,20.872223,-153.804993,,,
729862086.355666,2.029384,5.759676,54.209023,-0.105545,0.026535,0.998367,0.012092,-0.000387,0.01585,59.201767,20.872223,-153.804993,,,
729862086.359003,2.029384,5.759676,54.209023,-0.105545,0.026535,0.998367,0.012092,-0.000387,0.01585,59.201767,20.872223,-153.804993,,,
729862086.362329,2.036102,5.7527,54.211686,-0.100143,0.028534,0.994949,0.034796,-0.019886,0.009783,59.201767,20.872223,-153.804993,,,
729862086.365713,2.047483,5.744652,54.21285,-0.100143,0.028534,0.994949,0.034796,-0.019886,0.009783,59.201767,20.872223,-153.804993,,,
729862086.368988,2.047483,5.744652,54.21285,-0.100143,0.028534,0.994949,0.034796,-0.019886,0.009783,59.201767,20.872223,-153.804993,,,
729862086.372341,2.058956,5.734495,54.212618,-0.091843,0.029648,0.986282,0.045351,-0.037103,0.001105,59.201767,20.872223,-153.804993,,,
729862086.375689,2.071197,5.722414,54.212201,-0.091843,0.029648,0.986282,0.045351,-0.037103,0.001105,59.201767,20.872223,-153.804993,,,
729862086.379053,2.071197,5.722414,54.212201,-0.091843,0.029648,0.986282,0.045351,-0.037103,0.001105,59.201767,20.872223,-153.804993,,,
729862086.38233,2.081615,5.712637,54.211896,-0.086273,0.036362,0.973053,0.031941,-0.042538,0.001261,59.201767,20.872223,-153.804993,,,
729862086.385649,2.087986,5.699879,54.211925,-0.086273,0.036362,0.973053,0.031941,-0.042538,0.001261,59.201767,20.872223,-153.804993,,,
729862086.388985,2.087986,5.699879,54.211925,-0.086273,0.036362,0.973053,0.031941,-0.042538,0.001261,59.104935,20.785614,-153.780838,,,
729862086.392377,2.09054,5.691512,54.211459,-0.072311,0.043289,0.961609,-0.006112,-0.025983,-0.005515,59.104935,20.785614,-153.780838,,,
729862086.395642,2.08544,5.686035,54.209073,-0.072311,0.043289,0.961609,-0.006112,-0.025983,-0.005515,59.104935,20.785614,-153.780838,,,
729862086.39899,2.08544,5.686035,54.209073,-0.072311,0.043289,0.961609,-0.006112,-0.025983,-0.005515,59.104935,20.785614,-153.780838,,,
729862086.402328,2.07564,5.687395,54.203801,-0.059189,0.041107,0.96933,-0.041946,0.012962,-0.029027,59.104935,20.785614,-153.780838,,,
729862086.405706,2.061579,5.693179,54.195944,-0.059189,0.041107,0.96933,-0.041946,0.012962,-0.029027,59.104935,20.785614,-153.780838,,,
729862086.408989,2.061579,5.693179,54.195944,-0.059189,0.041107,0.96933,-0.041946,0.012962,-0.029027,59.104935,20.785614,-153.780838,,,
729862086.41234,2.046438,5.705244,54.18603,-0.065292,0.030655,0.992767,-0.048164,0.04492,-0.043672,59.104935,20.785614,-153.780838,,,
729862086.41576,2.03188,5.719108,54.175803,-0.065292,0.030655,0.992767,-0.048164,0.04492,-0.043672,59.104935,20.785614,-153.780838,,,
729862086.419022,2.03188,5.719108,54.175803,-0.065292,0.030655,0.992767,-0.048164,0.04492,-0.043672,59.104935,20.785614,-153.780838,,,
729862086.422339,2.019364,5.736675,54.166741,-0.087082,0.020691,1.016647,-0.029158,0.060125,-0.03324,59.104935,20.785614,-153.780838,,,
729862086.425695,2.011206,5.753023,54.159371,-0.087082,0.020691,1.016647,-0.029158,0.060125,-0.03324,59.104935,20.785614,-153.780838,,,
729862086.429003,2.011206,5.753023,54.159371,-0.087082,0.020691,1.016647,-0.029158,0.060125,-0.03324,59.069763,20.978531,-153.850449,,,
729862086.43239,2.003354,5.769017,54.153747,-0.105865,0.015533,1.021347,-0.015065,0.046622,-0.019205,59.069763,20.978531,-153.850449,,,
729862086.435677,2.000414,5.779103,54.149959,-0.105865,0.015533,1.021347,-0.015065,0.046622,-0.019205,59.069763,20.978531,-153.850449,,,
729862086.438991,2.000414,5.779103,54.149959,-0.105865,0.015533,1.021347,-0.015065,0.046622,-0.019205,59.069763,20.978531,-153.850449,,,
729862086.442336,1.998392,5.784763,54.147168,-0.111511,0.017975,1.008362,0.000505,0.011933,-0.010519,59.069763,20.978531,-153.850449,,,
729862086.445705,1.99865,5.784735,54.144017,-0.111511,0.017975,1.008362,0.000505,0.011933,-0.010519,59.069763,20.978531,-153.850449,,,
729862086.448981,1.99865,5.784735,54.144017,-0.111511,0.017975,1.008362,0.000505,0.011933,-0.010519,59.069763,20.978531,-153.850449,,,
729862086.452352,1.999026,5.777563,54.140601,-0.11261,0.018204,1.00145,0.009086,-0.019763,-0.012104,59.069763,20.978531,-153.850449,,,
729862086.455711,2.001621,5.769708,54.136881,-0.11261,0.018204,1.00145,0.009086,-0.019763,-0.012104,59.069763,20.978531,-153.850449,,,
729862086.459032,2.001621,5.769708,54.136881,-0.11261,0.018204,1.00145,0.009086,-0.019763,-0.012104,59.069763,20.978531,-153.850449,,,
729862086.462327,2.005315,5.755045,54.132867,-0.114792,0.019272,1.005371,0.017983,-0.038279,-0.014218,59.069763,20.978531,-153.850449,,,
729862086.465688,2.011684,5.742335,54.129304,-0.114792,0.019272,1.005371,0.017983,-0.038279,-0.014218,59.069763,20.978531,-153.850449,,,
729862086.468989,2.011684,5.742335,54.129304,-0.114792,0.019272,1.005371,0.017983,-0.038279,-0.014218,59.047134,20.883789,-153.557327,,,
729862086.472411,2.023282,5.719515,54.127261,-0.119354,0.017059,1.009796,0.041016,-0.048333,-0.003468,59.047134,20.883789,-153.557327,,,
729862086.475666,2.023282,5.705991,54.125504,-0.119354,0.017059,1.009796,0.041016,-0.048333,-0.003468,59.047134,20.883789,-153.557327,,,
729862086.478983,2.035253,5.705991,54.125504,-0.119354,0.017059,1.009796,0.041016,-0.048333,-0.003468,59.047134,20.883789,-153.557327,,,
729862086.482319,2.049737,5.680919,54.124381,-0.122025,0.023514,1.014008,0.045189,-0.027743,-0.002261,59.047134,20.883789,-153.557327,,,
729862086.485661,2.049737,5.680919,54.124381,-0.122025,0.023514,1.014008,0.045189,-0.027743,-0.002261,59.047134,20.883789,-153.557327,,,
729862086.489037,2.061843,5.674611,54.123245,-0.122025,0.023514,1.014008,0.045189,-0.027743,-0.002261,59.047134,20.883789,-153.557327,,,
729862086.492343,2.072773,5.657455,54.123446,-0.125809,0.0289,1.006256,0.039014,0.001066,0.0026,59.047134,20.883789,-153.557327,,,
729862086.495796,2.083142,5.657969,54.124251,-0.125809,0.0289,1.006256,0.039014,0.001066,0.0026,59.047134,20.883789,-153.557327,,,
729862086.498999,2.083142,5.657969,54.124251,-0.125809,0.0289,1.006256,0.039014,0.001066,0.0026,59.047134,20.883789,-153.557327,,,
729862086.502398,2.089085,5.652119,54.12754,-0.131332,0.034637,0.990631,0.027439,0.008786,0.016977,59.047134,20.883789,-153.557327,,,
729862086.505643,2.089085,5.652119,54.12754,-0.131332,0.034637,0.990631,0.027439,0.008786,0.016977,59.047134,20.883789,-153.557327,,,
729862086.509053,2.095643,5.653199,54.133428,-0.131332,0.034637,0.990631,0.027439,0.008786,0.016977,59.047134,20.883789,-153.557327,,,
729862086.512358,2.095584,5.652403,54.141837,-0.136124,0.04393,0.967834,0.005555,-0.006669,0.032637,59.179993,20.984497,-153.733795,,,
729862086.515662,2.095584,5.652403,54.141837,-0.136124,0.04393,0.967834,0.005555,-0.006669,0.032637,59.179993,20.984497,-153.733795,,,
729862086.519008,2.096085,5.647703,54.152777,-0.136124,0.04393,0.967834,0.005555,-0.006669,0.032637,59.179993,20.984497,-153.733795,,,
729862086.522333,2.08955,5.643032,54.165645,-0.129425,0.054214,0.945892,-0.022673,-0.030005,0.044214,59.179993,20.984497,-153.733795,,,
729862086.525757,2.08955,5.643032,54.165645,-0.129425,0.054214,0.945892,-0.022673,-0.030005,0.044214,59.179993,20.984497,-153.733795,,,
729862086.529013,2.082625,5.631585,54.179727,-0.129425,0.054214,0.945892,-0.022673,-0.030005,0.044214,59.179993,20.984497,-153.733795,,,
729862086.532328,2.069752,5.621354,54.19432,-0.116135,0.059372,0.940918,-0.045816,-0.047594,0.046497,59.179993,20.984497,-153.733795,,,
729862086.535674,2.069752,5.621354,54.19432,-0.116135,0.059372,0.940918,-0.045816,-0.047594,0.046497,59.179993,20.984497,-153.733795,,,
729862086.539007,2.056905,5.606649,54.208711,-0.116135,0.059372,0.940918,-0.045816,-0.047594,0.046497,59.179993,20.984497,-153.733795,,,
729862086.542317,2.040258,5.597039,54.221779,-0.096832,0.061096,0.947311,-0.05695,-0.037394,0.036998,59.179993,20.984497,-153.733795,,,
729862086.545716,2.040258,5.597039,54.221779,-0.096832,0.061096,0.947311,-0.05695,-0.037394,0.036998,59.179993,20.984497,-153.733795,,,
729862086.548996,2.023957,5.586158,54.233035,-0.096832,0.061096,0.947311,-0.05695,-0.037394,0.036998,59.179993,20.984497,-153.733795,,,
729862086.552317,2.004099,5.582147,54.241533,-0.082077,0.060501,0.958038,-0.064524,-0.022404,0.018062,59.138367,21.101959,-153.793015,,,
729862086.55567,2.004099,5.582147,54.241533,-0.082077,0.060501,0.958038,-0.064524,-0.022404,0.018062,59.138367,21.101959,-153.793015,,,
729862086.55904,1.98647,5.576516,54.247908,-0.082077,0.060501,0.958038,-0.064524,-0.022404,0.018062,59.138367,21.101959,-153.793015,,,
729862086.56231,1.967573,5.58059,54.251696,-0.072739,0.057373,0.980072,-0.059856,0.009386,0.001625,59.138367,21.101959,-153.793015,,,
729862086.565668,1.967573,5.58059,54.251696,-0.072739,0.057373,0.980072,-0.059856,0.009386,0.001625,59.138367,21.101959,-153.793015,,,
729862086.568991,1.950623,5.58628,54.253644,-0.072739,0.057373,0.980072,-0.059856,0.009386,0.001625,59.138367,21.101959,-153.793015,,,
729862086.572316,1.933088,5.605835,54.253923,-0.072464,0.047165,1.001923,-0.057545,0.064417,-0.008524,59.138367,21.101959,-153.793015,,,
729862086.575648,1.933088,5.605835,54.253923,-0.072464,0.047165,1.001923,-0.057545,0.064417,-0.008524,59.138367,21.101959,-153.793015,,,
729862086.578997,1.916726,5.626088,54.253031,-0.072464,0.047165,1.001923,-0.057545,0.064417,-0.008524,59.138367,21.101959,-153.793015,,,
729862086.582316,1.901484,5.65771,54.251535,-0.081406,0.041611,1.012634,-0.049263,0.091241,-0.0102,59.138367,21.101959,-153.793015,,,
729862086.585709,1.901484,5.65771,54.251535,-0.081406,0.041611,1.012634,-0.049263,0.091241,-0.0102,59.138367,21.101959,-153.793015,,,
729862086.588994,1.888392,5.682834,54.250354,-0.081406,0.041611,1.012634,-0.049263,0.091241,-0.0102,59.138367,21.101959,-153.793015,,,
729862086.592376,1.879788,5.715283,54.249221,-0.098267,0.035355,1.013885,-0.026135,0.073412,-0.005427,59.136902,21.395828,-153.675049,,,
729862086.595655,1.879788,5.715283,54.249221,-0.098267,0.035355,1.013885,-0.026135,0.073412,-0.005427,59.136902,21.395828,-153.675049,,,
729862086.599056,1.873052,5.73269,54.249631,-0.098267,0.035355,1.013885,-0.026135,0.073412,-0.005427,59.136902,21.395828,-153.675049,,,
729862086.602308,1.871327,5.752716,54.250312,-0.110046,0.032318,1.010864,-0.010615,0.025589,0.000201,59.136902,21.395828,-153.675049,,,
729862086.605666,1.871327,5.752716,54.250312,-0.110046,0.032318,1.010864,-0.010615,0.025589,0.000201,59.136902,21.395828,-153.675049,,,
729862086.608999,1.87018,5.755902,54.251552,-0.110046,0.032318,1.010864,-0.010615,0.025589,0.000201,59.136902,21.395828,-153.675049,,,
729862086.612314,1.876093,5.75826,54.2537,-0.112885,0.032684,1.009781,0.012222,-0.025096,0.010385,59.136902,21.395828,-153.675049,,,
729862086.61565,1.876093,5.75826,54.2537,-0.112885,0.032684,1.009781,0.012222,-0.025096,0.010385,59.136902,21.395828,-153.675049,,,
729862086.618986,1.881324,5.746193,54.257664,-0.112885,0.032684,1.009781,0.012222,-0.025096,0.010385,59.136902,21.395828,-153.675049,,,
729862086.622346,1.892627,5.728689,54.262665,-0.111832,0.033112,1.008331,0.027377,-0.073765,0.019484,59.136902,21.395828,-153.675049,,,
729862086.62575,1.892627,5.728689,54.262665,-0.111832,0.033112,1.008331,0.027377,-0.073765,0.019484,59.136902,21.395828,-153.675049,,,
729862086.628998,1.901062,5.703588,54.268588,-0.111832,0.033112,1.008331,0.027377,-0.073765,0.019484,59.136902,21.395828,-153.675049,,,
729862086.632336,1.913686,5.671636,54.275271,-0.097366,0.042953,1.001892,0.029902,-0.103212,0.024486,59.181244,21.621902,-153.795242,,,
729862086.635703,1.913686,5.671636,54.275271,-0.097366,0.042953,1.001892,0.029902,-0.103212,0.024486,59.181244,21.621902,-153.795242,,,
729862086.639026,1.923266,5.641177,54.281531,-0.097366,0.042953,1.001892,0.029902,-0.103212,0.024486,59.181244,21.621902,-153.795242,,,
729862086.642327,1.935874,5.607438,54.286967,-0.07988,0.046051,1.00621,0.027963,-0.087687,0.017199,59.181244,21.621902,-153.795242,,,
729862086.645568,1.935874,5.607438,54.286967,-0.07988,0.046051,1.00621,0.027963,-0.087687,0.017199,59.181244,21.621902,-153.795242,,,
729862086.649024,1.943902,5.585131,54.2913,-0.07988,0.046051,1.00621,0.027963,-0.087687,0.017199,59.181244,21.621902,-153.795242,,,
729862086.652324,1.952647,5.563671,54.294287,-0.062363,0.048157,1.010178,0.019516,-0.035435,0.005264,59.181244,21.621902,-153.795242,,,
729862086.655663,1.952647,5.563671,54.294287,-0.062363,0.048157,1.010178,0.019516,-0.035435,0.005264,59.181244,21.621902,-153.795242,,,
729862086.659,1.957342,5.557085,54.295069,-0.062363,0.048157,1.010178,0.019516,-0.035435,0.005264,59.181244,21.621902,-153.795242,,,
729862086.662327,1.961276,5.553702,54.294811,-0.057739,0.047211,1.013031,0.008321,0.018895,-0.004203,59.181244,21.621902,-153.795242,,,
729862086.665672,1.961276,5.553702,54.294811,-0.057739,0.047211,1.013031,0.008321,0.018895,-0.004203,59.181244,21.621902,-153.795242,,,
729862086.669014,1.962953,5.561564,54.292722,-0.057739,0.047211,1.013031,0.008321,0.018895,-0.004203,59.181244,21.621902,-153.795242,,,
729862086.672321,1.964396,5.574423,54.288893,-0.065521,0.044937,1.018188,0.005819,0.061542,-0.017011,59.181244,21.621902,-153.795242,,,
729862086.675649,1.964396,5.574423,54.288893,-0.065521,0.044937,1.018188,0.005819,0.061542,-0.017011,59.284561,21.370102,-153.867554,,,
729862086.679021,1.965244,5.593215,54.283493,-0.065521,0.044937,1.018188,0.005819,0.061542,-0.017011,59.284561,21.370102,-153.867554,,,
729862086.682314,1.966185,5.616234,54.277267,-0.081543,0.036041,1.021423,0.00932,0.074396,-0.021908,59.284561,21.370102,-153.867554,,,
729862086.685658,1.966185,5.616234,54.277267,-0.081543,0.036041,1.021423,0.00932,0.074396,-0.021908,59.284561,21.370102,-153.867554,,,
729862086.689093,1.96879,5.635859,54.271306,-0.081543,0.036041,1.021423,0.00932,0.074396,-0.021908,59.284561,21.370102,-153.867554,,,
729862086.692328,1.972642,5.656145,54.265762,-0.09938,0.031265,1.018478,0.019458,0.048635,-0.016851,59.284561,21.370102,-153.867554,,,
729862086.695686,1.972642,5.656145,54.265762,-0.09938,0.031265,1.018478,0.019458,0.048635,-0.016851,59.284561,21.370102,-153.867554,,,
729862086.698996,1.979091,5.66635,54.26118,-0.09938,0.031265,1.018478,0.019458,0.048635,-0.016851,59.284561,21.370102,-153.867554,,,
729862086.70234,1.988332,5.675356,54.25712,-0.111969,0.029953,1.018936,0.041991,0.002785,-0.009655,59.284561,21.370102,-153.867554,,,
729862086.705662,1.988332,5.675356,54.25712,-0.111969,0.029953,1.018936,0.041991,0.002785,-0.009655,59.284561,21.370102,-153.867554,,,
729862086.708993,2.001684,5.672316,54.253432,-0.111969,0.029953,1.018936,0.041991,0.002785,-0.009655,59.284561,21.370102,-153.867554,,,
729862086.712318,2.018701,5.663204,54.249802,-0.114899,0.026047,1.017349,0.061403,-0.041129,-0.007286,59.284561,21.370102,-153.867554,,,
729862086.715676,2.018701,5.663204,54.249802,-0.114899,0.026047,1.017349,0.061403,-0.041129,-0.007286,59.163315,21.063644,-153.604736,,,
729862086.719007,2.037402,5.648952,54.24615,-0.114899,0.026047,1.017349,0.061403,-0.041129,-0.007286,59.163315,21.063644,-153.604736,,,
729862086.722318,2.060047,5.628639,54.24245,-0.107483,0.028381,1.01358,0.080825,-0.059438,-0.006572,59.163315,21.063644,-153.604736,,,
729862086.725718,2.060047,5.628639,54.24245,-0.107483,0.028381,1.01358,0.080825,-0.059438,-0.006572,59.163315,21.063644,-153.604736,,,
729862086.728984,2.083896,5.611174,54.238013,-0.107483,0.028381,1.01358,0.080825,-0.059438,-0.006572,59.163315,21.063644,-153.604736,,,
729862086.732317,2.110402,5.588214,54.233372,-0.093719,0.028748,1.015015,0.090661,-0.0482,-0.008906,59.163315,21.063644,-153.604736,,,
729862086.735661,2.110402,5.588214,54.233372,-0.093719,0.028748,1.015015,0.090661,-0.0482,-0.008906,59.163315,21.063644,-153.604736,,,
729862086.739055,2.135174,5.575979,54.228392,-0.093719,0.028748,1.015015,0.090661,-0.0482,-0.008906,59.163315,21.063644,-153.604736,,,
729862086.742309,2.159567,5.55966,54.223758,-0.086884,0.031738,1.006516,0.08107,-0.013712,-0.009754,59.163315,21.063644,-153.604736,,,
729862086.745648,2.159567,5.55966,54.223758,-0.086884,0.031738,1.006516,0.08107,-0.013712,-0.009754,59.163315,21.063644,-153.604736,,,
729862086.748989,2.181922,5.557796,54.218633,-0.086884,0.031738,1.006516,0.08107,-0.013712,-0.009754,59.163315,21.063644,-153.604736,,,
729862086.752315,2.203835,5.552472,54.212466,-0.08287,0.036667,0.997696,0.073551,0.020135,-0.020032,59.163315,21.063644,-153.604736,,,
729862086.755648,2.203835,5.552472,54.212466,-0.08287,0.036667,0.997696,0.073551,0.020135,-0.020032,59.259735,20.751801,-153.553467,,,
729862086.759007,2.223251,5.559385,54.204523,-0.08287,0.036667,0.997696,0.073551,0.020135,-0.020032,59.259735,20.751801,-153.553467,,,
729862086.762316,2.240353,5.56395,54.196241,-0.095154,0.038879,0.997314,0.058976,0.043338,-0.025443,59.259735,20.751801,-153.553467,,,
729862086.765714,2.240353,5.56395,54.196241,-0.095154,0.038879,0.997314,0.058976,0.043338,-0.025443,59.259735,20.751801,-153.553467,,,
729862086.76908,2.255117,5.576934,54.187685,-0.095154,0.038879,0.997314,0.058976,0.043338,-0.025443,59.259735,20.751801,-153.553467,,,
729862086.772317,2.266231,5.588771,54.181088,-0.118042,0.037827,0.984879,0.040574,0.045301,-0.013942,59.259735,20.751801,-153.553467,,,
729862086.775671,2.266231,5.588771,54.181088,-0.118042,0.037827,0.984879,0.040574,0.045301,-0.013942,59.259735,20.751801,-153.553467,,,
729862086.779056,2.275431,5.600134,54.177862,-0.118042,0.037827,0.984879,0.040574,0.045301,-0.013942,59.259735,20.751801,-153.553467,,,
729862086.78233,2.279798,5.611811,54.178395,-0.133682,0.044632,0.963379,0.015449,0.026666,0.010851,59.259735,20.751801,-153.553467,,,
729862086.785655,2.279798,5.611811,54.178395,-0.133682,0.044632,0.963379,0.015449,0.026666,0.010851,59.259735,20.751801,-153.553467,,,
729862086.788992,2.2822,5.615737,54.183156,-0.133682,0.044632,0.963379,0.015449,0.026666,0.010851,59.259735,20.751801,-153.553467,,,
729862086.792316,2.277861,5.619846,54.190546,-0.140366,0.050125,0.948807,-0.015687,-0.00606,0.027607,59.259735,20.751801,-153.553467,,,
729862086.795648,2.277861,5.619846,54.190546,-0.140366,0.050125,0.948807,-0.015687,-0.00606,0.027607,59.266342,20.631119,-153.18985,,,
729862086.799001,2.27268,5.615117,54.200092,-0.140366,0.050125,0.948807,-0.015687,-0.00606,0.027607,59.266342,20.631119,-153.18985,,,
729862086.802325,2.263205,5.609679,54.210332,-0.132202,0.050812,0.949615,-0.032732,-0.031019,0.03154,59.266342,20.631119,-153.18985,,,
729862086.805744,2.263205,5.609679,54.210332,-0.132202,0.050812,0.949615,-0.032732,-0.031019,0.03154,59.266342,20.631119,-153.18985,,,
729862086.809003,2.25598,5.598078,54.220453,-0.132202,0.050812,0.949615,-0.032732,-0.031019,0.03154,59.266342,20.631119,-153.18985,,,
729862086.812328,2.250858,5.584859,54.229837,-0.119064,0.044739,0.971313,-0.007068,-0.03731,0.028701,59.266342,20.631119,-153.18985,,,
729862086.815663,2.250858,5.584859,54.229837,-0.119064,0.044739,0.971313,-0.007068,-0.03731,0.028701,59.266342,20.631119,-153.18985,,,
729862086.819063,2.251307,5.574612,54.238495,-0.119064,0.044739,0.971313,-0.007068,-0.03731,0.028701,59.266342,20.631119,-153.18985,,,
729862086.82232,2.254002,5.56576,54.2467,-0.106689,0.034744,1.00029,0.018114,-0.00704,0.027218,59.266342,20.631119,-153.18985,,,
729862086.825654,2.254002,5.56576,54.2467,-0.106689,0.034744,1.00029,0.018114,-0.00704,0.027218,59.266342,20.631119,-153.18985,,,
729862086.829014,2.260731,5.565308,54.253851,-0.106689,0.034744,1.00029,0.018114,-0.00704,0.027218,59.266342,20.631119,-153.18985,,,
729862086.832371,2.267879,5.566398,54.260756,-0.095673,0.035217,1.001068,0.025655,0.034278,0.025027,59.266342,20.631119,-153.18985,,,
729862086.835657,2.267879,5.566398,54.260756,-0.095673,0.035217,1.001068,0.025655,0.034278,0.025027,59.266342,20.631119,-153.18985,,,
729862086.838998,2.274804,5.578189,54.267341,-0.095673,0.035217,1.001068,0.025655,0.034278,0.025027,59.351547,20.739609,-153.273834,,,
729862086.842324,2.279204,5.59297,54.273237,-0.08725,0.041397,0.986938,0.009124,0.072477,0.017907,59.351547,20.739609,-153.273834,,,
729862086.845458,2.279204,5.59297,54.273237,-0.08725,0.041397,0.986938,0.009124,0.072477,0.017907,59.351547,20.739609,-153.273834,,,
729862086.849021,2.279043,5.613718,54.277577,-0.08725,0.041397,0.986938,0.009124,0.072477,0.017907,59.351547,20.739609,-153.273834,,,
729862086.852314,2.272473,5.64105,54.280117,-0.089157,0.045181,0.96965,-0.032633,0.081398,0.002634,59.351547,20.739609,-153.273834,,,
729862086.855674,2.272473,5.64105,54.280117,-0.089157,0.045181,0.96965,-0.032633,0.081398,0.002634,59.351547,20.739609,-153.273834,,,
729862086.859066,2.261091,5.662596,54.281629,-0.089157,0.045181,0.96965,-0.032633,0.081398,0.002634,59.351547,20.739609,-153.273834,,,
729862086.862349,2.246726,5.694594,54.282178,-0.098267,0.041412,0.96666,-0.057652,0.064593,-0.003234,59.351547,20.739609,-153.273834,,,
729862086.86565,2.246726,5.694594,54.282178,-0.098267,0.041412,0.96666,-0.057652,0.064593,-0.003234,59.351547,20.739609,-153.273834,,,
729862086.869009,2.229409,5.71025,54.284242,-0.098267,0.041412,0.96666,-0.057652,0.064593,-0.003234,59.351547,20.739609,-153.273834,,,
729862086.872318,2.213943,5.740155,54.287432,-0.112885,0.036499,0.974136,-0.063443,0.033797,0.008963,59.351547,20.739609,-153.273834,,,
729862086.87566,2.213943,5.740155,54.287432,-0.112885,0.036499,0.974136,-0.063443,0.033797,0.008963,59.351547,20.739609,-153.273834,,,
729862086.878995,2.196587,5.745995,54.292889,-0.112885,0.036499,0.974136,-0.063443,0.033797,0.008963,59.629349,20.77774,-153.079239,,,
729862086.882316,2.184435,5.762242,54.299766,-0.12236,0.032242,0.98053,-0.048737,-0.008173,0.024852,59.629349,20.77774,-153.079239,,,
729862086.885718,2.184435,5.762242,54.299766,-0.12236,0.032242,0.98053,-0.048737,-0.008173,0.024852,59.629349,20.77774,-153.079239,,,
729862086.888995,2.174002,5.755319,54.309685,-0.12236,0.032242,0.98053,-0.048737,-0.008173,0.024852,59.629349,20.77774,-153.079239,,,
729862086.892318,2.171226,5.751313,54.320418,-0.116547,0.028214,0.991867,-0.009769,-0.050358,0.036791,59.629349,20.77774,-153.079239,,,
729862086.895667,2.171226,5.751313,54.320418,-0.116547,0.028214,0.991867,-0.009769,-0.050358,0.036791,59.629349,20.77774,-153.079239,,,
729862086.899042,2.171794,5.73428,54.331604,-0.116547,0.028214,0.991867,-0.009769,-0.050358,0.036791,59.629349,20.77774,-153.079239,,,
729862086.90231,2.177254,5.718052,54.34189,-0.097458,0.02887,0.999435,0.025862,-0.067108,0.034963,59.629349,20.77774,-153.079239,,,
729862086.905666,2.177254,5.718052,54.34189,-0.097458,0.02887,0.999435,0.025862,-0.067108,0.034963,59.629349,20.77774,-153.079239,,,
729862086.909006,2.187863,5.697858,54.350214,-0.097458,0.02887,0.999435,0.025862,-0.067108,0.034963,59.629349,20.77774,-153.079239,,,
729862086.912315,2.200871,5.678329,54.355783,-0.073013,0.030762,1.001907,0.050427,-0.057302,0.017858,59.629349,20.77774,-153.079239,,,
729862086.915707,2.200871,5.678329,54.355783,-0.073013,0.030762,1.001907,0.050427,-0.057302,0.017858,59.629349,20.77774,-153.079239,,,
729862086.919,2.214758,5.662647,54.358193,-0.073013,0.030762,1.001907,0.050427,-0.057302,0.017858,59.280289,20.925964,-153.294571,,,
729862086.922356,2.226147,5.649145,54.357093,-0.056915,0.039886,0.987991,0.034363,-0.022412,-0.00903,59.280289,20.925964,-153.294571,,,
729862086.925742,2.226147,5.649145,54.357093,-0.056915,0.039886,0.987991,0.034363,-0.022412,-0.00903,59.280289,20.925964,-153.294571,,,
729862086.928989,2.233067,5.645624,54.352881,-0.056915,0.039886,0.987991,0.034363,-0.022412,-0.00903,59.280289,20.925964,-153.294571,,,
729862086.932327,2.235322,5.645946,54.347401,-0.049484,0.04599,0.97168,-0.004442,0.021913,-0.022439,59.280289,20.925964,-153.294571,,,
729862086.935666,2.235322,5.645946,54.347401,-0.049484,0.04599,0.97168,-0.004442,0.021913,-0.022439,59.280289,20.925964,-153.294571,,,
729862086.93907,2.230458,5.654089,54.340873,-0.049484,0.04599,0.97168,-0.004442,0.021913,-0.022439,59.280289,20.925964,-153.294571,,,
729862086.942319,2.221122,5.665484,54.333137,-0.057175,0.047333,0.964691,-0.039381,0.046436,-0.034553,59.280289,20.925964,-153.294571,,,
729862086.945669,2.221122,5.665484,54.333137,-0.057175,0.047333,0.964691,-0.039381,0.046436,-0.034553,59.280289,20.925964,-153.294571,,,
729862086.949013,2.206083,5.679054,54.3238,-0.057175,0.047333,0.964691,-0.039381,0.046436,-0.034553,59.280289,20.925964,-153.294571,,,
729862086.952351,2.18672,5.69653,54.313326,-0.06868,0.048447,0.96582,-0.068425,0.047983,-0.044563,59.280289,20.925964,-153.294571,,,
729862086.955679,2.18672,5.69653,54.313326,-0.06868,0.048447,0.96582,-0.068425,0.047983,-0.044563,59.280289,20.925964,-153.294571,,,
729862086.959056,2.165625,5.708103,54.30305,-0.06868,0.048447,0.96582,-0.068425,0.047983,-0.044563,59.280289,20.925964,-153.294571,,,
729862086.96232,2.144586,5.723486,54.292829,-0.084641,0.041794,0.969437,-0.06416,0.024741,-0.041956,59.405243,20.849045,-153.247284,,,
