Time (sec),Pitch (deg),Roll (deg),Yaw(deg),X-Acceleration (g),Y-Acceleration (g),Z-Acceleration (g),Pitch Rate (deg/sec),Roll Rate (deg/sec),Yaw Rate (deg/sec),Magnetic Field in X direction (uT),Magnetic Field in Y direction (uT),Magnetic Field in Z Direction (uT),Latitude (deg),Longitude (deg),Altitude (m)
729862221.416381,0.163286,3.175746,49.074995,-0.05864,-0.002258,1.005402,-0.013505,0.045875,0.008025,59.490372,21.126404,-153.592911,,,
729862221.419767,0.160615,3.187526,49.077832,-0.05864,-0.002258,1.005402,-0.013505,0.045875,0.008025,59.490372,21.126404,-153.592911,,,
729862221.423028,0.15959,3.20065,49.079645,-0.060547,0.000504,1.003372,0.007044,0.031316,0.002134,59.490372,21.126404,-153.592911,,,
729862221.426431,0.15959,3.20065,49.079645,-0.060547,0.000504,1.003372,0.007044,0.031316,0.002134,59.490372,21.126404,-153.592911,,,
729862221.429744,0.16285,3.206433,49.07986,-0.060547,0.000504,1.003372,0.007044,0.031316,0.002134,59.490372,21.126404,-153.592911,,,
729862221.433039,0.168384,3.212647,49.078715,-0.060471,0.001343,1.000183,0.022329,0.003285,-0.006383,59.490372,21.126404,-153.592911,,,
729862221.436385,0.168384,3.212647,49.078715,-0.060471,0.001343,1.000183,0.022329,0.003285,-0.006383,59.490372,21.126404,-153.592911,,,
729862221.439731,0.174409,3.211734,49.07716,-0.060471,0.001343,1.000183,0.022329,0.003285,-0.006383,59.490372,21.126404,-153.592911,,,
729862221.443096,0.181043,3.210375,49.076228,-0.064133,0.001175,0.991592,0.018007,-0.007793,-0.002255,59.490372,21.126404,-153.592911,,,
729862221.446364,0.181043,3.210375,49.076228,-0.064133,0.001175,0.991592,0.018007,-0.007793,-0.002255,59.244385,21.098892,-153.296371,,,
729862221.449703,0.184931,3.207269,49.076575,-0.064133,0.001175,0.991592,0.018007,-0.007793,-0.002255,59.244385,21.098892,-153.296371,,,
729862221.453033,0.187469,3.202042,49.07996,-0.067139,0.004822,0.980469,-0.001913,-0.014665,0.017708,59.244385,21.098892,-153.296371,,,
729862221.456433,0.187469,3.202042,49.07996,-0.067139,0.004822,0.980469,-0.001913,-0.014665,0.017708,59.244385,21.098892,-153.296371,,,
729862221.45975,0.186226,3.19556,49.086774,-0.067139,0.004822,0.980469,-0.001913,-0.014665,0.017708,59.244385,21.098892,-153.296371,,,
729862221.463037,0.184843,3.184957,49.096133,-0.065979,0.005997,0.974106,-0.016284,-0.030989,0.034589,59.244385,21.098892,-153.296371,,,
729862221.466384,0.184843,3.184957,49.096133,-0.065979,0.005997,0.974106,-0.016284,-0.030989,0.034589,59.244385,21.098892,-153.296371,,,
729862221.469816,0.180123,3.175059,49.106372,-0.065979,0.005997,0.974106,-0.016284,-0.030989,0.034589,59.244385,21.098892,-153.296371,,,
729862221.473109,0.175361,3.164384,49.115084,-0.05011,0.008453,0.985809,-0.022364,-0.028881,0.023552,59.244385,21.098892,-153.296371,,,
729862221.476529,0.175361,3.164384,49.115084,-0.05011,0.008453,0.985809,-0.022364,-0.028881,0.023552,59.244385,21.098892,-153.296371,,,
729862221.479705,0.168885,3.155221,49.121251,-0.05011,0.008453,0.985809,-0.022364,-0.028881,0.023552,59.244385,21.098892,-153.296371,,,
729862221.483037,0.16269,3.145936,49.125097,-0.038361,0.00769,0.998169,-0.019261,-0.030688,0.007511,59.244385,21.098892,-153.296371,,,
729862221.486379,0.16269,3.145936,49.125097,-0.038361,0.00769,0.998169,-0.019261,-0.030688,0.007511,59.246735,21.064362,-153.798233,,,
729862221.489737,0.158732,3.136257,49.126674,-0.038361,0.00769,0.998169,-0.019261,-0.030688,0.007511,59.246735,21.064362,-153.798233,,,
729862221.493097,0.15718,3.127948,49.125879,-0.033356,0.002579,1.008728,0.005326,-0.032577,-0.007657,59.246735,21.064362,-153.798233,,,
729862221.49644,0.15718,3.127948,49.125879,-0.033356,0.002579,1.008728,0.005326,-0.032577,-0.007657,59.246735,21.064362,-153.798233,,,
729862221.499717,0.159795,3.118089,49.123201,-0.033356,0.002579,1.008728,0.005326,-0.032577,-0.007657,59.246735,21.064362,-153.798233,,,
729862221.503035,0.163794,3.112162,49.118939,-0.031509,0.002319,1.021393,0.020922,-0.022626,-0.017843,59.246735,21.064362,-153.798233,,,
729862221.506371,0.163794,3.112162,49.118939,-0.031509,0.002319,1.021393,0.020922,-0.022626,-0.017843,59.246735,21.064362,-153.798233,,,
729862221.50975,0.169195,3.107404,49.112964,-0.031509,0.002319,1.021393,0.020922,-0.022626,-0.017843,59.246735,21.064362,-153.798233,,,
729862221.513052,0.173812,3.110997,49.10542,-0.033585,0.003494,1.017029,0.019442,0.012777,-0.028796,59.246735,21.064362,-153.798233,,,
729862221.51638,0.173812,3.110997,49.10542,-0.033585,0.003494,1.017029,0.019442,0.012777,-0.028796,59.246735,21.064362,-153.798233,,,
729862221.519756,0.178024,3.116107,49.096427,-0.033585,0.003494,1.017029,0.019442,0.012777,-0.028796,59.246735,21.064362,-153.798233,,,
729862221.523059,0.178024,3.130559,49.08645,-0.03833,0.00589,1.007538,0.006099,0.042061,-0.036262,59.246735,21.064362,-153.798233,,,
729862221.526436,0.179668,3.130559,49.08645,-0.03833,0.00589,1.007538,0.006099,0.042061,-0.036262,59.246735,21.064362,-153.798233,,,
729862221.529718,0.17991,3.143429,49.0757,-0.03833,0.00589,1.007538,0.006099,0.042061,-0.036262,59.709167,20.964294,-153.814316,,,
729862221.532936,0.17991,3.143429,49.0757,-0.03833,0.00589,1.007538,-0.009081,0.055436,-0.039305,59.709167,20.964294,-153.814316,,,
729862221.536393,0.177964,3.164632,49.064616,-0.04924,0.007919,0.998795,-0.009081,0.055436,-0.039305,59.709167,20.964294,-153.814316,,,
729862221.539718,0.173072,3.180585,49.055052,-0.04924,0.007919,0.998795,-0.009081,0.055436,-0.039305,59.709167,20.964294,-153.814316,,,
729862221.543085,0.166127,3.204284,49.047681,-0.065536,0.008698,0.989487,-0.03001,0.058722,-0.025071,59.709167,20.964294,-153.814316,,,
729862221.546426,0.166127,3.204284,49.047681,-0.065536,0.008698,0.989487,-0.03001,0.058722,-0.025071,59.709167,20.964294,-153.814316,,,
729862221.549717,0.156256,3.219442,49.042776,-0.065536,0.008698,0.989487,-0.03001,0.058722,-0.025071,59.709167,20.964294,-153.814316,,,
729862221.553037,0.156256,3.219442,49.040164,-0.072891,0.006042,0.988602,-0.036815,0.044018,-0.009441,59.709167,20.964294,-153.814316,,,
729862221.55639,0.146913,3.232107,49.040164,-0.072891,0.006042,0.988602,-0.036815,0.044018,-0.009441,59.709167,20.964294,-153.814316,,,
729862221.559744,0.136316,3.242169,49.038982,-0.072891,0.006042,0.988602,-0.036815,0.044018,-0.009441,59.709167,20.964294,-153.814316,,,
729862221.563039,0.136316,3.242169,49.038982,-0.072891,0.006042,0.988602,-0.036815,0.044018,-0.009441,59.709167,20.964294,-153.814316,,,
729862221.566365,0.127867,3.240887,49.038426,-0.071381,0.003036,0.996368,-0.032929,0.0226,-0.004926,59.709167,20.964294,-153.814316,,,
729862221.569758,0.119584,3.244307,49.037848,-0.071381,0.003036,0.996368,-0.032929,0.0226,-0.004926,59.562607,21.16745,-153.928238,,,
729862221.573096,0.119584,3.244307,49.037848,-0.06662,7.6e-05,1.004044,-0.00957,-0.011276,-0.006353,59.562607,21.16745,-153.928238,,,
729862221.576445,0.115171,3.2313,49.036903,-0.06662,7.6e-05,1.004044,-0.00957,-0.011276,-0.006353,59.562607,21.16745,-153.928238,,,
729862221.57975,0.115014,3.225102,49.035234,-0.06662,7.6e-05,1.004044,-0.00957,-0.011276,-0.006353,59.562607,21.16745,-153.928238,,,
729862221.583198,0.119997,3.202777,49.032596,-0.057846,-0.005814,1.019135,0.025506,-0.031112,-0.011307,59.562607,21.16745,-153.928238,,,
729862221.586386,0.119997,3.202777,49.032596,-0.057846,-0.005814,1.019135,0.025506,-0.031112,-0.011307,59.562607,21.16745,-153.928238,,,
729862221.589722,0.1289,3.193345,49.028389,-0.057846,-0.005814,1.019135,0.025506,-0.031112,-0.011307,59.562607,21.16745,-153.928238,,,
729862221.593135,0.1289,3.193345,49.028389,-0.055405,-0.005447,1.0233,0.047652,-0.01811,-0.019317,59.562607,21.16745,-153.928238,,,
729862221.596381,0.141387,3.173556,49.022891,-0.055405,-0.005447,1.0233,0.047652,-0.01811,-0.019317,59.562607,21.16745,-153.928238,,,
729862221.599811,0.15569,3.169028,49.016752,-0.055405,-0.005447,1.0233,0.047652,-0.01811,-0.019317,59.562607,21.16745,-153.928238,,,
729862221.603057,0.15569,3.169028,49.016752,-0.055405,-0.005447,1.0233,0.047652,-0.01811,-0.019317,59.562607,21.16745,-153.928238,,,
729862221.60649,0.17129,3.15816,49.010489,-0.052963,0.000504,1.015167,0.052647,0.00538,-0.020042,59.562607,21.16745,-153.928238,,,
729862221.609851,0.18534,3.160643,49.004003,-0.052963,0.000504,1.015167,0.052647,0.00538,-0.020042,59.269379,20.980408,-153.332062,,,
729862221.613104,0.18534,3.160643,49.004003,-0.052963,0.000504,1.015167,0.037923,0.024623,-0.027211,59.269379,20.980408,-153.332062,,,
729862221.616413,0.198547,3.160951,48.996622,-0.053894,0.004456,0.998489,0.037923,0.024623,-0.027211,59.269379,20.980408,-153.332062,,,
729862221.619709,0.206362,3.168711,48.988709,-0.053894,0.004456,0.998489,0.037923,0.024623,-0.027211,59.269379,20.980408,-153.332062,,,
729862221.623131,0.206362,3.168711,48.988709,-0.060089,0.010315,0.981705,0.00632,0.036891,-0.028691,59.269379,20.980408,-153.332062,,,
729862221.626442,0.210848,3.181776,48.980821,-0.060089,0.010315,0.981705,0.00632,0.036891,-0.028691,59.269379,20.980408,-153.332062,,,
729862221.629711,0.209473,3.192406,48.973068,-0.060089,0.010315,0.981705,0.00632,0.036891,-0.028691,59.269379,20.980408,-153.332062,,,
729862221.633049,0.209473,3.192406,48.973068,-0.060089,0.010315,0.981705,-0.021772,0.042593,-0.025092,59.269379,20.980408,-153.332062,,,
729862221.636374,0.204922,3.212504,48.966014,-0.067093,0.006577,0.975052,-0.021772,0.042593,-0.025092,59.269379,20.980408,-153.332062,,,
729862221.639704,0.196607,3.223243,48.960639,-0.067093,0.006577,0.975052,-0.021772,0.042593,-0.025092,59.269379,20.980408,-153.332062,,,
729862221.643127,0.196607,3.223243,48.960639,-0.067093,0.006577,0.975052,-0.021772,0.042593,-0.025092,59.269379,20.980408,-153.332062,,,
729862221.646439,0.186286,3.241668,48.956886,-0.072479,0.005432,0.982758,-0.037336,0.036791,-0.014453,59.269379,20.980408,-153.332062,,,
729862221.649702,0.174996,3.250799,48.954135,-0.072479,0.005432,0.982758,-0.037336,0.036791,-0.014453,59.630264,20.676224,-153.6651,,,
729862221.653113,0.174996,3.250799,48.954135,-0.072479,0.005432,0.982758,-0.037336,0.036791,-0.014453,59.630264,20.676224,-153.6651,,,
729862221.656366,0.163845,3.2649,48.951884,-0.071426,0.00177,0.995316,-0.033232,0.030893,-0.010622,59.630264,20.676224,-153.6651,,,
729862221.659752,0.154627,3.272555,48.949555,-0.071426,0.00177,0.995316,-0.033232,0.030893,-0.010622,59.630264,20.676224,-153.6651,,,
729862221.663152,0.154627,3.272555,48.949555,-0.071426,0.00177,0.995316,-0.033232,0.030893,-0.010622,59.630264,20.676224,-153.6651,,,
729862221.666376,0.145593,3.280146,48.947219,-0.068771,-0.004639,1.008423,-0.019964,0.025462,-0.009887,59.630264,20.676224,-153.6651,,,
729862221.669705,0.140063,3.285933,48.944556,-0.068771,-0.004639,1.008423,-0.019964,0.025462,-0.009887,59.630264,20.676224,-153.6651,,,
729862221.673039,0.140063,3.285933,48.944556,-0.068771,-0.004639,1.008423,-0.019964,0.025462,-0.009887,59.630264,20.676224,-153.6651,,,
729862221.676424,0.133889,3.289706,48.941283,-0.070724,-0.005844,1.007355,-0.008419,0.021375,-0.013508,59.630264,20.676224,-153.6651,,,
729862221.679707,0.132384,3.294475,48.937896,-0.070724,-0.005844,1.007355,-0.008419,0.021375,-0.013508,59.630264,20.676224,-153.6651,,,
729862221.683189,0.132384,3.294475,48.937896,-0.070724,-0.005844,1.007355,-0.008419,0.021375,-0.013508,59.630264,20.676224,-153.6651,,,
729862221.686431,0.132303,3.297268,48.934959,-0.070541,-0.00441,1.010406,0.006363,0.024506,-0.009562,59.630264,20.676224,-153.6651,,,
729862221.689714,0.135207,3.303874,48.932073,-0.070541,-0.00441,1.010406,0.006363,0.024506,-0.009562,59.630264,20.676224,-153.6651,,,
729862221.693156,0.135207,3.303874,48.932073,-0.070541,-0.00441,1.010406,0.018637,0.026406,-0.012476,59.793564,20.84552,-153.737991,,,
729862221.696368,0.139879,3.308388,48.928664,-0.06752,-0.005264,1.011765,0.018637,0.026406,-0.012476,59.793564,20.84552,-153.737991,,,
729862221.69976,0.14521,3.315391,48.924722,-0.06752,-0.005264,1.011765,0.018637,0.026406,-0.012476,59.793564,20.84552,-153.737991,,,
729862221.703082,0.14521,3.315391,48.924722,-0.06752,-0.005264,1.011765,0.018637,0.026406,-0.012476,59.793564,20.84552,-153.737991,,,
729862221.706422,0.153783,3.322727,48.920136,-0.069229,-0.003281,1.006653,0.029454,0.024981,-0.016378,59.793564,20.84552,-153.737991,,,
729862221.709733,0.162722,3.329107,48.916189,-0.069229,-0.003281,1.006653,0.029454,0.024981,-0.016378,59.793564,20.84552,-153.737991,,,
729862221.713129,0.162722,3.329107,48.916189,-0.069229,-0.003281,1.006653,0.029454,0.024981,-0.016378,59.793564,20.84552,-153.737991,,,
729862221.71644,0.17436,3.340021,48.913392,-0.073959,-0.004791,1.010834,0.038516,0.02798,-0.007761,59.793564,20.84552,-153.737991,,,
729862221.719728,0.186621,3.347858,48.911574,-0.073959,-0.004791,1.010834,0.038516,0.02798,-0.007761,59.793564,20.84552,-153.737991,,,
729862221.723045,0.186621,3.347858,48.911574,-0.073959,-0.004791,1.010834,0.038516,0.02798,-0.007761,59.793564,20.84552,-153.737991,,,
729862221.726444,0.201661,3.362875,48.911623,-0.079712,-0.005127,1.014542,0.054228,0.027361,0.006389,59.793564,20.84552,-153.737991,,,
729862221.72971,0.218474,3.368474,48.91421,-0.079712,-0.005127,1.014542,0.054228,0.027361,0.006389,59.793564,20.84552,-153.737991,,,
729862221.733082,0.218474,3.368474,48.91421,-0.079712,-0.005127,1.014542,0.054228,0.027361,0.006389,59.675827,20.692902,-153.730164,,,
729862221.736456,0.237325,3.377048,48.919063,-0.082626,-0.004059,1.006622,0.06805,0.002417,0.023176,59.675827,20.692902,-153.730164,,,
729862221.739699,0.257061,3.374666,48.924943,-0.082626,-0.004059,1.006622,0.06805,0.002417,0.023176,59.675827,20.692902,-153.730164,,,
729862221.743142,0.257061,3.374666,48.924943,-0.082626,-0.004059,1.006622,0.06805,0.002417,0.023176,59.675827,20.692902,-153.730164,,,
729862221.746372,0.274017,3.373711,48.931318,-0.072739,0.002823,0.99144,0.062721,-0.02283,0.026434,59.675827,20.692902,-153.730164,,,
729862221.74971,0.291144,3.365484,48.937581,-0.072739,0.002823,0.99144,0.062721,-0.02283,0.026434,59.675827,20.692902,-153.730164,,,
729862221.753246,0.291144,3.365484,48.937581,-0.072739,0.002823,0.99144,0.040019,-0.03513,0.018077,59.675827,20.692902,-153.730164,,,
729862221.756439,0.302216,3.360796,48.942807,-0.062836,0.009354,0.976501,0.040019,-0.03513,0.018077,59.675827,20.692902,-153.730164,,,
729862221.759775,0.312413,3.349501,48.947045,-0.062836,0.009354,0.976501,0.040019,-0.03513,0.018077,59.675827,20.692902,-153.730164,,,
729862221.763033,0.312413,3.349501,48.947045,-0.062836,0.009354,0.976501,0.040019,-0.03513,0.018077,59.675827,20.692902,-153.730164,,,
729862221.766389,0.317327,3.344168,48.950322,-0.057114,0.010971,0.973175,0.022221,-0.033572,0.010572,59.675827,20.692902,-153.730164,,,
729862221.769715,0.322717,3.335439,48.953787,-0.057114,0.010971,0.973175,0.022221,-0.033572,0.010572,59.675827,20.692902,-153.730164,,,
729862221.773052,0.322717,3.335439,48.953787,-0.057114,0.010971,0.973175,0.022221,-0.033572,0.010572,59.519943,20.76828,-153.330658,,,
729862221.776424,0.322498,3.336023,48.957593,-0.055984,0.010315,0.980865,0.002883,0.002494,0.011935,59.519943,20.76828,-153.330658,,,
729862221.779709,0.322047,3.338413,48.961995,-0.055984,0.010315,0.980865,0.002883,0.002494,0.011935,59.519943,20.76828,-153.330658,,,
729862221.782925,0.322047,3.338413,48.961995,-0.055984,0.010315,0.980865,0.002883,0.002494,0.011935,59.519943,20.76828,-153.330658,,,
729862221.786457,0.317459,3.351023,48.967982,-0.055969,0.009109,0.985382,-0.010917,0.041435,0.022397,59.519943,20.76828,-153.330658,,,
729862221.789702,0.313811,3.362738,48.975509,-0.055969,0.009109,0.985382,-0.010917,0.041435,0.022397,59.519943,20.76828,-153.330658,,,
729862221.793093,0.313811,3.362738,48.975509,-0.055969,0.009109,0.985382,-0.010917,0.041435,0.022397,59.519943,20.76828,-153.330658,,,
729862221.79639,0.307799,3.381403,48.984308,-0.056564,0.002106,0.992569,-0.009185,0.045518,0.031578,59.519943,20.76828,-153.330658,,,
729862221.799712,0.306677,3.392359,48.993134,-0.056564,0.002106,0.992569,-0.009185,0.045518,0.031578,59.519943,20.76828,-153.330658,,,
729862221.803051,0.306677,3.392359,48.993134,-0.056564,0.002106,0.992569,-0.009185,0.045518,0.031578,59.519943,20.76828,-153.330658,,,
729862221.80638,0.306187,3.409362,49.000346,-0.05658,-0.000549,1.001572,0.014606,0.025671,0.022018,59.519943,20.76828,-153.330658,,,
729862221.809755,0.312795,3.413503,49.005942,-0.05658,-0.000549,1.001572,0.014606,0.025671,0.022018,59.519943,20.76828,-153.330658,,,
729862221.813152,0.312795,3.413503,49.005942,-0.05658,-0.000549,1.001572,0.014606,0.025671,0.022018,59.519943,20.76828,-153.330658,,,
729862221.81638,0.321425,3.423918,49.008985,-0.053436,-0.003143,1.010681,0.047072,-0.005932,0.006644,59.664932,20.731018,-153.648788,,,
729862221.819705,0.337295,3.419125,49.009598,-0.053436,-0.003143,1.010681,0.047072,-0.005932,0.006644,59.664932,20.731018,-153.648788,,,
729862221.823037,0.337295,3.419125,49.009598,-0.053436,-0.003143,1.010681,0.047072,-0.005932,0.006644,59.664932,20.731018,-153.648788,,,
729862221.826482,0.355898,3.41779,49.008799,-0.051285,-0.004547,1.008667,0.07628,-0.034511,-0.001119,59.664932,20.731018,-153.648788,,,
729862221.829698,0.378377,3.406304,49.007172,-0.051285,-0.004547,1.008667,0.07628,-0.034511,-0.001119,59.664932,20.731018,-153.648788,,,
729862221.833054,0.378377,3.406304,49.007172,-0.051285,-0.004547,1.008667,0.07628,-0.034511,-0.001119,59.664932,20.731018,-153.648788,,,
729862221.836383,0.402031,3.397571,49.005288,-0.052322,-0.000732,1.002686,0.08057,-0.039919,-0.002545,59.664932,20.731018,-153.648788,,,
729862221.839701,0.424171,3.386207,49.003195,-0.052322,-0.000732,1.002686,0.08057,-0.039919,-0.002545,59.664932,20.731018,-153.648788,,,
729862221.843079,0.424171,3.386207,49.003195,-0.052322,-0.000732,1.002686,0.08057,-0.039919,-0.002545,59.664932,20.731018,-153.648788,,,
729862221.84638,0.444943,3.377613,49.001122,-0.053116,0.006012,0.992462,0.064084,-0.021626,-0.003408,59.664932,20.731018,-153.648788,,,
729862221.849704,0.461067,3.372109,49.000393,-0.053116,0.006012,0.992462,0.064084,-0.021626,-0.003408,59.664932,20.731018,-153.648788,,,
729862221.853103,0.461067,3.372109,49.000393,-0.053116,0.006012,0.992462,0.064084,-0.021626,-0.003408,59.664932,20.731018,-153.648788,,,
729862221.856503,0.473051,3.367833,49.001361,-0.055008,0.01236,0.978912,0.031088,-0.005908,0.006484,59.647888,20.808517,-153.249481,,,
729862221.859741,0.479154,3.366258,49.003348,-0.055008,0.01236,0.978912,0.031088,-0.005908,0.006484,59.647888,20.808517,-153.249481,,,
729862221.863039,0.479154,3.366258,49.003348,-0.055008,0.01236,0.978912,0.031088,-0.005908,0.006484,59.647888,20.808517,-153.249481,,,
729862221.866427,0.479945,3.364222,49.006361,-0.052673,0.017868,0.960373,-0.009144,-0.001938,0.011181,59.647888,20.808517,-153.249481,,,
729862221.869708,0.474968,3.362695,49.010011,-0.052673,0.017868,0.960373,-0.009144,-0.001938,0.011181,59.647888,20.808517,-153.249481,,,
729862221.873049,0.474968,3.362695,49.010011,-0.052673,0.017868,0.960373,-0.009144,-0.001938,0.011181,59.647888,20.808517,-153.249481,,,
729862221.876428,0.46425,3.360057,49.012742,-0.045151,0.022751,0.955734,-0.040803,-0.001921,0.002815,59.647888,20.808517,-153.249481,,,
729862221.879709,0.451116,3.358489,49.014207,-0.045151,0.022751,0.955734,-0.040803,-0.001921,0.002815,59.647888,20.808517,-153.249481,,,
729862221.883058,0.451116,3.358489,49.014207,-0.045151,0.022751,0.955734,-0.040803,-0.001921,0.002815,59.647888,20.808517,-153.249481,,,
729862221.8864,0.433591,3.355651,49.014322,-0.042206,0.021408,0.962814,-0.057899,-0.006187,-0.007595,59.647888,20.808517,-153.249481,,,
729862221.889717,0.417189,3.352152,49.012571,-0.042206,0.021408,0.962814,-0.057899,-0.006187,-0.007595,59.647888,20.808517,-153.249481,,,
729862221.893112,0.417189,3.352152,49.012571,-0.042206,0.021408,0.962814,-0.057899,-0.006187,-0.007595,59.647888,20.808517,-153.249481,,,
729862221.896395,0.401521,3.346117,49.008707,-0.038925,0.017319,0.981369,-0.040371,-0.01218,-0.021349,59.717773,20.522903,-153.117416,,,
729862221.899723,0.390991,3.343164,49.002219,-0.038925,0.017319,0.981369,-0.040371,-0.01218,-0.021349,59.717773,20.522903,-153.117416,,,
729862221.903055,0.390991,3.343164,49.002219,-0.038925,0.017319,0.981369,-0.040371,-0.01218,-0.021349,59.717773,20.522903,-153.117416,,,
729862221.906462,0.381877,3.34053,48.993016,-0.040176,0.006378,1.01265,-0.015244,0.006043,-0.038894,59.717773,20.522903,-153.117416,,,
729862221.909739,0.379554,3.343072,48.981763,-0.040176,0.006378,1.01265,-0.015244,0.006043,-0.038894,59.717773,20.522903,-153.117416,,,
729862221.913034,0.379554,3.343072,48.981763,-0.040176,0.006378,1.01265,-0.015244,0.006043,-0.038894,59.717773,20.522903,-153.117416,,,
729862221.916388,0.380181,3.347226,48.969547,-0.045349,-0.002533,1.026215,0.019292,0.039296,-0.043724,59.717773,20.522903,-153.117416,,,
729862221.919703,0.38635,3.360025,48.95729,-0.045349,-0.002533,1.026215,0.019292,0.039296,-0.043724,59.717773,20.522903,-153.117416,,,
729862221.923047,0.38635,3.360025,48.95729,-0.045349,-0.002533,1.026215,0.019292,0.039296,-0.043724,59.717773,20.522903,-153.117416,,,
729862221.926429,0.394436,3.374924,48.945797,-0.053802,-0.000946,1.023926,0.035776,0.069173,-0.037478,59.717773,20.522903,-153.117416,,,
729862221.929706,0.404419,3.395534,48.935083,-0.053802,-0.000946,1.023926,0.035776,0.069173,-0.037478,59.717773,20.522903,-153.117416,,,
729862221.933038,0.404419,3.395534,48.935083,-0.053802,-0.000946,1.023926,0.035776,0.069173,-0.037478,59.717773,20.522903,-153.117416,,,
729862221.936374,0.415487,3.416567,48.925164,-0.063599,0.007065,1.004349,0.037326,0.082812,-0.031939,59.757751,20.546509,-153.350464,,,
729862221.939804,0.423524,3.439027,48.916314,-0.063599,0.007065,1.004349,0.037326,0.082812,-0.031939,59.757751,20.546509,-153.350464,,,
729862221.943118,0.423524,3.439027,48.916314,-0.063599,0.007065,1.004349,0.037326,0.082812,-0.031939,59.757751,20.546509,-153.350464,,,
729862221.946455,0.429663,3.458178,48.908529,-0.070007,0.00972,0.977997,0.007179,0.075106,-0.026408,59.757751,20.546509,-153.350464,,,
729862221.949708,0.428729,3.477717,48.902168,-0.070007,0.00972,0.977997,0.007179,0.075106,-0.026408,59.757751,20.546509,-153.350464,,,
729862221.953067,0.428729,3.477717,48.902168,-0.070007,0.00972,0.977997,0.007179,0.075106,-0.026408,59.757751,20.546509,-153.350464,,,
729862221.956444,0.425977,3.489389,48.89716,-0.074768,0.015427,0.959381,-0.027809,0.052673,-0.019412,59.757751,20.546509,-153.350464,,,
729862221.959756,0.414741,3.501457,48.893251,-0.074768,0.015427,0.959381,-0.027809,0.052673,-0.019412,59.757751,20.546509,-153.350464,,,
729862221.963047,0.414741,3.501457,48.893251,-0.074768,0.015427,0.959381,-0.027809,0.052673,-0.019412,59.757751,20.546509,-153.350464,,,
729862221.966174,0.401217,3.503347,48.890783,-0.078262,0.014664,0.955124,-0.06391,0.019937,-0.011834,59.757751,20.546509,-153.350464,,,
729862221.969729,0.380719,3.50536,48.889433,-0.078262,0.014664,0.955124,-0.06391,0.019937,-0.011834,59.757751,20.546509,-153.350464,,,
729862221.973038,0.380719,3.50536,48.889433,-0.078262,0.014664,0.955124,-0.06391,0.019937,-0.011834,59.757751,20.546509,-153.350464,,,
729862221.976435,0.360028,3.496041,48.888748,-0.077225,0.013702,0.955307,-0.080043,-0.014909,-0.008435,59.757751,20.546509,-153.350464,,,
729862221.979699,0.336989,3.490233,48.888498,-0.077225,0.013702,0.955307,-0.080043,-0.014909,-0.008435,60.062027,20.493607,-153.558807,,,
729862221.983062,0.336989,3.490233,48.888498,-0.077225,0.013702,0.955307,-0.080043,-0.014909,-0.008435,60.062027,20.493607,-153.558807,,,
729862221.986456,0.314862,3.477231,48.888975,-0.072678,0.006607,0.976669,-0.078292,-0.018963,-0.003421,60.062027,20.493607,-153.558807,,,
729862221.989704,0.292483,3.471225,48.889782,-0.072678,0.006607,0.976669,-0.078292,-0.018963,-0.003421,60.062027,20.493607,-153.558807,,,
729862221.99309,0.292483,3.471225,48.889782,-0.072678,0.006607,0.976669,-0.078292,-0.018963,-0.003421,60.062027,20.493607,-153.558807,,,
729862221.996386,0.270679,3.461224,48.890462,-0.065247,0.001923,0.991669,-0.068742,-0.0106,-0.003878,60.062027,20.493607,-153.558807,,,
729862221.999711,0.25233,3.457805,48.891042,-0.065247,0.001923,0.991669,-0.068742,-0.0106,-0.003878,60.062027,20.493607,-153.558807,,,
729862222.003065,0.25233,3.457805,48.891042,-0.065247,0.001923,0.991669,-0.068742,-0.0106,-0.003878,60.062027,20.493607,-153.558807,,,
729862222.00639,0.236488,3.452974,48.891491,-0.06308,-0.000702,1.006683,-0.04423,-0.000672,-0.003378,60.062027,20.493607,-153.558807,,,
729862222.009747,0.225598,3.45391,48.89159,-0.06308,-0.000702,1.006683,-0.04423,-0.000672,-0.003378,60.062027,20.493607,-153.558807,,,
729862222.013089,0.225598,3.45391,48.89159,-0.06308,-0.000702,1.006683,-0.04423,-0.000672,-0.003378,60.062027,20.493607,-153.558807,,,
729862222.016376,0.219547,3.459499,48.891271,-0.062668,-0.007996,1.027054,-0.012298,0.032078,-0.00437,60.062027,20.493607,-153.558807,,,
729862222.019705,0.217656,3.469839,48.890346,-0.062668,-0.007996,1.027054,-0.012298,0.032078,-0.00437,59.745224,20.742157,-153.345032,,,
729862222.023036,0.217656,3.469839,48.890346,-0.062668,-0.007996,1.027054,-0.012298,0.032078,-0.00437,59.745224,20.742157,-153.345032,,,
729862222.026502,0.219628,3.48446,48.88878,-0.065979,-0.009583,1.028336,0.010616,0.045458,-0.007425,59.745224,20.742157,-153.345032,,,
729862222.029701,0.223579,3.495903,48.886904,-0.065979,-0.009583,1.028336,0.010616,0.045458,-0.007425,59.745224,20.742157,-153.345032,,,
729862222.032925,0.223579,3.495903,48.886904,-0.065979,-0.009583,1.028336,0.010616,0.045458,-0.007425,59.745224,20.742157,-153.345032,,,
729862222.036419,0.231374,3.509157,48.884718,-0.068558,-0.00502,1.013199,0.027343,0.028114,-0.008438,59.745224,20.742157,-153.345032,,,
729862222.039733,0.239107,3.516493,48.882195,-0.068558,-0.00502,1.013199,0.027343,0.028114,-0.008438,59.745224,20.742157,-153.345032,,,
729862222.043098,0.239107,3.516493,48.882195,-0.068558,-0.00502,1.013199,0.027343,0.028114,-0.008438,59.745224,20.742157,-153.345032,,,
729862222.046435,0.248926,3.528723,48.880167,-0.070816,-0.000244,1.003128,0.029123,0.023237,-0.004643,59.745224,20.742157,-153.345032,,,
729862222.049703,0.257163,3.533201,48.879298,-0.070816,-0.000244,1.003128,0.029123,0.023237,-0.004643,59.745224,20.742157,-153.345032,,,
729862222.053038,0.257163,3.533201,48.879298,-0.070816,-0.000244,1.003128,0.029123,0.023237,-0.004643,59.745224,20.742157,-153.345032,,,
729862222.056402,0.266344,3.54157,48.879841,-0.07489,0.001282,0.990067,0.024299,0.005066,0.005124,59.745224,20.742157,-153.345032,,,
729862222.059761,0.272036,3.540204,48.881927,-0.07489,0.001282,0.990067,0.024299,0.005066,0.005124,60.021561,20.689789,-153.74028,,,
729862222.0631,0.272036,3.540204,48.881927,-0.07489,0.001282,0.990067,0.024299,0.005066,0.005124,60.021561,20.689789,-153.74028,,,
729862222.066374,0.276319,3.539261,48.885841,-0.072388,0.003571,0.974289,0.00879,-0.023789,0.017085,60.021561,20.689789,-153.74028,,,
729862222.06972,0.276769,3.529598,48.891279,-0.072388,0.003571,0.974289,0.00879,-0.023789,0.017085,60.021561,20.689789,-153.74028,,,
729862222.073124,0.276769,3.529598,48.891279,-0.072388,0.003571,0.974289,0.00879,-0.023789,0.017085,60.021561,20.689789,-153.74028,,,
729862222.076449,0.272309,3.518087,48.896374,-0.060974,0.01088,0.966782,-0.021857,-0.048667,0.012822,60.021561,20.689789,-153.74028,,,
729862222.079706,0.264587,3.502471,48.900942,-0.060974,0.01088,0.966782,-0.021857,-0.048667,0.012822,60.021561,20.689789,-153.74028,,,
729862222.083038,0.264587,3.502471,48.900942,-0.060974,0.01088,0.966782,-0.021857,-0.048667,0.012822,60.021561,20.689789,-153.74028,,,
729862222.086435,0.253873,3.486682,48.905023,-0.052002,0.010056,0.971039,-0.038024,-0.054946,0.008564,60.021561,20.689789,-153.74028,,,
729862222.089762,0.24357,3.469985,48.908246,-0.052002,0.010056,0.971039,-0.038024,-0.054946,0.008564,60.021561,20.689789,-153.74028,,,
729862222.093097,0.24357,3.469985,48.908246,-0.052002,0.010056,0.971039,-0.038024,-0.054946,0.008564,60.021561,20.689789,-153.74028,,,
729862222.096397,0.232541,3.454367,48.910591,-0.045853,0.004135,0.994507,-0.027978,-0.049044,0.003061,60.021561,20.689789,-153.74028,,,
729862222.099714,0.224919,3.442121,48.911419,-0.045853,0.004135,0.994507,-0.027978,-0.049044,0.003061,59.454849,20.738892,-153.039215,,,
729862222.103145,0.224919,3.442121,48.911419,-0.045853,0.004135,0.994507,-0.027978,-0.049044,0.003061,59.454849,20.738892,-153.039215,,,
729862222.106401,0.216018,3.436435,48.91086,-0.041183,0.002396,1.015915,-0.020202,-0.010474,-0.006132,59.454849,20.738892,-153.039215,,,
729862222.109763,0.210231,3.435903,48.909118,-0.041183,0.002396,1.015915,-0.020202,-0.010474,-0.006132,59.454849,20.738892,-153.039215,,,
729862222.11306,0.210231,3.435903,48.909118,-0.041183,0.002396,1.015915,-0.020202,-0.010474,-0.006132,59.454849,20.738892,-153.039215,,,
729862222.116452,0.203639,3.443632,48.906143,-0.039734,0.001434,1.020523,-0.013114,0.03063,-0.01429,59.454849,20.738892,-153.039215,,,
729862222.119711,0.199319,3.453772,48.902845,-0.039734,0.001434,1.020523,-0.013114,0.03063,-0.01429,59.454849,20.738892,-153.039215,,,
729862222.123057,0.199319,3.453772,48.902845,-0.039734,0.001434,1.020523,-0.013114,0.03063,-0.01429,59.454849,20.738892,-153.039215,,,
729862222.126457,0.195122,3.470515,48.898866,-0.046783,0.001755,1.017944,-0.005769,0.05151,-0.018529,59.454849,20.738892,-153.039215,,,
729862222.129705,0.193559,3.483664,48.893801,-0.046783,0.001755,1.017944,-0.005769,0.05151,-0.018529,59.454849,20.738892,-153.039215,,,
729862222.133055,0.193559,3.483664,48.893801,-0.046783,0.001755,1.017944,-0.005769,0.05151,-0.018529,59.454849,20.738892,-153.039215,,,
729862222.136419,0.192858,3.50153,48.887932,-0.055023,-0.000595,1.017258,0.005447,0.03862,-0.023344,59.454849,20.738892,-153.039215,,,
729862222.139771,0.195943,3.51083,48.881159,-0.055023,-0.000595,1.017258,0.005447,0.03862,-0.023344,59.454849,20.738892,-153.039215,,,
729862222.143142,0.195943,3.51083,48.881159,-0.055023,-0.000595,1.017258,0.005447,0.03862,-0.023344,59.760559,20.784592,-153.116013,,,
729862222.146411,0.202494,3.523737,48.873724,-0.063232,-0.002884,1.02121,0.032401,0.019472,-0.026076,59.760559,20.784592,-153.116013,,,
729862222.149721,0.212691,3.526875,48.866532,-0.063232,-0.002884,1.02121,0.032401,0.019472,-0.026076,59.760559,20.784592,-153.116013,,,
729862222.153151,0.212691,3.526875,48.866532,-0.063232,-0.002884,1.02121,0.032401,0.019472,-0.026076,59.760559,20.784592,-153.116013,,,
729862222.156453,0.226708,3.529333,48.860687,-0.070145,-0.004196,1.01973,0.049561,-0.003014,-0.01552,59.760559,20.784592,-153.116013,,,
729862222.159764,0.240995,3.525609,48.856341,-0.070145,-0.004196,1.01973,0.049561,-0.003014,-0.01552,59.760559,20.784592,-153.116013,,,
729862222.16307,0.240995,3.525609,48.856341,-0.070145,-0.004196,1.01973,0.049561,-0.003014,-0.01552,59.760559,20.784592,-153.116013,,,
729862222.166431,0.258047,3.515346,48.853439,-0.074936,-0.000381,1.007492,0.055342,-0.025881,-0.005209,59.760559,20.784592,-153.116013,,,
729862222.169711,0.273035,3.505602,48.852185,-0.074936,-0.000381,1.007492,0.055342,-0.025881,-0.005209,59.760559,20.784592,-153.116013,,,
729862222.173045,0.273035,3.505602,48.852185,-0.074936,-0.000381,1.007492,0.055342,-0.025881,-0.005209,59.760559,20.784592,-153.116013,,,
729862222.176463,0.286898,3.48737,48.851879,-0.070694,0.007385,0.996902,0.044921,-0.040475,0.000509,59.760559,20.784592,-153.116013,,,
729862222.179715,0.297919,3.475734,48.851883,-0.070694,0.007385,0.996902,0.044921,-0.040475,0.000509,59.760559,20.784592,-153.116013,,,
729862222.183063,0.297919,3.475734,48.851883,-0.070694,0.007385,0.996902,0.044921,-0.040475,0.000509,59.715576,20.911545,-153.282013,,,
729862222.186383,0.303949,3.456999,48.85233,-0.062424,0.012375,0.987625,0.015395,-0.028008,0.001422,59.715576,20.911545,-153.282013,,,
729862222.189707,0.305715,3.450329,48.85294,-0.062424,0.012375,0.987625,0.015395,-0.028008,0.001422,59.715576,20.911545,-153.282013,,,
729862222.193119,0.305715,3.450329,48.85294,-0.062424,0.012375,0.987625,0.015395,-0.028008,0.001422,59.715576,20.911545,-153.282013,,,
729862222.196376,0.301135,3.437808,48.854044,-0.055038,0.014099,0.977737,-0.02256,0.00216,0.002215,59.715576,20.911545,-153.282013,,,
729862222.19951,0.292384,3.43963,48.855243,-0.055038,0.014099,0.977737,-0.02256,0.00216,0.002215,59.715576,20.911545,-153.282013,,,
729862222.203065,0.292384,3.43963,48.855243,-0.055038,0.014099,0.977737,-0.02256,0.00216,0.002215,59.715576,20.911545,-153.282013,,,
729862222.20637,0.278927,3.438112,48.856039,-0.053909,0.013763,0.980286,-0.050723,0.031314,-0.002475,59.715576,20.911545,-153.282013,,,
729862222.209754,0.263475,3.447667,48.856435,-0.053909,0.013763,0.980286,-0.050723,0.031314,-0.002475,59.715576,20.911545,-153.282013,,,
729862222.213045,0.263475,3.447667,48.856435,-0.053909,0.013763,0.980286,-0.050723,0.031314,-0.002475,59.715576,20.911545,-153.282013,,,
729862222.216488,0.246717,3.455929,48.856566,-0.05574,0.007721,0.993271,-0.051244,0.048055,-0.004476,59.715576,20.911545,-153.282013,,,
729862222.219719,0.232519,3.468561,48.856682,-0.05574,0.007721,0.993271,-0.051244,0.048055,-0.004476,59.715576,20.911545,-153.282013,,,
729862222.223053,0.232519,3.468561,48.856682,-0.05574,0.007721,0.993271,-0.051244,0.048055,-0.004476,59.534531,20.721359,-153.09581,,,
729862222.226427,0.220402,3.479404,48.857016,-0.066605,0.000259,1.001709,-0.027259,0.035336,-0.001495,59.534531,20.721359,-153.09581,,,
729862222.22972,0.215403,3.486572,48.857421,-0.066605,0.000259,1.001709,-0.027259,0.035336,-0.001495,59.534531,20.721359,-153.09581,,,
729862222.233063,0.215403,3.486572,48.857421,-0.066605,0.000259,1.001709,-0.027259,0.035336,-0.001495,59.534531,20.721359,-153.09581,,,
729862222.236387,0.214597,3.492556,48.85797,-0.071823,-0.004807,1.017075,0.015268,0.010851,0.002165,59.534531,20.721359,-153.09581,,,
729862222.239716,0.221633,3.493742,48.858668,-0.071823,-0.004807,1.017075,0.015268,0.010851,0.002165,59.534531,20.721359,-153.09581,,,
729862222.243159,0.221633,3.493742,48.858668,-0.071823,-0.004807,1.017075,0.015268,0.010851,0.002165,59.534531,20.721359,-153.09581,,,
729862222.246388,0.231571,3.499154,48.859183,-0.072601,-0.006805,1.013229,0.045777,-0.003516,0.002915,59.534531,20.721359,-153.09581,,,
729862222.24971,0.245638,3.496653,48.859475,-0.072601,-0.006805,1.013229,0.045777,-0.003516,0.002915,59.534531,20.721359,-153.09581,,,
729862222.253053,0.245638,3.496653,48.859475,-0.072601,-0.006805,1.013229,0.045777,-0.003516,0.002915,59.534531,20.721359,-153.09581,,,
729862222.256379,0.260872,3.498434,48.859464,-0.066223,-0.001038,1.001007,0.053434,-0.009945,0.00141,59.534531,20.721359,-153.09581,,,
729862222.259786,0.275102,3.495589,48.858752,-0.066223,-0.001038,1.001007,0.053434,-0.009945,0.00141,59.534531,20.721359,-153.09581,,,
729862222.263045,0.275102,3.495589,48.858752,-0.066223,-0.001038,1.001007,0.053434,-0.009945,0.00141,59.454849,20.800644,-152.909195,,,
729862222.266378,0.287919,3.495265,48.85732,-0.063019,0.006195,0.984802,0.033299,-0.003747,-0.004785,59.454849,20.800644,-152.909195,,,
729862222.269703,0.294398,3.49379,48.855872,-0.063019,0.006195,0.984802,0.033299,-0.003747,-0.004785,59.454849,20.800644,-152.909195,,,
729862222.273053,0.294398,3.49379,48.855872,-0.063019,0.006195,0.984802,0.033299,-0.003747,-0.004785,59.454849,20.800644,-152.909195,,,
729862222.276429,0.297387,3.490793,48.854774,-0.064835,0.010513,0.964005,-0.005998,-0.002421,-0.004792,59.454849,20.800644,-152.909195,,,
729862222.279702,0.293114,3.489812,48.85469,-0.064835,0.010513,0.964005,-0.005998,-0.002421,-0.004792,59.454849,20.800644,-152.909195,,,
729862222.282939,0.293114,3.489812,48.85469,-0.064835,0.010513,0.964005,-0.005998,-0.002421,-0.004792,59.454849,20.800644,-152.909195,,,
729862222.2864,0.285722,3.487026,48.855982,-0.063812,0.013947,0.959442,-0.045483,0.003084,0.00227,59.454849,20.800644,-152.909195,,,
729862222.289705,0.270696,3.487833,48.857526,-0.063812,0.013947,0.959442,-0.045483,0.003084,0.00227,59.454849,20.800644,-152.909195,,,
729862222.293103,0.270696,3.487833,48.857526,-0.063812,0.013947,0.959442,-0.045483,0.003084,0.00227,59.454849,20.800644,-152.909195,,,
729862222.296432,0.253304,3.486861,48.858575,-0.064346,0.011902,0.968811,-0.069996,0.0109,-0.002703,59.454849,20.800644,-152.909195,,,
729862222.299714,0.231828,3.489959,48.859919,-0.064346,0.011902,0.968811,-0.069996,0.0109,-0.002703,59.454849,20.800644,-152.909195,,,
729862222.303058,0.231828,3.489959,48.859919,-0.064346,0.011902,0.968811,-0.069996,0.0109,-0.002703,59.454849,20.800644,-152.909195,,,
729862222.306385,0.207926,3.49609,48.862487,-0.070343,0.00499,0.977188,-0.084139,0.022203,0.005016,59.606659,20.894089,-153.196213,,,
729862222.309772,0.184212,3.502096,48.866971,-0.070343,0.00499,0.977188,-0.084139,0.022203,0.005016,59.606659,20.894089,-153.196213,,,
729862222.313069,0.184212,3.502096,48.866971,-0.070343,0.00499,0.977188,-0.084139,0.022203,0.005016,59.606659,20.894089,-153.196213,,,
729862222.316391,0.159893,3.512933,48.873148,-0.07106,-0.000305,0.988327,-0.077846,0.029244,0.017309,59.606659,20.894089,-153.196213,,,
729862222.319723,0.139748,3.519668,48.88139,-0.07106,-0.000305,0.988327,-0.077846,0.029244,0.017309,59.606659,20.894089,-153.196213,,,
729862222.323128,0.139748,3.519668,48.88139,-0.07106,-0.000305,0.988327,-0.077846,0.029244,0.017309,59.606659,20.894089,-153.196213,,,
729862222.326426,0.122259,3.529585,48.890985,-0.069992,-0.002914,0.994202,-0.045308,0.017346,0.028716,59.606659,20.894089,-153.196213,,,
729862222.32972,0.112031,3.532117,48.899658,-0.069992,-0.002914,0.994202,-0.045308,0.017346,0.028716,59.606659,20.894089,-153.196213,,,
729862222.333056,0.112031,3.532117,48.899658,-0.069992,-0.002914,0.994202,-0.045308,0.017346,0.028716,59.606659,20.894089,-153.196213,,,
729862222.336437,0.105304,3.53441,48.906801,-0.062531,-0.00621,1.000259,-0.011248,-0.002844,0.020183,59.606659,20.894089,-153.196213,,,
729862222.339714,0.10328,3.531909,48.91159,-0.062531,-0.00621,1.000259,-0.011248,-0.002844,0.020183,59.606659,20.894089,-153.196213,,,
729862222.343098,0.10328,3.531909,48.91159,-0.062531,-0.00621,1.000259,-0.011248,-0.002844,0.020183,59.606659,20.894089,-153.196213,,,
729862222.346369,0.104059,3.52917,48.913283,-0.052612,-0.001587,0.997452,0.004363,-0.011647,-0.000484,59.709747,20.871155,-153.396866,,,
729862222.349769,0.105249,3.52617,48.912077,-0.052612,-0.001587,0.997452,0.004363,-0.011647,-0.000484,59.709747,20.871155,-153.396866,,,
729862222.353061,0.105249,3.52617,48.912077,-0.052612,-0.001587,0.997452,0.004363,-0.011647,-0.000484,59.709747,20.871155,-153.396866,,,
729862222.3564,0.107363,3.528499,48.909737,-0.049042,0.000671,0.991974,-0.001238,0.008663,-0.008758,59.709747,20.871155,-153.396866,,,
729862222.359764,0.105871,3.532318,48.907728,-0.049042,0.000671,0.991974,-0.001238,0.008663,-0.008758,59.709747,20.871155,-153.396866,,,
729862222.363116,0.105871,3.532318,48.907728,-0.049042,0.000671,0.991974,-0.001238,0.008663,-0.008758,59.709747,20.871155,-153.396866,,,
729862222.366406,0.103745,3.542875,48.906843,-0.055603,0.001556,0.983856,-0.025793,0.037293,-0.00239,59.709747,20.871155,-153.396866,,,
729862222.369721,0.09416,3.554033,48.907862,-0.055603,0.001556,0.983856,-0.025793,0.037293,-0.00239,59.709747,20.871155,-153.396866,,,
729862222.37304,0.09416,3.554033,48.907862,-0.055603,0.001556,0.983856,-0.025793,0.037293,-0.00239,59.709747,20.871155,-153.396866,,,
729862222.376465,0.082973,3.569555,48.910734,-0.063599,0.003967,0.973541,-0.056442,0.056405,0.00867,59.709747,20.871155,-153.396866,,,
729862222.379706,0.064398,3.584574,48.915291,-0.063599,0.003967,0.973541,-0.056442,0.056405,0.00867,59.709747,20.871155,-153.396866,,,
729862222.38305,0.064398,3.584574,48.915291,-0.063599,0.003967,0.973541,-0.056442,0.056405,0.00867,59.709747,20.871155,-153.396866,,,
729862222.386383,0.043026,3.60021,48.921476,-0.068405,0.005936,0.961975,-0.085751,0.039109,0.018158,59.614792,21.253265,-153.699005,,,
729862222.389798,0.017475,3.607885,48.928661,-0.068405,0.005936,0.961975,-0.085751,0.039109,0.018158,59.614792,21.253265,-153.699005,,,
729862222.393087,0.017475,3.607885,48.928661,-0.068405,0.005936,0.961975,-0.085751,0.039109,0.018158,59.614792,21.253265,-153.699005,,,
729862222.396388,-0.009896,3.611853,48.935863,-0.06781,0.005432,0.957855,-0.097749,-0.006838,0.017499,59.614792,21.253265,-153.699005,,,
729862222.399753,-0.037552,3.605162,48.942455,-0.06781,0.005432,0.957855,-0.097749,-0.006838,0.017499,59.614792,21.253265,-153.699005,,,
729862222.403101,-0.037552,3.605162,48.942455,-0.06781,0.005432,0.957855,-0.097749,-0.006838,0.017499,59.614792,21.253265,-153.699005,,,
729862222.406383,-0.064747,3.59224,48.948367,-0.062561,0.003647,0.967484,-0.093458,-0.062398,0.01313,59.614792,21.253265,-153.699005,,,
729862222.409804,-0.092093,3.570347,48.953491,-0.062561,0.003647,0.967484,-0.093458,-0.062398,0.01313,59.614792,21.253265,-153.699005,,,
729862222.413047,-0.092093,3.570347,48.953491,-0.062561,0.003647,0.967484,-0.093458,-0.062398,0.01313,59.614792,21.253265,-153.699005,,,
729862222.416456,-0.122009,3.544646,48.957184,-0.053009,0.002167,0.967239,-0.107264,-0.093291,0.002301,59.614792,21.253265,-153.699005,,,
729862222.419756,-0.122009,3.51728,48.959412,-0.053009,0.002167,0.967239,-0.107264,-0.093291,0.002301,59.614792,21.253265,-153.699005,,,
729862222.423047,-0.152737,3.51728,48.959412,-0.053009,0.002167,0.967239,-0.107264,-0.093291,0.002301,59.614792,21.253265,-153.699005,,,
729862222.426491,-0.181748,3.491077,48.960357,-0.040802,0.000565,0.990326,-0.094842,-0.076703,-0.005785,59.614792,21.253265,-153.699005,,,
729862222.429765,-0.207785,3.471874,48.959986,-0.040802,0.000565,0.990326,-0.094842,-0.076703,-0.005785,59.517166,21.344131,-153.784592,,,
729862222.43305,-0.207785,3.471874,48.959986,-0.040802,0.000565,0.990326,-0.094842,-0.076703,-0.005785,59.517166,21.344131,-153.784592,,,
729862222.436393,-0.230222,3.458124,48.958644,-0.038971,-0.007996,1.025955,-0.072775,-0.020312,-0.011168,59.517166,21.344131,-153.784592,,,
729862222.439729,-0.230222,3.458124,48.958644,-0.038971,-0.007996,1.025955,-0.072775,-0.020312,-0.011168,59.517166,21.344131,-153.784592,,,
729862222.443116,-0.25059,3.456488,48.956923,-0.038971,-0.007996,1.025955,-0.072775,-0.020312,-0.011168,59.517166,21.344131,-153.784592,,,
729862222.446396,-0.267529,3.461821,48.954637,-0.042023,-0.010834,1.031784,-0.056094,0.043665,-0.013947,59.517166,21.344131,-153.784592,,,
729862222.449721,-0.267529,3.461821,48.954637,-0.042023,-0.010834,1.031784,-0.056094,0.043665,-0.013947,59.517166,21.344131,-153.784592,,,
729862222.45307,-0.28321,3.476447,48.952914,-0.042023,-0.010834,1.031784,-0.056094,0.043665,-0.013947,59.517166,21.344131,-153.784592,,,
729862222.456468,-0.295763,3.49656,48.952177,-0.045883,-0.009293,1.022583,-0.047311,0.075396,-0.006597,59.517166,21.344131,-153.784592,,,
729862222.459815,-0.295763,3.49656,48.952177,-0.045883,-0.009293,1.022583,-0.047311,0.075396,-0.006597,59.517166,21.344131,-153.784592,,,
729862222.463076,-0.30912,3.517336,48.951498,-0.045883,-0.009293,1.022583,-0.047311,0.075396,-0.006597,59.517166,21.344131,-153.784592,,,
729862222.466412,-0.319877,3.5404,48.950533,-0.05394,-0.007309,1.003754,-0.044322,0.066349,-0.008612,59.517166,21.344131,-153.784592,,,
729862222.4698,-0.319877,3.556069,48.948963,-0.05394,-0.007309,1.003754,-0.044322,0.066349,-0.008612,59.972122,21.246735,-154.207291,,,
729862222.47303,-0.333686,3.556069,48.948963,-0.05394,-0.007309,1.003754,-0.044322,0.066349,-0.008612,59.972122,21.246735,-154.207291,,,
729862222.476453,-0.34658,3.569669,48.946206,-0.06192,-0.002457,0.980896,-0.055628,0.025159,-0.017707,59.972122,21.246735,-154.207291,,,
729862222.479724,-0.34658,3.569669,48.946206,-0.06192,-0.002457,0.980896,-0.055628,0.025159,-0.017707,59.972122,21.246735,-154.207291,,,
729862222.483046,-0.363431,3.571795,48.94279,-0.06192,-0.002457,0.980896,-0.055628,0.025159,-0.017707,59.972122,21.246735,-154.207291,,,
729862222.486383,-0.377988,3.566805,48.93948,-0.066025,-0.00238,0.973328,-0.054753,-0.033483,-0.016972,59.972122,21.246735,-154.207291,,,
729862222.48973,-0.377988,3.566805,48.93948,-0.066025,-0.00238,0.973328,-0.054753,-0.033483,-0.016972,59.972122,21.246735,-154.207291,,,
729862222.493148,-0.39302,3.553784,48.935813,-0.066025,-0.00238,0.973328,-0.054753,-0.033483,-0.016972,59.972122,21.246735,-154.207291,,,
729862222.496364,-0.404119,3.535018,48.932163,-0.070587,-0.008484,1.000412,-0.039754,-0.064549,-0.015841,59.972122,21.246735,-154.207291,,,
729862222.49973,-0.404119,3.535018,48.932163,-0.070587,-0.008484,1.000412,-0.039754,-0.064549,-0.015841,59.972122,21.246735,-154.207291,,,
729862222.503048,-0.414192,3.514428,48.92884,-0.070587,-0.008484,1.000412,-0.039754,-0.064549,-0.015841,59.972122,21.246735,-154.207291,,,
729862222.506375,-0.418031,3.486153,48.92557,-0.070389,-0.015778,1.022919,-0.009095,-0.073437,-0.01326,59.972122,21.246735,-154.207291,,,
729862222.509749,-0.418031,3.486153,48.92557,-0.070389,-0.015778,1.022919,-0.009095,-0.073437,-0.01326,59.557205,21.333023,-153.969147,,,
729862222.513058,-0.418686,3.464707,48.922412,-0.070389,-0.015778,1.022919,-0.009095,-0.073437,-0.01326,59.557205,21.333023,-153.969147,,,
729862222.516379,-0.413499,3.438709,48.919698,-0.068314,-0.022995,1.043564,0.030574,-0.059833,-0.007471,59.557205,21.333023,-153.969147,,,
729862222.519782,-0.413499,3.438709,48.919698,-0.068314,-0.022995,1.043564,0.030574,-0.059833,-0.007471,59.557205,21.333023,-153.969147,,,
729862222.523034,-0.402924,3.422352,48.917763,-0.068314,-0.022995,1.043564,0.030574,-0.059833,-0.007471,59.557205,21.333023,-153.969147,,,
729862222.526417,-0.387591,3.403988,48.916838,-0.064865,-0.022141,1.045471,0.065903,-0.043502,0.00191,59.557205,21.333023,-153.969147,,,
729862222.529719,-0.387591,3.403988,48.916838,-0.064865,-0.022141,1.045471,0.065903,-0.043502,0.00191,59.557205,21.333023,-153.969147,,,
729862222.532989,-0.365324,3.390201,48.916334,-0.064865,-0.022141,1.045471,0.065903,-0.043502,0.00191,59.557205,21.333023,-153.969147,,,
729862222.536401,-0.335595,3.371748,48.915138,-0.062439,-0.019989,1.049103,0.119586,-0.053094,0.000446,59.557205,21.333023,-153.969147,,,
729862222.539714,-0.335595,3.371748,48.915138,-0.062439,-0.019989,1.049103,0.119586,-0.053094,0.000446,59.557205,21.333023,-153.969147,,,
729862222.54312,-0.29782,3.35577,48.912655,-0.062439,-0.019989,1.049103,0.119586,-0.053094,0.000446,59.557205,21.333023,-153.969147,,,
729862222.546375,-0.253348,3.339059,48.908326,-0.059647,-0.019775,1.063141,0.168713,-0.049651,-0.00958,59.557205,21.333023,-153.969147,,,
729862222.549709,-0.253348,3.339059,48.908326,-0.059647,-0.019775,1.063141,0.168713,-0.049651,-0.00958,59.32254,21.38475,-153.938675,,,
729862222.553063,-0.201057,3.324634,48.902859,-0.059647,-0.019775,1.063141,0.168713,-0.049651,-0.00958,59.32254,21.38475,-153.938675,,,
729862222.556388,-0.138399,3.311694,48.897831,-0.065628,-0.027023,1.071259,0.24066,-0.041909,-0.002369,59.32254,21.38475,-153.938675,,,
729862222.559754,-0.138399,3.311694,48.897831,-0.065628,-0.027023,1.071259,0.24066,-0.041909,-0.002369,59.32254,21.38475,-153.938675,,,
729862222.563058,-0.062881,3.299156,48.894639,-0.065628,-0.027023,1.071259,0.24066,-0.041909,-0.002369,59.32254,21.38475,-153.938675,,,
729862222.566381,0.025097,3.289537,48.893608,-0.074158,-0.033005,1.102676,0.326773,-0.032207,0.017604,59.32254,21.38475,-153.938675,,,
729862222.569786,0.025097,3.289537,48.893608,-0.074158,-0.033005,1.102676,0.326773,-0.032207,0.017604,59.32254,21.38475,-153.938675,,,
729862222.573054,0.124216,3.282647,48.895295,-0.074158,-0.033005,1.102676,0.326773,-0.032207,0.017604,59.32254,21.38475,-153.938675,,,
729862222.576458,0.233296,3.284238,48.899805,-0.074249,-0.023193,1.108917,0.398187,0.017497,0.041424,59.32254,21.38475,-153.938675,,,
729862222.579718,0.233296,3.284238,48.899805,-0.074249,-0.023193,1.108917,0.398187,0.017497,0.041424,59.32254,21.38475,-153.938675,,,
729862222.583117,0.352081,3.291706,48.907425,-0.074249,-0.023193,1.108917,0.398187,0.017497,0.041424,59.32254,21.38475,-153.938675,,,
729862222.586377,0.476922,3.305919,48.918103,-0.069885,-0.017731,1.09584,0.444406,0.05817,0.06569,59.32254,21.38475,-153.938675,,,
729862222.58973,0.476922,3.305919,48.918103,-0.069885,-0.017731,1.09584,0.444406,0.05817,0.06569,59.32254,21.38475,-153.938675,,,
729862222.593137,0.606429,3.322704,48.930773,-0.069885,-0.017731,1.09584,0.444406,0.05817,0.06569,59.523773,20.573593,-153.09021,,,
729862222.596366,0.735077,3.341592,48.9439,-0.064651,0.001694,1.056686,0.445344,0.069336,0.069197,59.523773,20.573593,-153.09021,,,
729862222.59973,0.735077,3.341592,48.9439,-0.064651,0.001694,1.056686,0.445344,0.069336,0.069197,59.523773,20.573593,-153.09021,,,
729862222.603055,0.861758,3.359761,48.956459,-0.064651,0.001694,1.056686,0.445344,0.069336,0.069197,59.523773,20.573593,-153.09021,,,
729862222.606373,0.982327,3.37479,48.968397,-0.058136,0.024658,1.006927,0.411757,0.045569,0.063157,59.523773,20.573593,-153.09021,,,
729862222.609769,0.982327,3.37479,48.968397,-0.058136,0.024658,1.006927,0.411757,0.045569,0.063157,59.523773,20.573593,-153.09021,,,
729862222.613064,1.097733,3.382689,48.979227,-0.058136,0.024658,1.006927,0.411757,0.045569,0.063157,59.523773,20.573593,-153.09021,,,
729862222.616374,1.203417,3.383262,48.989003,-0.059402,0.039597,0.963654,0.354743,-0.006445,0.052434,59.523773,20.573593,-153.09021,,,
729862222.61972,1.203417,3.383262,48.989003,-0.059402,0.039597,0.963654,0.354743,-0.006445,0.052434,59.523773,20.573593,-153.09021,,,
729862222.623136,1.300232,3.377195,48.998101,-0.059402,0.039597,0.963654,0.354743,-0.006445,0.052434,59.523773,20.573593,-153.09021,,,
729862222.626416,1.383759,3.36574,49.006512,-0.05864,0.05162,0.943451,0.274144,-0.042261,0.042746,59.523773,20.573593,-153.09021,,,
729862222.629717,1.383759,3.36574,49.006512,-0.05864,0.05162,0.943451,0.274144,-0.042261,0.042746,59.523773,20.573593,-153.09021,,,
729862222.633062,1.457096,3.350074,49.014726,-0.05864,0.05162,0.943451,0.274144,-0.042261,0.042746,59.762375,19.976608,-152.537552,,,
729862222.636381,1.518433,3.329666,49.023497,-0.0578,0.05629,0.936462,0.201825,-0.075996,0.042248,59.762375,19.976608,-152.537552,,,
729862222.639727,1.518433,3.329666,49.023497,-0.0578,0.05629,0.936462,0.201825,-0.075996,0.042248,59.762375,19.976608,-152.537552,,,
729862222.643104,1.573664,3.30647,49.03217,-0.0578,0.05629,0.936462,0.201825,-0.075996,0.042248,59.762375,19.976608,-152.537552,,,
729862222.646379,1.623131,3.28555,49.039227,-0.049957,0.050812,0.973923,0.175622,-0.06399,0.029387,59.762375,19.976608,-152.537552,,,
729862222.649776,1.623131,3.28555,49.039227,-0.049957,0.050812,0.973923,0.175622,-0.06399,0.029387,59.762375,19.976608,-152.537552,,,
729862222.653053,1.673543,3.269403,49.043743,-0.049957,0.050812,0.973923,0.175622,-0.06399,0.029387,59.762375,19.976608,-152.537552,,,
729862222.656383,1.723173,3.261031,49.045505,-0.047455,0.037308,1.030777,0.183439,-0.015361,0.010755,59.762375,19.976608,-152.537552,,,
729862222.65975,1.723173,3.261031,49.045505,-0.047455,0.037308,1.030777,0.183439,-0.015361,0.010755,59.762375,19.976608,-152.537552,,,
729862222.663116,1.779424,3.25921,49.045121,-0.047455,0.037308,1.030777,0.183439,-0.015361,0.010755,59.762375,19.976608,-152.537552,,,
729862222.666369,1.843911,3.265593,49.044707,-0.056915,0.020569,1.071121,0.251893,0.038306,0.014629,59.762375,19.976608,-152.537552,,,
729862222.669722,1.843911,3.265593,49.044707,-0.056915,0.020569,1.071121,0.251893,0.038306,0.014629,59.762375,19.976608,-152.537552,,,
729862222.673041,1.923527,3.280913,49.046252,-0.056915,0.020569,1.071121,0.251893,0.038306,0.014629,59.614395,19.247772,-152.103271,,,
729862222.676459,2.019248,3.305802,49.050682,-0.072464,0.000824,1.119904,0.36261,0.105894,0.041277,59.614395,19.247772,-152.103271,,,
729862222.679729,2.019248,3.305802,49.050682,-0.072464,0.000824,1.119904,0.36261,0.105894,0.041277,59.614395,19.247772,-152.103271,,,
729862222.683079,2.131919,3.339168,49.05887,-0.072464,0.000824,1.119904,0.36261,0.105894,0.041277,59.614395,19.247772,-152.103271,,,
729862222.686379,2.260673,3.378218,49.07065,-0.080948,-0.000183,1.135071,0.472808,0.146805,0.073283,59.614395,19.247772,-152.103271,,,
729862222.689808,2.260673,3.378218,49.07065,-0.080948,-0.000183,1.135071,0.472808,0.146805,0.073283,59.614395,19.247772,-152.103271,,,
729862222.693108,2.404984,3.418734,49.084618,-0.080948,-0.000183,1.135071,0.472808,0.146805,0.073283,59.614395,19.247772,-152.103271,,,
729862222.696383,2.563657,3.458518,49.099368,-0.077652,0.009247,1.107056,0.571921,0.142404,0.085382,59.614395,19.247772,-152.103271,,,
729862222.699731,2.563657,3.458518,49.099368,-0.077652,0.009247,1.107056,0.571921,0.142404,0.085382,59.614395,19.247772,-152.103271,,,
729862222.70312,2.734054,3.496781,49.113814,-0.077652,0.009247,1.107056,0.571921,0.142404,0.085382,59.614395,19.247772,-152.103271,,,
729862222.706366,2.911694,3.532003,49.126283,-0.066498,0.02356,1.070984,0.62289,0.121108,0.075402,59.614395,19.247772,-152.103271,,,
729862222.70977,2.911694,3.532003,49.126283,-0.066498,0.02356,1.070984,0.62289,0.121108,0.075402,59.614395,19.247772,-152.103271,,,
729862222.713039,3.092084,3.561989,49.135498,-0.066498,0.02356,1.070984,0.62289,0.121108,0.075402,60.243149,18.145554,-151.43158,,,
729862222.716376,3.273065,3.583425,49.142086,-0.060028,0.047455,1.015686,0.628206,0.061042,0.05791,60.243149,18.145554,-151.43158,,,
729862222.719743,3.273065,3.583425,49.142086,-0.060028,0.047455,1.015686,0.628206,0.061042,0.05791,60.243149,18.145554,-151.43158,,,
729862222.723055,3.453434,3.595173,49.147031,-0.060028,0.047455,1.015686,0.628206,0.061042,0.05791,60.243149,18.145554,-151.43158,,,
729862222.726415,3.632093,3.597942,49.150028,-0.055405,0.0578,0.986954,0.617036,-0.001945,0.043725,60.243149,18.145554,-151.43158,,,
729862222.729759,3.632093,3.597942,49.150028,-0.055405,0.0578,0.986954,0.617036,-0.001945,0.043725,60.243149,18.145554,-151.43158,,,
729862222.733051,3.808801,3.59402,49.150929,-0.055405,0.0578,0.986954,0.617036,-0.001945,0.043725,60.243149,18.145554,-151.43158,,,
729862222.736381,3.983989,3.586996,49.150399,-0.05249,0.063309,1.000183,0.606988,-0.023906,0.032988,60.243149,18.145554,-151.43158,,,
729862222.739734,3.983989,3.586996,49.150399,-0.05249,0.063309,1.000183,0.606988,-0.023906,0.032988,60.243149,18.145554,-151.43158,,,
729862222.743172,4.159102,3.578626,49.149484,-0.05249,0.063309,1.000183,0.606988,-0.023906,0.032988,60.243149,18.145554,-151.43158,,,
729862222.74637,4.336795,3.570007,49.149765,-0.056396,0.060806,1.020966,0.624554,-0.024764,0.042174,60.243149,18.145554,-151.43158,,,
729862222.74973,4.336795,3.570007,49.149765,-0.056396,0.060806,1.020966,0.624554,-0.024764,0.042174,60.243149,18.145554,-151.43158,,,
729862222.753058,4.518553,3.564395,49.151378,-0.056396,0.060806,1.020966,0.624554,-0.024764,0.042174,60.243149,18.145554,-151.43158,,,
729862222.756381,4.705767,3.563822,49.154221,-0.055908,0.059525,1.051727,0.661846,0.011381,0.052963,60.245865,16.970734,-150.434921,,,
729862222.759749,4.705767,3.563822,49.154221,-0.055908,0.059525,1.051727,0.661846,0.011381,0.052963,60.245865,16.970734,-150.434921,,,
729862222.763065,4.899876,3.568491,49.158856,-0.055908,0.059525,1.051727,0.661846,0.011381,0.052963,60.245865,16.970734,-150.434921,,,
729862222.766384,5.10106,3.578401,49.16498,-0.05986,0.06044,1.073044,0.710257,0.049244,0.066491,60.245865,16.970734,-150.434921,,,
729862222.76978,5.10106,3.578401,49.16498,-0.05986,0.06044,1.073044,0.710257,0.049244,0.066491,60.245865,16.970734,-150.434921,,,
729862222.773044,5.308821,3.593083,49.172528,-0.05986,0.06044,1.073044,0.710257,0.049244,0.066491,60.245865,16.970734,-150.434921,,,
729862222.776468,5.522899,3.610536,49.180911,-0.061035,0.069397,1.063416,0.753377,0.069625,0.075354,60.245865,16.970734,-150.434921,,,
729862222.779728,5.522899,3.610536,49.180911,-0.061035,0.069397,1.063416,0.753377,0.069625,0.075354,60.245865,16.970734,-150.434921,,,
729862222.783051,5.742997,3.629631,49.18985,-0.061035,0.069397,1.063416,0.753377,0.069625,0.075354,60.245865,16.970734,-150.434921,,,
729862222.78638,5.968543,3.648993,49.199372,-0.059418,0.083649,1.0466,0.790852,0.072531,0.082296,60.245865,16.970734,-150.434921,,,
729862222.789728,5.968543,3.648993,49.199372,-0.059418,0.083649,1.0466,0.790852,0.072531,0.082296,60.245865,16.970734,-150.434921,,,
729862222.793109,6.198313,3.667663,49.20834,-0.059418,0.083649,1.0466,0.790852,0.072531,0.082296,60.245865,16.970734,-150.434921,,,
729862222.796382,6.431131,3.683769,49.216014,-0.054352,0.093582,1.025391,0.812795,0.054355,0.075122,60.719788,15.117783,-149.374527,,,
729862222.799727,6.431131,3.683769,49.216014,-0.054352,0.093582,1.025391,0.812795,0.054355,0.075122,60.719788,15.117783,-149.374527,,,
729862222.80306,6.666427,3.695324,49.221916,-0.054352,0.093582,1.025391,0.812795,0.054355,0.075122,60.719788,15.117783,-149.374527,,,
729862222.806383,6.904168,3.70093,49.226188,-0.054688,0.103012,1.007568,0.830409,0.012173,0.065148,60.719788,15.117783,-149.374527,,,
729862222.80982,6.904168,3.70093,49.226188,-0.054688,0.103012,1.007568,0.830409,0.012173,0.065148,60.719788,15.117783,-149.374527,,,
729862222.813057,7.144413,3.700948,49.228755,-0.054688,0.103012,1.007568,0.830409,0.012173,0.065148,60.719788,15.117783,-149.374527,,,
729862222.816381,7.387776,3.698,49.229199,-0.052765,0.110275,1.011459,0.852949,-0.00985,0.051784,60.719788,15.117783,-149.374527,,,
729862222.819725,7.387776,3.698,49.229199,-0.052765,0.110275,1.011459,0.852949,-0.00985,0.051784,60.719788,15.117783,-149.374527,,,
729862222.823044,7.633814,3.694856,49.228434,-0.052765,0.110275,1.011459,0.852949,-0.00985,0.051784,60.719788,15.117783,-149.374527,,,
729862222.826418,7.881969,3.69351,49.227145,-0.051575,0.115646,1.027008,0.867481,0.002608,0.048977,60.719788,15.117783,-149.374527,,,
729862222.829716,7.881969,3.69351,49.227145,-0.051575,0.115646,1.027008,0.867481,0.002608,0.048977,60.719788,15.117783,-149.374527,,,
729862222.832768,8.132096,3.695356,49.225294,-0.051575,0.115646,1.027008,0.867481,0.002608,0.048977,60.719788,15.117783,-149.374527,,,
729862222.836412,8.385863,3.7002,49.224054,-0.055405,0.123672,1.032089,0.892434,0.024519,0.054886,61.073807,13.493683,-148.357773,,,
729862222.839714,8.385863,3.7002,49.224054,-0.055405,0.123672,1.032089,0.892434,0.024519,0.054886,61.073807,13.493683,-148.357773,,,
729862222.843059,8.644271,3.708395,49.224275,-0.055405,0.123672,1.032089,0.892434,0.024519,0.054886,61.073807,13.493683,-148.357773,,,
729862222.846068,8.906524,3.72096,49.225231,-0.057083,0.131866,1.034958,0.919113,0.056267,0.061931,61.073807,13.493683,-148.357773,,,
729862222.849817,8.906524,3.72096,49.225231,-0.057083,0.131866,1.034958,0.919113,0.056267,0.061931,61.073807,13.493683,-148.357773,,,
729862222.853039,9.172301,3.738015,49.227243,-0.057083,0.131866,1.034958,0.919113,0.056267,0.061931,61.073807,13.493683,-148.357773,,,
729862222.856385,9.439841,3.756822,49.230611,-0.06163,0.13916,1.017929,0.930669,0.070618,0.07257,61.073807,13.493683,-148.357773,,,
729862222.859769,9.439841,3.756822,49.230611,-0.06163,0.13916,1.017929,0.930669,0.070618,0.07257,61.073807,13.493683,-148.357773,,,
729862222.863105,9.707451,3.775364,49.234111,-0.06163,0.13916,1.017929,0.930669,0.070618,0.07257,61.073807,13.493683,-148.357773,,,
729862222.866377,9.974194,3.791925,49.237417,-0.06073,0.155899,0.984482,0.92465,0.057273,0.071288,61.073807,13.493683,-148.357773,,,
729862222.869719,9.974194,3.791925,49.237417,-0.06073,0.155899,0.984482,0.92465,0.057273,0.071288,61.073807,13.493683,-148.357773,,,
729862222.873042,10.23855,3.80644,49.240567,-0.06073,0.155899,0.984482,0.92465,0.057273,0.071288,61.073807,13.493683,-148.357773,,,
729862222.876423,10.498432,3.819748,49.242961,-0.054382,0.173218,0.957626,0.894173,0.048585,0.064346,61.073807,13.493683,-148.357773,,,
729862222.879724,10.498432,3.819748,49.242961,-0.054382,0.173218,0.957626,0.894173,0.048585,0.064346,61.372452,11.601761,-146.84523,,,
