Time (sec),Pitch (deg),Roll (deg),Yaw(deg),X-Acceleration (g),Y-Acceleration (g),Z-Acceleration (g),Pitch Rate (deg/sec),Roll Rate (deg/sec),Yaw Rate (deg/sec),Magnetic Field in X direction (uT),Magnetic Field in Y direction (uT),Magnetic Field in Z Direction (uT),Latitude (deg),Longitude (deg),Altitude (m)
729862490.641188,0.65083,3.674023,46.368568,-0.059662,0.011368,0.98877,-0.036602,0.012398,0.031517,48.705383,-2.86554,-147.264786,,,
729862490.644324,0.65083,3.674023,46.368568,-0.059662,0.011368,0.98877,-0.036602,0.012398,0.031517,48.705383,-2.86554,-147.264786,,,
729862490.647822,0.640762,3.679604,46.378751,-0.058701,0.007614,1.001373,-0.028562,0.036502,0.032989,48.705383,-2.86554,-147.264786,,,
729862490.651133,0.634425,3.690051,46.388583,-0.058701,0.007614,1.001373,-0.028562,0.036502,0.032989,48.705383,-2.86554,-147.264786,,,
729862490.654483,0.634425,3.690051,46.388583,-0.058701,0.007614,1.001373,-0.028562,0.036502,0.032989,48.705383,-2.86554,-147.264786,,,
729862490.657857,0.630191,3.70047,46.398097,-0.060135,0.002747,1.011871,-0.004146,0.047061,0.032255,48.705383,-2.86554,-147.264786,,,
729862490.660887,0.630191,3.70047,46.398097,-0.060135,0.002747,1.011871,-0.004146,0.047061,0.032255,48.705383,-2.86554,-147.264786,,,
729862490.664521,0.631573,3.713069,46.40664,-0.060135,0.002747,1.011871,-0.004146,0.047061,0.032255,48.705383,-2.86554,-147.264786,,,
729862490.667803,0.635149,3.724582,46.412847,-0.064087,-1.5e-05,1.014206,0.022019,0.037822,0.017737,48.705383,-2.86554,-147.264786,,,
729862490.671205,0.642693,3.732832,46.417824,-0.064087,-1.5e-05,1.014206,0.022019,0.037822,0.017737,48.705383,-2.86554,-147.264786,,,
729862490.674475,0.642693,3.732832,46.417824,-0.064087,-1.5e-05,1.014206,0.022019,0.037822,0.017737,48.705383,-2.86554,-147.264786,,,
729862490.677554,0.650155,3.735661,46.422495,-0.06897,0.002075,0.996826,0.029944,-0.003129,0.016197,48.705383,-2.86554,-147.264786,,,
729862490.681276,0.660324,3.730838,46.427052,-0.06897,0.002075,0.996826,0.029944,-0.003129,0.016197,48.69101,-2.796921,-147.510971,,,
729862490.684516,0.660324,3.730838,46.427052,-0.06897,0.002075,0.996826,0.029944,-0.003129,0.016197,48.69101,-2.796921,-147.510971,,,
729862490.687822,0.671535,3.720377,46.431578,-0.066696,0.006348,0.983139,0.040155,-0.041728,0.016624,48.69101,-2.796921,-147.510971,,,
729862490.691132,0.681938,3.706936,46.435272,-0.066696,0.006348,0.983139,0.040155,-0.041728,0.016624,48.69101,-2.796921,-147.510971,,,
729862490.69423,0.681938,3.706936,46.435272,-0.066696,0.006348,0.983139,0.040155,-0.041728,0.016624,48.69101,-2.796921,-147.510971,,,
729862490.697831,0.689369,3.692885,46.438234,-0.057358,0.016098,0.982727,0.020859,-0.040608,0.010263,48.69101,-2.796921,-147.510971,,,
729862490.701179,0.693262,3.682843,46.44018,-0.057358,0.016098,0.982727,0.020859,-0.040608,0.010263,48.69101,-2.796921,-147.510971,,,
729862490.70448,0.693262,3.682843,46.44018,-0.057358,0.016098,0.982727,0.020859,-0.040608,0.010263,48.69101,-2.796921,-147.510971,,,
729862490.707888,0.694035,3.676247,46.440463,-0.050262,0.020096,0.986084,-6e-06,-0.01111,-0.002767,48.69101,-2.796921,-147.510971,,,
729862490.710912,0.694035,3.676247,46.440463,-0.050262,0.020096,0.986084,-6e-06,-0.01111,-0.002767,48.69101,-2.796921,-147.510971,,,
729862490.714504,0.692663,3.674134,46.43972,-0.050262,0.020096,0.986084,-6e-06,-0.01111,-0.002767,48.69101,-2.796921,-147.510971,,,
729862490.717794,0.689259,3.674289,46.438636,-0.054199,0.017334,0.992432,-0.013836,0.009182,-0.006088,48.69101,-2.796921,-147.510971,,,
729862490.721164,0.684757,3.676772,46.438119,-0.054199,0.017334,0.992432,-0.013836,0.009182,-0.006088,48.412888,-2.644516,-147.343903,,,
729862490.724472,0.684757,3.676772,46.438119,-0.054199,0.017334,0.992432,-0.013836,0.009182,-0.006088,48.412888,-2.644516,-147.343903,,,
729862490.72764,0.679739,3.678576,46.438789,-0.065018,0.017029,0.99176,-0.015443,0.010596,0.002082,48.412888,-2.644516,-147.343903,,,
729862490.731197,0.67526,3.679857,46.440925,-0.065018,0.017029,0.99176,-0.015443,0.010596,0.002082,48.412888,-2.644516,-147.343903,,,
729862490.734558,0.67526,3.679857,46.440925,-0.065018,0.017029,0.99176,-0.015443,0.010596,0.002082,48.412888,-2.644516,-147.343903,,,
729862490.737813,0.669591,3.676909,46.444902,-0.068787,0.016647,0.982132,-0.019826,-0.013024,0.01453,48.412888,-2.644516,-147.343903,,,
729862490.741202,0.669591,3.671936,46.449821,-0.068787,0.016647,0.982132,-0.019826,-0.013024,0.01453,48.412888,-2.644516,-147.343903,,,
729862490.744459,0.663077,3.671936,46.449821,-0.068787,0.016647,0.982132,-0.019826,-0.013024,0.01453,48.412888,-2.644516,-147.343903,,,
729862490.747802,0.654475,3.665307,46.454737,-0.060944,0.019943,0.975128,-0.02616,-0.021146,0.014111,48.412888,-2.644516,-147.343903,,,
729862490.751177,0.654475,3.665307,46.458895,-0.060944,0.019943,0.975128,-0.02616,-0.021146,0.014111,48.412888,-2.644516,-147.343903,,,
729862490.754303,0.64624,3.658693,46.458895,-0.060944,0.019943,0.975128,-0.02616,-0.021146,0.014111,48.412888,-2.644516,-147.343903,,,
729862490.757823,0.636528,3.653264,46.461509,-0.048904,0.020218,0.984818,-0.029899,-0.018245,0.003177,48.412888,-2.644516,-147.343903,,,
729862490.761148,0.636528,3.653264,46.461509,-0.048904,0.020218,0.984818,-0.029899,-0.018245,0.003177,48.496643,-2.884537,-146.941788,,,
729862490.764475,0.627346,3.648448,46.461821,-0.048904,0.020218,0.984818,-0.029899,-0.018245,0.003177,48.496643,-2.884537,-146.941788,,,
729862490.767811,0.617295,3.647217,46.460059,-0.040588,0.019958,0.996124,-0.030974,0.000161,-0.0113,48.496643,-2.884537,-146.941788,,,
729862490.771268,0.608884,3.6484,46.456402,-0.040588,0.019958,0.996124,-0.030974,0.000161,-0.0113,48.496643,-2.884537,-146.941788,,,
729862490.774451,0.608884,3.6484,46.456402,-0.040588,0.019958,0.996124,-0.030974,0.000161,-0.0113,48.496643,-2.884537,-146.941788,,,
729862490.77785,0.601537,3.652936,46.451184,-0.043564,0.015884,1.007553,-0.025056,0.026579,-0.021845,48.496643,-2.884537,-146.941788,,,
729862490.781171,0.601537,3.652936,46.451184,-0.043564,0.015884,1.007553,-0.025056,0.026579,-0.021845,48.496643,-2.884537,-146.941788,,,
729862490.784364,0.59479,3.660939,46.446414,-0.043564,0.015884,1.007553,-0.025056,0.026579,-0.021845,48.496643,-2.884537,-146.941788,,,
729862490.787966,0.590708,3.668386,46.443016,-0.05899,0.011902,1.009506,-0.013514,0.036785,-0.011664,48.496643,-2.884537,-146.941788,,,
729862490.791181,0.590708,3.668386,46.443016,-0.05899,0.011902,1.009506,-0.013514,0.036785,-0.011664,48.496643,-2.884537,-146.941788,,,
729862490.79452,0.586883,3.677625,46.440849,-0.05899,0.011902,1.009506,-0.013514,0.036785,-0.011664,48.496643,-2.884537,-146.941788,,,
729862490.797857,0.584087,3.683181,46.439608,-0.064392,0.008881,1.002319,-0.012135,0.025063,-0.005245,48.496643,-2.884537,-146.941788,,,
729862490.801181,0.584087,3.683181,46.439608,-0.064392,0.008881,1.002319,-0.012135,0.025063,-0.005245,48.496643,-2.884537,-146.941788,,,
729862490.804513,0.5801,3.687893,46.438177,-0.064392,0.008881,1.002319,-0.012135,0.025063,-0.005245,48.708344,-2.881104,-147.252625,,,
729862490.807814,0.576726,3.689238,46.435152,-0.062546,0.012482,0.99852,-0.011538,0.002583,-0.01643,48.708344,-2.881104,-147.252625,,,
729862490.811256,0.576726,3.689238,46.435152,-0.062546,0.012482,0.99852,-0.011538,0.002583,-0.01643,48.708344,-2.881104,-147.252625,,,
729862490.814487,0.572588,3.688399,46.430302,-0.062546,0.012482,0.99852,-0.011538,0.002583,-0.01643,48.708344,-2.881104,-147.252625,,,
729862490.817812,0.568748,3.687156,46.424307,-0.058167,0.012375,1.000916,-0.013022,-0.006509,-0.024421,48.708344,-2.881104,-147.252625,,,
729862490.821156,0.568748,3.687156,46.424307,-0.058167,0.012375,1.000916,-0.013022,-0.006509,-0.024421,48.708344,-2.881104,-147.252625,,,
729862490.824545,0.563905,3.684694,46.417432,-0.058167,0.012375,1.000916,-0.013022,-0.006509,-0.024421,48.708344,-2.881104,-147.252625,,,
729862490.827796,0.558732,3.682322,46.409462,-0.058502,0.009827,0.999985,-0.021062,-0.007288,-0.032557,48.708344,-2.881104,-147.252625,,,
729862490.831149,0.558732,3.682322,46.409462,-0.058502,0.009827,0.999985,-0.021062,-0.007288,-0.032557,48.708344,-2.881104,-147.252625,,,
729862490.834478,0.551538,3.680048,46.401392,-0.058502,0.009827,0.999985,-0.021062,-0.007288,-0.032557,48.708344,-2.881104,-147.252625,,,
729862490.837808,0.545103,3.676934,46.394364,-0.05806,0.011002,0.998138,-0.02369,0.000617,-0.025586,48.708344,-2.881104,-147.252625,,,
729862490.841148,0.545103,3.676934,46.394364,-0.05806,0.011002,0.998138,-0.02369,0.000617,-0.025586,48.708344,-2.881104,-147.252625,,,
729862490.844479,0.537293,3.677173,46.388609,-0.05806,0.011002,0.998138,-0.02369,0.000617,-0.025586,48.673477,-3.097153,-147.238693,,,
729862490.8478,0.530854,3.674486,46.384401,-0.062607,0.01001,1.000793,-0.022222,0.005148,-0.014942,48.673477,-3.097153,-147.238693,,,
729862490.851215,0.530854,3.674486,46.384401,-0.062607,0.01001,1.000793,-0.022222,0.005148,-0.014942,48.673477,-3.097153,-147.238693,,,
729862490.85448,0.524034,3.675411,46.380748,-0.062607,0.01001,1.000793,-0.022222,0.005148,-0.014942,48.673477,-3.097153,-147.238693,,,
729862490.857825,0.518926,3.673047,46.377127,-0.063309,0.00853,1.003281,-0.015632,0.009012,-0.014535,48.673477,-3.097153,-147.238693,,,
729862490.861147,0.518926,3.673047,46.377127,-0.063309,0.00853,1.003281,-0.015632,0.009012,-0.014535,48.673477,-3.097153,-147.238693,,,
729862490.864541,0.514745,3.675528,46.373795,-0.063309,0.00853,1.003281,-0.015632,0.009012,-0.014535,48.673477,-3.097153,-147.238693,,,
729862490.867797,0.512622,3.676668,46.370944,-0.066071,0.004349,1.006271,-0.003724,0.010793,-0.010629,48.673477,-3.097153,-147.238693,,,
729862490.871144,0.512622,3.676668,46.370944,-0.066071,0.004349,1.006271,-0.003724,0.010793,-0.010629,48.673477,-3.097153,-147.238693,,,
729862490.874486,0.512093,3.677981,46.368973,-0.066071,0.004349,1.006271,-0.003724,0.010793,-0.010629,48.673477,-3.097153,-147.238693,,,
729862490.877805,0.513185,3.677154,46.367387,-0.068375,0.005798,1.006165,0.007427,-0.003879,-0.007263,48.673477,-3.097153,-147.238693,,,
729862490.881193,0.513185,3.677154,46.367387,-0.068375,0.005798,1.006165,0.007427,-0.003879,-0.007263,48.673477,-3.097153,-147.238693,,,
729862490.884493,0.515844,3.674642,46.365961,-0.068375,0.005798,1.006165,0.007427,-0.003879,-0.007263,48.555191,-3.009415,-147.230545,,,
729862490.88785,0.520132,3.67164,46.364454,-0.063538,0.007996,1.003342,0.017292,-0.005709,-0.007172,48.555191,-3.009415,-147.230545,,,
729862490.891213,0.520132,3.67164,46.364454,-0.063538,0.007996,1.003342,0.017292,-0.005709,-0.007172,48.555191,-3.009415,-147.230545,,,
729862490.894478,0.524599,3.669769,46.362375,-0.063538,0.007996,1.003342,0.017292,-0.005709,-0.007172,48.555191,-3.009415,-147.230545,,,
729862490.897802,0.528224,3.668276,46.3596,-0.060989,0.008652,0.998032,0.009007,0.002766,-0.012603,48.555191,-3.009415,-147.230545,,,
729862490.901148,0.528224,3.668276,46.3596,-0.060989,0.008652,0.998032,0.009007,0.002766,-0.012603,48.555191,-3.009415,-147.230545,,,
729862490.904553,0.529925,3.668694,46.355847,-0.060989,0.008652,0.998032,0.009007,0.002766,-0.012603,48.555191,-3.009415,-147.230545,,,
729862490.907789,0.530552,3.669528,46.351351,-0.058929,0.011017,0.991974,0.001491,0.013713,-0.018418,48.555191,-3.009415,-147.230545,,,
729862490.911131,0.530552,3.669528,46.351351,-0.058929,0.011017,0.991974,0.001491,0.013713,-0.018418,48.555191,-3.009415,-147.230545,,,
729862490.914478,0.53017,3.673851,46.345855,-0.058929,0.011017,0.991974,0.001491,0.013713,-0.018418,48.555191,-3.009415,-147.230545,,,
729862490.917798,0.529369,3.679103,46.340148,-0.060959,0.011551,0.994003,-0.002209,0.026916,-0.020136,48.555191,-3.009415,-147.230545,,,
729862490.921148,0.529369,3.679103,46.340148,-0.060959,0.011551,0.994003,-0.002209,0.026916,-0.020136,48.555191,-3.009415,-147.230545,,,
729862490.924503,0.527569,3.685482,46.334815,-0.060959,0.011551,0.994003,-0.002209,0.026916,-0.020136,48.555191,-3.009415,-147.230545,,,
729862490.927804,0.525934,3.688908,46.329708,-0.069702,0.007416,0.991913,-0.001741,0.010364,-0.01852,48.77887,-3.046844,-147.46698,,,
729862490.931131,0.525934,3.688908,46.329708,-0.069702,0.007416,0.991913,-0.001741,0.010364,-0.01852,48.77887,-3.046844,-147.46698,,,
729862490.9345,0.524516,3.689483,46.325576,-0.069702,0.007416,0.991913,-0.001741,0.010364,-0.01852,48.77887,-3.046844,-147.46698,,,
729862490.937804,0.522447,3.685738,46.32162,-0.071884,0.009811,0.983276,-0.006557,-0.017206,-0.017634,48.77887,-3.046844,-147.46698,,,
729862490.941209,0.522447,3.685738,46.32162,-0.071884,0.009811,0.983276,-0.006557,-0.017206,-0.017634,48.77887,-3.046844,-147.46698,,,
729862490.944456,0.520024,3.678553,46.316509,-0.071884,0.009811,0.983276,-0.006557,-0.017206,-0.017634,48.77887,-3.046844,-147.46698,,,
729862490.947822,0.517056,3.668065,46.311111,-0.070923,0.011047,0.979355,-0.007386,-0.041835,-0.019656,48.77887,-3.046844,-147.46698,,,
729862490.951159,0.517056,3.668065,46.311111,-0.070923,0.011047,0.979355,-0.007386,-0.041835,-0.019656,48.77887,-3.046844,-147.46698,,,
729862490.954564,0.514804,3.653761,46.306591,-0.070923,0.011047,0.979355,-0.007386,-0.041835,-0.019656,48.77887,-3.046844,-147.46698,,,
729862490.957797,0.51284,3.636791,46.303294,-0.066879,0.007828,0.980301,-0.003717,-0.064437,-0.010845,48.77887,-3.046844,-147.46698,,,
729862490.96115,0.51284,3.636791,46.303294,-0.066879,0.007828,0.980301,-0.003717,-0.064437,-0.010845,48.77887,-3.046844,-147.46698,,,
729862490.964475,0.511516,3.617813,46.300847,-0.066879,0.007828,0.980301,-0.003717,-0.064437,-0.010845,48.77887,-3.046844,-147.46698,,,
729862490.967805,0.50987,3.601138,46.298872,-0.060089,0.005981,0.992264,-0.004809,-0.050295,-0.007583,48.534714,-3.23497,-147.40506,,,
729862490.971144,0.50987,3.601138,46.298872,-0.060089,0.005981,0.992264,-0.004809,-0.050295,-0.007583,48.534714,-3.23497,-147.40506,,,
729862490.974487,0.508257,3.588632,46.297026,-0.060089,0.005981,0.992264,-0.004809,-0.050295,-0.007583,48.534714,-3.23497,-147.40506,,,
729862490.977806,0.506622,3.581911,46.295644,-0.050186,0.008835,0.999649,-0.005181,-0.009267,-0.004349,48.534714,-3.23497,-147.40506,,,
729862490.981211,0.506622,3.581911,46.295644,-0.050186,0.008835,0.999649,-0.005181,-0.009267,-0.004349,48.534714,-3.23497,-147.40506,,,
729862490.984466,0.503865,3.581525,46.294599,-0.050186,0.008835,0.999649,-0.005181,-0.009267,-0.004349,48.534714,-3.23497,-147.40506,,,
729862490.987799,0.499608,3.585824,46.293041,-0.046127,0.010178,1.000046,-0.016367,0.027101,-0.00863,48.534714,-3.23497,-147.40506,,,
729862490.991145,0.499608,3.585824,46.293041,-0.046127,0.010178,1.000046,-0.016367,0.027101,-0.00863,48.534714,-3.23497,-147.40506,,,
729862490.994545,0.494518,3.595189,46.290486,-0.046127,0.010178,1.000046,-0.016367,0.027101,-0.00863,48.534714,-3.23497,-147.40506,,,
729862490.997797,0.490767,3.607572,46.286281,-0.047791,0.00766,1.001114,-0.008303,0.050499,-0.019648,48.534714,-3.23497,-147.40506,,,
729862491.00117,0.490767,3.607572,46.286281,-0.047791,0.00766,1.001114,-0.008303,0.050499,-0.019648,48.534714,-3.23497,-147.40506,,,
729862491.004494,0.488482,3.621345,46.281147,-0.047791,0.00766,1.001114,-0.008303,0.050499,-0.019648,48.534714,-3.23497,-147.40506,,,
729862491.007813,0.487142,3.633917,46.275584,-0.056198,0.004761,0.997971,-0.001707,0.036804,-0.022189,48.384735,-3.08844,-147.404327,,,
729862491.011153,0.487142,3.633917,46.275584,-0.056198,0.004761,0.997971,-0.001707,0.036804,-0.022189,48.384735,-3.08844,-147.404327,,,
729862491.014483,0.485852,3.64159,46.269459,-0.056198,0.004761,0.997971,-0.001707,0.036804,-0.022189,48.384735,-3.08844,-147.404327,,,
729862491.017803,0.483594,3.646618,46.262885,-0.065353,0.008987,0.984039,-0.008519,0.008049,-0.025688,48.384735,-3.08844,-147.404327,,,
729862491.021132,0.483594,3.646618,46.262885,-0.065353,0.008987,0.984039,-0.008519,0.008049,-0.025688,48.384735,-3.08844,-147.404327,,,
729862491.024484,0.479492,3.646239,46.256348,-0.065353,0.008987,0.984039,-0.008519,0.008049,-0.025688,48.384735,-3.08844,-147.404327,,,
729862491.027804,0.474069,3.64409,46.250132,-0.068695,0.011429,0.974564,-0.019775,-0.015479,-0.024082,48.384735,-3.08844,-147.404327,,,
729862491.030923,0.474069,3.64409,46.250132,-0.068695,0.011429,0.974564,-0.019775,-0.015479,-0.024082,48.384735,-3.08844,-147.404327,,,
729862491.034502,0.467313,3.637288,46.244928,-0.068695,0.011429,0.974564,-0.019775,-0.015479,-0.024082,48.384735,-3.08844,-147.404327,,,
729862491.037799,0.460035,3.62951,46.241024,-0.070984,0.007217,0.981949,-0.024842,-0.028172,-0.015259,48.384735,-3.08844,-147.404327,,,
729862491.041212,0.460035,3.62951,46.241024,-0.070984,0.007217,0.981949,-0.024842,-0.028172,-0.015259,48.384735,-3.08844,-147.404327,,,
729862491.044474,0.452689,3.620605,46.238516,-0.070984,0.007217,0.981949,-0.024842,-0.028172,-0.015259,48.384735,-3.08844,-147.404327,,,
729862491.047804,0.445717,3.611786,46.237151,-0.070923,0.005066,0.995087,-0.021404,-0.027135,-0.007003,48.73999,-3.160416,-147.63916,,,
729862491.05115,0.445717,3.611786,46.237151,-0.070923,0.005066,0.995087,-0.021404,-0.027135,-0.007003,48.73999,-3.160416,-147.63916,,,
729862491.054492,0.439941,3.604263,46.236533,-0.070923,0.005066,0.995087,-0.021404,-0.027135,-0.007003,48.73999,-3.160416,-147.63916,,,
729862491.057803,0.436163,3.597683,46.237001,-0.067383,0.002029,1.007477,-0.008815,-0.007827,0.001303,48.73999,-3.160416,-147.63916,,,
729862491.061154,0.436163,3.597683,46.237001,-0.067383,0.002029,1.007477,-0.008815,-0.007827,0.001303,48.73999,-3.160416,-147.63916,,,
729862491.064476,0.43454,3.596459,46.237497,-0.067383,0.002029,1.007477,-0.008815,-0.007827,0.001303,48.73999,-3.160416,-147.63916,,,
729862491.067809,0.435295,3.596445,46.237456,-0.060303,0.002167,1.020004,0.006728,0.019018,-0.001649,48.73999,-3.160416,-147.63916,,,
729862491.071222,0.435295,3.596445,46.237456,-0.060303,0.002167,1.020004,0.006728,0.019018,-0.001649,48.73999,-3.160416,-147.63916,,,
729862491.074474,0.43757,3.602323,46.237188,-0.060303,0.002167,1.020004,0.006728,0.019018,-0.001649,48.73999,-3.160416,-147.63916,,,
729862491.077796,0.440668,3.607441,46.236432,-0.059006,0.002823,1.014587,0.011828,0.032194,-0.004813,48.73999,-3.160416,-147.63916,,,
729862491.081143,0.440668,3.607441,46.236432,-0.059006,0.002823,1.014587,0.011828,0.032194,-0.004813,48.73999,-3.160416,-147.63916,,,
729862491.084528,0.443373,3.61608,46.234194,-0.059006,0.002823,1.014587,0.011828,0.032194,-0.004813,48.73999,-3.160416,-147.63916,,,
729862491.087793,0.44547,3.622789,46.230789,-0.059311,0.009384,1.000015,0.009863,0.029816,-0.013133,48.73999,-3.160416,-147.63916,,,
729862491.09115,0.44547,3.622789,46.230789,-0.059311,0.009384,1.000015,0.009863,0.029816,-0.013133,48.753738,-3.133331,-147.485138,,,
729862491.094473,0.447009,3.629619,46.227252,-0.059311,0.009384,1.000015,0.009863,0.029816,-0.013133,48.753738,-3.133331,-147.485138,,,
729862491.097819,0.446731,3.633712,46.223704,-0.065399,0.013245,0.987381,-0.00284,0.010429,-0.013991,48.753738,-3.133331,-147.485138,,,
729862491.101141,0.446731,3.633712,46.223704,-0.065399,0.013245,0.987381,-0.00284,0.010429,-0.013991,48.753738,-3.133331,-147.485138,,,
729862491.104482,0.44509,3.634412,46.22015,-0.065399,0.013245,0.987381,-0.00284,0.010429,-0.013991,48.753738,-3.133331,-147.485138,,,
729862491.107805,0.443409,3.632937,46.216333,-0.066193,0.010437,0.98735,-0.006141,-0.010888,-0.016022,48.753738,-3.133331,-147.485138,,,
729862491.11114,0.443409,3.632937,46.216333,-0.066193,0.010437,0.98735,-0.006141,-0.010888,-0.016022,48.753738,-3.133331,-147.485138,,,
729862491.114483,0.441048,3.628116,46.212608,-0.066193,0.010437,0.98735,-0.006141,-0.010888,-0.016022,48.753738,-3.133331,-147.485138,,,
729862491.117845,0.438319,3.622787,46.209538,-0.068542,0.01178,0.998581,-0.009364,-0.023895,-0.011661,48.753738,-3.133331,-147.485138,,,
729862491.121148,0.438319,3.622787,46.209538,-0.068542,0.01178,0.998581,-0.009364,-0.023895,-0.011661,48.753738,-3.133331,-147.485138,,,
729862491.124559,0.435224,3.614451,46.207445,-0.068542,0.01178,0.998581,-0.009364,-0.023895,-0.011661,48.753738,-3.133331,-147.485138,,,
729862491.127798,0.431756,3.60696,46.20607,-0.069046,0.010254,0.999664,-0.010949,-0.028106,-0.006707,48.753738,-3.133331,-147.485138,,,
729862491.131244,0.431756,3.60696,46.20607,-0.069046,0.010254,0.999664,-0.010949,-0.028106,-0.006707,48.78183,-3.196854,-147.66507,,,
729862491.134493,0.428503,3.598601,46.204901,-0.069046,0.010254,0.999664,-0.010949,-0.028106,-0.006707,48.78183,-3.196854,-147.66507,,,
729862491.137807,0.424427,3.592468,46.204069,-0.068436,0.009933,1.005753,-0.014154,-0.017841,-0.0045,48.78183,-3.196854,-147.66507,,,
729862491.141152,0.424427,3.592468,46.204069,-0.068436,0.009933,1.005753,-0.014154,-0.017841,-0.0045,48.78183,-3.196854,-147.66507,,,
729862491.144496,0.419044,3.587984,46.203963,-0.068436,0.009933,1.005753,-0.014154,-0.017841,-0.0045,48.78183,-3.196854,-147.66507,,,
729862491.147803,0.41333,3.58455,46.204462,-0.065445,0.010544,1.009171,-0.013118,-0.007807,-0.000185,48.78183,-3.196854,-147.66507,,,
729862491.151225,0.41333,3.58455,46.204462,-0.065445,0.010544,1.009171,-0.013118,-0.007807,-0.000185,48.78183,-3.196854,-147.66507,,,
729862491.15447,0.409551,3.581554,46.205673,-0.065445,0.010544,1.009171,-0.013118,-0.007807,-0.000185,48.78183,-3.196854,-147.66507,,,
729862491.157801,0.406645,3.577755,46.208061,-0.066513,0.007172,1.012238,-0.004751,-0.007428,0.008474,48.78183,-3.196854,-147.66507,,,
729862491.161143,0.406645,3.577755,46.208061,-0.066513,0.007172,1.012238,-0.004751,-0.007428,0.008474,48.78183,-3.196854,-147.66507,,,
729862491.164461,0.407191,3.575401,46.211238,-0.066513,0.007172,1.012238,-0.004751,-0.007428,0.008474,48.78183,-3.196854,-147.66507,,,
729862491.167803,0.411063,3.573274,46.214124,-0.064926,0.00415,1.017319,0.018519,-0.001209,0.007905,48.78183,-3.196854,-147.66507,,,
729862491.171131,0.411063,3.573274,46.214124,-0.064926,0.00415,1.017319,0.018519,-0.001209,0.007905,48.680679,-3.336624,-147.733337,,,
729862491.174493,0.417646,3.572778,46.216544,-0.064926,0.00415,1.017319,0.018519,-0.001209,0.007905,48.680679,-3.336624,-147.733337,,,
729862491.177798,0.427275,3.574103,46.218989,-0.061005,0.003952,1.019272,0.036099,0.009823,0.009219,48.680679,-3.336624,-147.733337,,,
729862491.181157,0.427275,3.574103,46.218989,-0.061005,0.003952,1.019272,0.036099,0.009823,0.009219,48.680679,-3.336624,-147.733337,,,
729862491.184461,0.4379,3.57697,46.221035,-0.061005,0.003952,1.019272,0.036099,0.009823,0.009219,48.680679,-3.336624,-147.733337,,,
729862491.1878,0.44877,3.582126,46.222267,-0.050491,0.008377,1.010895,0.035486,0.019524,0.00352,48.680679,-3.336624,-147.733337,,,
729862491.191145,0.44877,3.582126,46.222267,-0.050491,0.008377,1.010895,0.035486,0.019524,0.00352,48.680679,-3.336624,-147.733337,,,
729862491.194479,0.458659,3.586363,46.221975,-0.050491,0.008377,1.010895,0.035486,0.019524,0.00352,48.680679,-3.336624,-147.733337,,,
729862491.197798,0.468429,3.590051,46.219605,-0.047485,0.012558,0.995987,0.033339,0.009425,-0.01103,48.680679,-3.336624,-147.733337,,,
729862491.201217,0.468429,3.590051,46.219605,-0.047485,0.012558,0.995987,0.033339,0.009425,-0.01103,48.680679,-3.336624,-147.733337,,,
729862491.204468,0.477024,3.590704,46.215326,-0.047485,0.012558,0.995987,0.033339,0.009425,-0.01103,48.680679,-3.336624,-147.733337,,,
729862491.207824,0.48476,3.589908,46.209332,-0.050613,0.012299,0.987167,0.026103,-0.00884,-0.023324,48.680679,-3.336624,-147.733337,,,
729862491.211137,0.48476,3.589908,46.209332,-0.050613,0.012299,0.987167,0.026103,-0.00884,-0.023324,48.665085,-3.373444,-147.859772,,,
729862491.21447,0.490218,3.586378,46.202124,-0.050613,0.012299,0.987167,0.026103,-0.00884,-0.023324,48.665085,-3.373444,-147.859772,,,
729862491.217809,0.492485,3.58372,46.194871,-0.055634,0.012405,0.979736,0.00331,-0.008506,-0.025007,48.665085,-3.373444,-147.859772,,,
729862491.221148,0.492485,3.58372,46.194871,-0.055634,0.012405,0.979736,0.00331,-0.008506,-0.025007,48.665085,-3.373444,-147.859772,,,
729862491.224545,0.490429,3.581308,46.188573,-0.055634,0.012405,0.979736,0.00331,-0.008506,-0.025007,48.665085,-3.373444,-147.859772,,,
729862491.227811,0.483981,3.581589,46.183416,-0.060455,0.014343,0.973465,-0.029187,0.006245,-0.019027,48.665085,-3.373444,-147.859772,,,
729862491.23117,0.483981,3.581589,46.183416,-0.060455,0.014343,0.973465,-0.029187,0.006245,-0.019027,48.665085,-3.373444,-147.859772,,,
729862491.23448,0.47309,3.584186,46.179541,-0.060455,0.014343,0.973465,-0.029187,0.006245,-0.019027,48.665085,-3.373444,-147.859772,,,
729862491.237807,0.459132,3.590379,46.177232,-0.063431,0.014664,0.976578,-0.051455,0.028288,-0.009474,48.665085,-3.373444,-147.859772,,,
729862491.24115,0.459132,3.590379,46.177232,-0.063431,0.014664,0.976578,-0.051455,0.028288,-0.009474,48.665085,-3.373444,-147.859772,,,
729862491.244491,0.44375,3.598497,46.175938,-0.063431,0.014664,0.976578,-0.051455,0.028288,-0.009474,48.665085,-3.373444,-147.859772,,,
729862491.247806,0.42853,3.606849,46.175442,-0.067993,0.008835,0.986511,-0.048972,0.028023,-0.003702,48.665085,-3.373444,-147.859772,,,
729862491.251212,0.42853,3.606849,46.175442,-0.067993,0.008835,0.986511,-0.048972,0.028023,-0.003702,48.665085,-3.373444,-147.859772,,,
729862491.254468,0.415259,3.613171,46.175586,-0.067993,0.008835,0.986511,-0.048972,0.028023,-0.003702,48.854126,-3.196777,-147.538177,,,
729862491.257799,0.404586,3.617574,46.175622,-0.071838,0.004379,0.994324,-0.028572,0.016305,-0.003185,48.854126,-3.196777,-147.538177,,,
729862491.261155,0.404586,3.617574,46.175622,-0.071838,0.004379,0.994324,-0.028572,0.016305,-0.003185,48.854126,-3.196777,-147.538177,,,
729862491.264546,0.398695,3.620825,46.175669,-0.071838,0.004379,0.994324,-0.028572,0.016305,-0.003185,48.854126,-3.196777,-147.538177,,,
729862491.267796,0.398381,3.620711,46.175627,-0.071655,-0.002029,1.01329,0.010102,0.005712,-0.001465,48.854126,-3.196777,-147.538177,,,
729862491.271154,0.398381,3.620711,46.175627,-0.071655,-0.002029,1.01329,0.010102,0.005712,-0.001465,48.854126,-3.196777,-147.538177,,,
729862491.274489,0.403882,3.621169,46.175244,-0.071655,-0.002029,1.01329,0.010102,0.005712,-0.001465,48.854126,-3.196777,-147.538177,,,
729862491.277803,0.415027,3.618507,46.174318,-0.075378,-0.005478,1.023773,0.046087,0.001631,-0.003146,48.854126,-3.196777,-147.538177,,,
729862491.281155,0.415027,3.618507,46.174318,-0.075378,-0.005478,1.023773,0.046087,0.001631,-0.003146,48.854126,-3.196777,-147.538177,,,
729862491.284471,0.430271,3.617493,46.173775,-0.075378,-0.005478,1.023773,0.046087,0.001631,-0.003146,48.854126,-3.196777,-147.538177,,,
729862491.287806,0.44953,3.614159,46.174193,-0.074081,-0.003113,1.022858,0.070643,0.000144,0.005036,48.854126,-3.196777,-147.538177,,,
729862491.29121,0.44953,3.614159,46.174193,-0.074081,-0.003113,1.022858,0.070643,0.000144,0.005036,48.854126,-3.196777,-147.538177,,,
729862491.294485,0.469676,3.612329,46.175484,-0.074081,-0.003113,1.022858,0.070643,0.000144,0.005036,48.657761,-3.229736,-147.497284,,,
729862491.297798,0.489427,3.607178,46.177306,-0.067978,0.001099,1.004807,0.064629,-0.014548,0.008257,48.657761,-3.229736,-147.497284,,,
729862491.301146,0.489427,3.607178,46.177306,-0.067978,0.001099,1.004807,0.064629,-0.014548,0.008257,48.657761,-3.229736,-147.497284,,,
729862491.304524,0.50601,3.601756,46.178743,-0.067978,0.001099,1.004807,0.064629,-0.014548,0.008257,48.657761,-3.229736,-147.497284,,,
729862491.307801,0.519682,3.594966,46.179426,-0.059235,0.010406,0.979446,0.040977,-0.021901,0.001514,48.657761,-3.229736,-147.497284,,,
729862491.311187,0.519682,3.594966,46.179426,-0.059235,0.010406,0.979446,0.040977,-0.021901,0.001514,48.657761,-3.229736,-147.497284,,,
729862491.314508,0.529169,3.588261,46.179108,-0.059235,0.010406,0.979446,0.040977,-0.021901,0.001514,48.657761,-3.229736,-147.497284,,,
729862491.31786,0.535218,3.583574,46.17769,-0.054535,0.016556,0.974823,0.013371,-0.009004,-0.007872,48.657761,-3.229736,-147.497284,,,
729862491.32115,0.535218,3.583574,46.17769,-0.054535,0.016556,0.974823,0.013371,-0.009004,-0.007872,48.657761,-3.229736,-147.497284,,,
729862491.324467,0.535994,3.581339,46.17575,-0.054535,0.016556,0.974823,0.013371,-0.009004,-0.007872,48.657761,-3.229736,-147.497284,,,
729862491.327776,0.532787,3.582052,46.175251,-0.054443,0.015045,0.97612,-0.016151,0.005476,0.000378,48.657761,-3.229736,-147.497284,,,
729862491.331178,0.532787,3.582052,46.175251,-0.054443,0.015045,0.97612,-0.016151,0.005476,0.000378,48.657761,-3.229736,-147.497284,,,
729862491.334434,0.527737,3.583084,46.176818,-0.054443,0.015045,0.97612,-0.016151,0.005476,0.000378,48.925049,-3.313461,-147.313538,,,
729862491.337696,0.527737,3.583084,46.176818,-0.055725,0.012009,0.974548,-0.024678,0.005332,0.011416,48.925049,-3.313461,-147.313538,,,
729862491.341135,0.521141,3.585603,46.180027,-0.055725,0.012009,0.974548,-0.024678,0.005332,0.011416,48.925049,-3.313461,-147.313538,,,
729862491.344456,0.514571,3.585512,46.184895,-0.055725,0.012009,0.974548,-0.024678,0.005332,0.011416,48.925049,-3.313461,-147.313538,,,
729862491.347772,0.508074,3.585003,46.189918,-0.053131,0.012619,0.97493,-0.018541,-0.007053,0.012876,48.925049,-3.313461,-147.313538,,,
729862491.350847,0.508074,3.585003,46.189918,-0.053131,0.012619,0.97493,-0.018541,-0.007053,0.012876,48.925049,-3.313461,-147.313538,,,
729862491.354474,0.504166,3.581589,46.193463,-0.053131,0.012619,0.97493,-0.018541,-0.007053,0.012876,48.925049,-3.313461,-147.313538,,,
729862491.357769,0.501119,3.579089,46.194864,-0.043884,0.009872,0.982742,-0.002279,-0.012378,-0.000911,48.925049,-3.313461,-147.313538,,,
729862491.361125,0.501119,3.579089,46.194864,-0.043884,0.009872,0.982742,-0.002279,-0.012378,-0.000911,48.925049,-3.313461,-147.313538,,,
729862491.364502,0.500151,3.575618,46.193775,-0.043884,0.009872,0.982742,-0.002279,-0.012378,-0.000911,48.925049,-3.313461,-147.313538,,,
729862491.367768,0.497656,3.575473,46.190216,-0.033127,0.012115,0.988113,-0.003791,-0.000933,-0.018211,48.925049,-3.313461,-147.313538,,,
729862491.371072,0.497656,3.575473,46.190216,-0.033127,0.012115,0.988113,-0.003791,-0.000933,-0.018211,48.925049,-3.313461,-147.313538,,,
729862491.374407,0.494668,3.576294,46.184611,-0.033127,0.012115,0.988113,-0.003791,-0.000933,-0.018211,48.869507,-3.48764,-147.600891,,,
729862491.377611,0.494668,3.576294,46.184611,-0.032425,0.013596,0.984604,-0.018773,0.025141,-0.032186,48.869507,-3.48764,-147.600891,,,
729862491.381092,0.488532,3.581929,46.177137,-0.032425,0.013596,0.984604,-0.018773,0.025141,-0.032186,48.869507,-3.48764,-147.600891,,,
729862491.384402,0.481784,3.589745,46.168253,-0.032425,0.013596,0.984604,-0.018773,0.025141,-0.032186,48.869507,-3.48764,-147.600891,,,
729862491.387737,0.47394,3.599793,46.158703,-0.04454,0.011566,0.992416,-0.026143,0.041959,-0.037308,48.869507,-3.48764,-147.600891,,,
729862491.391075,0.47394,3.599793,46.158703,-0.04454,0.011566,0.992416,-0.026143,0.041959,-0.037308,48.869507,-3.48764,-147.600891,,,
729862491.3944,0.46629,3.611284,46.149623,-0.04454,0.011566,0.992416,-0.026143,0.041959,-0.037308,48.869507,-3.48764,-147.600891,,,
729862491.397894,0.46629,3.621628,46.141838,-0.063156,0.004288,1.003708,-0.014929,0.040857,-0.027639,48.869507,-3.48764,-147.600891,,,
729862491.401143,0.461046,3.621628,46.141838,-0.063156,0.004288,1.003708,-0.014929,0.040857,-0.027639,48.869507,-3.48764,-147.600891,,,
729862491.404488,0.457225,3.631669,46.134933,-0.063156,0.004288,1.003708,-0.014929,0.040857,-0.027639,48.869507,-3.48764,-147.600891,,,
729862491.407877,0.457225,3.631669,46.128884,-0.070084,0.003021,1.005997,-0.00559,0.02282,-0.021094,48.869507,-3.48764,-147.600891,,,
729862491.410934,0.455589,3.637694,46.128884,-0.070084,0.003021,1.005997,-0.00559,0.02282,-0.021094,48.869507,-3.48764,-147.600891,,,
729862491.414537,0.454333,3.641732,46.122889,-0.070084,0.003021,1.005997,-0.00559,0.02282,-0.021094,48.869507,-3.48764,-147.600891,,,
729862491.417853,0.454333,3.641732,46.122889,-0.070938,0.000458,0.997986,-0.000264,-0.005708,-0.026237,48.871628,-3.326767,-147.805801,,,
729862491.421141,0.454111,3.640672,46.116122,-0.070938,0.000458,0.997986,-0.000264,-0.005708,-0.026237,48.871628,-3.326767,-147.805801,,,
729862491.424469,0.454139,3.635806,46.108931,-0.070938,0.000458,0.997986,-0.000264,-0.005708,-0.026237,48.871628,-3.326767,-147.805801,,,
729862491.427805,0.454139,3.635806,46.108931,-0.07283,0.005371,1.00058,0.015456,-0.037363,-0.025826,48.871628,-3.326767,-147.805801,,,
729862491.431157,0.456869,3.625045,46.101662,-0.07283,0.005371,1.00058,0.015456,-0.037363,-0.025826,48.871628,-3.326767,-147.805801,,,
729862491.43453,0.460815,3.613121,46.094799,-0.07283,0.005371,1.00058,0.015456,-0.037363,-0.025826,48.871628,-3.326767,-147.805801,,,
729862491.437837,0.460815,3.613121,46.094799,-0.070847,0.003754,1.005539,0.018105,-0.042504,-0.021787,48.871628,-3.326767,-147.805801,,,
729862491.441055,0.465417,3.598001,46.088499,-0.070847,0.003754,1.005539,0.018105,-0.042504,-0.021787,48.871628,-3.326767,-147.805801,,,
729862491.444553,0.469648,3.58593,46.082749,-0.070847,0.003754,1.005539,0.018105,-0.042504,-0.021787,48.871628,-3.326767,-147.805801,,,
729862491.4478,0.469648,3.58593,46.082749,-0.070847,0.003754,1.005539,0.008009,-0.027832,-0.012987,48.871628,-3.326767,-147.805801,,,
729862491.451134,0.472775,3.571531,46.07839,-0.067749,0.008026,0.999115,0.008009,-0.027832,-0.012987,48.871628,-3.326767,-147.805801,,,
729862491.454488,0.474184,3.564364,46.075631,-0.067749,0.008026,0.999115,0.008009,-0.027832,-0.012987,48.871628,-3.326767,-147.805801,,,
729862491.457841,0.474184,3.564364,46.075631,-0.067749,0.008026,0.999115,-0.006735,-0.006838,-0.008387,48.816971,-3.487595,-147.698853,,,
729862491.461199,0.474094,3.555334,46.073712,-0.058578,0.012299,0.991867,-0.006735,-0.006838,-0.008387,48.816971,-3.487595,-147.698853,,,
729862491.464477,0.470143,3.554361,46.070849,-0.058578,0.012299,0.991867,-0.006735,-0.006838,-0.008387,48.816971,-3.487595,-147.698853,,,
729862491.467841,0.470143,3.554361,46.070849,-0.058578,0.012299,0.991867,-0.03094,0.019526,-0.023046,48.816971,-3.487595,-147.698853,,,
729862491.471137,0.462999,3.55361,46.066136,-0.048157,0.015961,0.98851,-0.03094,0.019526,-0.023046,48.816971,-3.487595,-147.698853,,,
729862491.474389,0.451861,3.56049,46.059614,-0.048157,0.015961,0.98851,-0.03094,0.019526,-0.023046,48.816971,-3.487595,-147.698853,,,
729862491.477783,0.451861,3.56049,46.059614,-0.048157,0.015961,0.98851,-0.054139,0.046452,-0.033861,48.816971,-3.487595,-147.698853,,,
729862491.481059,0.437032,3.57081,46.051749,-0.051865,0.016602,0.98584,-0.054139,0.046452,-0.033861,48.816971,-3.487595,-147.698853,,,
729862491.484401,0.420149,3.584637,46.043465,-0.051865,0.016602,0.98584,-0.054139,0.046452,-0.033861,48.816971,-3.487595,-147.698853,,,
729862491.487868,0.420149,3.584637,46.043465,-0.051865,0.016602,0.98584,-0.048531,0.05051,-0.033829,48.816971,-3.487595,-147.698853,,,
729862491.491135,0.403664,3.59988,46.035137,-0.064377,0.012268,0.995193,-0.048531,0.05051,-0.033829,48.816971,-3.487595,-147.698853,,,
729862491.494488,0.390516,3.612756,46.026822,-0.064377,0.012268,0.995193,-0.048531,0.05051,-0.033829,48.816971,-3.487595,-147.698853,,,
729862491.497902,0.390516,3.612756,46.026822,-0.064377,0.012268,0.995193,-0.022499,0.040864,-0.031076,49.203842,-3.687851,-147.787872,,,
729862491.50114,0.380435,3.625639,46.018655,-0.078979,0.004593,1.01123,-0.022499,0.040864,-0.031076,49.203842,-3.687851,-147.787872,,,
729862491.504473,0.375187,3.636259,46.010544,-0.078979,0.004593,1.01123,-0.022499,0.040864,-0.031076,49.203842,-3.687851,-147.787872,,,
729862491.507805,0.375187,3.636259,46.010544,-0.078979,0.004593,1.01123,-0.022499,0.040864,-0.031076,49.203842,-3.687851,-147.787872,,,
729862491.511144,0.373258,3.646808,46.003868,-0.092117,0.000961,1.016495,0.001072,0.02965,-0.019519,49.203842,-3.687851,-147.787872,,,
729862491.514489,0.373122,3.652817,45.999662,-0.092117,0.000961,1.016495,0.001072,0.02965,-0.019519,49.203842,-3.687851,-147.787872,,,
729862491.517842,0.373122,3.652817,45.999662,-0.092117,0.000961,1.016495,-0.000933,0.005801,-0.006754,49.203842,-3.687851,-147.787872,,,
729862491.521043,0.372562,3.656639,45.99731,-0.092133,0.004578,1.000748,-0.000933,0.005801,-0.006754,49.203842,-3.687851,-147.787872,,,
729862491.524411,0.372184,3.656796,45.996667,-0.092133,0.004578,1.000748,-0.000933,0.005801,-0.006754,49.203842,-3.687851,-147.787872,,,
729862491.527823,0.372184,3.656796,45.996667,-0.092133,0.004578,1.000748,-0.000933,0.005801,-0.006754,49.203842,-3.687851,-147.787872,,,
729862491.531153,0.371989,3.656353,45.996998,-0.085953,0.00679,1.000641,-0.000254,-0.00418,0.000136,49.203842,-3.687851,-147.787872,,,
729862491.534356,0.372103,3.653939,45.997517,-0.085953,0.00679,1.000641,-0.000254,-0.00418,0.000136,49.203842,-3.687851,-147.787872,,,
729862491.537844,0.372103,3.653939,45.997517,-0.085953,0.00679,1.000641,-0.000254,-0.00418,0.000136,49.203842,-3.687851,-147.787872,,,
729862491.541069,0.374219,3.649968,45.998342,-0.083832,0.002838,1.011108,0.010745,-0.012184,0.002998,49.227798,-3.604721,-147.685303,,,
729862491.544495,0.378191,3.645916,46.000192,-0.083832,0.002838,1.011108,0.010745,-0.012184,0.002998,49.227798,-3.604721,-147.685303,,,
729862491.547855,0.378191,3.645916,46.000192,-0.083832,0.002838,1.011108,0.010745,-0.012184,0.002998,49.227798,-3.604721,-147.685303,,,
729862491.551099,0.384923,3.640599,46.003652,-0.077499,0.002014,1.020187,0.023378,-0.006061,0.014967,49.227798,-3.604721,-147.685303,,,
729862491.554426,0.392286,3.638965,46.007983,-0.077499,0.002014,1.020187,0.023378,-0.006061,0.014967,49.227798,-3.604721,-147.685303,,,
729862491.557782,0.392286,3.638965,46.007983,-0.077499,0.002014,1.020187,0.023378,-0.006061,0.014967,49.227798,-3.604721,-147.685303,,,
729862491.56118,0.400958,3.636876,46.012597,-0.069702,0.002808,1.022079,0.025705,0.00629,0.017038,49.227798,-3.604721,-147.685303,,,
729862491.564528,0.407779,3.638534,46.017309,-0.069702,0.002808,1.022079,0.025705,0.00629,0.017038,49.227798,-3.604721,-147.685303,,,
729862491.567865,0.407779,3.638534,46.017309,-0.069702,0.002808,1.022079,0.025705,0.00629,0.017038,49.227798,-3.604721,-147.685303,,,
729862491.57113,0.414013,3.640622,46.02157,-0.060608,0.010025,1.005707,0.017856,0.011002,0.013298,49.227798,-3.604721,-147.685303,,,
729862491.574485,0.418264,3.643408,46.024613,-0.060608,0.010025,1.005707,0.017856,0.011002,0.013298,49.227798,-3.604721,-147.685303,,,
729862491.577834,0.418264,3.643408,46.024613,-0.060608,0.010025,1.005707,0.017856,0.011002,0.013298,49.227798,-3.604721,-147.685303,,,
729862491.580953,0.421007,3.648149,46.026323,-0.058655,0.01416,0.996613,0.008499,0.012033,0.003482,49.038712,-3.623337,-147.229019,,,
729862491.584499,0.42248,3.650797,46.02749,-0.058655,0.01416,0.996613,0.008499,0.012033,0.003482,49.038712,-3.623337,-147.229019,,,
729862491.587862,0.42248,3.650797,46.02749,-0.058655,0.01416,0.996613,0.008499,0.012033,0.003482,49.038712,-3.623337,-147.229019,,,
729862491.591208,0.422097,3.657006,46.028476,-0.060455,0.014008,0.99176,-0.000454,0.008947,0.001852,49.038712,-3.623337,-147.229019,,,
729862491.594395,0.421188,3.659053,46.030173,-0.060455,0.014008,0.99176,-0.000454,0.008947,0.001852,49.038712,-3.623337,-147.229019,,,
729862491.597846,0.421188,3.659053,46.030173,-0.060455,0.014008,0.99176,-0.000454,0.008947,0.001852,49.038712,-3.623337,-147.229019,,,
729862491.601139,0.418657,3.66606,46.032794,-0.058182,0.01474,0.98497,-0.009354,0.009929,0.008024,49.038712,-3.623337,-147.229019,,,
729862491.604504,0.416257,3.667466,46.035847,-0.058182,0.01474,0.98497,-0.009354,0.009929,0.008024,49.038712,-3.623337,-147.229019,,,
729862491.607802,0.416257,3.667466,46.035847,-0.058182,0.01474,0.98497,-0.009354,0.009929,0.008024,49.038712,-3.623337,-147.229019,,,
729862491.611153,0.4152,3.670792,46.038451,-0.051941,0.01152,0.991638,0.000326,-0.00304,0.005698,49.038712,-3.623337,-147.229019,,,
729862491.614468,0.41708,3.668571,46.039864,-0.051941,0.01152,0.991638,0.000326,-0.00304,0.005698,49.038712,-3.623337,-147.229019,,,
729862491.617939,0.41708,3.668571,46.039864,-0.051941,0.01152,0.991638,0.000326,-0.00304,0.005698,49.038712,-3.623337,-147.229019,,,
729862491.621129,0.422004,3.669208,46.039778,-0.0513,0.005692,1.004776,0.024395,-0.005062,-0.003153,49.046982,-3.696106,-147.396591,,,
729862491.624478,0.429507,3.667764,46.038123,-0.0513,0.005692,1.004776,0.024395,-0.005062,-0.003153,49.046982,-3.696106,-147.396591,,,
729862491.627816,0.429507,3.667764,46.038123,-0.0513,0.005692,1.004776,0.024395,-0.005062,-0.003153,49.046982,-3.696106,-147.396591,,,
729862491.631146,0.437857,3.67038,46.035873,-0.049728,0.007278,1.007431,0.034279,0.007382,-0.006563,49.046982,-3.696106,-147.396591,,,
729862491.634477,0.446425,3.672976,46.033349,-0.049728,0.007278,1.007431,0.034279,0.007382,-0.006563,49.046982,-3.696106,-147.396591,,,
729862491.637815,0.446425,3.672976,46.033349,-0.049728,0.007278,1.007431,0.034279,0.007382,-0.006563,49.046982,-3.696106,-147.396591,,,
729862491.641138,0.45254,3.678939,46.030621,-0.045975,0.007477,0.999603,0.020767,0.024216,-0.008798,49.046982,-3.696106,-147.396591,,,
729862491.644479,0.456769,3.686346,46.027894,-0.045975,0.007477,0.999603,0.020767,0.024216,-0.008798,49.046982,-3.696106,-147.396591,,,
729862491.647822,0.456769,3.686346,46.027894,-0.045975,0.007477,0.999603,0.020767,0.024216,-0.008798,49.046982,-3.696106,-147.396591,,,
729862491.651147,0.458679,3.695155,46.024622,-0.049545,0.010452,0.990814,0.004754,0.036599,-0.013677,49.046982,-3.696106,-147.396591,,,
729862491.654471,0.458379,3.704403,46.021159,-0.049545,0.010452,0.990814,0.004754,0.036599,-0.013677,49.046982,-3.696106,-147.396591,,,
729862491.657904,0.458379,3.704403,46.021159,-0.049545,0.010452,0.990814,0.004754,0.036599,-0.013677,49.046982,-3.696106,-147.396591,,,
729862491.661138,0.45654,3.710886,46.017116,-0.056656,0.011795,0.983276,-0.009605,0.024965,-0.018734,49.106445,-3.809616,-147.43869,,,
729862491.664469,0.453111,3.716252,46.012723,-0.056656,0.011795,0.983276,-0.009605,0.024965,-0.018734,49.106445,-3.809616,-147.43869,,,
729862491.66782,0.453111,3.716252,46.012723,-0.056656,0.011795,0.983276,-0.009605,0.024965,-0.018734,49.106445,-3.809616,-147.43869,,,
729862491.671208,0.450578,3.718989,46.009463,-0.066376,0.009109,0.979965,-0.008206,0.011014,-0.010821,49.106445,-3.809616,-147.43869,,,
729862491.674464,0.447895,3.720075,46.007784,-0.066376,0.009109,0.979965,-0.008206,0.011014,-0.010821,49.106445,-3.809616,-147.43869,,,
729862491.677822,0.447895,3.720075,46.007784,-0.066376,0.009109,0.979965,-0.008206,0.011014,-0.010821,49.106445,-3.809616,-147.43869,,,
729862491.681162,0.4473,3.717686,46.007497,-0.0728,0.006729,0.985504,0.001357,-0.007783,-0.000507,49.106445,-3.809616,-147.43869,,,
729862491.684474,0.448286,3.713571,46.007504,-0.0728,0.006729,0.985504,0.001357,-0.007783,-0.000507,49.106445,-3.809616,-147.43869,,,
729862491.687813,0.448286,3.713571,46.007504,-0.0728,0.006729,0.985504,0.001357,-0.007783,-0.000507,49.106445,-3.809616,-147.43869,,,
729862491.691142,0.451717,3.705482,46.007376,-0.07132,0.008575,0.989456,0.014634,-0.022811,-0.000743,49.106445,-3.809616,-147.43869,,,
729862491.694477,0.456448,3.698184,46.007081,-0.07132,0.008575,0.989456,0.014634,-0.022811,-0.000743,49.106445,-3.809616,-147.43869,,,
729862491.697831,0.456448,3.698184,46.007081,-0.07132,0.008575,0.989456,0.014634,-0.022811,-0.000743,49.106445,-3.809616,-147.43869,,,
729862491.70116,0.461438,3.689676,46.006674,-0.063461,0.008392,0.987091,0.017863,-0.016567,-0.001467,49.106445,-3.809616,-147.43869,,,
729862491.704478,0.46585,3.684665,46.00649,-0.063461,0.008392,0.987091,0.017863,-0.016567,-0.001467,49.012421,-3.859604,-147.214203,,,
729862491.707818,0.46585,3.684665,46.00649,-0.063461,0.008392,0.987091,0.017863,-0.016567,-0.001467,49.012421,-3.859604,-147.214203,,,
729862491.71122,0.468255,3.679048,46.006356,-0.056473,0.01326,0.975357,0.004812,-0.004805,-0.002143,49.012421,-3.859604,-147.214203,,,
729862491.714503,0.46759,3.67745,46.005452,-0.056473,0.01326,0.975357,0.004812,-0.004805,-0.002143,49.012421,-3.859604,-147.214203,,,
729862491.717819,0.46759,3.67745,46.005452,-0.056473,0.01326,0.975357,0.004812,-0.004805,-0.002143,49.012421,-3.859604,-147.214203,,,
729862491.721147,0.463432,3.67336,46.003129,-0.047836,0.017044,0.96553,-0.018231,-0.002327,-0.013699,49.012421,-3.859604,-147.214203,,,
729862491.72447,0.457013,3.672243,45.999086,-0.047836,0.017044,0.96553,-0.018231,-0.002327,-0.013699,49.012421,-3.859604,-147.214203,,,
729862491.727829,0.457013,3.672243,45.999086,-0.047836,0.017044,0.96553,-0.018231,-0.002327,-0.013699,49.012421,-3.859604,-147.214203,,,
729862491.731145,0.448755,3.67029,45.993178,-0.045578,0.013123,0.970718,-0.031389,0.008898,-0.027619,49.012421,-3.859604,-147.214203,,,
729862491.734482,0.438694,3.672298,45.986379,-0.045578,0.013123,0.970718,-0.031389,0.008898,-0.027619,49.012421,-3.859604,-147.214203,,,
729862491.737811,0.438694,3.672298,45.986379,-0.045578,0.013123,0.970718,-0.031389,0.008898,-0.027619,49.012421,-3.859604,-147.214203,,,
729862491.741143,0.427743,3.673801,45.979883,-0.052338,0.008987,0.977249,-0.040154,0.012892,-0.026115,49.012421,-3.859604,-147.214203,,,
729862491.744469,0.415097,3.676752,45.974196,-0.052338,0.008987,0.977249,-0.040154,0.012892,-0.026115,49.06105,-3.951309,-147.343018,,,
729862491.747893,0.415097,3.676752,45.974196,-0.052338,0.008987,0.977249,-0.040154,0.012892,-0.026115,49.06105,-3.951309,-147.343018,,,
729862491.751139,0.402162,3.679295,45.969479,-0.055466,0.003311,0.975082,-0.043909,0.00897,-0.019638,49.06105,-3.951309,-147.343018,,,
729862491.754547,0.388989,3.681036,45.965412,-0.055466,0.003311,0.975082,-0.043909,0.00897,-0.019638,49.06105,-3.951309,-147.343018,,,
729862491.757805,0.388989,3.681036,45.965412,-0.055466,0.003311,0.975082,-0.043909,0.00897,-0.019638,49.06105,-3.951309,-147.343018,,,
729862491.761145,0.375915,3.682577,45.961079,-0.056763,0.005264,0.977982,-0.043255,-0.000301,-0.021414,49.06105,-3.951309,-147.343018,,,
729862491.764471,0.362636,3.681098,45.955459,-0.056763,0.005264,0.977982,-0.043255,-0.000301,-0.021414,49.06105,-3.951309,-147.343018,,,
729862491.767829,0.362636,3.681098,45.955459,-0.056763,0.005264,0.977982,-0.043255,-0.000301,-0.021414,49.06105,-3.951309,-147.343018,,,
729862491.771139,0.3489,3.680004,45.948781,-0.057968,0.003357,0.980881,-0.047018,-0.004605,-0.028963,49.06105,-3.951309,-147.343018,,,
729862491.77447,0.335042,3.678333,45.940861,-0.057968,0.003357,0.980881,-0.047018,-0.004605,-0.028963,49.06105,-3.951309,-147.343018,,,
729862491.777822,0.335042,3.678333,45.940861,-0.057968,0.003357,0.980881,-0.047018,-0.004605,-0.028963,49.06105,-3.951309,-147.343018,,,
729862491.781139,0.321917,3.677637,45.931984,-0.06163,0.00499,0.992752,-0.042356,0.00099,-0.035347,49.06105,-3.951309,-147.343018,,,
729862491.784367,0.308991,3.677597,45.923776,-0.06163,0.00499,0.992752,-0.042356,0.00099,-0.035347,48.649765,-3.594254,-147.349899,,,
729862491.787826,0.308991,3.677597,45.923776,-0.06163,0.00499,0.992752,-0.042356,0.00099,-0.035347,48.649765,-3.594254,-147.349899,,,
729862491.791143,0.297056,3.678053,45.917358,-0.070648,-0.002289,1.005493,-0.039098,0.008525,-0.022683,48.649765,-3.594254,-147.349899,,,
729862491.794477,0.286974,3.680053,45.912666,-0.070648,-0.002289,1.005493,-0.039098,0.008525,-0.022683,48.649765,-3.594254,-147.349899,,,
729862491.797875,0.286974,3.680053,45.912666,-0.070648,-0.002289,1.005493,-0.039098,0.008525,-0.022683,48.649765,-3.594254,-147.349899,,,
729862491.801135,0.281269,3.680559,45.909772,-0.076859,-0.004395,1.017975,-0.015209,0.007766,-0.008601,48.649765,-3.594254,-147.349899,,,
729862491.804479,0.277882,3.681314,45.908367,-0.076859,-0.004395,1.017975,-0.015209,0.007766,-0.008601,48.649765,-3.594254,-147.349899,,,
729862491.807833,0.277882,3.681314,45.908367,-0.076859,-0.004395,1.017975,-0.015209,0.007766,-0.008601,48.649765,-3.594254,-147.349899,,,
729862491.811145,0.278098,3.677562,45.907342,-0.078201,-0.004883,1.022644,0.00404,-0.006293,-0.00479,48.649765,-3.594254,-147.349899,,,
729862491.814593,0.280425,3.674028,45.906099,-0.078201,-0.004883,1.022644,0.00404,-0.006293,-0.00479,48.649765,-3.594254,-147.349899,,,
729862491.817807,0.280425,3.674028,45.906099,-0.078201,-0.004883,1.022644,0.00404,-0.006293,-0.00479,48.649765,-3.594254,-147.349899,,,
729862491.821147,0.285424,3.666593,45.904159,-0.072784,-0.001633,1.014801,0.019506,-0.0187,-0.008688,48.649765,-3.594254,-147.349899,,,
729862491.824232,0.291691,3.659667,45.901658,-0.072784,-0.001633,1.014801,0.019506,-0.0187,-0.008688,48.649765,-3.594254,-147.349899,,,
729862491.827868,0.291691,3.659667,45.901658,-0.072784,-0.001633,1.014801,0.019506,-0.0187,-0.008688,48.757751,-3.712845,-147.618607,,,
729862491.831145,0.29905,3.650459,45.899349,-0.069931,0.002258,1.008484,0.027759,-0.026253,-0.00684,48.757751,-3.712845,-147.618607,,,
729862491.83447,0.305677,3.642641,45.89782,-0.069931,0.002258,1.008484,0.027759,-0.026253,-0.00684,48.757751,-3.712845,-147.618607,,,
729862491.837872,0.305677,3.642641,45.89782,-0.069931,0.002258,1.008484,0.027759,-0.026253,-0.00684,48.757751,-3.712845,-147.618607,,,
729862491.841146,0.310012,3.634718,45.897527,-0.068375,0.007401,0.993362,0.011884,-0.020782,0.000751,48.757751,-3.712845,-147.618607,,,
729862491.844471,0.3121,3.628565,45.898726,-0.068375,0.007401,0.993362,0.011884,-0.020782,0.000751,48.757751,-3.712845,-147.618607,,,
729862491.84784,0.3121,3.628565,45.898726,-0.068375,0.007401,0.993362,0.011884,-0.020782,0.000751,48.757751,-3.712845,-147.618607,,,
729862491.85125,0.311327,3.62261,45.901214,-0.062347,0.014481,0.980362,-0.007109,-0.014689,0.008544,48.757751,-3.712845,-147.618607,,,
729862491.854477,0.30807,3.618119,45.903663,-0.062347,0.014481,0.980362,-0.007109,-0.014689,0.008544,48.757751,-3.712845,-147.618607,,,
729862491.857831,0.30807,3.618119,45.903663,-0.062347,0.014481,0.980362,-0.007109,-0.014689,0.008544,48.757751,-3.712845,-147.618607,,,
729862491.861147,0.302694,3.614381,45.903658,-0.049698,0.017334,0.983276,-0.020887,-0.006027,-0.009431,48.757751,-3.712845,-147.618607,,,
729862491.864479,0.295497,3.612938,45.900302,-0.049698,0.017334,0.983276,-0.020887,-0.006027,-0.009431,48.757751,-3.712845,-147.618607,,,
729862491.867824,0.295497,3.612938,45.900302,-0.049698,0.017334,0.983276,-0.020887,-0.006027,-0.009431,48.815369,-3.904251,-147.962921,,,
729862491.871169,0.287292,3.613523,45.895095,-0.049149,0.013702,0.995102,-0.023693,0.001874,-0.022514,48.815369,-3.904251,-147.962921,,,
729862491.874476,0.279886,3.612964,45.889805,-0.049149,0.013702,0.995102,-0.023693,0.001874,-0.022514,48.815369,-3.904251,-147.962921,,,
729862491.877872,0.279886,3.612964,45.889805,-0.049149,0.013702,0.995102,-0.023693,0.001874,-0.022514,48.815369,-3.904251,-147.962921,,,
729862491.88124,0.271446,3.613166,45.886093,-0.061157,0.007706,0.997513,-0.02556,-0.006438,-0.011507,48.815369,-3.904251,-147.962921,,,
729862491.884464,0.263448,3.610165,45.884226,-0.061157,0.007706,0.997513,-0.02556,-0.006438,-0.011507,48.815369,-3.904251,-147.962921,,,
729862491.88782,0.263448,3.610165,45.884226,-0.061157,0.007706,0.997513,-0.02556,-0.006438,-0.011507,48.815369,-3.904251,-147.962921,,,
729862491.891234,0.253987,3.608981,45.883041,-0.060791,0.007812,0.992569,-0.030072,-0.009123,-0.006969,48.815369,-3.904251,-147.962921,,,
729862491.894471,0.244246,3.605356,45.881461,-0.060791,0.007812,0.992569,-0.030072,-0.009123,-0.006969,48.815369,-3.904251,-147.962921,,,
729862491.897805,0.244246,3.605356,45.881461,-0.060791,0.007812,0.992569,-0.030072,-0.009123,-0.006969,48.815369,-3.904251,-147.962921,,,
729862491.901161,0.232657,3.603063,45.87816,-0.050644,0.006226,0.991959,-0.037881,-0.011743,-0.019409,48.815369,-3.904251,-147.962921,,,
729862491.904478,0.221462,3.599074,45.872835,-0.050644,0.006226,0.991959,-0.037881,-0.011743,-0.019409,48.815369,-3.904251,-147.962921,,,
729862491.907808,0.221462,3.599074,45.872835,-0.050644,0.006226,0.991959,-0.037881,-0.011743,-0.019409,48.687393,-3.971161,-147.696777,,,
729862491.911166,0.211192,3.596281,45.865882,-0.045868,0.003052,0.998535,-0.028724,-0.010941,-0.030128,48.687393,-3.971161,-147.696777,,,
729862491.914472,0.203103,3.593234,45.858136,-0.045868,0.003052,0.998535,-0.028724,-0.010941,-0.030128,48.687393,-3.971161,-147.696777,,,
729862491.917888,0.203103,3.593234,45.858136,-0.045868,0.003052,0.998535,-0.028724,-0.010941,-0.030128,48.687393,-3.971161,-147.696777,,,
729862491.921156,0.197769,3.592593,45.850403,-0.049942,-0.00351,1.012924,-0.010823,-0.000442,-0.028878,48.687393,-3.971161,-147.696777,,,
729862491.924486,0.196497,3.592307,45.843174,-0.049942,-0.00351,1.012924,-0.010823,-0.000442,-0.028878,48.687393,-3.971161,-147.696777,,,
729862491.927832,0.196497,3.592307,45.843174,-0.049942,-0.00351,1.012924,-0.010823,-0.000442,-0.028878,48.687393,-3.971161,-147.696777,,,
729862491.931155,0.200655,3.593342,45.837177,-0.06102,-0.009537,1.02507,0.020243,0.00454,-0.01831,48.687393,-3.971161,-147.696777,,,
729862491.934478,0.207198,3.594252,45.832428,-0.06102,-0.009537,1.02507,0.020243,0.00454,-0.01831,48.687393,-3.971161,-147.696777,,,
729862491.937819,0.207198,3.594252,45.832428,-0.06102,-0.009537,1.02507,0.020243,0.00454,-0.01831,48.687393,-3.971161,-147.696777,,,
729862491.941156,0.216366,3.593755,45.828811,-0.062088,-0.007721,1.016388,0.029415,0.005525,-0.009821,48.687393,-3.971161,-147.696777,,,
729862491.944474,0.223646,3.594848,45.825531,-0.062088,-0.007721,1.016388,0.029415,0.005525,-0.009821,48.687393,-3.971161,-147.696777,,,
729862491.947838,0.223646,3.594848,45.825531,-0.062088,-0.007721,1.016388,0.029415,0.005525,-0.009821,48.984726,-3.967194,-148.040726,,,
729862491.951141,0.229922,3.593763,45.821147,-0.056396,0.000824,0.999512,0.015807,0.008064,-0.018473,48.984726,-3.967194,-148.040726,,,
729862491.954498,0.232722,3.595369,45.814781,-0.056396,0.000824,0.999512,0.015807,0.008064,-0.018473,48.984726,-3.967194,-148.040726,,,
729862491.957801,0.232722,3.595369,45.814781,-0.056396,0.000824,0.999512,0.015807,0.008064,-0.018473,48.984726,-3.967194,-148.040726,,,
729862491.961172,0.234216,3.595792,45.806319,-0.050781,0.008255,0.988052,0.004666,0.004301,-0.033779,48.984726,-3.967194,-148.040726,,,
729862491.964471,0.234177,3.596027,45.796187,-0.050781,0.008255,0.988052,0.004666,0.004301,-0.033779,48.984726,-3.967194,-148.040726,,,
729862491.967812,0.234177,3.596027,45.796187,-0.050781,0.008255,0.988052,0.004666,0.004301,-0.033779,48.984726,-3.967194,-148.040726,,,
729862491.971193,0.233961,3.596227,45.785097,-0.059128,0.00386,0.994614,0.001297,0.004495,-0.040663,48.984726,-3.967194,-148.040726,,,
729862491.974485,0.233892,3.596795,45.774393,-0.059128,0.00386,0.994614,0.001297,0.004495,-0.040663,48.984726,-3.967194,-148.040726,,,
729862491.977821,0.233892,3.596795,45.774393,-0.059128,0.00386,0.994614,0.001297,0.004495,-0.040663,48.984726,-3.967194,-148.040726,,,
729862491.981152,0.234887,3.595198,45.764639,-0.071335,-0.001373,1.003433,0.00664,-0.000177,-0.033752,48.984726,-3.967194,-148.040726,,,
729862491.984479,0.236004,3.592934,45.756345,-0.071335,-0.001373,1.003433,0.00664,-0.000177,-0.033752,48.984726,-3.967194,-148.040726,,,
729862491.987856,0.236004,3.592934,45.756345,-0.071335,-0.001373,1.003433,0.00664,-0.000177,-0.033752,48.984726,-3.967194,-148.040726,,,
729862491.991145,0.236397,3.585711,45.750359,-0.079437,0.000259,0.992462,0.000595,-0.017092,-0.018107,49.050415,-4.054504,-147.735428,,,
729862491.994479,0.236687,3.579811,45.746602,-0.079437,0.000259,0.992462,0.000595,-0.017092,-0.018107,49.050415,-4.054504,-147.735428,,,
729862491.997818,0.236687,3.579811,45.746602,-0.079437,0.000259,0.992462,0.000595,-0.017092,-0.018107,49.050415,-4.054504,-147.735428,,,
729862492.001168,0.236628,3.571686,45.744214,-0.07753,0.004807,0.9935,0.001166,-0.016056,-0.008545,49.050415,-4.054504,-147.735428,,,
729862492.004501,0.236493,3.566334,45.742941,-0.07753,0.004807,0.9935,0.001166,-0.016056,-0.008545,49.050415,-4.054504,-147.735428,,,
729862492.007904,0.236493,3.566334,45.742941,-0.07753,0.004807,0.9935,0.001166,-0.016056,-0.008545,49.050415,-4.054504,-147.735428,,,
729862492.011155,0.233999,3.560555,45.743504,-0.076004,0.003281,0.986664,-0.008098,-0.013745,0.003641,49.050415,-4.054504,-147.735428,,,
729862492.014473,0.231087,3.555782,45.745684,-0.076004,0.003281,0.986664,-0.008098,-0.013745,0.003641,49.050415,-4.054504,-147.735428,,,
729862492.017819,0.231087,3.555782,45.745684,-0.076004,0.003281,0.986664,-0.008098,-0.013745,0.003641,49.050415,-4.054504,-147.735428,,,
729862492.021195,0.224812,3.551736,45.74884,-0.069672,0.010361,0.976761,-0.023471,-0.009176,0.00946,49.050415,-4.054504,-147.735428,,,
729862492.024472,0.216867,3.54881,45.751895,-0.069672,0.010361,0.976761,-0.023471,-0.009176,0.00946,49.050415,-4.054504,-147.735428,,,
729862492.027825,0.216867,3.54881,45.751895,-0.069672,0.010361,0.976761,-0.023471,-0.009176,0.00946,49.050415,-4.054504,-147.735428,,,
729862492.031156,0.2069,3.546506,45.753984,-0.057556,0.011612,0.979858,-0.03357,0.0004,0.002064,49.034348,-4.156387,-147.707062,,,
729862492.034475,0.196551,3.546642,45.754267,-0.057556,0.011612,0.979858,-0.03357,0.0004,0.002064,49.034348,-4.156387,-147.707062,,,
729862492.037831,0.196551,3.546642,45.754267,-0.057556,0.011612,0.979858,-0.03357,0.0004,0.002064,49.034348,-4.156387,-147.707062,,,
729862492.04115,0.185925,3.546889,45.752593,-0.057266,0.007889,0.987625,-0.037746,0.012098,-0.011846,49.034348,-4.156387,-147.707062,,,
729862492.044479,0.175126,3.55006,45.749759,-0.057266,0.007889,0.987625,-0.037746,0.012098,-0.011846,49.034348,-4.156387,-147.707062,,,
729862492.04787,0.175126,3.55006,45.749759,-0.057266,0.007889,0.987625,-0.037746,0.012098,-0.011846,49.034348,-4.156387,-147.707062,,,
729862492.051146,0.164237,3.553666,45.746103,-0.060196,0.005585,0.997009,-0.039069,0.021681,-0.017663,49.034348,-4.156387,-147.707062,,,
729862492.054484,0.152893,3.560287,45.742394,-0.060196,0.005585,0.997009,-0.039069,0.021681,-0.017663,49.034348,-4.156387,-147.707062,,,
729862492.057823,0.152893,3.560287,45.742394,-0.060196,0.005585,0.997009,-0.039069,0.021681,-0.017663,49.034348,-4.156387,-147.707062,,,
729862492.061198,0.142284,3.569922,45.738991,-0.065567,-0.000717,1.010208,-0.032558,0.036174,-0.015069,49.034348,-4.156387,-147.707062,,,
729862492.064478,0.134324,3.5799,45.736273,-0.065567,-0.000717,1.010208,-0.032558,0.036174,-0.015069,49.034348,-4.156387,-147.707062,,,
729862492.067827,0.134324,3.5799,45.736273,-0.065567,-0.000717,1.010208,-0.032558,0.036174,-0.015069,49.034348,-4.156387,-147.707062,,,
729862492.071138,0.12949,3.591374,45.734162,-0.075089,-0.006119,1.021149,-0.00827,0.028563,-0.00928,49.175125,-4.203339,-147.958145,,,
729862492.07448,0.12762,3.596685,45.733054,-0.075089,-0.006119,1.021149,-0.00827,0.028563,-0.00928,49.175125,-4.203339,-147.958145,,,
729862492.077815,0.12762,3.596685,45.733054,-0.075089,-0.006119,1.021149,-0.00827,0.028563,-0.00928,49.175125,-4.203339,-147.958145,,,
729862492.081143,0.127685,3.600977,45.733116,-0.079987,-0.004761,1.013519,0.003384,0.003504,-0.000296,49.175125,-4.203339,-147.958145,,,
729862492.08448,0.129015,3.599807,45.733578,-0.079987,-0.004761,1.013519,0.003384,0.003504,-0.000296,49.175125,-4.203339,-147.958145,,,
729862492.087896,0.129015,3.599807,45.733578,-0.079987,-0.004761,1.013519,0.003384,0.003504,-0.000296,49.175125,-4.203339,-147.958145,,,
729862492.091147,0.131768,3.598424,45.734309,-0.076828,-0.002914,1.01149,0.012803,-0.013734,0.002241,49.175125,-4.203339,-147.958145,,,
729862492.094484,0.135856,3.593378,45.735236,-0.076828,-0.002914,1.01149,0.012803,-0.013734,0.002241,49.175125,-4.203339,-147.958145,,,
729862492.097841,0.135856,3.593378,45.735236,-0.076828,-0.002914,1.01149,0.012803,-0.013734,0.002241,49.175125,-4.203339,-147.958145,,,
729862492.10123,0.141745,3.58892,45.736974,-0.072266,-0.005173,1.01178,0.02133,-0.022587,0.008464,49.175125,-4.203339,-147.958145,,,
729862492.104537,0.148358,3.581235,45.739599,-0.072266,-0.005173,1.01178,0.02133,-0.022587,0.008464,49.175125,-4.203339,-147.958145,,,
