Time (sec),Pitch (deg),Roll (deg),Yaw(deg),X-Acceleration (g),Y-Acceleration (g),Z-Acceleration (g),Pitch Rate (deg/sec),Roll Rate (deg/sec),Yaw Rate (deg/sec),Magnetic Field in X direction (uT),Magnetic Field in Y direction (uT),Magnetic Field in Z Direction (uT),Latitude (deg),Longitude (deg),Altitude (m)
729863084.989438,0.999667,5.408789,55.163719,-0.086655,0.017319,0.994324,-0.066005,-0.030926,-0.025939,58.725159,6.115341,-148.753143,,,
729863084.992774,0.999667,5.408789,55.163719,-0.086655,0.017319,0.994324,-0.066005,-0.030926,-0.025939,58.725159,6.115341,-148.753143,,,
729863084.996161,0.981362,5.403735,55.15848,-0.086655,0.017319,0.994324,-0.044287,-0.008831,-0.017114,58.725159,6.115341,-148.753143,,,
729863084.99944,0.967413,5.399707,55.154462,-0.082397,0.008087,1.016296,-0.044287,-0.008831,-0.017114,58.725159,6.115341,-148.753143,,,
729863085.002797,0.967413,5.399707,55.154462,-0.082397,0.008087,1.016296,-0.044287,-0.008831,-0.017114,58.725159,6.115341,-148.753143,,,
729863085.006106,0.958273,5.396883,55.151969,-0.082397,0.008087,1.016296,-0.009615,0.00841,-0.010535,58.725159,6.115341,-148.753143,,,
729863085.00943,0.953002,5.398449,55.149497,-0.080902,0.004974,1.024689,-0.009615,0.00841,-0.010535,58.725159,6.115341,-148.753143,,,
729863085.012772,0.953002,5.398449,55.149497,-0.080902,0.004974,1.024689,-0.009615,0.00841,-0.010535,58.725159,6.115341,-148.753143,,,
729863085.016105,0.953465,5.398317,55.146834,-0.080902,0.004974,1.024689,0.016274,0.023578,-0.011969,58.725159,6.115341,-148.753143,,,
729863085.019433,0.956746,5.404099,55.143287,-0.077133,0.005722,1.022232,0.016274,0.023578,-0.011969,58.725159,6.115341,-148.753143,,,
729863085.022834,0.956746,5.404099,55.143287,-0.077133,0.005722,1.022232,0.016274,0.023578,-0.011969,58.725159,6.115341,-148.753143,,,
729863085.026094,0.96415,5.409172,55.138534,-0.077133,0.005722,1.022232,0.021107,0.041009,-0.019055,58.725159,6.115341,-148.753143,,,
729863085.029478,0.969445,5.419547,55.132644,-0.075577,0.008774,1.010605,0.021107,0.041009,-0.019055,58.725159,6.115341,-148.753143,,,
729863085.03277,0.969445,5.419547,55.132644,-0.075577,0.008774,1.010605,0.021107,0.041009,-0.019055,58.734985,6.22348,-148.915771,,,
729863085.036177,0.975257,5.433225,55.126338,-0.075577,0.008774,1.010605,0.00114,0.053694,-0.020481,58.734985,6.22348,-148.915771,,,
729863085.039421,0.975716,5.448008,55.12033,-0.079865,0.016937,0.992645,0.00114,0.053694,-0.020481,58.734985,6.22348,-148.915771,,,
729863085.042789,0.975716,5.448008,55.12033,-0.079865,0.016937,0.992645,0.00114,0.053694,-0.020481,58.734985,6.22348,-148.915771,,,
729863085.046106,0.975743,5.460089,55.114945,-0.079865,0.016937,0.992645,-0.028488,0.021143,-0.020487,58.734985,6.22348,-148.915771,,,
729863085.049464,0.968539,5.466938,55.1098,-0.088745,0.020569,0.967361,-0.028488,0.021143,-0.020487,58.734985,6.22348,-148.915771,,,
729863085.052807,0.968539,5.466938,55.1098,-0.088745,0.020569,0.967361,-0.028488,0.021143,-0.020487,58.734985,6.22348,-148.915771,,,
729863085.056119,0.960257,5.468905,55.104307,-0.088745,0.020569,0.967361,-0.054497,-0.003355,-0.025618,58.734985,6.22348,-148.915771,,,
729863085.059525,0.945633,5.467515,55.098745,-0.092377,0.022446,0.965378,-0.054497,-0.003355,-0.025618,58.734985,6.22348,-148.915771,,,
729863085.062874,0.945633,5.467515,55.098745,-0.092377,0.022446,0.965378,-0.054497,-0.003355,-0.025618,58.734985,6.22348,-148.915771,,,
729863085.066122,0.929992,5.463575,55.093379,-0.092377,0.022446,0.965378,-0.061145,-0.018404,-0.023446,58.734985,6.22348,-148.915771,,,
729863085.069502,0.9118,5.45908,55.088342,-0.098938,0.017761,0.980515,-0.061145,-0.018404,-0.023446,58.734985,6.22348,-148.915771,,,
729863085.072784,0.9118,5.45908,55.088342,-0.098938,0.017761,0.980515,-0.061145,-0.018404,-0.023446,58.816772,6.20369,-149.069565,,,
729863085.07613,0.894059,5.451811,55.084221,-0.098938,0.017761,0.980515,-0.053992,-0.004613,-0.015325,58.816772,6.20369,-149.069565,,,
729863085.07949,0.877791,5.44922,55.080993,-0.100693,0.012985,1.001419,-0.053992,-0.004613,-0.015325,58.816772,6.20369,-149.069565,,,
729863085.08283,0.877791,5.44922,55.080993,-0.100693,0.012985,1.001419,-0.053992,-0.004613,-0.015325,58.816772,6.20369,-149.069565,,,
729863085.08617,0.861629,5.445799,55.078641,-0.100693,0.012985,1.001419,-0.038289,0.015591,-0.01099,58.816772,6.20369,-149.069565,,,
729863085.089485,0.849156,5.449759,55.076585,-0.097992,0.011444,1.010178,-0.038289,0.015591,-0.01099,58.816772,6.20369,-149.069565,,,
729863085.092819,0.849156,5.449759,55.076585,-0.097992,0.011444,1.010178,-0.038289,0.015591,-0.01099,58.816772,6.20369,-149.069565,,,
729863085.096109,0.836143,5.45047,55.074388,-0.097992,0.011444,1.010178,-0.032009,0.025297,-0.01644,58.816772,6.20369,-149.069565,,,
729863085.099439,0.826092,5.456551,55.07099,-0.09285,0.012039,1.001846,-0.032009,0.025297,-0.01644,58.816772,6.20369,-149.069565,,,
729863085.102777,0.826092,5.456551,55.07099,-0.09285,0.012039,1.001846,-0.032009,0.025297,-0.01644,58.816772,6.20369,-149.069565,,,
729863085.106118,0.816036,5.457293,55.065989,-0.09285,0.012039,1.001846,-0.017133,0.018857,-0.028093,58.816772,6.20369,-149.069565,,,
729863085.10948,0.809637,5.462522,55.05971,-0.089188,0.011353,0.999725,-0.017133,0.018857,-0.028093,58.816772,6.20369,-149.069565,,,
729863085.112782,0.809637,5.462522,55.05971,-0.089188,0.011353,0.999725,-0.017133,0.018857,-0.028093,58.548004,6.34021,-148.682175,,,
729863085.116102,0.80377,5.460245,55.053376,-0.089188,0.011353,0.999725,-0.010091,0.005772,-0.025134,58.548004,6.34021,-148.682175,,,
729863085.119434,0.800113,5.462061,55.047618,-0.098663,0.00676,1.002747,-0.010091,0.005772,-0.025134,58.548004,6.34021,-148.682175,,,
729863085.122804,0.800113,5.462061,55.047618,-0.098663,0.00676,1.002747,-0.010091,0.005772,-0.025134,58.548004,6.34021,-148.682175,,,
729863085.126112,0.798623,5.459443,55.042951,-0.098663,0.00676,1.002747,-0.003252,-3.6e-05,-0.009232,58.548004,6.34021,-148.682175,,,
729863085.129471,0.796589,5.459426,55.040219,-0.106979,0.007538,1.001251,-0.003252,-3.6e-05,-0.009232,58.548004,6.34021,-148.682175,,,
729863085.132771,0.796589,5.459426,55.040219,-0.106979,0.007538,1.001251,-0.003252,-3.6e-05,-0.009232,58.548004,6.34021,-148.682175,,,
729863085.136158,0.796796,5.457287,55.039933,-0.106979,0.007538,1.001251,-0.007216,-0.008217,0.00171,58.548004,6.34021,-148.682175,,,
729863085.13943,0.794675,5.454398,55.041263,-0.109451,0.008072,0.994339,-0.007216,-0.008217,0.00171,58.548004,6.34021,-148.682175,,,
729863085.14277,0.794675,5.454398,55.041263,-0.109451,0.008072,0.994339,-0.007216,-0.008217,0.00171,58.548004,6.34021,-148.682175,,,
729863085.146093,0.793968,5.45108,55.043164,-0.109451,0.008072,0.994339,-0.005391,-0.006992,0.006416,58.548004,6.34021,-148.682175,,,
729863085.149429,0.791509,5.447718,55.045301,-0.103699,0.011108,1.001678,-0.005391,-0.006992,0.006416,58.548004,6.34021,-148.682175,,,
729863085.152767,0.791509,5.447718,55.045301,-0.103699,0.011108,1.001678,-0.005391,-0.006992,0.006416,58.548004,6.34021,-148.682175,,,
729863085.156102,0.791413,5.446797,55.047957,-0.103699,0.011108,1.001678,0.007651,-0.005478,0.007543,58.628113,6.528397,-149.424576,,,
729863085.159488,0.792902,5.444428,55.05083,-0.099335,0.010956,1.009109,0.007651,-0.005478,0.007543,58.628113,6.528397,-149.424576,,,
729863085.162825,0.792902,5.444428,55.05083,-0.099335,0.010956,1.009109,0.007651,-0.005478,0.007543,58.628113,6.528397,-149.424576,,,
729863085.166109,0.7953,5.443546,55.053001,-0.099335,0.010956,1.009109,0.010694,-0.00394,0.00503,58.628113,6.528397,-149.424576,,,
729863085.169493,0.798374,5.44158,55.055036,-0.094696,0.015793,1.001648,0.010694,-0.00394,0.00503,58.628113,6.528397,-149.424576,,,
729863085.172773,0.798374,5.44158,55.055036,-0.094696,0.015793,1.001648,0.010694,-0.00394,0.00503,58.628113,6.528397,-149.424576,,,
729863085.176107,0.800289,5.439969,55.056865,-0.094696,0.015793,1.001648,-0.001733,-0.000622,-0.001679,58.628113,6.528397,-149.424576,,,
729863085.179471,0.800585,5.439204,55.057485,-0.087341,0.022141,0.987411,-0.001733,-0.000622,-0.001679,58.628113,6.528397,-149.424576,,,
729863085.18277,0.800585,5.439204,55.057485,-0.087341,0.022141,0.987411,-0.001733,-0.000622,-0.001679,58.628113,6.528397,-149.424576,,,
729863085.186154,0.798993,5.438784,55.057082,-0.087341,0.022141,0.987411,-0.010709,0.010466,-0.009529,58.628113,6.528397,-149.424576,,,
729863085.189462,0.796481,5.440904,55.055846,-0.083771,0.023468,0.987747,-0.010709,0.010466,-0.009529,58.628113,6.528397,-149.424576,,,
729863085.19277,0.796481,5.440904,55.055846,-0.083771,0.023468,0.987747,-0.010709,0.010466,-0.009529,58.628113,6.528397,-149.424576,,,
729863085.196095,0.791428,5.442286,55.054028,-0.083771,0.023468,0.987747,-0.014263,0.012594,-0.008767,58.578094,6.297104,-148.825226,,,
729863085.199582,0.786494,5.444956,55.051925,-0.088211,0.020508,0.993469,-0.014263,0.012594,-0.008767,58.578094,6.297104,-148.825226,,,
729863085.202771,0.786494,5.444956,55.051925,-0.088211,0.020508,0.993469,-0.014263,0.012594,-0.008767,58.578094,6.297104,-148.825226,,,
729863085.2061,0.779732,5.449686,55.049797,-0.088211,0.020508,0.993469,-0.018576,0.015459,-0.00968,58.578094,6.297104,-148.825226,,,
729863085.209446,0.779732,5.449686,55.049797,-0.088211,0.020508,0.993469,-0.018576,0.015459,-0.00968,58.578094,6.297104,-148.825226,,,
729863085.212856,0.774344,5.453304,55.048111,-0.08931,0.018845,0.993896,-0.018576,0.015459,-0.00968,58.578094,6.297104,-148.825226,,,
729863085.216093,0.768369,5.462135,55.046193,-0.08931,0.018845,0.993896,-0.007196,0.023526,-0.010713,58.578094,6.297104,-148.825226,,,
729863085.219522,0.768369,5.462135,55.043804,-0.08931,0.018845,0.993896,-0.007196,0.023526,-0.010713,58.578094,6.297104,-148.825226,,,
729863085.222774,0.765103,5.468208,55.043804,-0.08989,0.013748,1.006104,-0.007196,0.023526,-0.010713,58.578094,6.297104,-148.825226,,,
729863085.226196,0.762517,5.477868,55.041428,-0.08989,0.013748,1.006104,0.007684,0.018029,-0.007512,58.578094,6.297104,-148.825226,,,
729863085.229429,0.762517,5.477868,55.041428,-0.08989,0.013748,1.006104,0.007684,0.018029,-0.007512,58.578094,6.297104,-148.825226,,,
729863085.232781,0.763188,5.482728,55.03976,-0.097427,0.01062,1.015366,0.007684,0.018029,-0.007512,58.578094,6.297104,-148.825226,,,
729863085.2361,0.765602,5.488829,55.038412,-0.097427,0.01062,1.015366,0.016858,0.01982,-0.003158,58.585617,6.463455,-148.974792,,,
729863085.239492,0.765602,5.488829,55.038412,-0.097427,0.01062,1.015366,0.016858,0.01982,-0.003158,58.585617,6.463455,-148.974792,,,
729863085.242773,0.769735,5.493628,55.037347,-0.097,0.011215,1.015472,0.016858,0.01982,-0.003158,58.585617,6.463455,-148.974792,,,
729863085.246115,0.77418,5.499835,55.036432,-0.097,0.011215,1.015472,0.017279,0.02269,-0.000719,58.585617,6.463455,-148.974792,,,
729863085.249469,0.77418,5.499835,55.036432,-0.097,0.011215,1.015472,0.017279,0.02269,-0.000719,58.585617,6.463455,-148.974792,,,
729863085.252837,0.778845,5.50674,55.035613,-0.097595,0.013397,1.007675,0.017279,0.02269,-0.000719,58.585617,6.463455,-148.974792,,,
729863085.256104,0.783425,5.512619,55.035341,-0.097595,0.013397,1.007675,0.006281,0.019324,-0.002443,58.585617,6.463455,-148.974792,,,
729863085.259469,0.783425,5.512619,55.035341,-0.097595,0.013397,1.007675,0.006281,0.019324,-0.002443,58.585617,6.463455,-148.974792,,,
729863085.262772,0.785719,5.51817,55.035126,-0.09642,0.018295,0.991501,0.006281,0.019324,-0.002443,58.585617,6.463455,-148.974792,,,
729863085.266179,0.788589,5.518054,55.03454,-0.09642,0.018295,0.991501,0.003465,0.000231,-0.004139,58.585617,6.463455,-148.974792,,,
729863085.269474,0.788589,5.518054,55.03454,-0.09642,0.018295,0.991501,0.003465,0.000231,-0.004139,58.585617,6.463455,-148.974792,,,
729863085.272784,0.788678,5.517475,55.033423,-0.098328,0.017166,0.988022,0.003465,0.000231,-0.004139,58.585617,6.463455,-148.974792,,,
729863085.276102,0.791422,5.510732,55.031591,-0.098328,0.017166,0.988022,0.00529,-0.025808,-0.007742,58.652939,6.48494,-148.982941,,,
729863085.279459,0.791422,5.510732,55.031591,-0.098328,0.017166,0.988022,0.00529,-0.025808,-0.007742,58.652939,6.48494,-148.982941,,,
729863085.28277,0.792534,5.503967,55.029692,-0.098816,0.014603,0.99382,0.00529,-0.025808,-0.007742,58.652939,6.48494,-148.982941,,,
729863085.286102,0.795527,5.493147,55.027518,-0.098816,0.014603,0.99382,0.011647,-0.024465,-0.010249,58.652939,6.48494,-148.982941,,,
729863085.289483,0.795527,5.493147,55.027518,-0.098816,0.014603,0.99382,0.011647,-0.024465,-0.010249,58.652939,6.48494,-148.982941,,,
729863085.292834,0.798462,5.485141,55.024297,-0.089828,0.012344,1.004425,0.011647,-0.024465,-0.010249,58.652939,6.48494,-148.982941,,,
729863085.296152,0.803682,5.47847,55.020669,-0.089828,0.012344,1.004425,0.022194,0.002863,-0.013665,58.652939,6.48494,-148.982941,,,
729863085.299423,0.803682,5.47847,55.020669,-0.089828,0.012344,1.004425,0.022194,0.002863,-0.013665,58.652939,6.48494,-148.982941,,,
729863085.302776,0.809141,5.477918,55.016476,-0.087509,0.013229,1.017242,0.022194,0.002863,-0.013665,58.652939,6.48494,-148.982941,,,
729863085.306095,0.815101,5.480012,55.012508,-0.087509,0.013229,1.017242,0.026995,0.031372,-0.010657,58.652939,6.48494,-148.982941,,,
729863085.309499,0.815101,5.480012,55.012508,-0.087509,0.013229,1.017242,0.026995,0.031372,-0.010657,58.652939,6.48494,-148.982941,,,
729863085.312765,0.822114,5.487417,55.009199,-0.093765,0.01239,1.018127,0.026995,0.031372,-0.010657,58.652939,6.48494,-148.982941,,,
729863085.316099,0.828886,5.498382,55.006408,-0.093765,0.01239,1.018127,0.026122,0.050791,-0.005444,58.755585,6.184082,-149.002853,,,
729863085.319527,0.828886,5.498382,55.006408,-0.093765,0.01239,1.018127,0.026122,0.050791,-0.005444,58.755585,6.184082,-149.002853,,,
729863085.322761,0.83639,5.511467,55.004607,-0.097656,0.014267,1.007782,0.026122,0.050791,-0.005444,58.755585,6.184082,-149.002853,,,
729863085.326104,0.842624,5.52496,55.003185,-0.097656,0.014267,1.007782,0.023395,0.047961,-0.005402,58.755585,6.184082,-149.002853,,,
729863085.329475,0.842624,5.52496,55.003185,-0.097656,0.014267,1.007782,0.023395,0.047961,-0.005402,58.755585,6.184082,-149.002853,,,
729863085.332796,0.849188,5.53795,55.001804,-0.099289,0.015381,0.994949,0.023395,0.047961,-0.005402,58.755585,6.184082,-149.002853,,,
729863085.336103,0.856159,5.548519,55.000269,-0.099289,0.015381,0.994949,0.030979,0.020149,-0.006428,58.755585,6.184082,-149.002853,,,
729863085.339448,0.856159,5.548519,55.000269,-0.099289,0.015381,0.994949,0.030979,0.020149,-0.006428,58.755585,6.184082,-149.002853,,,
729863085.342848,0.863959,5.554553,54.998039,-0.102249,0.014404,0.990372,0.030979,0.020149,-0.006428,58.755585,6.184082,-149.002853,,,
729863085.346088,0.874415,5.555414,54.995215,-0.102249,0.014404,0.990372,0.039738,-0.014739,-0.009665,58.755585,6.184082,-149.002853,,,
729863085.349442,0.874415,5.555414,54.995215,-0.102249,0.014404,0.990372,0.039738,-0.014739,-0.009665,58.755585,6.184082,-149.002853,,,
729863085.352779,0.884902,5.551992,54.991663,-0.103165,0.016174,0.983429,0.039738,-0.014739,-0.009665,58.755585,6.184082,-149.002853,,,
729863085.356099,0.895549,5.546815,54.987366,-0.103165,0.016174,0.983429,0.035628,-0.023376,-0.014965,58.755585,6.184082,-149.002853,,,
729863085.359426,0.895549,5.546815,54.987366,-0.103165,0.016174,0.983429,0.035628,-0.023376,-0.014965,58.575089,6.156021,-148.874268,,,
729863085.362772,0.905765,5.539774,54.98292,-0.099609,0.016891,0.980988,0.035628,-0.023376,-0.014965,58.575089,6.156021,-148.874268,,,
729863085.366095,0.914046,5.533363,54.979032,-0.099609,0.016891,0.980988,0.027203,-0.008561,-0.012224,58.575089,6.156021,-148.874268,,,
729863085.369512,0.914046,5.533363,54.979032,-0.099609,0.016891,0.980988,0.027203,-0.008561,-0.012224,58.575089,6.156021,-148.874268,,,
729863085.37277,0.920959,5.529115,54.97547,-0.094772,0.017563,0.978912,0.027203,-0.008561,-0.012224,58.575089,6.156021,-148.874268,,,
729863085.376105,0.924696,5.52573,54.972081,-0.094772,0.017563,0.978912,0.011839,0.017615,-0.009054,58.575089,6.156021,-148.874268,,,
729863085.379447,0.924696,5.52573,54.972081,-0.094772,0.017563,0.978912,0.011839,0.017615,-0.009054,58.575089,6.156021,-148.874268,,,
729863085.382816,0.927662,5.528953,54.969695,-0.087357,0.019897,0.97998,0.011839,0.017615,-0.009054,58.575089,6.156021,-148.874268,,,
729863085.386099,0.928673,5.532843,54.967319,-0.087357,0.019897,0.97998,-0.00074,0.034087,-0.011314,58.575089,6.156021,-148.874268,,,
729863085.389462,0.928673,5.532843,54.967319,-0.087357,0.019897,0.97998,-0.00074,0.034087,-0.011314,58.575089,6.156021,-148.874268,,,
729863085.392775,0.928373,5.541503,54.964262,-0.088089,0.020386,0.97641,-0.00074,0.034087,-0.011314,58.575089,6.156021,-148.874268,,,
729863085.396103,0.925492,5.549502,54.960974,-0.088089,0.020386,0.97641,-0.007065,0.030876,-0.020604,58.575089,6.156021,-148.874268,,,
729863085.399442,0.925492,5.549502,54.960974,-0.088089,0.020386,0.97641,-0.007065,0.030876,-0.020604,58.747299,6.347031,-148.707336,,,
729863085.402783,0.922451,5.557594,54.956576,-0.089859,0.020111,0.973206,-0.007065,0.030876,-0.020604,58.747299,6.347031,-148.707336,,,
729863085.406104,0.91844,5.563761,54.951175,-0.089859,0.020111,0.973206,-0.016203,0.015644,-0.023849,58.747299,6.347031,-148.707336,,,
729863085.409494,0.91844,5.563761,54.951175,-0.089859,0.020111,0.973206,-0.016203,0.015644,-0.023849,58.747299,6.347031,-148.707336,,,
729863085.412791,0.91378,5.567961,54.945409,-0.090805,0.018372,0.97229,-0.016203,0.015644,-0.023849,58.747299,6.347031,-148.707336,,,
729863085.416103,0.907758,5.572149,54.939228,-0.090805,0.018372,0.97229,-0.018128,0.012889,-0.026572,58.747299,6.347031,-148.707336,,,
729863085.419482,0.907758,5.572149,54.939228,-0.090805,0.018372,0.97229,-0.018128,0.012889,-0.026572,58.747299,6.347031,-148.707336,,,
729863085.42284,0.901609,5.57546,54.932491,-0.09346,0.018921,0.978058,-0.018128,0.012889,-0.026572,58.747299,6.347031,-148.707336,,,
729863085.426091,0.89518,5.581223,54.925387,-0.09346,0.018921,0.978058,-0.016684,0.012986,-0.026095,58.747299,6.347031,-148.707336,,,
729863085.429446,0.89518,5.581223,54.925387,-0.09346,0.018921,0.978058,-0.016684,0.012986,-0.026095,58.747299,6.347031,-148.707336,,,
729863085.43277,0.889473,5.584786,54.918829,-0.09967,0.013565,0.987747,-0.016684,0.012986,-0.026095,58.747299,6.347031,-148.707336,,,
729863085.436099,0.884554,5.589247,54.912694,-0.09967,0.013565,0.987747,-0.007281,0.007074,-0.018647,58.747299,6.347031,-148.707336,,,
729863085.439431,0.884554,5.589247,54.912694,-0.09967,0.013565,0.987747,-0.007281,0.007074,-0.018647,58.545486,6.27919,-148.532776,,,
729863085.442782,0.881033,5.591154,54.907571,-0.10585,0.007751,0.993729,-0.007281,0.007074,-0.018647,58.545486,6.27919,-148.532776,,,
729863085.446102,0.880485,5.59374,54.903837,-0.10585,0.007751,0.993729,0.007585,0.005519,-0.012716,58.545486,6.27919,-148.532776,,,
729863085.449514,0.880485,5.59374,54.903837,-0.10585,0.007751,0.993729,0.007585,0.005519,-0.012716,58.545486,6.27919,-148.532776,,,
729863085.452789,0.881556,5.594757,54.900285,-0.103546,0.006546,1.002426,0.007585,0.005519,-0.012716,58.545486,6.27919,-148.532776,,,
729863085.456105,0.884628,5.594924,54.896967,-0.103546,0.006546,1.002426,0.01149,0.006816,-0.012805,58.545486,6.27919,-148.532776,,,
729863085.459442,0.884628,5.594924,54.896967,-0.103546,0.006546,1.002426,0.01149,0.006816,-0.012805,58.545486,6.27919,-148.532776,,,
729863085.462895,0.887163,5.596132,54.89382,-0.102921,0.008789,1.000427,0.01149,0.006816,-0.012805,58.545486,6.27919,-148.532776,,,
729863085.466091,0.889972,5.594579,54.891158,-0.102921,0.008789,1.000427,0.005097,0.001266,-0.008919,58.545486,6.27919,-148.532776,,,
729863085.469519,0.889972,5.594579,54.891158,-0.102921,0.008789,1.000427,0.005097,0.001266,-0.008919,58.545486,6.27919,-148.532776,,,
729863085.472766,0.891112,5.594723,54.889144,-0.105011,0.014267,0.985916,0.005097,0.001266,-0.008919,58.545486,6.27919,-148.532776,,,
729863085.476099,0.89238,5.590514,54.886847,-0.105011,0.014267,0.985916,-0.006609,-0.006973,-0.015311,58.545486,6.27919,-148.532776,,,
729863085.479464,0.89238,5.590514,54.886847,-0.105011,0.014267,0.985916,-0.006609,-0.006973,-0.015311,58.545486,6.27919,-148.532776,,,
729863085.482786,0.890565,5.587688,54.883861,-0.100082,0.015488,0.97908,-0.006609,-0.006973,-0.015311,58.716202,6.172272,-148.75737,,,
729863085.485951,0.887573,5.582903,54.880091,-0.100082,0.015488,0.97908,-0.016167,-0.011332,-0.016159,58.716202,6.172272,-148.75737,,,
729863085.489524,0.887573,5.582903,54.880091,-0.100082,0.015488,0.97908,-0.016167,-0.011332,-0.016159,58.716202,6.172272,-148.75737,,,
729863085.492775,0.882128,5.579189,54.876047,-0.096207,0.015244,0.981781,-0.016167,-0.011332,-0.016159,58.716202,6.172272,-148.75737,,,
729863085.496101,0.876112,5.574649,54.872183,-0.096207,0.015244,0.981781,-0.026545,-0.001898,-0.013978,58.716202,6.172272,-148.75737,,,
729863085.499443,0.876112,5.574649,54.872183,-0.096207,0.015244,0.981781,-0.026545,-0.001898,-0.013978,58.716202,6.172272,-148.75737,,,
729863085.502836,0.868433,5.572812,54.868588,-0.09581,0.015884,0.986725,-0.026545,-0.001898,-0.013978,58.716202,6.172272,-148.75737,,,
729863085.506091,0.861088,5.571898,54.865308,-0.09581,0.015884,0.986725,-0.028272,0.004868,-0.017501,58.716202,6.172272,-148.75737,,,
729863085.509445,0.861088,5.571898,54.865308,-0.09581,0.015884,0.986725,-0.028272,0.004868,-0.017501,58.716202,6.172272,-148.75737,,,
729863085.512767,0.852587,5.5721,54.861864,-0.094986,0.01535,0.991272,-0.028272,0.004868,-0.017501,58.716202,6.172272,-148.75737,,,
729863085.516148,0.843127,5.575969,54.85815,-0.094986,0.01535,0.991272,-0.023903,0.019284,-0.018671,58.716202,6.172272,-148.75737,,,
729863085.519457,0.843127,5.575969,54.85815,-0.094986,0.01535,0.991272,-0.023903,0.019284,-0.018671,58.716202,6.172272,-148.75737,,,
729863085.522785,0.834794,5.580582,54.8541,-0.094147,0.013229,0.997757,-0.023903,0.019284,-0.018671,58.565674,6.153595,-148.682037,,,
729863085.5261,0.825196,5.588476,54.850072,-0.094147,0.013229,0.997757,-0.024634,0.016,-0.013796,58.565674,6.153595,-148.682037,,,
729863085.529432,0.825196,5.588476,54.850072,-0.094147,0.013229,0.997757,-0.024634,0.016,-0.013796,58.565674,6.153595,-148.682037,,,
729863085.532784,0.817713,5.593055,54.846519,-0.097809,0.010376,0.995361,-0.024634,0.016,-0.013796,58.565674,6.153595,-148.682037,,,
729863085.536098,0.810089,5.597408,54.842812,-0.097809,0.010376,0.995361,-0.003272,0.008875,-0.017461,58.565674,6.153595,-148.682037,,,
729863085.539452,0.810089,5.597408,54.842812,-0.097809,0.010376,0.995361,-0.003272,0.008875,-0.017461,58.565674,6.153595,-148.682037,,,
729863085.542848,0.806667,5.598945,54.83881,-0.100769,0.00856,1.003601,-0.003272,0.008875,-0.017461,58.565674,6.153595,-148.682037,,,
729863085.546097,0.805738,5.60112,54.834545,-0.100769,0.00856,1.003601,0.014918,-0.004937,-0.013198,58.565674,6.153595,-148.682037,,,
729863085.549451,0.805738,5.60112,54.834545,-0.100769,0.00856,1.003601,0.014918,-0.004937,-0.013198,58.565674,6.153595,-148.682037,,,
729863085.552783,0.808788,5.599448,54.831012,-0.11055,0.005295,1.011215,0.014918,-0.004937,-0.013198,58.565674,6.153595,-148.682037,,,
729863085.556124,0.814506,5.598014,54.829779,-0.11055,0.005295,1.011215,0.026727,-0.013569,0.007905,58.565674,6.153595,-148.682037,,,
729863085.559451,0.814506,5.598014,54.829779,-0.11055,0.005295,1.011215,0.026727,-0.013569,0.007905,58.565674,6.153595,-148.682037,,,
729863085.562774,0.822179,5.593197,54.831155,-0.116058,0.005051,1.006134,0.026727,-0.013569,0.007905,58.816879,6.119156,-148.53009,,,
729863085.566096,0.829901,5.589474,54.834821,-0.116058,0.005051,1.006134,0.014687,-0.009082,0.022321,58.816879,6.119156,-148.53009,,,
729863085.569518,0.829901,5.589474,54.834821,-0.116058,0.005051,1.006134,0.014687,-0.009082,0.022321,58.816879,6.119156,-148.53009,,,
729863085.572777,0.834704,5.585698,54.840267,-0.107391,0.014694,0.99115,0.014687,-0.009082,0.022321,58.816879,6.119156,-148.53009,,,
729863085.576104,0.83604,5.58334,54.845562,-0.107391,0.014694,0.99115,-0.011745,-0.00448,0.010385,58.816879,6.119156,-148.53009,,,
729863085.57946,0.83604,5.58334,54.845562,-0.107391,0.014694,0.99115,-0.011745,-0.00448,0.010385,58.816879,6.119156,-148.53009,,,
729863085.58287,0.833656,5.582329,54.849348,-0.088928,0.021149,0.975098,-0.011745,-0.00448,0.010385,58.816879,6.119156,-148.53009,,,
729863085.586095,0.827795,5.581843,54.851897,-0.088928,0.021149,0.975098,-0.034893,0.00576,-0.00527,58.816879,6.119156,-148.53009,,,
729863085.589462,0.827795,5.581843,54.851897,-0.088928,0.021149,0.975098,-0.034893,0.00576,-0.00527,58.816879,6.119156,-148.53009,,,
729863085.592763,0.817754,5.582253,54.852883,-0.079773,0.022278,0.974457,-0.034893,0.00576,-0.00527,58.816879,6.119156,-148.53009,,,
729863085.5961,0.804499,5.583371,54.852397,-0.079773,0.022278,0.974457,-0.050505,0.020702,-0.011868,58.816879,6.119156,-148.53009,,,
729863085.599461,0.804499,5.583371,54.852397,-0.079773,0.022278,0.974457,-0.050505,0.020702,-0.011868,58.816879,6.119156,-148.53009,,,
729863085.602761,0.789391,5.587333,54.851278,-0.082001,0.021683,0.979279,-0.050505,0.020702,-0.011868,58.785034,6.2323,-148.84668,,,
729863085.606101,0.77445,5.591989,54.849341,-0.082001,0.021683,0.979279,-0.039967,0.021434,-0.014893,58.785034,6.2323,-148.84668,,,
729863085.609489,0.77445,5.591989,54.849341,-0.082001,0.021683,0.979279,-0.039967,0.021434,-0.014893,58.785034,6.2323,-148.84668,,,
729863085.612766,0.761967,5.59756,54.846419,-0.090057,0.014404,0.995422,-0.039967,0.021434,-0.014893,58.785034,6.2323,-148.84668,,,
729863085.616104,0.753251,5.602945,54.843887,-0.090057,0.014404,0.995422,-0.004764,0.016667,-0.008064,58.785034,6.2323,-148.84668,,,
729863085.61944,0.753251,5.602945,54.843887,-0.090057,0.014404,0.995422,-0.004764,0.016667,-0.008064,58.785034,6.2323,-148.84668,,,
729863085.622822,0.750579,5.607077,54.842075,-0.095337,0.00441,1.017395,-0.004764,0.016667,-0.008064,58.785034,6.2323,-148.84668,,,
729863085.626098,0.751182,5.611263,54.840354,-0.095337,0.00441,1.017395,0.018867,0.011993,-0.004387,58.785034,6.2323,-148.84668,,,
729863085.629471,0.751182,5.611263,54.840354,-0.095337,0.00441,1.017395,0.018867,0.011993,-0.004387,58.785034,6.2323,-148.84668,,,
729863085.632762,0.755665,5.614145,54.838569,-0.097198,0.005676,1.01741,0.018867,0.011993,-0.004387,58.785034,6.2323,-148.84668,,,
729863085.636096,0.759597,5.620964,54.836446,-0.097198,0.005676,1.01741,0.023641,0.012265,-0.011257,58.785034,6.2323,-148.84668,,,
729863085.639434,0.759597,5.620964,54.836446,-0.097198,0.005676,1.01741,0.023641,0.012265,-0.011257,58.785034,6.2323,-148.84668,,,
729863085.642773,0.7658,5.623638,54.833929,-0.097031,0.010605,1.006607,0.023641,0.012265,-0.011257,58.785034,6.2323,-148.84668,,,
729863085.646099,0.770033,5.630869,54.830605,-0.097031,0.010605,1.006607,0.022253,0.001805,-0.009864,58.891281,5.941025,-148.52066,,,
729863085.649496,0.770033,5.630869,54.830605,-0.097031,0.010605,1.006607,0.022253,0.001805,-0.009864,58.891281,5.941025,-148.52066,,,
729863085.652611,0.775604,5.631738,54.827499,-0.100006,0.012634,1.001205,0.022253,0.001805,-0.009864,58.891281,5.941025,-148.52066,,,
729863085.656121,0.781454,5.632178,54.825022,-0.100006,0.012634,1.001205,0.012979,-0.010199,-0.005216,58.891281,5.941025,-148.52066,,,
729863085.659434,0.781454,5.632178,54.825022,-0.100006,0.012634,1.001205,0.012979,-0.010199,-0.005216,58.891281,5.941025,-148.52066,,,
729863085.662855,0.785621,5.628762,54.823459,-0.109222,0.011505,0.996201,0.012979,-0.010199,-0.005216,58.891281,5.941025,-148.52066,,,
729863085.666098,0.790437,5.620226,54.823518,-0.109222,0.011505,0.996201,0.004806,-0.023039,0.005105,58.891281,5.941025,-148.52066,,,
729863085.669444,0.790437,5.620226,54.823518,-0.109222,0.011505,0.996201,0.004806,-0.023039,0.005105,58.891281,5.941025,-148.52066,,,
729863085.672791,0.792161,5.613662,54.824769,-0.107086,0.015198,0.993088,0.004806,-0.023039,0.005105,58.891281,5.941025,-148.52066,,,
729863085.676105,0.794704,5.601477,54.827274,-0.107086,0.015198,0.993088,0.002983,-0.022956,0.004831,58.891281,5.941025,-148.52066,,,
729863085.679445,0.794704,5.601477,54.827274,-0.107086,0.015198,0.993088,0.002983,-0.022956,0.004831,58.891281,5.941025,-148.52066,,,
729863085.682782,0.79531,5.593899,54.829253,-0.096832,0.016449,0.997894,0.002983,-0.022956,0.004831,58.891281,5.941025,-148.52066,,,
729863085.686107,0.79754,5.583468,54.829603,-0.096832,0.016449,0.997894,0.004263,-0.010661,-0.004862,58.750916,6.246017,-148.747772,,,
729863085.689502,0.79754,5.583468,54.829603,-0.096832,0.016449,0.997894,0.004263,-0.010661,-0.004862,58.750916,6.246017,-148.747772,,,
729863085.69277,0.798215,5.579362,54.828494,-0.08786,0.017578,1.004822,0.004263,-0.010661,-0.004862,58.750916,6.246017,-148.747772,,,
729863085.696098,0.798561,5.57552,54.826634,-0.08786,0.017578,1.004822,0.003428,0.001545,-0.006702,58.750916,6.246017,-148.747772,,,
729863085.699443,0.798561,5.57552,54.826634,-0.08786,0.017578,1.004822,0.003428,0.001545,-0.006702,58.750916,6.246017,-148.747772,,,
729863085.702827,0.799825,5.575085,54.824767,-0.093597,0.018539,1.004822,0.003428,0.001545,-0.006702,58.750916,6.246017,-148.747772,,,
729863085.706185,0.80119,5.575854,54.822971,-0.093597,0.018539,1.004822,0.02841,0.017723,-0.002253,58.750916,6.246017,-148.747772,,,
729863085.709424,0.80119,5.575854,54.822971,-0.093597,0.018539,1.004822,0.02841,0.017723,-0.002253,58.750916,6.246017,-148.747772,,,
729863085.712774,0.807938,5.579562,54.821862,-0.100235,0.014496,1.012329,0.02841,0.017723,-0.002253,58.750916,6.246017,-148.747772,,,
729863085.716105,0.816046,5.583569,54.821614,-0.100235,0.014496,1.012329,0.044633,0.017733,0.008503,58.750916,6.246017,-148.747772,,,
729863085.719454,0.816046,5.583569,54.821614,-0.100235,0.014496,1.012329,0.044633,0.017733,0.008503,58.750916,6.246017,-148.747772,,,
729863085.722787,0.828176,5.588114,54.822539,-0.105423,0.009247,1.014618,0.044633,0.017733,0.008503,58.750916,6.246017,-148.747772,,,
729863085.726102,0.840608,5.591796,54.824754,-0.105423,0.009247,1.014618,0.040449,0.013223,0.013539,58.664124,6.07666,-148.855942,,,
729863085.729511,0.840608,5.591796,54.824754,-0.105423,0.009247,1.014618,0.040449,0.013223,0.013539,58.664124,6.07666,-148.855942,,,
729863085.732774,0.852706,5.595245,54.827831,-0.100677,0.014648,0.992905,0.040449,0.013223,0.013539,58.664124,6.07666,-148.855942,,,
729863085.7361,0.862682,5.598004,54.831145,-0.100677,0.014648,0.992905,0.030575,-0.000983,0.008424,58.664124,6.07666,-148.855942,,,
729863085.739455,0.862682,5.598004,54.831145,-0.100677,0.014648,0.992905,0.030575,-0.000983,0.008424,58.664124,6.07666,-148.855942,,,
729863085.742846,0.871355,5.597137,54.833817,-0.093246,0.023239,0.979309,0.030575,-0.000983,0.008424,58.664124,6.07666,-148.855942,,,
729863085.746097,0.877233,5.598409,54.834774,-0.093246,0.023239,0.979309,0.01633,-0.00617,-0.00438,58.664124,6.07666,-148.855942,,,
729863085.749432,0.877233,5.598409,54.834774,-0.093246,0.023239,0.979309,0.01633,-0.00617,-0.00438,58.664124,6.07666,-148.855942,,,
729863085.752794,0.88227,5.595369,54.834026,-0.089706,0.020828,0.983475,0.01633,-0.00617,-0.00438,58.664124,6.07666,-148.855942,,,
729863085.756105,0.886318,5.595603,54.833088,-0.089706,0.020828,0.983475,0.011653,0.002212,0.001397,58.664124,6.07666,-148.855942,,,
729863085.759458,0.886318,5.595603,54.833088,-0.089706,0.020828,0.983475,0.011653,0.002212,0.001397,58.664124,6.07666,-148.855942,,,
729863085.762782,0.89002,5.595248,54.833451,-0.09407,0.015961,0.991516,0.011653,0.002212,0.001397,58.664124,6.07666,-148.855942,,,
729863085.766106,0.894763,5.594119,54.835243,-0.09407,0.015961,0.991516,0.02418,-0.000647,0.013503,58.62204,5.976608,-148.444077,,,
729863085.769509,0.894763,5.594119,54.835243,-0.09407,0.015961,0.991516,0.02418,-0.000647,0.013503,58.62204,5.976608,-148.444077,,,
729863085.772779,0.900758,5.593409,54.838027,-0.095703,0.016205,0.994522,0.02418,-0.000647,0.013503,58.62204,5.976608,-148.444077,,,
729863085.776105,0.909046,5.588542,54.840427,-0.095703,0.016205,0.994522,0.033166,-0.008625,-0.000164,58.62204,5.976608,-148.444077,,,
729863085.779473,0.909046,5.588542,54.840427,-0.095703,0.016205,0.994522,0.033166,-0.008625,-0.000164,58.62204,5.976608,-148.444077,,,
729863085.782825,0.917961,5.58552,54.840718,-0.088303,0.015213,0.997528,0.033166,-0.008625,-0.000164,58.62204,5.976608,-148.444077,,,
729863085.786094,0.926999,5.581876,54.838966,-0.088303,0.015213,0.997528,0.025013,0.00335,-0.009162,58.62204,5.976608,-148.444077,,,
729863085.789449,0.926999,5.581876,54.838966,-0.088303,0.015213,0.997528,0.025013,0.00335,-0.009162,58.62204,5.976608,-148.444077,,,
729863085.792785,0.934029,5.581344,54.835982,-0.083588,0.015793,0.991364,0.025013,0.00335,-0.009162,58.62204,5.976608,-148.444077,,,
729863085.796097,0.939366,5.584371,54.832879,-0.083588,0.015793,0.991364,0.024439,0.019605,-0.008521,58.62204,5.976608,-148.444077,,,
729863085.799443,0.939366,5.584371,54.832879,-0.083588,0.015793,0.991364,0.024439,0.019605,-0.008521,58.62204,5.976608,-148.444077,,,
729863085.802768,0.945534,5.588651,54.830109,-0.085861,0.017883,0.991852,0.024439,0.019605,-0.008521,58.62204,5.976608,-148.444077,,,
729863085.806101,0.95071,5.595704,54.826733,-0.085861,0.017883,0.991852,0.029568,0.021846,-0.010643,58.62204,5.976608,-148.444077,,,
729863085.809516,0.95071,5.595704,54.826733,-0.085861,0.017883,0.991852,0.029568,0.021846,-0.010643,58.82077,5.86322,-148.560013,,,
729863085.812764,0.958571,5.600782,54.823126,-0.094513,0.012955,0.998566,0.029568,0.021846,-0.010643,58.82077,5.86322,-148.560013,,,
729863085.816105,0.96651,5.606728,54.819501,-0.094513,0.012955,0.998566,0.023437,0.021292,-0.012225,58.82077,5.86322,-148.560013,,,
729863085.819443,0.96651,5.606728,54.819501,-0.094513,0.012955,0.998566,0.023437,0.021292,-0.012225,58.82077,5.86322,-148.560013,,,
729863085.822838,0.972992,5.612288,54.81538,-0.096252,0.010193,0.991516,0.023437,0.021292,-0.012225,58.82077,5.86322,-148.560013,,,
729863085.826097,0.979566,5.61628,54.811707,-0.096252,0.010193,0.991516,0.010526,0.016075,-0.01064,58.82077,5.86322,-148.560013,,,
729863085.829437,0.979566,5.61628,54.811707,-0.096252,0.010193,0.991516,0.010526,0.016075,-0.01064,58.82077,5.86322,-148.560013,,,
729863085.832771,0.982628,5.620629,54.808666,-0.094543,0.017197,0.978241,0.010526,0.016075,-0.01064,58.82077,5.86322,-148.560013,,,
729863085.836096,0.98405,5.621515,54.805366,-0.094543,0.017197,0.978241,-0.01132,0.006127,-0.013521,58.82077,5.86322,-148.560013,,,
729863085.839449,0.98405,5.621515,54.805366,-0.094543,0.017197,0.978241,-0.01132,0.006127,-0.013521,58.82077,5.86322,-148.560013,,,
729863085.842773,0.981446,5.62292,54.801705,-0.098648,0.017914,0.96965,-0.01132,0.006127,-0.013521,58.82077,5.86322,-148.560013,,,
729863085.8461,0.975452,5.623636,54.798644,-0.098648,0.017914,0.96965,-0.028976,0.007365,-0.012783,58.82077,5.86322,-148.560013,,,
729863085.849509,0.975452,5.623636,54.798644,-0.098648,0.017914,0.96965,-0.028976,0.007365,-0.012783,58.866135,6.014694,-148.665497,,,
729863085.852772,0.967395,5.625302,54.796153,-0.102676,0.019989,0.967438,-0.028976,0.007365,-0.012783,58.866135,6.014694,-148.665497,,,
729863085.856103,0.956426,5.625882,54.794342,-0.102676,0.019989,0.967438,-0.041954,0.005637,-0.007473,58.866135,6.014694,-148.665497,,,
729863085.859458,0.956426,5.625882,54.794342,-0.102676,0.019989,0.967438,-0.041954,0.005637,-0.007473,58.866135,6.014694,-148.665497,,,
729863085.862864,0.943639,5.626781,54.793352,-0.103378,0.01857,0.965485,-0.041954,0.005637,-0.007473,58.866135,6.014694,-148.665497,,,
729863085.86609,0.930415,5.623553,54.79262,-0.103378,0.01857,0.965485,-0.034175,-0.003397,-0.007247,58.866135,6.014694,-148.665497,,,
729863085.869476,0.930415,5.623553,54.79262,-0.103378,0.01857,0.965485,-0.034175,-0.003397,-0.007247,58.866135,6.014694,-148.665497,,,
729863085.872888,0.919192,5.623048,54.791427,-0.10289,0.014282,0.979462,-0.034175,-0.003397,-0.007247,58.866135,6.014694,-148.665497,,,
729863085.876136,0.911565,5.617718,54.789871,-0.10289,0.014282,0.979462,-0.003481,-0.003892,-0.008119,58.866135,6.014694,-148.665497,,,
729863085.879467,0.911565,5.617718,54.789871,-0.10289,0.014282,0.979462,-0.003481,-0.003892,-0.008119,58.866135,6.014694,-148.665497,,,
729863085.882795,0.908774,5.616028,54.788125,-0.10672,0.003281,1.009048,-0.003481,-0.003892,-0.008119,58.866135,6.014694,-148.665497,,,
729863085.886101,0.91092,5.611893,54.786788,-0.10672,0.003281,1.009048,0.022877,0.004052,-1e-05,58.866135,6.014694,-148.665497,,,
729863085.889445,0.91092,5.611893,54.786788,-0.10672,0.003281,1.009048,0.022877,0.004052,-1e-05,58.897385,6.05191,-148.903244,,,
729863085.892776,0.915958,5.612024,54.786674,-0.112244,0.000854,1.020615,0.022877,0.004052,-1e-05,58.897385,6.05191,-148.903244,,,
729863085.896106,0.922807,5.613419,54.788074,-0.112244,0.000854,1.020615,0.037107,0.018375,0.012459,58.897385,6.05191,-148.903244,,,
729863085.899457,0.922807,5.613419,54.788074,-0.112244,0.000854,1.020615,0.037107,0.018375,0.012459,58.897385,6.05191,-148.903244,,,
729863085.902847,0.933035,5.617944,54.790784,-0.111481,0.001266,1.018433,0.037107,0.018375,0.012459,58.897385,6.05191,-148.903244,,,
729863085.906181,0.943348,5.623151,54.794392,-0.111481,0.001266,1.018433,0.031616,0.019022,0.016538,58.897385,6.05191,-148.903244,,,
729863085.909438,0.943348,5.623151,54.794392,-0.111481,0.001266,1.018433,0.031616,0.019022,0.016538,58.897385,6.05191,-148.903244,,,
729863085.912776,0.953135,5.628078,54.798222,-0.108215,0.008972,1.004395,0.031616,0.019022,0.016538,58.897385,6.05191,-148.903244,,,
729863085.916093,0.953135,5.632011,54.801994,-0.108215,0.008972,1.004395,0.008367,0.009418,0.014001,58.897385,6.05191,-148.903244,,,
729863085.91945,0.959966,5.632011,54.801994,-0.108215,0.008972,1.004395,0.008367,0.009418,0.014001,58.897385,6.05191,-148.903244,,,
729863085.922868,0.962671,5.634554,54.805636,-0.105377,0.019913,0.97937,0.008367,0.009418,0.014001,58.897385,6.05191,-148.903244,,,
729863085.92614,0.962671,5.634554,54.808813,-0.105377,0.019913,0.97937,-0.024206,-7e-05,0.005879,58.897385,6.05191,-148.903244,,,
729863085.929496,0.961491,5.636618,54.808813,-0.105377,0.019913,0.97937,-0.024206,-7e-05,0.005879,58.853867,5.966156,-148.741699,,,
729863085.932788,0.955983,5.636033,54.811557,-0.102539,0.025803,0.967133,-0.024206,-7e-05,0.005879,58.853867,5.966156,-148.741699,,,
729863085.936167,0.947768,5.636072,54.814509,-0.102539,0.025803,0.967133,-0.041235,-0.018954,0.006111,58.853867,5.966156,-148.741699,,,
729863085.939441,0.947768,5.636072,54.814509,-0.102539,0.025803,0.967133,-0.041235,-0.018954,0.006111,58.853867,5.966156,-148.741699,,,
729863085.942848,0.936108,5.630917,54.817821,-0.103973,0.029541,0.967346,-0.041235,-0.018954,0.006111,58.853867,5.966156,-148.741699,,,
729863085.946106,0.936108,5.630917,54.817821,-0.103973,0.029541,0.967346,-0.041235,-0.018954,0.006111,58.853867,5.966156,-148.741699,,,
729863085.949437,0.924336,5.626203,54.821129,-0.103973,0.029541,0.967346,-0.038668,-0.021856,0.004063,58.853867,5.966156,-148.741699,,,
729863085.952768,0.913432,5.619135,54.824283,-0.106491,0.022751,0.982605,-0.038668,-0.021856,0.004063,58.853867,5.966156,-148.741699,,,
729863085.956164,0.913432,5.619135,54.824283,-0.106491,0.022751,0.982605,-0.024269,-0.010162,0.014593,58.853867,5.966156,-148.741699,,,
729863085.95945,0.902676,5.615077,54.828081,-0.106491,0.022751,0.982605,-0.024269,-0.010162,0.014593,58.853867,5.966156,-148.741699,,,
729863085.962779,0.894619,5.610793,54.833054,-0.102615,0.019043,0.999146,-0.024269,-0.010162,0.014593,58.853867,5.966156,-148.741699,,,
729863085.966168,0.894619,5.610793,54.833054,-0.102615,0.019043,0.999146,-0.024269,-0.010162,0.014593,58.853867,5.966156,-148.741699,,,
729863085.969508,0.887296,5.611728,54.838511,-0.102615,0.019043,0.999146,-0.001165,0.017437,0.01823,58.853867,5.966156,-148.741699,,,
729863085.972779,0.887107,5.614642,54.844621,-0.101028,0.014374,1.018066,-0.001165,0.017437,0.01823,58.705139,5.924866,-148.583939,,,
729863085.976133,0.887107,5.614642,54.844621,-0.101028,0.014374,1.018066,-0.001165,0.017437,0.01823,58.705139,5.924866,-148.583939,,,
729863085.979447,0.887944,5.626149,54.850891,-0.101028,0.014374,1.018066,0.030539,0.048112,0.025959,58.705139,5.924866,-148.583939,,,
729863085.982769,0.896099,5.638184,54.857696,-0.103714,0.009628,1.032425,0.030539,0.048112,0.025959,58.705139,5.924866,-148.583939,,,
729863085.986107,0.896099,5.638184,54.857696,-0.103714,0.009628,1.032425,0.030539,0.048112,0.025959,58.705139,5.924866,-148.583939,,,
729863085.989452,0.90468,5.654278,54.865636,-0.103714,0.009628,1.032425,0.040725,0.045162,0.037529,58.705139,5.924866,-148.583939,,,
729863085.992837,0.916453,5.666763,54.874955,-0.106094,0.011459,1.01619,0.040725,0.045162,0.037529,58.705139,5.924866,-148.583939,,,
729863085.996149,0.916453,5.666763,54.874955,-0.106094,0.011459,1.01619,0.040725,0.045162,0.037529,58.705139,5.924866,-148.583939,,,
729863085.999466,0.927149,5.677773,54.885611,-0.106094,0.011459,1.01619,0.032087,0.015898,0.042376,58.705139,5.924866,-148.583939,,,
729863086.002772,0.93734,5.682274,54.897175,-0.105698,0.017426,0.991562,0.032087,0.015898,0.042376,58.705139,5.924866,-148.583939,,,
729863086.006143,0.93734,5.682274,54.897175,-0.105698,0.017426,0.991562,0.032087,0.015898,0.042376,58.705139,5.924866,-148.583939,,,
729863086.009446,0.946509,5.684025,54.907778,-0.105698,0.017426,0.991562,0.016682,-0.018263,0.027635,58.705139,5.924866,-148.583939,,,
729863086.012777,0.95212,5.678629,54.916691,-0.094589,0.021744,0.981659,0.016682,-0.018263,0.027635,58.534851,6.108475,-148.638382,,,
729863086.016104,0.95212,5.678629,54.916691,-0.094589,0.021744,0.981659,0.016682,-0.018263,0.027635,58.534851,6.108475,-148.638382,,,
729863086.019515,0.956683,5.670213,54.924099,-0.094589,0.021744,0.981659,-0.004826,-0.048923,0.017751,58.534851,6.108475,-148.638382,,,
729863086.022764,0.955991,5.656477,54.930393,-0.083359,0.024857,0.975204,-0.004826,-0.048923,0.017751,58.534851,6.108475,-148.638382,,,
729863086.026158,0.955991,5.656477,54.930393,-0.083359,0.024857,0.975204,-0.004826,-0.048923,0.017751,58.534851,6.108475,-148.638382,,,
729863086.029438,0.956214,5.643459,54.936274,-0.083359,0.024857,0.975204,-0.013273,-0.047383,0.014522,58.534851,6.108475,-148.638382,,,
729863086.032766,0.952789,5.628311,54.940943,-0.07756,0.022385,0.986755,-0.013273,-0.047383,0.014522,58.534851,6.108475,-148.638382,,,
729863086.036143,0.952789,5.628311,54.940943,-0.07756,0.022385,0.986755,-0.013273,-0.047383,0.014522,58.534851,6.108475,-148.638382,,,
729863086.039445,0.950374,5.61853,54.943985,-0.07756,0.022385,0.986755,-0.009275,-0.016505,0.001128,58.534851,6.108475,-148.638382,,,
729863086.042771,0.947406,5.61112,54.945631,-0.069885,0.015884,1.010635,-0.009275,-0.016505,0.001128,58.534851,6.108475,-148.638382,,,
729863086.04621,0.947406,5.61112,54.945631,-0.069885,0.015884,1.010635,-0.009275,-0.016505,0.001128,58.534851,6.108475,-148.638382,,,
729863086.049434,0.945614,5.610232,54.945657,-0.069885,0.015884,1.010635,-0.001264,0.024568,-0.004159,58.534851,6.108475,-148.638382,,,
729863086.052773,0.944999,5.614705,54.944853,-0.072311,0.014572,1.020782,-0.001264,0.024568,-0.004159,58.656738,6.211807,-148.464111,,,
729863086.056145,0.944999,5.614705,54.944853,-0.072311,0.014572,1.020782,-0.001264,0.024568,-0.004159,58.656738,6.211807,-148.464111,,,
729863086.059506,0.945687,5.625856,54.944507,-0.072311,0.014572,1.020782,0.021657,0.056336,0.005834,58.656738,6.211807,-148.464111,,,
729863086.062769,0.950586,5.640447,54.945153,-0.082916,0.011581,1.025085,0.021657,0.056336,0.005834,58.656738,6.211807,-148.464111,,,
729863086.066114,0.950586,5.640447,54.945153,-0.082916,0.011581,1.025085,0.021657,0.056336,0.005834,58.656738,6.211807,-148.464111,,,
729863086.069449,0.958533,5.656556,54.946451,-0.082916,0.011581,1.025085,0.050421,0.046934,0.010284,58.656738,6.211807,-148.464111,,,
729863086.072769,0.971873,5.669987,54.948506,-0.099121,0.010132,1.019455,0.050421,0.046934,0.010284,58.656738,6.211807,-148.464111,,,
729863086.07613,0.971873,5.669987,54.948506,-0.099121,0.010132,1.019455,0.050421,0.046934,0.010284,58.656738,6.211807,-148.464111,,,
729863086.079448,0.986007,5.681955,54.950873,-0.099121,0.010132,1.019455,0.050974,0.023774,0.011712,58.656738,6.211807,-148.464111,,,
729863086.082833,1.000779,5.68941,54.952858,-0.099762,0.015335,0.999893,0.050974,0.023774,0.011712,58.656738,6.211807,-148.464111,,,
729863086.086126,1.000779,5.68941,54.952858,-0.099762,0.015335,0.999893,0.050974,0.023774,0.011712,58.656738,6.211807,-148.464111,,,
729863086.089449,1.014728,5.694524,54.953854,-0.099762,0.015335,0.999893,0.039506,-0.003785,-0.000279,58.656738,6.211807,-148.464111,,,
729863086.092779,1.02702,5.693392,54.953926,-0.09668,0.021194,0.983673,0.039506,-0.003785,-0.000279,58.656738,6.211807,-148.464111,,,
729863086.0962,1.02702,5.693392,54.953926,-0.09668,0.021194,0.983673,0.039506,-0.003785,-0.000279,58.617249,6.014404,-148.497543,,,
729863086.099439,1.038249,5.686805,54.952767,-0.09668,0.021194,0.983673,0.023763,-0.026146,-0.005599,58.617249,6.014404,-148.497543,,,
729863086.102777,1.045141,5.679199,54.950683,-0.093567,0.021729,0.977997,0.023763,-0.026146,-0.005599,58.617249,6.014404,-148.497543,,,
729863086.106143,1.045141,5.679199,54.950683,-0.093567,0.021729,0.977997,0.023763,-0.026146,-0.005599,58.617249,6.014404,-148.497543,,,
729863086.109532,1.051958,5.665274,54.948247,-0.093567,0.021729,0.977997,0.024759,-0.038229,-0.009689,58.617249,6.014404,-148.497543,,,
729863086.112763,1.05825,5.654288,54.945547,-0.094833,0.019211,0.983459,0.024759,-0.038229,-0.009689,58.617249,6.014404,-148.497543,,,
729863086.116123,1.05825,5.654288,54.945547,-0.094833,0.019211,0.983459,0.024759,-0.038229,-0.009689,58.617249,6.014404,-148.497543,,,
729863086.119453,1.068839,5.63493,54.943617,-0.094833,0.019211,0.983459,0.061373,-0.039733,-0.003091,58.617249,6.014404,-148.497543,,,
729863086.122765,1.084567,5.62255,54.941586,-0.099197,0.00914,1.014084,0.061373,-0.039733,-0.003091,58.617249,6.014404,-148.497543,,,
729863086.126111,1.084567,5.62255,54.941586,-0.099197,0.00914,1.014084,0.061373,-0.039733,-0.003091,58.617249,6.014404,-148.497543,,,
729863086.129445,1.105716,5.602105,54.940387,-0.099197,0.00914,1.014084,0.101951,-0.034627,0.012894,58.617249,6.014404,-148.497543,,,
729863086.132766,1.133736,5.591353,54.940993,-0.109283,0.00174,1.03038,0.101951,-0.034627,0.012894,58.617249,6.014404,-148.497543,,,
729863086.136097,1.133736,5.591353,54.940993,-0.109283,0.00174,1.03038,0.101951,-0.034627,0.012894,58.839127,5.756454,-148.360184,,,
729863086.13944,1.165404,5.574042,54.943645,-0.109283,0.00174,1.03038,0.129307,-0.022164,0.024203,58.839127,5.756454,-148.360184,,,
729863086.142767,1.202047,5.565754,54.946825,-0.100967,0.008209,1.019257,0.129307,-0.022164,0.024203,58.839127,5.756454,-148.360184,,,
729863086.146161,1.202047,5.565754,54.946825,-0.100967,0.008209,1.019257,0.129307,-0.022164,0.024203,58.839127,5.756454,-148.360184,,,
729863086.149442,1.241588,5.557041,54.947614,-0.100967,0.008209,1.019257,0.182135,-0.007828,-0.005838,58.839127,5.756454,-148.360184,,,
729863086.152776,1.291125,5.554179,54.942486,-0.074326,0.020508,1.038925,0.182135,-0.007828,-0.005838,58.839127,5.756454,-148.360184,,,
729863086.156099,1.291125,5.554179,54.942486,-0.074326,0.020508,1.038925,0.182135,-0.007828,-0.005838,58.839127,5.756454,-148.360184,,,
729863086.159495,1.344217,5.553986,54.931088,-0.074326,0.020508,1.038925,0.213241,0.012709,-0.036704,58.839127,5.756454,-148.360184,,,
729863086.162765,1.403748,5.556192,54.915659,-0.063843,0.004852,1.035812,0.213241,0.012709,-0.036704,58.839127,5.756454,-148.360184,,,
729863086.166111,1.403748,5.556192,54.915659,-0.063843,0.004852,1.035812,0.213241,0.012709,-0.036704,58.839127,5.756454,-148.360184,,,
729863086.16944,1.464601,5.561774,54.898996,-0.063843,0.004852,1.035812,0.225796,0.02346,-0.029155,58.839127,5.756454,-148.360184,,,
729863086.172767,1.52795,5.567716,54.884402,-0.094025,0.014648,1.01976,0.225796,0.02346,-0.029155,58.839127,5.756454,-148.360184,,,
729863086.176109,1.52795,5.567716,54.884402,-0.094025,0.014648,1.01976,0.225796,0.02346,-0.029155,58.607727,5.510956,-147.998779,,,
729863086.179453,1.590777,5.570712,54.874224,-0.094025,0.014648,1.01976,0.226393,-0.006381,0.005055,58.607727,5.510956,-147.998779,,,
729863086.182766,1.654641,5.569323,54.868635,-0.110962,0.017242,0.997131,0.226393,-0.006381,0.005055,58.607727,5.510956,-147.998779,,,
729863086.186158,1.654641,5.569323,54.868635,-0.110962,0.017242,0.997131,0.226393,-0.006381,0.005055,58.607727,5.510956,-147.998779,,,
729863086.189433,1.716884,5.562889,54.865667,-0.110962,0.017242,0.997131,0.203464,-0.039856,0.007059,58.607727,5.510956,-147.998779,,,
729863086.192772,1.77606,5.551744,54.862696,-0.108307,0.029388,0.976196,0.203464,-0.039856,0.007059,58.607727,5.510956,-147.998779,,,
729863086.196103,1.77606,5.551744,54.862696,-0.108307,0.029388,0.976196,0.203464,-0.039856,0.007059,58.607727,5.510956,-147.998779,,,
729863086.199463,1.827345,5.537444,54.858107,-0.108307,0.029388,0.976196,0.162545,-0.048927,-0.009564,58.607727,5.510956,-147.998779,,,
729863086.202766,1.875423,5.52269,54.85162,-0.08873,0.046005,0.961685,0.162545,-0.048927,-0.009564,58.607727,5.510956,-147.998779,,,
729863086.20615,1.875423,5.52269,54.85162,-0.08873,0.046005,0.961685,0.162545,-0.048927,-0.009564,58.607727,5.510956,-147.998779,,,
729863086.209469,1.913654,5.509178,54.843969,-0.08873,0.046005,0.961685,0.12789,-0.043856,-0.017665,58.607727,5.510956,-147.998779,,,
729863086.212783,1.950744,5.496001,54.83603,-0.089523,0.047241,0.965134,0.12789,-0.043856,-0.017665,58.607727,5.510956,-147.998779,,,
729863086.216144,1.950744,5.496001,54.83603,-0.089523,0.047241,0.965134,0.12789,-0.043856,-0.017665,58.576843,5.10025,-147.681091,,,
729863086.219541,1.979122,5.486593,54.82803,-0.089523,0.047241,0.965134,0.106774,-0.028451,-0.012573,58.576843,5.10025,-147.681091,,,
729863086.22277,2.010386,5.477855,54.821248,-0.099518,0.04454,0.977295,0.106774,-0.028451,-0.012573,58.576843,5.10025,-147.681091,,,
729863086.226132,2.010386,5.477855,54.821248,-0.099518,0.04454,0.977295,0.106774,-0.028451,-0.012573,58.576843,5.10025,-147.681091,,,
729863086.229447,2.038848,5.471209,54.816491,-0.099518,0.04454,0.977295,0.130893,-0.01519,0.003461,58.576843,5.10025,-147.681091,,,
729863086.232777,2.074811,5.465585,54.813811,-0.111816,0.033508,1.003891,0.130893,-0.01519,0.003461,58.576843,5.10025,-147.681091,,,
729863086.236185,2.074811,5.465585,54.813811,-0.111816,0.033508,1.003891,0.130893,-0.01519,0.003461,58.576843,5.10025,-147.681091,,,
729863086.239437,2.114502,5.453906,54.813641,-0.111816,0.033508,1.003891,0.174498,-0.007926,0.02518,58.576843,5.10025,-147.681091,,,
729863086.242769,2.163421,5.450365,54.815749,-0.11911,0.02597,1.029617,0.174498,-0.007926,0.02518,58.576843,5.10025,-147.681091,,,
729863086.246102,2.163421,5.450365,54.815749,-0.11911,0.02597,1.029617,0.174498,-0.007926,0.02518,58.576843,5.10025,-147.681091,,,
729863086.249541,2.214593,5.444293,54.819871,-0.11911,0.02597,1.029617,0.22453,0.010582,0.032663,58.576843,5.10025,-147.681091,,,
729863086.252716,2.277165,5.44615,54.823248,-0.111374,0.027847,1.042404,0.22453,0.010582,0.032663,58.576843,5.10025,-147.681091,,,
729863086.256121,2.277165,5.44615,54.823248,-0.111374,0.027847,1.042404,0.22453,0.010582,0.032663,58.576843,5.10025,-147.681091,,,
729863086.259448,2.342986,5.452477,54.825109,-0.111374,0.027847,1.042404,0.257004,0.039548,0.021964,58.59314,4.600739,-147.943085,,,
729863086.262774,2.415946,5.462158,54.825529,-0.095749,0.032852,1.037354,0.257004,0.039548,0.021964,58.59314,4.600739,-147.943085,,,
729863086.266109,2.415946,5.462158,54.825529,-0.095749,0.032852,1.037354,0.257004,0.039548,0.021964,58.59314,4.600739,-147.943085,,,
729863086.269447,2.488228,5.47806,54.82438,-0.095749,0.032852,1.037354,0.269298,0.05263,0.021321,58.59314,4.600739,-147.943085,,,
729863086.272768,2.565309,5.492285,54.82325,-0.100327,0.036301,1.022812,0.269298,0.05263,0.021321,58.59314,4.600739,-147.943085,,,
729863086.276148,2.565309,5.492285,54.82325,-0.100327,0.036301,1.022812,0.269298,0.05263,0.021321,58.59314,4.600739,-147.943085,,,
729863086.279446,2.643849,5.507167,54.823445,-0.100327,0.036301,1.022812,0.289116,0.036112,0.035114,58.59314,4.600739,-147.943085,,,
729863086.282771,2.726453,5.51741,54.825307,-0.113007,0.039032,1.013184,0.289116,0.036112,0.035114,58.59314,4.600739,-147.943085,,,
729863086.286108,2.726453,5.51741,54.825307,-0.113007,0.039032,1.013184,0.289116,0.036112,0.035114,58.59314,4.600739,-147.943085,,,
729863086.289445,2.812372,5.520655,54.829205,-0.113007,0.039032,1.013184,0.306009,-0.014042,0.044501,58.59314,4.600739,-147.943085,,,
729863086.292668,2.900496,5.518086,54.83424,-0.112015,0.038422,1.003555,0.306009,-0.014042,0.044501,58.59314,4.600739,-147.943085,,,
729863086.29612,2.900496,5.518086,54.83424,-0.112015,0.038422,1.003555,0.306009,-0.014042,0.044501,58.59314,4.600739,-147.943085,,,
729863086.299511,2.988162,5.509436,54.838492,-0.112015,0.038422,1.003555,0.293155,-0.044132,0.035007,58.450165,4.44989,-147.704666,,,
729863086.302784,3.072996,5.497256,54.841225,-0.101669,0.052475,0.986267,0.293155,-0.044132,0.035007,58.450165,4.44989,-147.704666,,,
729863086.306118,3.072996,5.497256,54.841225,-0.101669,0.052475,0.986267,0.293155,-0.044132,0.035007,58.450165,4.44989,-147.704666,,,
729863086.309444,3.151289,5.486122,54.842441,-0.101669,0.052475,0.986267,0.253836,-0.028782,0.02656,58.450165,4.44989,-147.704666,,,
729863086.312781,3.226018,5.476351,54.843533,-0.094055,0.059586,0.982498,0.253836,-0.028782,0.02656,58.450165,4.44989,-147.704666,,,
729863086.316107,3.226018,5.476351,54.843533,-0.094055,0.059586,0.982498,0.253836,-0.028782,0.02656,58.450165,4.44989,-147.704666,,,
729863086.319454,3.291754,5.474145,54.845328,-0.094055,0.059586,0.982498,0.212872,-0.005349,0.03252,58.450165,4.44989,-147.704666,,,
729863086.322777,3.354888,5.470975,54.848226,-0.095932,0.061737,0.978821,0.212872,-0.005349,0.03252,58.450165,4.44989,-147.704666,,,
729863086.32619,3.354888,5.470975,54.848226,-0.095932,0.061737,0.978821,0.212872,-0.005349,0.03252,58.450165,4.44989,-147.704666,,,
729863086.329469,3.407636,5.472088,54.851453,-0.095932,0.061737,0.978821,0.185017,-0.00847,0.027266,58.450165,4.44989,-147.704666,,,
729863086.332773,3.462373,5.469131,54.854502,-0.091095,0.066711,0.974609,0.185017,-0.00847,0.027266,58.450165,4.44989,-147.704666,,,
729863086.336121,3.462373,5.469131,54.854502,-0.091095,0.066711,0.974609,0.185017,-0.00847,0.027266,58.450165,4.44989,-147.704666,,,
729863086.339468,3.511817,5.467161,54.856358,-0.091095,0.066711,0.974609,0.191173,-0.007709,0.015508,58.506241,3.695648,-147.081665,,,
729863086.342827,3.566864,5.464493,54.856835,-0.093277,0.067062,0.996872,0.191173,-0.007709,0.015508,58.506241,3.695648,-147.081665,,,
729863086.346135,3.566864,5.464493,54.856835,-0.093277,0.067062,0.996872,0.191173,-0.007709,0.015508,58.506241,3.695648,-147.081665,,,
729863086.349543,3.619268,5.462144,54.856536,-0.093277,0.067062,0.996872,0.21178,0.007089,0.022348,58.506241,3.695648,-147.081665,,,
729863086.352806,3.679209,5.462763,54.856876,-0.09848,0.061935,1.014633,0.21178,0.007089,0.022348,58.506241,3.695648,-147.081665,,,
729863086.356209,3.679209,5.462763,54.856876,-0.09848,0.061935,1.014633,0.21178,0.007089,0.022348,58.506241,3.695648,-147.081665,,,
729863086.359457,3.738406,5.467427,54.859333,-0.09848,0.061935,1.014633,0.23701,0.024027,0.041521,58.506241,3.695648,-147.081665,,,
729863086.362783,3.805761,5.473253,54.864602,-0.099991,0.060577,1.018433,0.23701,0.024027,0.041521,58.506241,3.695648,-147.081665,,,
729863086.366106,3.805761,5.473253,54.864602,-0.099991,0.060577,1.018433,0.23701,0.024027,0.041521,58.506241,3.695648,-147.081665,,,
729863086.369455,3.872902,5.485001,54.871757,-0.099991,0.060577,1.018433,0.274064,0.028619,0.062296,58.506241,3.695648,-147.081665,,,
729863086.372778,3.951089,5.492369,54.88119,-0.109772,0.057404,1.021881,0.274064,0.028619,0.062296,58.506241,3.695648,-147.081665,,,
729863086.376192,3.951089,5.492369,54.88119,-0.109772,0.057404,1.021881,0.274064,0.028619,0.062296,58.506241,3.695648,-147.081665,,,
729863086.379526,4.02953,5.50134,54.89195,-0.109772,0.057404,1.021881,0.30018,0.014369,0.062044,58.408829,3.234253,-146.543625,,,
729863086.382769,4.11604,5.504582,54.902701,-0.105789,0.063477,1.013992,0.30018,0.014369,0.062044,58.408829,3.234253,-146.543625,,,
729863086.38613,4.11604,5.504582,54.902701,-0.105789,0.063477,1.013992,0.30018,0.014369,0.062044,58.408829,3.234253,-146.543625,,,
729863086.389461,4.203129,5.505499,54.9118,-0.105789,0.063477,1.013992,0.32079,-0.001784,0.049177,58.408829,3.234253,-146.543625,,,
729863086.392774,4.295048,5.504031,54.918867,-0.08757,0.070999,1.005875,0.32079,-0.001784,0.049177,58.408829,3.234253,-146.543625,,,
729863086.396112,4.295048,5.504031,54.918867,-0.08757,0.070999,1.005875,0.32079,-0.001784,0.049177,58.408829,3.234253,-146.543625,,,
729863086.399453,4.387274,5.502396,54.923087,-0.08757,0.070999,1.005875,0.322505,-0.001995,0.033786,58.408829,3.234253,-146.543625,,,
729863086.402769,4.480825,5.50114,54.924848,-0.075928,0.075012,1.000626,0.322505,-0.001995,0.033786,58.408829,3.234253,-146.543625,,,
729863086.406107,4.480825,5.50114,54.924848,-0.075928,0.075012,1.000626,0.322505,-0.001995,0.033786,58.408829,3.234253,-146.543625,,,
729863086.40946,4.568701,5.499833,54.924538,-0.075928,0.075012,1.000626,0.298248,-0.006833,0.019555,58.408829,3.234253,-146.543625,,,
729863086.412765,4.655433,5.497519,54.922475,-0.073517,0.085556,0.977371,0.298248,-0.006833,0.019555,58.408829,3.234253,-146.543625,,,
729863086.416196,4.655433,5.497519,54.922475,-0.073517,0.085556,0.977371,0.298248,-0.006833,0.019555,58.408829,3.234253,-146.543625,,,
729863086.419456,4.739345,5.494409,54.919008,-0.073517,0.085556,0.977371,0.290265,-0.013259,0.010416,58.408829,3.234253,-146.543625,,,
729863086.422778,4.822458,5.489933,54.914308,-0.079254,0.085587,0.982269,0.290265,-0.013259,0.010416,58.17981,2.62056,-146.022018,,,
729863086.42611,4.822458,5.489933,54.914308,-0.079254,0.085587,0.982269,0.290265,-0.013259,0.010416,58.17981,2.62056,-146.022018,,,
729863086.429508,4.906255,5.484615,54.908678,-0.079254,0.085587,0.982269,0.297775,-0.024179,0.007574,58.17981,2.62056,-146.022018,,,
729863086.432768,4.991213,5.477855,54.902829,-0.0858,0.082016,0.99971,0.297775,-0.024179,0.007574,58.17981,2.62056,-146.022018,,,
729863086.436114,4.991213,5.477855,54.902829,-0.0858,0.082016,0.99971,0.297775,-0.024179,0.007574,58.17981,2.62056,-146.022018,,,
729863086.439454,5.07702,5.470296,54.897935,-0.0858,0.082016,0.99971,0.300096,-0.026309,0.017706,58.17981,2.62056,-146.022018,,,
729863086.442772,5.162787,5.462895,54.895208,-0.095245,0.080917,0.998611,0.300096,-0.026309,0.017706,58.17981,2.62056,-146.022018,,,
729863086.446127,5.162787,5.462895,54.895208,-0.095245,0.080917,0.998611,0.300096,-0.026309,0.017706,58.17981,2.62056,-146.022018,,,
729863086.449453,5.248835,5.456514,54.895398,-0.095245,0.080917,0.998611,0.300529,-0.016466,0.043526,58.17981,2.62056,-146.022018,,,
729863086.452779,5.33559,5.449993,54.898951,-0.104874,0.08551,0.994598,0.300529,-0.016466,0.043526,58.17981,2.62056,-146.022018,,,
729863086.456177,5.33559,5.449993,54.898951,-0.104874,0.08551,0.994598,0.300529,-0.016466,0.043526,58.17981,2.62056,-146.022018,,,
729863086.459447,5.422072,5.443295,54.904797,-0.104874,0.08551,0.994598,0.296896,-0.019822,0.050916,58.17981,2.62056,-146.022018,,,
729863086.462776,5.508388,5.435947,54.911222,-0.100235,0.095123,0.985703,0.296896,-0.019822,0.050916,58.2117,1.964508,-145.847336,,,
729863086.466121,5.508388,5.435947,54.911222,-0.100235,0.095123,0.985703,0.296896,-0.019822,0.050916,58.2117,1.964508,-145.847336,,,
729863086.469507,5.596549,5.427726,54.917119,-0.100235,0.095123,0.985703,0.321414,-0.03297,0.043828,58.2117,1.964508,-145.847336,,,
729863086.472768,5.687934,5.417693,54.921226,-0.088654,0.098343,0.997406,0.321414,-0.03297,0.043828,58.2117,1.964508,-145.847336,,,
