Time (sec),Pitch (deg),Roll (deg),Yaw(deg),X-Acceleration (g),Y-Acceleration (g),Z-Acceleration (g),Pitch Rate (deg/sec),Roll Rate (deg/sec),Yaw Rate (deg/sec),Magnetic Field in X direction (uT),Magnetic Field in Y direction (uT),Magnetic Field in Z Direction (uT),Latitude (deg),Longitude (deg),Altitude (m)
729861464.532868,1.013711,1.502962,125.961348,-0.01947,0.013565,0.993195,0.016093,0.006004,-0.002315,66.309464,33.106415,-146.49144,,,
729861464.536193,1.013711,1.502962,125.961348,-0.01947,0.013565,0.993195,0.016093,0.006004,-0.002315,66.309464,33.106415,-146.49144,,,
729861464.539485,1.019822,1.503054,125.96058,-0.01947,0.013565,0.993195,0.016093,0.006004,-0.002315,66.309464,33.106415,-146.49144,,,
729861464.542889,1.027577,1.499316,125.958517,-0.01387,0.01564,0.99498,0.025361,-0.00045,-0.006547,66.309464,33.106415,-146.49144,,,
729861464.546212,1.027577,1.499316,125.958517,-0.01387,0.01564,0.99498,0.025361,-0.00045,-0.006547,66.309464,33.106415,-146.49144,,,
729861464.549616,1.033968,1.498199,125.95417,-0.01387,0.01564,0.99498,0.025361,-0.00045,-0.006547,66.309464,33.106415,-146.49144,,,
729861464.552857,1.040669,1.494095,125.947609,-0.007339,0.022156,0.995697,0.023841,-0.003673,-0.022808,66.309464,33.106415,-146.49144,,,
729861464.556193,1.040669,1.494095,125.947609,-0.007339,0.022156,0.995697,0.023841,-0.003673,-0.022808,66.309464,33.106415,-146.49144,,,
729861464.559532,1.045469,1.4958,125.938772,-0.007339,0.022156,0.995697,0.023841,-0.003673,-0.022808,66.309464,33.106415,-146.49144,,,
729861464.562866,1.049432,1.494394,125.928011,-0.005447,0.024338,0.991013,0.013936,0.013885,-0.038455,66.309464,33.106415,-146.49144,,,
729861464.566209,1.049432,1.494394,125.928011,-0.005447,0.024338,0.991013,0.013936,0.013885,-0.038455,66.309464,33.106415,-146.49144,,,
729861464.569531,1.05158,1.501218,125.916262,-0.005447,0.024338,0.991013,0.013936,0.013885,-0.038455,66.309464,33.106415,-146.49144,,,
729861464.572873,1.052833,1.505211,125.904884,-0.010559,0.024399,0.987595,0.003382,0.033991,-0.043476,66.288971,33.12178,-146.439087,,,
729861464.576188,1.052833,1.505211,125.904884,-0.010559,0.024399,0.987595,0.003382,0.033991,-0.043476,66.288971,33.12178,-146.439087,,,
729861464.579544,1.050194,1.519033,125.894277,-0.010559,0.024399,0.987595,0.003382,0.033991,-0.043476,66.288971,33.12178,-146.439087,,,
729861464.582867,1.045927,1.531623,125.885512,-0.02002,0.0215,0.982147,-0.009854,0.060574,-0.032029,66.288971,33.12178,-146.439087,,,
729861464.586191,1.045927,1.531623,125.885512,-0.02002,0.0215,0.982147,-0.009854,0.060574,-0.032029,66.288971,33.12178,-146.439087,,,
729861464.589605,1.040297,1.552239,125.87847,-0.02002,0.0215,0.982147,-0.009854,0.060574,-0.032029,66.288971,33.12178,-146.439087,,,
729861464.592851,1.032998,1.571337,125.873354,-0.031693,0.018921,0.982727,-0.023424,0.078114,-0.020291,66.288971,33.12178,-146.439087,,,
729861464.596211,1.032998,1.571337,125.873354,-0.031693,0.018921,0.982727,-0.023424,0.078114,-0.020291,66.288971,33.12178,-146.439087,,,
729861464.599533,1.025211,1.593423,125.869965,-0.031693,0.018921,0.982727,-0.023424,0.078114,-0.020291,66.288971,33.12178,-146.439087,,,
729861464.60286,1.014697,1.611243,125.866591,-0.035049,0.019409,0.982925,-0.027992,0.07549,-0.014197,66.288971,33.12178,-146.439087,,,
729861464.606186,1.014697,1.611243,125.866591,-0.035049,0.019409,0.982925,-0.027992,0.07549,-0.014197,66.288971,33.12178,-146.439087,,,
729861464.609532,1.004643,1.628023,125.862835,-0.035049,0.019409,0.982925,-0.027992,0.07549,-0.014197,66.288971,33.12178,-146.439087,,,
729861464.612859,0.994076,1.637548,125.859395,-0.03833,0.021576,0.981247,-0.035308,0.048781,-0.015815,66.632507,32.904709,-146.529449,,,
729861464.616274,0.994076,1.637548,125.859395,-0.03833,0.021576,0.981247,-0.035308,0.048781,-0.015815,66.632507,32.904709,-146.529449,,,
729861464.619515,0.984779,1.643625,125.855853,-0.03833,0.021576,0.981247,-0.035308,0.048781,-0.015815,66.632507,32.904709,-146.529449,,,
729861464.622861,0.976065,1.638336,125.852156,-0.042557,0.022171,0.98204,-0.029913,0.007666,-0.015322,66.632507,32.904709,-146.529449,,,
729861464.62625,0.976065,1.638336,125.852156,-0.042557,0.022171,0.98204,-0.029913,0.007666,-0.015322,66.632507,32.904709,-146.529449,,,
729861464.629608,0.967495,1.632454,125.848343,-0.042557,0.022171,0.98204,-0.029913,0.007666,-0.015322,66.632507,32.904709,-146.529449,,,
729861464.632858,0.960692,1.616285,125.844445,-0.043655,0.018555,0.984451,-0.028064,-0.030215,-0.014291,66.632507,32.904709,-146.529449,,,
729861464.636194,0.960692,1.616285,125.844445,-0.043655,0.018555,0.984451,-0.028064,-0.030215,-0.014291,66.632507,32.904709,-146.529449,,,
729861464.639552,0.952506,1.60337,125.840371,-0.043655,0.018555,0.984451,-0.028064,-0.030215,-0.014291,66.632507,32.904709,-146.529449,,,
729861464.64286,0.947032,1.582357,125.837022,-0.043076,0.018875,0.990768,-0.028106,-0.049987,-0.01466,66.632507,32.904709,-146.529449,,,
729861464.646208,0.947032,1.582357,125.837022,-0.043076,0.018875,0.990768,-0.028106,-0.049987,-0.01466,66.632507,32.904709,-146.529449,,,
729861464.649541,0.940456,1.566967,125.833886,-0.043076,0.018875,0.990768,-0.028106,-0.049987,-0.01466,66.632507,32.904709,-146.529449,,,
729861464.652865,0.937254,1.548554,125.83106,-0.039017,0.017502,0.996826,-0.017051,-0.050194,-0.01269,66.403351,33.095566,-146.319992,,,
729861464.656188,0.937254,1.548554,125.83106,-0.039017,0.017502,0.996826,-0.017051,-0.050194,-0.01269,66.403351,33.095566,-146.319992,,,
729861464.659552,0.934,1.537583,125.828759,-0.039017,0.017502,0.996826,-0.017051,-0.050194,-0.01269,66.403351,33.095566,-146.319992,,,
729861464.662863,0.934261,1.5307,125.827333,-0.035675,0.014572,1.004654,-0.005596,-0.024537,-0.005882,66.403351,33.095566,-146.319992,,,
729861464.666192,0.934261,1.5307,125.827333,-0.035675,0.014572,1.004654,-0.005596,-0.024537,-0.005882,66.403351,33.095566,-146.319992,,,
729861464.669532,0.936228,1.529396,125.827549,-0.035675,0.014572,1.004654,-0.005596,-0.024537,-0.005882,66.403351,33.095566,-146.319992,,,
729861464.672873,0.940566,1.535731,125.829326,-0.034073,0.013306,1.017029,0.01202,0.014321,0.002935,66.403351,33.095566,-146.319992,,,
729861464.676193,0.940566,1.535731,125.829326,-0.034073,0.013306,1.017029,0.01202,0.014321,0.002935,66.403351,33.095566,-146.319992,,,
729861464.6796,0.944929,1.545145,125.832823,-0.034073,0.013306,1.017029,0.01202,0.014321,0.002935,66.403351,33.095566,-146.319992,,,
729861464.68286,0.949555,1.561212,125.838172,-0.032852,0.012024,1.016739,0.01246,0.047065,0.014334,66.403351,33.095566,-146.319992,,,
729861464.686194,0.949555,1.561212,125.838172,-0.032852,0.012024,1.016739,0.01246,0.047065,0.014334,66.403351,33.095566,-146.319992,,,
729861464.689544,0.951696,1.57549,125.844673,-0.032852,0.012024,1.016739,0.01246,0.047065,0.014334,66.403351,33.095566,-146.319992,,,
729861464.692932,0.953534,1.593848,125.851698,-0.035492,0.016327,1.003998,0.00342,0.054463,0.020834,66.402985,32.93692,-146.417618,,,
729861464.696192,0.953534,1.593848,125.851698,-0.035492,0.016327,1.003998,0.00342,0.054463,0.020834,66.402985,32.93692,-146.417618,,,
729861464.699532,0.951554,1.606094,125.859109,-0.035492,0.016327,1.003998,0.00342,0.054463,0.020834,66.402985,32.93692,-146.417618,,,
729861464.70286,0.949428,1.619756,125.866048,-0.034607,0.019943,0.991135,-0.010958,0.03722,0.025755,66.402985,32.93692,-146.417618,,,
729861464.706234,0.949428,1.619756,125.866048,-0.034607,0.019943,0.991135,-0.010958,0.03722,0.025755,66.402985,32.93692,-146.417618,,,
729861464.709551,0.945027,1.624135,125.87242,-0.034607,0.019943,0.991135,-0.010958,0.03722,0.025755,66.402985,32.93692,-146.417618,,,
729861464.712857,0.940794,1.629128,125.877546,-0.030609,0.023193,0.987015,-0.016733,0.008861,0.015912,66.402985,32.93692,-146.417618,,,
729861464.71627,0.940794,1.629128,125.877546,-0.030609,0.023193,0.987015,-0.016733,0.008861,0.015912,66.402985,32.93692,-146.417618,,,
729861464.719528,0.936408,1.624441,125.880737,-0.030609,0.023193,0.987015,-0.016733,0.008861,0.015912,66.402985,32.93692,-146.417618,,,
729861464.722908,0.933182,1.620127,125.882365,-0.023315,0.024719,0.99144,-0.013337,-0.024831,0.00557,66.402985,32.93692,-146.417618,,,
729861464.72623,0.933182,1.620127,125.882365,-0.023315,0.024719,0.99144,-0.013337,-0.024831,0.00557,66.402985,32.93692,-146.417618,,,
729861464.72963,0.930145,1.609081,125.883202,-0.023315,0.024719,0.99144,-0.013337,-0.024831,0.00557,66.402985,32.93692,-146.417618,,,
729861464.732863,0.927082,1.601079,125.883071,-0.016449,0.023346,0.995911,-0.009701,-0.040785,0.000223,66.402985,32.93692,-146.417618,,,
729861464.736022,0.927082,1.601079,125.883071,-0.016449,0.023346,0.995911,-0.009701,-0.040785,0.000223,66.560349,33.022354,-146.371429,,,
729861464.739621,0.924154,1.591897,125.882271,-0.016449,0.023346,0.995911,-0.009701,-0.040785,0.000223,66.560349,33.022354,-146.371429,,,
729861464.742876,0.921532,1.588202,125.88184,-0.016678,0.020569,1.002594,-0.006273,-0.024836,-0.005376,66.560349,33.022354,-146.371429,,,
729861464.746165,0.921532,1.588202,125.88184,-0.016678,0.020569,1.002594,-0.006273,-0.024836,-0.005376,66.560349,33.022354,-146.371429,,,
729861464.749583,0.919822,1.586378,125.882712,-0.016678,0.020569,1.002594,-0.006273,-0.024836,-0.005376,66.560349,33.022354,-146.371429,,,
729861464.752937,0.916873,1.589383,125.884651,-0.019989,0.017319,1.008087,-0.007963,0.00536,0.004244,66.560349,33.022354,-146.371429,,,
729861464.756303,0.916873,1.589383,125.884651,-0.019989,0.017319,1.008087,-0.007963,0.00536,0.004244,66.560349,33.022354,-146.371429,,,
729861464.759546,0.914534,1.592578,125.887272,-0.019989,0.017319,1.008087,-0.007963,0.00536,0.004244,66.560349,33.022354,-146.371429,,,
729861464.76287,0.910556,1.599764,125.890149,-0.022812,0.016251,1.008911,-0.010335,0.019645,0.00837,66.560349,33.022354,-146.371429,,,
729861464.766188,0.910556,1.599764,125.890149,-0.022812,0.016251,1.008911,-0.010335,0.019645,0.00837,66.560349,33.022354,-146.371429,,,
729861464.769539,0.906736,1.607661,125.892296,-0.022812,0.016251,1.008911,-0.010335,0.019645,0.00837,66.560349,33.022354,-146.371429,,,
729861464.772864,0.90445,1.620841,125.892857,-0.017212,0.018829,1.005585,-0.010717,0.035178,0.001815,66.560349,33.022354,-146.371429,,,
729861464.776192,0.90445,1.620841,125.892857,-0.017212,0.018829,1.005585,-0.010717,0.035178,0.001815,66.355453,33.071167,-146.499359,,,
729861464.779536,0.90326,1.633811,125.891671,-0.017212,0.018829,1.005585,-0.010717,0.035178,0.001815,66.355453,33.071167,-146.499359,,,
729861464.782856,0.904496,1.650064,125.889309,-0.015091,0.023285,1.009537,-0.002811,0.05129,-0.008172,66.355453,33.071167,-146.499359,,,
729861464.786195,0.904496,1.650064,125.889309,-0.015091,0.023285,1.009537,-0.002811,0.05129,-0.008172,66.355453,33.071167,-146.499359,,,
729861464.789527,0.905339,1.665063,125.887127,-0.015091,0.023285,1.009537,-0.002811,0.05129,-0.008172,66.355453,33.071167,-146.499359,,,
729861464.792867,0.908886,1.678979,125.885185,-0.021423,0.018723,1.005722,0.005589,0.053932,-0.008827,66.355453,33.071167,-146.499359,,,
729861464.796284,0.908886,1.678979,125.885185,-0.021423,0.018723,1.005722,0.005589,0.053932,-0.008827,66.355453,33.071167,-146.499359,,,
729861464.799541,0.909529,1.691624,125.883726,-0.021423,0.018723,1.005722,0.005589,0.053932,-0.008827,66.355453,33.071167,-146.499359,,,
729861464.802869,0.910679,1.6993,125.88309,-0.030624,0.016632,0.997208,0.000217,0.040171,-0.00531,66.355453,33.071167,-146.499359,,,
729861464.806192,0.910679,1.6993,125.88309,-0.030624,0.016632,0.997208,0.000217,0.040171,-0.00531,66.355453,33.071167,-146.499359,,,
729861464.809601,0.908339,1.707026,125.883015,-0.030624,0.016632,0.997208,0.000217,0.040171,-0.00531,66.355453,33.071167,-146.499359,,,
729861464.812859,0.906122,1.706796,125.884085,-0.037979,0.015427,0.986526,-0.010613,0.01924,0.002123,66.355453,33.071167,-146.499359,,,
729861464.816192,0.906122,1.706796,125.884085,-0.037979,0.015427,0.986526,-0.010613,0.01924,0.002123,66.483994,33.20462,-146.505325,,,
729861464.819524,0.900234,1.707469,125.886094,-0.037979,0.015427,0.986526,-0.010613,0.01924,0.002123,66.483994,33.20462,-146.505325,,,
729861464.822862,0.893369,1.700505,125.889216,-0.043701,0.013336,0.979446,-0.029055,-0.004605,0.008715,66.483994,33.20462,-146.505325,,,
729861464.82621,0.893369,1.700505,125.889216,-0.043701,0.013336,0.979446,-0.029055,-0.004605,0.008715,66.483994,33.20462,-146.505325,,,
729861464.82953,0.884188,1.694251,125.893617,-0.043701,0.013336,0.979446,-0.029055,-0.004605,0.008715,66.483994,33.20462,-146.505325,,,
729861464.832861,0.874983,1.683754,125.899106,-0.045807,0.010208,0.981354,-0.031352,-0.025725,0.01616,66.483994,33.20462,-146.505325,,,
729861464.83619,0.874983,1.683754,125.899106,-0.045807,0.010208,0.981354,-0.031352,-0.025725,0.01616,66.483994,33.20462,-146.505325,,,
729861464.839525,0.86808,1.675197,125.905129,-0.045807,0.010208,0.981354,-0.031352,-0.025725,0.01616,66.483994,33.20462,-146.505325,,,
729861464.84286,0.865428,1.664656,125.911685,-0.045288,0.008224,0.996948,-0.013661,-0.025995,0.023071,66.483994,33.20462,-146.505325,,,
729861464.846207,0.865428,1.664656,125.911685,-0.045288,0.008224,0.996948,-0.013661,-0.025995,0.023071,66.483994,33.20462,-146.505325,,,
729861464.849615,0.865703,1.658467,125.918278,-0.045288,0.008224,0.996948,-0.013661,-0.025995,0.023071,66.483994,33.20462,-146.505325,,,
729861464.852849,0.870778,1.650821,125.924657,-0.039536,0.00592,1.012604,0.011592,-0.011967,0.020058,66.483994,33.20462,-146.505325,,,
729861464.856224,0.870778,1.650821,125.924657,-0.039536,0.00592,1.012604,0.011592,-0.011967,0.020058,66.483994,33.20462,-146.505325,,,
729861464.859536,0.877615,1.649227,125.930764,-0.039536,0.00592,1.012604,0.011592,-0.011967,0.020058,66.551437,33.27565,-146.33609,,,
729861464.862863,0.887378,1.644536,125.936806,-0.036469,0.007812,1.016876,0.024589,0.003289,0.021507,66.551437,33.27565,-146.33609,,,
729861464.8662,0.887378,1.644536,125.936806,-0.036469,0.007812,1.016876,0.024589,0.003289,0.021507,66.551437,33.27565,-146.33609,,,
729861464.869529,0.895345,1.644829,125.942588,-0.036469,0.007812,1.016876,0.024589,0.003289,0.021507,66.551437,33.27565,-146.33609,,,
729861464.872875,0.902649,1.64476,125.947909,-0.036148,0.009781,1.007919,0.028114,0.005206,0.017732,66.551437,33.27565,-146.33609,,,
729861464.876214,0.902649,1.64476,125.947909,-0.036148,0.009781,1.007919,0.028114,0.005206,0.017732,66.551437,33.27565,-146.33609,,,
729861464.879524,0.907847,1.646588,125.952483,-0.036148,0.009781,1.007919,0.028114,0.005206,0.017732,66.551437,33.27565,-146.33609,,,
729861464.882889,0.911716,1.650129,125.956182,-0.034668,0.015182,0.996262,0.017038,0.0082,0.011691,66.551437,33.27565,-146.33609,,,
729861464.886224,0.911716,1.650129,125.956182,-0.034668,0.015182,0.996262,0.017038,0.0082,0.011691,66.551437,33.27565,-146.33609,,,
729861464.889577,0.913808,1.652101,125.95948,-0.034668,0.015182,0.996262,0.017038,0.0082,0.011691,66.551437,33.27565,-146.33609,,,
729861464.89288,0.913249,1.6571,125.962088,-0.033798,0.015915,0.989456,0.00261,0.008877,0.00861,66.551437,33.27565,-146.33609,,,
729861464.896216,0.913249,1.6571,125.962088,-0.033798,0.015915,0.989456,0.00261,0.008877,0.00861,66.551437,33.27565,-146.33609,,,
729861464.899563,0.910034,1.657303,125.964087,-0.033798,0.015915,0.989456,0.00261,0.008877,0.00861,66.649475,33.213364,-146.22966,,,
729861464.902893,0.90292,1.662402,125.966462,-0.03389,0.016998,0.985657,-0.020006,0.002093,0.006074,66.649475,33.213364,-146.22966,,,
729861464.906209,0.90292,1.662402,125.966462,-0.03389,0.016998,0.985657,-0.020006,0.002093,0.006074,66.649475,33.213364,-146.22966,,,
729861464.909569,0.89558,1.662354,125.969769,-0.03389,0.016998,0.985657,-0.020006,0.002093,0.006074,66.649475,33.213364,-146.22966,,,
729861464.912887,0.886684,1.667722,125.974368,-0.037811,0.014832,0.98703,-0.025387,0.002826,0.013562,66.649475,33.213364,-146.22966,,,
729861464.916208,0.886684,1.667722,125.974368,-0.037811,0.014832,0.98703,-0.025387,0.002826,0.013562,66.649475,33.213364,-146.22966,,,
729861464.919536,0.881107,1.667762,125.98103,-0.037811,0.014832,0.98703,-0.025387,0.002826,0.013562,66.649475,33.213364,-146.22966,,,
729861464.922802,0.875934,1.672288,125.988681,-0.038956,0.007965,0.997925,-0.012715,0.003005,0.026855,66.649475,33.213364,-146.22966,,,
729861464.926268,0.875934,1.672288,125.988681,-0.038956,0.007965,0.997925,-0.012715,0.003005,0.026855,66.649475,33.213364,-146.22966,,,
729861464.929535,0.875507,1.671844,125.997192,-0.038956,0.007965,0.997925,-0.012715,0.003005,0.026855,66.649475,33.213364,-146.22966,,,
729861464.932871,0.875266,1.673387,126.006373,-0.038132,0.00415,1.003494,0.00442,0.000859,0.029583,66.649475,33.213364,-146.22966,,,
729861464.936193,0.875266,1.673387,126.006373,-0.038132,0.00415,1.003494,0.00442,0.000859,0.029583,66.649475,33.213364,-146.22966,,,
729861464.93957,0.878749,1.672136,126.015723,-0.038132,0.00415,1.003494,0.00442,0.000859,0.029583,66.626175,33.11792,-145.951828,,,
729861464.942859,0.882375,1.671799,126.024829,-0.032715,0.005447,1.003845,0.016919,-0.003722,0.030614,66.626175,33.11792,-145.951828,,,
729861464.946207,0.882375,1.671799,126.024829,-0.032715,0.005447,1.003845,0.016919,-0.003722,0.030614,66.626175,33.11792,-145.951828,,,
729861464.949599,0.888893,1.668023,126.033551,-0.032715,0.005447,1.003845,0.016919,-0.003722,0.030614,66.626175,33.11792,-145.951828,,,
729861464.952857,0.895472,1.66505,126.041191,-0.029633,0.006851,0.998703,0.023755,-0.012616,0.026549,66.626175,33.11792,-145.951828,,,
729861464.956244,0.895472,1.66505,126.041191,-0.029633,0.006851,0.998703,0.023755,-0.012616,0.026549,66.626175,33.11792,-145.951828,,,
729861464.959533,0.902805,1.659743,126.04724,-0.029633,0.006851,0.998703,0.023755,-0.012616,0.026549,66.626175,33.11792,-145.951828,,,
729861464.962864,0.909167,1.656941,126.052095,-0.022491,0.010574,0.993744,0.023141,-0.013643,0.017134,66.626175,33.11792,-145.951828,,,
729861464.966209,0.909167,1.656941,126.052095,-0.022491,0.010574,0.993744,0.023141,-0.013643,0.017134,66.626175,33.11792,-145.951828,,,
729861464.969596,0.913781,1.653687,126.05559,-0.022491,0.010574,0.993744,0.023141,-0.013643,0.017134,66.626175,33.11792,-145.951828,,,
729861464.972862,0.916721,1.65464,126.057464,-0.014664,0.015381,0.99144,0.011376,-0.002827,0.00611,66.626175,33.11792,-145.951828,,,
729861464.976017,0.916721,1.65464,126.057464,-0.014664,0.015381,0.99144,0.011376,-0.002827,0.00611,66.626175,33.11792,-145.951828,,,
729861464.979559,0.918845,1.656257,126.05878,-0.014664,0.015381,0.99144,0.011376,-0.002827,0.00611,66.452484,33.02124,-146.154282,,,
729861464.98286,0.921179,1.662346,126.059944,-0.01358,0.016022,0.992508,0.005835,0.014092,0.001091,66.452484,33.02124,-146.154282,,,
729861464.986195,0.921179,1.662346,126.059944,-0.01358,0.016022,0.992508,0.005835,0.014092,0.001091,66.452484,33.02124,-146.154282,,,
729861464.989599,0.923316,1.668871,126.061229,-0.01358,0.016022,0.992508,0.005835,0.014092,0.001091,66.452484,33.02124,-146.154282,,,
729861464.992859,0.924763,1.680717,126.062811,-0.016983,0.014465,1.000458,0.008573,0.029448,0.004846,66.452484,33.02124,-146.154282,,,
729861464.996208,0.924763,1.680717,126.062811,-0.016983,0.014465,1.000458,0.008573,0.029448,0.004846,66.452484,33.02124,-146.154282,,,
729861464.999549,0.927065,1.691182,126.064638,-0.016983,0.014465,1.000458,0.008573,0.029448,0.004846,66.452484,33.02124,-146.154282,,,
729861465.002906,0.925702,1.705654,126.066241,-0.020157,0.013748,1.001129,0.006995,0.04147,0.004894,66.452484,33.02124,-146.154282,,,
729861465.006206,0.925702,1.705654,126.066241,-0.020157,0.013748,1.001129,0.006995,0.04147,0.004894,66.452484,33.02124,-146.154282,,,
729861465.009563,0.924697,1.7164,126.067496,-0.020157,0.013748,1.001129,0.006995,0.04147,0.004894,66.452484,33.02124,-146.154282,,,
729861465.012865,0.918993,1.727808,126.067781,-0.021027,0.015701,0.993774,-0.007489,0.038097,9.3e-05,66.452484,33.02124,-146.154282,,,
729861465.016195,0.918993,1.727808,126.067781,-0.021027,0.015701,0.993774,-0.007489,0.038097,9.3e-05,66.452484,33.02124,-146.154282,,,
729861465.019528,0.915134,1.734793,126.066653,-0.021027,0.015701,0.993774,-0.007489,0.038097,9.3e-05,66.452484,33.02124,-146.154282,,,
729861465.022864,0.907935,1.739102,126.064489,-0.021713,0.017593,0.98526,-0.014496,0.021512,-0.00893,66.643982,33.134644,-145.970474,,,
729861465.026215,0.907935,1.739102,126.064489,-0.021713,0.017593,0.98526,-0.014496,0.021512,-0.00893,66.643982,33.134644,-145.970474,,,
729861465.029633,0.903191,1.740956,126.061642,-0.021713,0.017593,0.98526,-0.014496,0.021512,-0.00893,66.643982,33.134644,-145.970474,,,
729861465.032864,0.896749,1.739667,126.058527,-0.021988,0.015045,0.984329,-0.015136,0.002313,-0.012434,66.643982,33.134644,-145.970474,,,
729861465.036202,0.896749,1.739667,126.058527,-0.021988,0.015045,0.984329,-0.015136,0.002313,-0.012434,66.643982,33.134644,-145.970474,,,
729861465.039553,0.893065,1.737249,126.055806,-0.021988,0.015045,0.984329,-0.015136,0.002313,-0.012434,66.643982,33.134644,-145.970474,,,
729861465.042871,0.890781,1.730098,126.053424,-0.024567,0.0112,0.995926,-0.004119,-0.010347,-0.008643,66.643982,33.134644,-145.970474,,,
729861465.046224,0.890781,1.730098,126.053424,-0.024567,0.0112,0.995926,-0.004119,-0.010347,-0.008643,66.643982,33.134644,-145.970474,,,
729861465.049596,0.89166,1.725559,126.051212,-0.024567,0.0112,0.995926,-0.004119,-0.010347,-0.008643,66.643982,33.134644,-145.970474,,,
729861465.052881,0.894842,1.715166,126.049504,-0.027405,0.006973,1.004288,0.005889,-0.016601,-0.006904,66.643982,33.134644,-145.970474,,,
729861465.056227,0.894842,1.715166,126.049504,-0.027405,0.006973,1.004288,0.005889,-0.016601,-0.006904,66.643982,33.134644,-145.970474,,,
729861465.059244,0.900267,1.710062,126.04816,-0.027405,0.006973,1.004288,0.005889,-0.016601,-0.006904,66.643982,33.134644,-145.970474,,,
729861465.062917,0.908234,1.700907,126.047832,-0.030197,0.006104,1.007828,0.026849,-0.01336,-0.001813,66.622635,32.918045,-146.009247,,,
729861465.066223,0.908234,1.700907,126.047832,-0.030197,0.006104,1.007828,0.026849,-0.01336,-0.001813,66.622635,32.918045,-146.009247,,,
729861465.06968,0.917656,1.696965,126.048464,-0.030197,0.006104,1.007828,0.026849,-0.01336,-0.001813,66.622635,32.918045,-146.009247,,,
729861465.072883,0.927217,1.690369,126.049633,-0.029877,0.006485,1.011047,0.03571,-0.009825,0.003577,66.622635,32.918045,-146.009247,,,
729861465.076232,0.927217,1.690369,126.049633,-0.029877,0.006485,1.011047,0.03571,-0.009825,0.003577,66.622635,32.918045,-146.009247,,,
729861465.079643,0.937736,1.688176,126.050697,-0.029877,0.006485,1.011047,0.03571,-0.009825,0.003577,66.622635,32.918045,-146.009247,,,
729861465.082854,0.937736,1.688176,126.050697,-0.027725,0.010605,1.004395,0.037524,-0.004664,0.003362,66.622635,32.918045,-146.009247,,,
729861465.086206,0.947077,1.683736,126.051582,-0.027725,0.010605,1.004395,0.037524,-0.004664,0.003362,66.622635,32.918045,-146.009247,,,
729861465.089555,0.955023,1.682862,126.052052,-0.027725,0.010605,1.004395,0.037524,-0.004664,0.003362,66.622635,32.918045,-146.009247,,,
729861465.09287,0.960417,1.680807,126.051524,-0.021301,0.020416,0.99707,0.02169,0.003008,-0.001226,66.622635,32.918045,-146.009247,,,
729861465.096324,0.960417,1.680807,126.051524,-0.021301,0.020416,0.99707,0.02169,0.003008,-0.001226,66.622635,32.918045,-146.009247,,,
729861465.099527,0.962274,1.682254,126.049556,-0.021301,0.020416,0.99707,0.02169,0.003008,-0.001226,66.622635,32.918045,-146.009247,,,
729861465.102896,0.960375,1.681808,126.046445,-0.017426,0.027115,0.985596,-0.004605,0.009878,-0.011983,66.485031,32.744598,-146.353195,,,
729861465.106219,0.960375,1.681808,126.046445,-0.017426,0.027115,0.985596,-0.004605,0.009878,-0.011983,66.485031,32.744598,-146.353195,,,
729861465.109542,0.954453,1.683749,126.042068,-0.017426,0.027115,0.985596,-0.004605,0.009878,-0.011983,66.485031,32.744598,-146.353195,,,
729861465.112863,0.944269,1.683385,126.036672,-0.017609,0.031479,0.979004,-0.027242,0.007705,-0.021129,66.485031,32.744598,-146.353195,,,
729861465.116264,0.944269,1.683385,126.036672,-0.017609,0.031479,0.979004,-0.027242,0.007705,-0.021129,66.485031,32.744598,-146.353195,,,
729861465.119523,0.93209,1.684305,126.030149,-0.017609,0.031479,0.979004,-0.027242,0.007705,-0.021129,66.485031,32.744598,-146.353195,,,
729861465.12287,0.917153,1.683735,126.02276,-0.021301,0.031708,0.979126,-0.045488,0.005132,-0.027869,66.485031,32.744598,-146.353195,,,
729861465.126204,0.917153,1.683735,126.02276,-0.021301,0.031708,0.979126,-0.045488,0.005132,-0.027869,66.485031,32.744598,-146.353195,,,
729861465.129577,0.904228,1.683599,126.015098,-0.021301,0.031708,0.979126,-0.045488,0.005132,-0.027869,66.485031,32.744598,-146.353195,,,
729861465.132859,0.904228,1.68254,126.007966,-0.028595,0.028351,0.98822,-0.040536,-0.001369,-0.02649,66.485031,32.744598,-146.353195,,,
729861465.136194,0.89069,1.68254,126.007966,-0.028595,0.028351,0.98822,-0.040536,-0.001369,-0.02649,66.485031,32.744598,-146.353195,,,
729861465.139534,0.881547,1.682243,126.001779,-0.028595,0.028351,0.98822,-0.040536,-0.001369,-0.02649,66.485031,32.744598,-146.353195,,,
729861465.142885,0.881547,1.682243,126.001779,-0.033813,0.021957,0.998306,-0.023695,0.002871,-0.021548,66.485031,32.744598,-146.353195,,,
729861465.146212,0.873123,1.683197,125.996896,-0.033813,0.021957,0.998306,-0.023695,0.002871,-0.021548,66.626038,33.094513,-146.113251,,,
729861465.149536,0.870137,1.68545,125.993518,-0.033813,0.021957,0.998306,-0.023695,0.002871,-0.021548,66.626038,33.094513,-146.113251,,,
729861465.152861,0.870137,1.68545,125.993518,-0.040192,0.018402,1.007385,-0.002034,0.015438,-0.008321,66.626038,33.094513,-146.113251,,,
729861465.156262,0.867205,1.688849,125.992008,-0.040192,0.018402,1.007385,-0.002034,0.015438,-0.008321,66.626038,33.094513,-146.113251,,,
729861465.159533,0.868017,1.693199,125.992798,-0.040192,0.018402,1.007385,-0.002034,0.015438,-0.008321,66.626038,33.094513,-146.113251,,,
729861465.16289,0.868017,1.693199,125.992798,-0.045044,0.015442,1.007278,0.007755,0.019699,0.00616,66.626038,33.094513,-146.113251,,,
729861465.16624,0.869729,1.696817,125.995332,-0.045044,0.015442,1.007278,0.007755,0.019699,0.00616,66.626038,33.094513,-146.113251,,,
729861465.169529,0.871986,1.702808,125.998574,-0.045044,0.015442,1.007278,0.007755,0.019699,0.00616,66.626038,33.094513,-146.113251,,,
729861465.172909,0.871986,1.702808,125.998574,-0.046661,0.015915,1.002518,0.009472,0.025007,0.011541,66.626038,33.094513,-146.113251,,,
729861465.176226,0.876623,1.705975,126.001911,-0.046661,0.015915,1.002518,0.009472,0.025007,0.011541,66.626038,33.094513,-146.113251,,,
729861465.179554,0.880235,1.712673,126.005073,-0.046661,0.015915,1.002518,0.009472,0.025007,0.011541,66.626038,33.094513,-146.113251,,,
729861465.182888,0.880235,1.712673,126.005073,-0.041336,0.017532,0.998871,0.01626,0.027958,0.008893,66.626038,33.094513,-146.113251,,,
729861465.186237,0.888684,1.716025,126.007909,-0.041336,0.017532,0.998871,0.01626,0.027958,0.008893,66.775665,32.858185,-146.228683,,,
729861465.189536,0.894828,1.723679,126.010785,-0.041336,0.017532,0.998871,0.01626,0.027958,0.008893,66.775665,32.858185,-146.228683,,,
729861465.192892,0.894828,1.723679,126.010785,-0.042084,0.021469,1.000092,0.022445,0.031226,0.012858,66.775665,32.858185,-146.228683,,,
729861465.19627,0.90567,1.728893,126.014106,-0.042084,0.021469,1.000092,0.022445,0.031226,0.012858,66.775665,32.858185,-146.228683,,,
729861465.199539,0.913252,1.739737,126.018344,-0.042084,0.021469,1.000092,0.022445,0.031226,0.012858,66.775665,32.858185,-146.228683,,,
729861465.202887,0.913252,1.739737,126.018344,-0.045197,0.020416,1.000763,0.027948,0.046885,0.01959,66.775665,32.858185,-146.228683,,,
729861465.206196,0.925112,1.750441,126.024464,-0.045197,0.020416,1.000763,0.027948,0.046885,0.01959,66.775665,32.858185,-146.228683,,,
729861465.20958,0.933164,1.764415,126.032128,-0.045197,0.020416,1.000763,0.027948,0.046885,0.01959,66.775665,32.858185,-146.228683,,,
729861465.212862,0.933164,1.764415,126.032128,-0.045197,0.020416,1.000763,0.025629,0.058175,0.030659,66.775665,32.858185,-146.228683,,,
729861465.216199,0.943809,1.780019,126.041416,-0.046555,0.01796,1.000137,0.025629,0.058175,0.030659,66.775665,32.858185,-146.228683,,,
729861465.219525,0.951901,1.795036,126.052599,-0.046555,0.01796,1.000137,0.025629,0.058175,0.030659,66.775665,32.858185,-146.228683,,,
729861465.222863,0.951901,1.795036,126.052599,-0.046555,0.01796,1.000137,0.025629,0.058175,0.030659,66.775665,32.858185,-146.228683,,,
729861465.226195,0.961081,1.809464,126.065148,-0.049194,0.018448,0.996582,0.02824,0.053783,0.042047,66.674164,33.218384,-146.074249,,,
729861465.229542,0.968973,1.819272,126.078625,-0.049194,0.018448,0.996582,0.02824,0.053783,0.042047,66.674164,33.218384,-146.074249,,,
729861465.232907,0.968973,1.819272,126.078625,-0.049194,0.018448,0.996582,0.028719,0.028681,0.047004,66.674164,33.218384,-146.074249,,,
729861465.236195,0.97647,1.828077,126.092369,-0.047852,0.018692,0.988556,0.028719,0.028681,0.047004,66.674164,33.218384,-146.074249,,,
729861465.239527,0.982892,1.828372,126.105255,-0.047852,0.018692,0.988556,0.028719,0.028681,0.047004,66.674164,33.218384,-146.074249,,,
729861465.242874,0.982892,1.828372,126.105255,-0.047852,0.018692,0.988556,0.028719,0.028681,0.047004,66.674164,33.218384,-146.074249,,,
729861465.246216,0.987424,1.826958,126.116578,-0.042191,0.020309,0.982346,0.018657,-0.011204,0.040631,66.674164,33.218384,-146.074249,,,
729861465.249525,0.990215,1.816471,126.126317,-0.042191,0.020309,0.982346,0.018657,-0.011204,0.040631,66.674164,33.218384,-146.074249,,,
729861465.252938,0.990215,1.816471,126.126317,-0.042191,0.020309,0.982346,0.018657,-0.011204,0.040631,66.674164,33.218384,-146.074249,,,
729861465.256296,0.99025,1.806577,126.134224,-0.035583,0.025085,0.978241,0.003492,-0.044766,0.028433,66.674164,33.218384,-146.074249,,,
729861465.259525,0.989763,1.790273,126.140817,-0.035583,0.025085,0.978241,0.003492,-0.044766,0.028433,66.674164,33.218384,-146.074249,,,
729861465.262943,0.989763,1.790273,126.140817,-0.035583,0.025085,0.978241,0.003492,-0.044766,0.028433,66.674164,33.218384,-146.074249,,,
729861465.266199,0.989722,1.77705,126.146086,-0.029358,0.022903,0.987,-0.00282,-0.054827,0.017447,66.618805,33.350845,-146.094025,,,
729861465.269534,0.989123,1.762485,126.150814,-0.029358,0.022903,0.987,-0.00282,-0.054827,0.017447,66.618805,33.350845,-146.094025,,,
729861465.272935,0.989123,1.762485,126.150814,-0.029358,0.022903,0.987,-0.00282,-0.054827,0.017447,66.618805,33.350845,-146.094025,,,
729861465.276278,0.990756,1.754543,126.155885,-0.025864,0.015533,1.004852,0.002593,-0.040043,0.015799,66.618805,33.350845,-146.094025,,,
729861465.279518,0.993237,1.745732,126.161461,-0.025864,0.015533,1.004852,0.002593,-0.040043,0.015799,66.618805,33.350845,-146.094025,,,
729861465.282921,0.993237,1.745732,126.161461,-0.025864,0.015533,1.004852,0.002593,-0.040043,0.015799,66.618805,33.350845,-146.094025,,,
729861465.28619,0.997674,1.744186,126.167087,-0.025131,0.010468,1.017303,0.01178,-0.020831,0.019884,66.618805,33.350845,-146.094025,,,
729861465.289527,1.003183,1.738934,126.172661,-0.025131,0.010468,1.017303,0.01178,-0.020831,0.019884,66.618805,33.350845,-146.094025,,,
729861465.292904,1.003183,1.738934,126.172661,-0.025131,0.010468,1.017303,0.01178,-0.020831,0.019884,66.618805,33.350845,-146.094025,,,
729861465.296217,1.010847,1.739176,126.177671,-0.022781,0.008728,1.018066,0.024022,-0.01486,0.019417,66.618805,33.350845,-146.094025,,,
729861465.29953,1.019654,1.735125,126.182352,-0.022781,0.008728,1.018066,0.024022,-0.01486,0.019417,66.618805,33.350845,-146.094025,,,
729861465.302931,1.019654,1.735125,126.182352,-0.022781,0.008728,1.018066,0.024022,-0.01486,0.019417,66.618805,33.350845,-146.094025,,,
729861465.306215,1.029651,1.738642,126.186925,-0.028214,0.011047,1.017883,0.033215,-0.004892,0.01715,66.618805,33.350845,-146.094025,,,
729861465.309523,1.041605,1.736499,126.192457,-0.028214,0.011047,1.017883,0.033215,-0.004892,0.01715,66.629242,33.049835,-146.305298,,,
729861465.312928,1.041605,1.736499,126.192457,-0.028214,0.011047,1.017883,0.033215,-0.004892,0.01715,66.629242,33.049835,-146.305298,,,
729861465.316274,1.05579,1.738912,126.199058,-0.028198,0.007263,1.016006,0.046909,-0.007085,0.023202,66.629242,33.049835,-146.305298,,,
729861465.319521,1.070324,1.735756,126.206698,-0.028198,0.007263,1.016006,0.046909,-0.007085,0.023202,66.629242,33.049835,-146.305298,,,
729861465.322898,1.070324,1.735756,126.206698,-0.028198,0.007263,1.016006,0.046909,-0.007085,0.023202,66.629242,33.049835,-146.305298,,,
729861465.326193,1.086174,1.736282,126.215457,-0.031128,0.006226,1.007294,0.052958,-0.006498,0.031572,66.629242,33.049835,-146.305298,,,
729861465.329527,1.100446,1.733904,126.225124,-0.031128,0.006226,1.007294,0.052958,-0.006498,0.031572,66.629242,33.049835,-146.305298,,,
729861465.332881,1.100446,1.733904,126.225124,-0.031128,0.006226,1.007294,0.052958,-0.006498,0.031572,66.629242,33.049835,-146.305298,,,
729861465.336194,1.115771,1.733352,126.234581,-0.031494,0.00946,1.000259,0.046651,-0.001591,0.032084,66.629242,33.049835,-146.305298,,,
729861465.339529,1.128166,1.731915,126.243311,-0.031494,0.00946,1.000259,0.046651,-0.001591,0.032084,66.629242,33.049835,-146.305298,,,
729861465.342976,1.128166,1.731915,126.243311,-0.031494,0.00946,1.000259,0.046651,-0.001591,0.032084,66.629242,33.049835,-146.305298,,,
729861465.346188,1.138945,1.72845,126.250968,-0.024139,0.013351,0.994095,0.038029,-0.00292,0.027416,66.629242,33.049835,-146.305298,,,
729861465.349526,1.147628,1.724518,126.256818,-0.024139,0.013351,0.994095,0.038029,-0.00292,0.027416,66.728928,33.038544,-145.844727,,,
729861465.352904,1.147628,1.724518,126.256818,-0.024139,0.013351,0.994095,0.038029,-0.00292,0.027416,66.728928,33.038544,-145.844727,,,
729861465.356193,1.152456,1.718326,126.260666,-0.017365,0.019028,0.98584,0.025865,-0.0129,0.014146,66.728928,33.038544,-145.844727,,,
729861465.359537,1.15618,1.713427,126.263273,-0.017365,0.019028,0.98584,0.025865,-0.0129,0.014146,66.728928,33.038544,-145.844727,,,
729861465.362891,1.15618,1.713427,126.263273,-0.017365,0.019028,0.98584,0.025865,-0.0129,0.014146,66.728928,33.038544,-145.844727,,,
729861465.366201,1.154121,1.706187,126.265098,-0.014282,0.022766,0.979309,0.005313,-0.014873,0.002402,66.728928,33.038544,-145.844727,,,
729861465.369528,1.151777,1.70173,126.266423,-0.014282,0.022766,0.979309,0.005313,-0.014873,0.002402,66.728928,33.038544,-145.844727,,,
729861465.372868,1.151777,1.70173,126.266423,-0.014282,0.022766,0.979309,0.005313,-0.014873,0.002402,66.728928,33.038544,-145.844727,,,
729861465.376216,1.144408,1.696278,126.267193,-0.017624,0.020477,0.979736,-0.018184,-0.010857,0.001379,66.728928,33.038544,-145.844727,,,
729861465.379525,1.13779,1.693668,126.268002,-0.017624,0.020477,0.979736,-0.018184,-0.010857,0.001379,66.728928,33.038544,-145.844727,,,
729861465.382929,1.13779,1.693668,126.268002,-0.017624,0.020477,0.979736,-0.018184,-0.010857,0.001379,66.728928,33.038544,-145.844727,,,
729861465.386192,1.128128,1.691878,126.269427,-0.021698,0.016891,0.984055,-0.025815,-0.000476,0.002742,66.728928,33.038544,-145.844727,,,
729861465.389691,1.12194,1.692421,126.270495,-0.021698,0.016891,0.984055,-0.025815,-0.000476,0.002742,66.747528,32.919479,-146.192902,,,
729861465.392933,1.12194,1.692421,126.270495,-0.021698,0.016891,0.984055,-0.025815,-0.000476,0.002742,66.747528,32.919479,-146.192902,,,
729861465.396294,1.114857,1.694845,126.271694,-0.020004,0.013718,0.995956,-0.014736,0.009079,-0.000323,66.747528,32.919479,-146.192902,,,
729861465.399539,1.115575,1.699733,126.273225,-0.020004,0.013718,0.995956,-0.014736,0.009079,-0.000323,66.747528,32.919479,-146.192902,,,
729861465.402872,1.115575,1.699733,126.273225,-0.020004,0.013718,0.995956,-0.014736,0.009079,-0.000323,66.747528,32.919479,-146.192902,,,
729861465.406226,1.116763,1.706559,126.274871,-0.021545,0.011292,1.008514,0.012194,0.023768,0.003063,66.747528,32.919479,-146.192902,,,
729861465.409537,1.123968,1.712926,126.276782,-0.021545,0.011292,1.008514,0.012194,0.023768,0.003063,66.747528,32.919479,-146.192902,,,
729861465.412883,1.123968,1.712926,126.276782,-0.021545,0.011292,1.008514,0.012194,0.023768,0.003063,66.747528,32.919479,-146.192902,,,
729861465.416217,1.130972,1.71817,126.278865,-0.024475,0.009094,1.009811,0.032328,0.022595,0.007494,66.747528,32.919479,-146.192902,,,
729861465.419531,1.14099,1.722853,126.280668,-0.024475,0.009094,1.009811,0.032328,0.022595,0.007494,66.747528,32.919479,-146.192902,,,
729861465.422865,1.14099,1.722853,126.280668,-0.024475,0.009094,1.009811,0.032328,0.022595,0.007494,66.747528,32.919479,-146.192902,,,
729861465.426228,1.149258,1.723832,126.281508,-0.023361,0.014755,1.001282,0.03573,0.017611,0.004949,66.747528,32.919479,-146.192902,,,
729861465.429537,1.156792,1.725982,126.280968,-0.023361,0.014755,1.001282,0.03573,0.017611,0.004949,66.541885,32.824478,-146.180206,,,
729861465.432969,1.156792,1.725982,126.280968,-0.023361,0.014755,1.001282,0.03573,0.017611,0.004949,66.541885,32.824478,-146.180206,,,
729861465.436187,1.16097,1.722006,126.279813,-0.020584,0.023804,0.987061,0.01881,0.007198,-0.003773,66.541885,32.824478,-146.180206,,,
729861465.439538,1.160202,1.720833,126.277526,-0.020584,0.023804,0.987061,0.01881,0.007198,-0.003773,66.541885,32.824478,-146.180206,,,
729861465.44288,1.160202,1.720833,126.277526,-0.020584,0.023804,0.987061,0.01881,0.007198,-0.003773,66.541885,32.824478,-146.180206,,,
729861465.446267,1.155981,1.71313,126.273984,-0.02005,0.028549,0.971115,-0.011568,-0.008195,-0.011309,66.541885,32.824478,-146.180206,,,
729861465.449524,1.146671,1.709034,126.269377,-0.02005,0.028549,0.971115,-0.011568,-0.008195,-0.011309,66.541885,32.824478,-146.180206,,,
729861465.452866,1.146671,1.709034,126.269377,-0.02005,0.028549,0.971115,-0.011568,-0.008195,-0.011309,66.541885,32.824478,-146.180206,,,
729861465.456275,1.133059,1.702206,126.263528,-0.017868,0.027985,0.967422,-0.042619,-0.013773,-0.02335,66.541885,32.824478,-146.180206,,,
729861465.459531,1.117158,1.699316,126.256754,-0.017868,0.027985,0.967422,-0.042619,-0.013773,-0.02335,66.541885,32.824478,-146.180206,,,
729861465.462886,1.117158,1.699316,126.256754,-0.017868,0.027985,0.967422,-0.042619,-0.013773,-0.02335,66.541885,32.824478,-146.180206,,,
729861465.466204,1.099381,1.696252,126.250118,-0.019394,0.025009,0.978333,-0.059528,0.000175,-0.02647,66.541885,32.824478,-146.180206,,,
729861465.469531,1.083488,1.69935,126.244141,-0.019394,0.025009,0.978333,-0.059528,0.000175,-0.02647,66.541885,32.824478,-146.180206,,,
729861465.472871,1.083488,1.69935,126.244141,-0.019394,0.025009,0.978333,-0.059528,0.000175,-0.02647,66.729584,32.681,-146.577576,,,
729861465.476222,1.069161,1.703463,126.239636,-0.025742,0.014191,1.000687,-0.04754,0.020714,-0.022045,66.729584,32.681,-146.577576,,,
729861465.47953,1.060605,1.713611,126.237241,-0.025742,0.014191,1.000687,-0.04754,0.020714,-0.022045,66.729584,32.681,-146.577576,,,
729861465.482922,1.060605,1.713611,126.237241,-0.025742,0.014191,1.000687,-0.04754,0.020714,-0.022045,66.729584,32.681,-146.577576,,,
729861465.4862,1.055573,1.724035,126.236592,-0.032242,0.003708,1.020859,-0.013557,0.046841,-0.006616,66.729584,32.681,-146.577576,,,
729861465.489536,1.058052,1.739435,126.236797,-0.032242,0.003708,1.020859,-0.013557,0.046841,-0.006616,66.729584,32.681,-146.577576,,,
729861465.492875,1.058052,1.739435,126.236797,-0.032242,0.003708,1.020859,-0.013557,0.046841,-0.006616,66.729584,32.681,-146.577576,,,
729861465.496292,1.062358,1.75426,126.237621,-0.037521,0.000778,1.033432,0.023139,0.061504,0.003008,66.729584,32.681,-146.577576,,,
729861465.49953,1.072295,1.769655,126.238668,-0.037521,0.000778,1.033432,0.023139,0.061504,0.003008,66.729584,32.681,-146.577576,,,
729861465.502876,1.072295,1.769655,126.238668,-0.037521,0.000778,1.033432,0.023139,0.061504,0.003008,66.729584,32.681,-146.577576,,,
729861465.506249,1.083245,1.778888,126.239513,-0.036743,0.00708,1.024185,0.039055,0.04756,0.004654,66.729584,32.681,-146.577576,,,
729861465.509532,1.094583,1.786206,126.239959,-0.036743,0.00708,1.024185,0.039055,0.04756,0.004654,66.729584,32.681,-146.577576,,,
729861465.512868,1.094583,1.786206,126.239959,-0.036743,0.00708,1.024185,0.039055,0.04756,0.004654,66.652374,32.960785,-146.445511,,,
729861465.516228,1.107345,1.785112,126.240243,-0.039047,0.013214,1.004654,0.039539,0.01442,-0.000512,66.652374,32.960785,-146.445511,,,
729861465.519536,1.117309,1.782008,126.24033,-0.039047,0.013214,1.004654,0.039539,0.01442,-0.000512,66.652374,32.960785,-146.445511,,,
729861465.522885,1.117309,1.782008,126.24033,-0.039047,0.013214,1.004654,0.039539,0.01442,-0.000512,66.652374,32.960785,-146.445511,,,
729861465.526217,1.129676,1.770974,126.240309,-0.040756,0.017075,0.992966,0.033489,-0.020421,-0.000479,66.652374,32.960785,-146.445511,,,
729861465.529531,1.140811,1.760895,126.240141,-0.040756,0.017075,0.992966,0.033489,-0.020421,-0.000479,66.652374,32.960785,-146.445511,,,
729861465.532941,1.140811,1.760895,126.240141,-0.040756,0.017075,0.992966,0.033489,-0.020421,-0.000479,66.652374,32.960785,-146.445511,,,
729861465.536191,1.156108,1.746141,126.239629,-0.038147,0.014908,1.002029,0.045622,-0.03632,-0.00156,66.652374,32.960785,-146.445511,,,
729861465.539531,1.172075,1.73542,126.238231,-0.038147,0.014908,1.002029,0.045622,-0.03632,-0.00156,66.652374,32.960785,-146.445511,,,
729861465.542876,1.172075,1.73542,126.238231,-0.038147,0.014908,1.002029,0.045622,-0.03632,-0.00156,66.652374,32.960785,-146.445511,,,
729861465.546197,1.191719,1.723364,126.235904,-0.03035,0.013397,1.018387,0.06774,-0.032869,-0.00643,66.652374,32.960785,-146.445511,,,
729861465.549528,1.213684,1.715806,126.232242,-0.03035,0.013397,1.018387,0.06774,-0.032869,-0.00643,66.652374,32.960785,-146.445511,,,
729861465.552862,1.213684,1.715806,126.232242,-0.03035,0.013397,1.018387,0.06774,-0.032869,-0.00643,66.660706,32.731949,-146.374542,,,
729861465.556212,1.23467,1.710207,126.227595,-0.024704,0.017426,1.026413,0.079475,-0.016433,-0.013436,66.660706,32.731949,-146.374542,,,
729861465.559529,1.258414,1.708347,126.222451,-0.024704,0.017426,1.026413,0.079475,-0.016433,-0.013436,66.660706,32.731949,-146.374542,,,
729861465.562876,1.258414,1.708347,126.222451,-0.024704,0.017426,1.026413,0.079475,-0.016433,-0.013436,66.660706,32.731949,-146.374542,,,
729861465.566206,1.275701,1.71094,126.217239,-0.022415,0.021622,1.019196,0.079475,0.004927,-0.018002,66.660706,32.731949,-146.374542,,,
729861465.569528,1.296058,1.716439,126.211858,-0.022415,0.021622,1.019196,0.079475,0.004927,-0.018002,66.660706,32.731949,-146.374542,,,
729861465.572978,1.296058,1.716439,126.211858,-0.022415,0.021622,1.019196,0.079475,0.004927,-0.018002,66.660706,32.731949,-146.374542,,,
729861465.576201,1.309118,1.727379,126.206879,-0.023819,0.024994,1.009567,0.065713,0.031962,-0.017107,66.660706,32.731949,-146.374542,,,
729861465.579552,1.324922,1.739112,126.202946,-0.023819,0.024994,1.009567,0.065713,0.031962,-0.017107,66.660706,32.731949,-146.374542,,,
729861465.582872,1.324922,1.739112,126.202946,-0.023819,0.024994,1.009567,0.065713,0.031962,-0.017107,66.660706,32.731949,-146.374542,,,
729861465.586205,1.334944,1.754514,126.200419,-0.031937,0.024673,1.000793,0.050449,0.049243,-0.009035,66.660706,32.731949,-146.374542,,,
729861465.589541,1.346466,1.769095,126.199816,-0.031937,0.024673,1.000793,0.050449,0.049243,-0.009035,66.660706,32.731949,-146.374542,,,
729861465.59286,1.346466,1.769095,126.199816,-0.031937,0.024673,1.000793,0.050449,0.049243,-0.009035,66.879044,32.469818,-146.504013,,,
729861465.596221,1.353996,1.786428,126.200506,-0.038177,0.023514,0.991669,0.032566,0.052769,0.002105,66.879044,32.469818,-146.504013,,,
729861465.599538,1.362116,1.800029,126.202285,-0.038177,0.023514,0.991669,0.032566,0.052769,0.002105,66.879044,32.469818,-146.504013,,,
729861465.602868,1.362116,1.800029,126.202285,-0.038177,0.023514,0.991669,0.032566,0.052769,0.002105,66.879044,32.469818,-146.504013,,,
729861465.606234,1.369134,1.81554,126.205278,-0.039871,0.023071,0.989502,0.029088,0.048258,0.009669,66.879044,32.469818,-146.504013,,,
729861465.609536,1.380381,1.826347,126.209071,-0.039871,0.023071,0.989502,0.029088,0.048258,0.009669,66.879044,32.469818,-146.504013,,,
729861465.612936,1.380381,1.826347,126.209071,-0.039871,0.023071,0.989502,0.029088,0.048258,0.009669,66.879044,32.469818,-146.504013,,,
729861465.616216,1.392589,1.835798,126.212374,-0.035767,0.021011,0.999405,0.048138,0.035292,0.012441,66.879044,32.469818,-146.504013,,,
729861465.619536,1.410936,1.841844,126.214499,-0.035767,0.021011,0.999405,0.048138,0.035292,0.012441,66.879044,32.469818,-146.504013,,,
729861465.622881,1.410936,1.841844,126.214499,-0.035767,0.021011,0.999405,0.048138,0.035292,0.012441,66.879044,32.469818,-146.504013,,,
729861465.626261,1.429248,1.84347,126.215361,-0.031998,0.02092,1.005157,0.071938,0.016199,0.005407,66.879044,32.469818,-146.504013,,,
729861465.629532,1.450725,1.843826,126.214776,-0.031998,0.02092,1.005157,0.071938,0.016199,0.005407,66.879044,32.469818,-146.504013,,,
729861465.632884,1.450725,1.843826,126.214776,-0.031998,0.02092,1.005157,0.071938,0.016199,0.005407,66.879044,32.469818,-146.504013,,,
729861465.636207,1.469985,1.838683,126.213205,-0.031006,0.025909,1.000656,0.077082,-0.001664,-0.005008,66.788391,32.449844,-146.719955,,,
729861465.639563,1.489955,1.833739,126.21088,-0.031006,0.025909,1.000656,0.077082,-0.001664,-0.005008,66.788391,32.449844,-146.719955,,,
729861465.642909,1.489955,1.833739,126.21088,-0.031006,0.025909,1.000656,0.077082,-0.001664,-0.005008,66.788391,32.449844,-146.719955,,,
729861465.646249,1.507636,1.824884,126.208144,-0.028397,0.033081,0.984024,0.067764,-0.018745,-0.010972,66.788391,32.449844,-146.719955,,,
729861465.649539,1.524225,1.819878,126.20584,-0.028397,0.033081,0.984024,0.067764,-0.018745,-0.010972,66.788391,32.449844,-146.719955,,,
729861465.652865,1.524225,1.819878,126.20584,-0.028397,0.033081,0.984024,0.067764,-0.018745,-0.010972,66.788391,32.449844,-146.719955,,,
729861465.656226,1.53961,1.815728,126.203901,-0.032089,0.036835,0.97966,0.053916,-0.009684,-0.006466,66.788391,32.449844,-146.719955,,,
729861465.659562,1.555531,1.816823,126.202417,-0.032089,0.036835,0.97966,0.053916,-0.009684,-0.006466,66.788391,32.449844,-146.719955,,,
729861465.662878,1.555531,1.816823,126.202417,-0.032089,0.036835,0.97966,0.053916,-0.009684,-0.006466,66.788391,32.449844,-146.719955,,,
729861465.666344,1.572475,1.822466,126.202162,-0.029007,0.031494,0.995575,0.060878,0.015132,-0.00259,66.788391,32.449844,-146.719955,,,
729861465.669526,1.594371,1.831656,126.202778,-0.029007,0.031494,0.995575,0.060878,0.015132,-0.00259,66.788391,32.449844,-146.719955,,,
729861465.672866,1.594371,1.831656,126.202778,-0.029007,0.031494,0.995575,0.060878,0.015132,-0.00259,66.788391,32.449844,-146.719955,,,
729861465.676234,1.621479,1.847424,126.203821,-0.030914,0.025513,1.01387,0.09086,0.044892,0.005533,66.694473,32.355667,-146.622147,,,
729861465.679536,1.656721,1.864251,126.205654,-0.030914,0.025513,1.01387,0.09086,0.044892,0.005533,66.694473,32.355667,-146.622147,,,
729861465.682882,1.656721,1.864251,126.205654,-0.030914,0.025513,1.01387,0.09086,0.044892,0.005533,66.694473,32.355667,-146.622147,,,
729861465.686204,1.699039,1.885794,126.207705,-0.029236,0.020218,1.033432,0.145335,0.068444,0.012196,66.694473,32.355667,-146.622147,,,
729861465.689539,1.75071,1.906672,126.208969,-0.029236,0.020218,1.033432,0.145335,0.068444,0.012196,66.694473,32.355667,-146.622147,,,
729861465.692933,1.75071,1.906672,126.208969,-0.029236,0.020218,1.033432,0.145335,0.068444,0.012196,66.694473,32.355667,-146.622147,,,
729861465.696212,1.807404,1.927429,126.208376,-0.026917,0.018127,1.049667,0.200122,0.076923,0.007636,66.694473,32.355667,-146.622147,,,
729861465.699535,1.872746,1.946751,126.205246,-0.026917,0.018127,1.049667,0.200122,0.076923,0.007636,66.694473,32.355667,-146.622147,,,
729861465.702864,1.872746,1.946751,126.205246,-0.026917,0.018127,1.049667,0.200122,0.076923,0.007636,66.694473,32.355667,-146.622147,,,
729861465.706259,1.94069,1.963517,126.199,-0.023651,0.020554,1.049698,0.24298,0.065347,-0.012774,66.694473,32.355667,-146.622147,,,
729861465.709532,2.01523,1.978611,126.18967,-0.023651,0.020554,1.049698,0.24298,0.065347,-0.012774,66.694473,32.355667,-146.622147,,,
729861465.712882,2.01523,1.978611,126.18967,-0.023651,0.020554,1.049698,0.24298,0.065347,-0.012774,66.694473,32.355667,-146.622147,,,
729861465.716205,2.090772,1.990548,126.178092,-0.022354,0.027649,1.039169,0.268549,0.049167,-0.031879,66.806992,31.961304,-146.867889,,,
729861465.71954,2.168002,2.002786,126.164772,-0.022354,0.027649,1.039169,0.268549,0.049167,-0.031879,66.806992,31.961304,-146.867889,,,
729861465.722899,2.168002,2.002786,126.164772,-0.022354,0.027649,1.039169,0.268549,0.049167,-0.031879,66.806992,31.961304,-146.867889,,,
729861465.726219,2.243584,2.013572,126.151306,-0.029831,0.034317,1.023575,0.266623,0.041697,-0.039378,66.806992,31.961304,-146.867889,,,
729861465.729533,2.316849,2.026704,126.138932,-0.029831,0.034317,1.023575,0.266623,0.041697,-0.039378,66.806992,31.961304,-146.867889,,,
729861465.732958,2.316849,2.026704,126.138932,-0.029831,0.034317,1.023575,0.266623,0.041697,-0.039378,66.806992,31.961304,-146.867889,,,
729861465.736195,2.385351,2.040762,126.12852,-0.036896,0.036774,1.007797,0.248283,0.051581,-0.030301,66.806992,31.961304,-146.867889,,,
729861465.739539,2.451607,2.058855,126.121122,-0.036896,0.036774,1.007797,0.248283,0.051581,-0.030301,66.806992,31.961304,-146.867889,,,
729861465.742881,2.451607,2.058855,126.121122,-0.036896,0.036774,1.007797,0.248283,0.051581,-0.030301,66.806992,31.961304,-146.867889,,,
729861465.74628,2.514801,2.078637,126.117057,-0.045334,0.038452,1.000488,0.231216,0.074562,-0.011433,66.806992,31.961304,-146.867889,,,
729861465.74953,2.585295,2.103345,126.115474,-0.045334,0.038452,1.000488,0.231216,0.074562,-0.011433,66.806992,31.961304,-146.867889,,,
729861465.752877,2.585295,2.103345,126.115474,-0.045334,0.038452,1.000488,0.231216,0.074562,-0.011433,66.806992,31.961304,-146.867889,,,
729861465.756291,2.659764,2.129579,126.115816,-0.046783,0.031876,1.019958,0.263127,0.098209,0.010349,66.806992,31.961304,-146.867889,,,
729861465.759528,2.746451,2.15858,126.116305,-0.046783,0.031876,1.019958,0.263127,0.098209,0.010349,66.822281,31.479111,-146.628403,,,
729861465.762881,2.746451,2.15858,126.116305,-0.046783,0.031876,1.019958,0.263127,0.098209,0.010349,66.822281,31.479111,-146.628403,,,
729861465.766211,2.838759,2.184506,126.115089,-0.041351,0.025528,1.053802,0.330117,0.099219,0.009255,66.822281,31.479111,-146.628403,,,
729861465.769535,2.943888,2.208781,126.111011,-0.041351,0.025528,1.053802,0.330117,0.099219,0.009255,66.822281,31.479111,-146.628403,,,
729861465.772959,2.943888,2.208781,126.111011,-0.041351,0.025528,1.053802,0.330117,0.099219,0.009255,66.822281,31.479111,-146.628403,,,
729861465.776214,3.054532,2.227464,126.10368,-0.033386,0.029663,1.061722,0.390537,0.076056,-0.009736,66.822281,31.479111,-146.628403,,,
729861465.779539,3.175828,2.242942,126.092486,-0.033386,0.029663,1.061722,0.390537,0.076056,-0.009736,66.822281,31.479111,-146.628403,,,
729861465.782881,3.175828,2.242942,126.092486,-0.033386,0.029663,1.061722,0.390537,0.076056,-0.009736,66.822281,31.479111,-146.628403,,,
729861465.786212,3.300397,2.251301,126.078617,-0.031799,0.040115,1.051331,0.441738,0.04065,-0.030508,66.822281,31.479111,-146.628403,,,
729861465.789539,3.432713,2.257366,126.063422,-0.031799,0.040115,1.051331,0.441738,0.04065,-0.030508,66.822281,31.479111,-146.628403,,,
729861465.792875,3.432713,2.257366,126.063422,-0.031799,0.040115,1.051331,0.441738,0.04065,-0.030508,66.822281,31.479111,-146.628403,,,
729861465.796273,3.566415,2.258695,126.047217,-0.032532,0.044861,1.035156,0.476143,0.011779,-0.040223,66.822281,31.479111,-146.628403,,,
729861465.799522,3.7054,2.259706,126.031019,-0.032532,0.044861,1.035156,0.476143,0.011779,-0.040223,67.047623,30.606842,-146.775436,,,
729861465.802931,3.7054,2.259706,126.031019,-0.032532,0.044861,1.035156,0.476143,0.011779,-0.040223,67.047623,30.606842,-146.775436,,,
729861465.80621,3.845869,2.260541,126.017123,-0.040146,0.050171,1.027069,0.495344,0.003923,-0.033741,67.047623,30.606842,-146.775436,,,
729861465.809533,3.992129,2.262613,126.006097,-0.040146,0.050171,1.027069,0.495344,0.003923,-0.033741,67.047623,30.606842,-146.775436,,,
729861465.812879,3.992129,2.262613,126.006097,-0.040146,0.050171,1.027069,0.495344,0.003923,-0.033741,67.047623,30.606842,-146.775436,,,
729861465.816219,4.143247,2.265579,125.99757,-0.049133,0.049805,1.025604,0.522423,0.009661,-0.013532,67.047623,30.606842,-146.775436,,,
729861465.819532,4.30052,2.26991,125.99117,-0.049133,0.049805,1.025604,0.522423,0.009661,-0.013532,67.047623,30.606842,-146.775436,,,
729861465.82295,4.30052,2.26991,125.99117,-0.049133,0.049805,1.025604,0.522423,0.009661,-0.013532,67.047623,30.606842,-146.775436,,,
729861465.826211,4.463439,2.275454,125.985989,-0.048248,0.051651,1.034241,0.565322,0.020049,0.002846,67.047623,30.606842,-146.775436,,,
729861465.829528,4.630726,2.28124,125.981565,-0.048248,0.051651,1.034241,0.565322,0.020049,0.002846,67.047623,30.606842,-146.775436,,,
729861465.832878,4.630726,2.28124,125.981565,-0.048248,0.051651,1.034241,0.565322,0.020049,0.002846,67.047623,30.606842,-146.775436,,,
729861465.836216,4.802115,2.286133,125.977271,-0.046738,0.059525,1.031738,0.596988,0.020913,0.008189,67.047623,30.606842,-146.775436,,,
729861465.839536,4.97623,2.29013,125.97273,-0.046738,0.059525,1.031738,0.596988,0.020913,0.008189,67.093903,29.413925,-147.411972,,,
729861465.842884,4.97623,2.29013,125.97273,-0.046738,0.059525,1.031738,0.596988,0.020913,0.008189,67.093903,29.413925,-147.411972,,,
729861465.846291,5.150622,2.293436,125.967811,-0.042114,0.071259,1.019455,0.608335,0.014087,0.00844,67.093903,29.413925,-147.411972,,,
729861465.849524,5.32448,2.296346,125.961925,-0.042114,0.071259,1.019455,0.608335,0.014087,0.00844,67.093903,29.413925,-147.411972,,,
729861465.852868,5.32448,2.296346,125.961925,-0.042114,0.071259,1.019455,0.608335,0.014087,0.00844,67.093903,29.413925,-147.411972,,,
729861465.856198,5.499838,2.299522,125.954994,-0.037186,0.080536,1.00914,0.607922,0.010108,-0.000966,67.093903,29.413925,-147.411972,,,
729861465.859554,5.680067,2.30272,125.946277,-0.037186,0.080536,1.00914,0.607922,0.010108,-0.000966,67.093903,29.413925,-147.411972,,,
729861465.862887,5.680067,2.30272,125.946277,-0.037186,0.080536,1.00914,0.607922,0.010108,-0.000966,67.093903,29.413925,-147.411972,,,
729861465.866223,5.871364,2.306068,125.934746,-0.030792,0.083542,1.022232,0.653608,0.010067,-0.010311,67.093903,29.413925,-147.411972,,,
729861465.869562,6.078545,2.310436,125.919208,-0.030792,0.083542,1.022232,0.653608,0.010067,-0.010311,67.093903,29.413925,-147.411972,,,
729861465.872941,6.078545,2.310436,125.919208,-0.030792,0.083542,1.022232,0.653608,0.010067,-0.010311,67.093903,29.413925,-147.411972,,,
729861465.87621,6.303122,2.316164,125.899678,-0.022964,0.0793,1.067825,0.768215,0.014106,-0.033405,67.093903,29.413925,-147.411972,,,
729861465.87959,6.543747,2.322707,125.876423,-0.022964,0.0793,1.067825,0.768215,0.014106,-0.033405,67.220551,28.03009,-147.391022,,,
729861465.882888,6.543747,2.322707,125.876423,-0.022964,0.0793,1.067825,0.768215,0.014106,-0.033405,67.220551,28.03009,-147.391022,,,
729861465.886206,6.800385,2.330213,125.849242,-0.019592,0.077225,1.098328,0.88465,0.017239,-0.056955,67.220551,28.03009,-147.391022,,,
729861465.889552,7.071776,2.339081,125.818795,-0.019592,0.077225,1.098328,0.88465,0.017239,-0.056955,67.220551,28.03009,-147.391022,,,
729861465.892871,7.071776,2.339081,125.818795,-0.019592,0.077225,1.098328,0.88465,0.017239,-0.056955,67.220551,28.03009,-147.391022,,,
729861465.896213,7.355134,2.349871,125.786365,-0.023254,0.088593,1.097092,0.982633,0.02434,-0.073628,67.220551,28.03009,-147.391022,,,
729861465.899576,7.644273,2.363653,125.753282,-0.023254,0.088593,1.097092,0.982633,0.02434,-0.073628,67.220551,28.03009,-147.391022,,,
729861465.90286,7.644273,2.363653,125.753282,-0.023254,0.088593,1.097092,0.982633,0.02434,-0.073628,67.220551,28.03009,-147.391022,,,
729861465.906208,7.932929,2.379802,125.721193,-0.034348,0.100616,1.0681,1.011652,0.043395,-0.074075,67.220551,28.03009,-147.391022,,,
729861465.909536,8.217631,2.397133,125.69313,-0.034348,0.100616,1.0681,1.011652,0.043395,-0.074075,67.220551,28.03009,-147.391022,,,
729861465.912932,8.217631,2.397133,125.69313,-0.034348,0.100616,1.0681,1.011652,0.043395,-0.074075,67.220551,28.03009,-147.391022,,,
729861465.916203,8.495341,2.41385,125.671276,-0.0522,0.116562,1.018143,0.977383,0.050859,-0.043338,67.220551,28.03009,-147.391022,,,
729861465.919542,8.764142,2.429163,125.655807,-0.0522,0.116562,1.018143,0.977383,0.050859,-0.043338,67.220551,28.03009,-147.391022,,,
729861465.922873,8.764142,2.429163,125.655807,-0.0522,0.116562,1.018143,0.977383,0.050859,-0.043338,67.442688,25.898438,-147.811035,,,
729861465.926283,9.023338,2.443484,125.646299,-0.066055,0.132812,0.982956,0.910343,0.047565,6e-06,67.442688,25.898438,-147.811035,,,
729861465.929549,9.274056,2.457198,125.640718,-0.066055,0.132812,0.982956,0.910343,0.047565,6e-06,67.442688,25.898438,-147.811035,,,
729861465.932874,9.274056,2.457198,125.640718,-0.066055,0.132812,0.982956,0.910343,0.047565,6e-06,67.442688,25.898438,-147.811035,,,
729861465.936303,9.519474,2.470215,125.637095,-0.061508,0.137253,0.968536,0.856139,0.047664,0.022671,67.442688,25.898438,-147.811035,,,
729861465.939632,9.762037,2.481908,125.633047,-0.061508,0.137253,0.968536,0.856139,0.047664,0.022671,67.442688,25.898438,-147.811035,,,
729861465.942891,9.762037,2.481908,125.633047,-0.061508,0.137253,0.968536,0.856139,0.047664,0.022671,67.442688,25.898438,-147.811035,,,
729861465.946209,10.00412,2.490873,125.626458,-0.047638,0.15567,0.987427,0.842425,0.034916,0.016245,67.442688,25.898438,-147.811035,,,
729861465.94967,10.246504,2.495507,125.616425,-0.047638,0.15567,0.987427,0.842425,0.034916,0.016245,67.442688,25.898438,-147.811035,,,
729861465.95286,10.246504,2.495507,125.616425,-0.047638,0.15567,0.987427,0.842425,0.034916,0.016245,67.442688,25.898438,-147.811035,,,
729861465.95621,10.489699,2.494758,125.602155,-0.032043,0.166901,0.995743,0.846545,-0.005586,-0.007831,67.442688,25.898438,-147.811035,,,
729861465.959571,10.733543,2.489145,125.583798,-0.032043,0.166901,0.995743,0.846545,-0.005586,-0.007831,67.442688,25.898438,-147.811035,,,
729861465.962869,10.733543,2.489145,125.583798,-0.032043,0.166901,0.995743,0.846545,-0.005586,-0.007831,67.308868,24.420563,-147.884018,,,
729861465.966262,10.977711,2.4812,125.561405,-0.023239,0.178055,0.98877,0.854262,-0.037804,-0.040387,67.308868,24.420563,-147.884018,,,
729861465.969669,11.221504,2.473784,125.535758,-0.023239,0.178055,0.98877,0.854262,-0.037804,-0.040387,67.308868,24.420563,-147.884018,,,
729861465.972875,11.221504,2.473784,125.535758,-0.023239,0.178055,0.98877,0.854262,-0.037804,-0.040387,67.308868,24.420563,-147.884018,,,
729861465.976227,11.465931,2.468689,125.50908,-0.020126,0.189697,0.989426,0.852554,-0.036465,-0.055,67.308868,24.420563,-147.884018,,,
729861465.979621,11.71358,2.466773,125.48345,-0.020126,0.189697,0.989426,0.852554,-0.036465,-0.055,67.308868,24.420563,-147.884018,,,
729861465.982863,11.71358,2.466773,125.48345,-0.020126,0.189697,0.989426,0.852554,-0.036465,-0.055,67.308868,24.420563,-147.884018,,,
729861465.986204,11.966324,2.470091,125.458272,-0.023514,0.18689,0.999695,0.879972,-0.009405,-0.047124,67.308868,24.420563,-147.884018,,,
729861465.989595,12.223242,2.480086,125.432265,-0.023514,0.18689,0.999695,0.879972,-0.009405,-0.047124,67.308868,24.420563,-147.884018,,,
729861465.992927,12.223242,2.480086,125.432265,-0.023514,0.18689,0.999695,0.879972,-0.009405,-0.047124,67.308868,24.420563,-147.884018,,,
729861465.996205,12.485046,2.496457,125.405131,-0.025162,0.184265,1.027374,0.910001,0.034838,-0.051275,67.308868,24.420563,-147.884018,,,
