Time (sec),Pitch (deg),Roll (deg),Yaw(deg),X-Acceleration (g),Y-Acceleration (g),Z-Acceleration (g),Pitch Rate (deg/sec),Roll Rate (deg/sec),Yaw Rate (deg/sec),Magnetic Field in X direction (uT),Magnetic Field in Y direction (uT),Magnetic Field in Z Direction (uT),Latitude (deg),Longitude (deg),Altitude (m)
729861969.728488,2.928563,1.868244,125.70644,-0.043076,0.052795,0.972427,-0.060104,-0.147287,0.025723,67.039017,31.333527,-146.078461,,,
729861969.731901,2.928563,1.868244,125.70644,-0.043076,0.052795,0.972427,-0.060104,-0.147287,0.025723,67.039017,31.333527,-146.078461,,,
729861969.735168,2.914332,1.827149,125.714101,-0.030365,0.048996,0.997559,-0.060104,-0.147287,0.025723,67.039017,31.333527,-146.078461,,,
729861969.738488,2.90394,1.78916,125.720948,-0.030365,0.048996,0.997559,-0.039352,-0.133332,0.023971,67.039017,31.333527,-146.078461,,,
729861969.741839,2.90394,1.78916,125.720948,-0.030365,0.048996,0.997559,-0.039352,-0.133332,0.023971,66.668365,31.591888,-145.831558,,,
729861969.745224,2.897866,1.760305,125.727142,-0.020874,0.043533,1.024796,-0.039352,-0.133332,0.023971,66.668365,31.591888,-145.831558,,,
729861969.748478,2.896929,1.739195,125.732496,-0.020874,0.043533,1.024796,-0.00716,-0.078243,0.016282,66.668365,31.591888,-145.831558,,,
729861969.75183,2.896929,1.739195,125.732496,-0.020874,0.043533,1.024796,-0.00716,-0.078243,0.016282,66.668365,31.591888,-145.831558,,,
729861969.755157,2.899876,1.731778,125.736403,-0.010956,0.044785,1.043976,-0.00716,-0.078243,0.016282,66.668365,31.591888,-145.831558,,,
729861969.758485,2.90689,1.732342,125.739478,-0.010956,0.044785,1.043976,0.019923,-0.001499,0.010713,66.668365,31.591888,-145.831558,,,
729861969.761836,2.90689,1.732342,125.739478,-0.010956,0.044785,1.043976,0.019923,-0.001499,0.010713,66.668365,31.591888,-145.831558,,,
729861969.76515,2.916508,1.747143,125.741284,-0.006638,0.049576,1.041199,0.019923,-0.001499,0.010713,66.668365,31.591888,-145.831558,,,
729861969.768488,2.928445,1.76521,125.742442,-0.006638,0.049576,1.041199,0.039,0.062386,0.004894,66.668365,31.591888,-145.831558,,,
729861969.771899,2.928445,1.76521,125.742442,-0.006638,0.049576,1.041199,0.039,0.062386,0.004894,66.668365,31.591888,-145.831558,,,
729861969.775151,2.941422,1.795415,125.742753,-0.009537,0.050201,1.022125,0.039,0.062386,0.004894,66.668365,31.591888,-145.831558,,,
729861969.778486,2.954942,1.822564,125.742605,-0.009537,0.050201,1.022125,0.046239,0.096556,0.000329,66.668365,31.591888,-145.831558,,,
729861969.781826,2.954942,1.822564,125.742605,-0.009537,0.050201,1.022125,0.046239,0.096556,0.000329,66.726974,31.297546,-145.874207,,,
729861969.785154,2.967787,1.858609,125.741714,-0.019882,0.053452,1.00032,0.046239,0.096556,0.000329,66.726974,31.297546,-145.874207,,,
729861969.788493,2.977974,1.885059,125.741138,-0.019882,0.053452,1.00032,0.039898,0.099728,-0.001308,66.726974,31.297546,-145.874207,,,
729861969.79183,2.977974,1.885059,125.741138,-0.019882,0.053452,1.00032,0.039898,0.099728,-0.001308,66.726974,31.297546,-145.874207,,,
729861969.795233,2.985376,1.912369,125.74027,-0.031174,0.055984,0.978516,0.039898,0.099728,-0.001308,66.726974,31.297546,-145.874207,,,
729861969.798483,2.988573,1.928171,125.740128,-0.031174,0.055984,0.978516,0.016729,0.063829,-0.003055,66.726974,31.297546,-145.874207,,,
729861969.801834,2.988573,1.928171,125.740128,-0.031174,0.055984,0.978516,0.016729,0.063829,-0.003055,66.726974,31.297546,-145.874207,,,
729861969.805161,2.98853,1.93734,125.740636,-0.047043,0.054764,0.958282,0.016729,0.063829,-0.003055,66.726974,31.297546,-145.874207,,,
729861969.808476,2.984964,1.937548,125.742007,-0.047043,0.054764,0.958282,-0.009953,0.010338,0.001882,66.726974,31.297546,-145.874207,,,
729861969.81183,2.984964,1.937548,125.742007,-0.047043,0.054764,0.958282,-0.009953,0.010338,0.001882,66.726974,31.297546,-145.874207,,,
729861969.815162,2.977133,1.928013,125.744275,-0.058029,0.052429,0.949905,-0.009953,0.010338,0.001882,66.726974,31.297546,-145.874207,,,
729861969.818534,2.966316,1.913013,125.747503,-0.058029,0.052429,0.949905,-0.034871,-0.046262,0.008716,66.726974,31.297546,-145.874207,,,
729861969.821829,2.966316,1.913013,125.747503,-0.058029,0.052429,0.949905,-0.034871,-0.046262,0.008716,66.874847,31.257996,-146.127838,,,
729861969.825178,2.951442,1.88924,125.752881,-0.064835,0.050354,0.951019,-0.034871,-0.046262,0.008716,66.874847,31.257996,-146.127838,,,
729861969.82853,2.934399,1.863983,125.760198,-0.064835,0.050354,0.951019,-0.056252,-0.082338,0.02017,66.874847,31.257996,-146.127838,,,
729861969.831893,2.934399,1.863983,125.760198,-0.064835,0.050354,0.951019,-0.056252,-0.082338,0.02017,66.874847,31.257996,-146.127838,,,
729861969.835151,2.914188,1.832079,125.769179,-0.06366,0.050797,0.958679,-0.056252,-0.082338,0.02017,66.874847,31.257996,-146.127838,,,
729861969.838572,2.893024,1.803552,125.779249,-0.06366,0.050797,0.958679,-0.072831,-0.095824,0.032666,66.874847,31.257996,-146.127838,,,
729861969.841823,2.893024,1.803552,125.779249,-0.06366,0.050797,0.958679,-0.072831,-0.095824,0.032666,66.874847,31.257996,-146.127838,,,
729861969.845235,2.872404,1.770985,125.790372,-0.053528,0.046326,0.971298,-0.072831,-0.095824,0.032666,66.874847,31.257996,-146.127838,,,
729861969.848474,2.854435,1.744895,125.801564,-0.053528,0.046326,0.971298,-0.064425,-0.087008,0.037785,66.874847,31.257996,-146.127838,,,
729861969.851822,2.854435,1.744895,125.801564,-0.053528,0.046326,0.971298,-0.064425,-0.087008,0.037785,66.874847,31.257996,-146.127838,,,
729861969.85517,2.839487,1.719144,125.812757,-0.038834,0.044388,0.993866,-0.064425,-0.087008,0.037785,66.874847,31.257996,-146.127838,,,
729861969.858495,2.827786,1.700679,125.822949,-0.038834,0.044388,0.993866,-0.042606,-0.064323,0.034237,66.874847,31.257996,-146.127838,,,
729861969.86184,2.827786,1.700679,125.822949,-0.038834,0.044388,0.993866,-0.042606,-0.064323,0.034237,66.874847,31.257996,-146.127838,,,
729861969.865158,2.819772,1.685786,125.832172,-0.021667,0.0448,1.013687,-0.042606,-0.064323,0.034237,66.693466,31.517227,-146.009247,,,
729861969.868487,2.814294,1.677744,125.84054,-0.021667,0.0448,1.013687,-0.02313,-0.028303,0.027619,66.693466,31.517227,-146.009247,,,
729861969.871891,2.814294,1.677744,125.84054,-0.021667,0.0448,1.013687,-0.02313,-0.028303,0.027619,66.693466,31.517227,-146.009247,,,
729861969.875219,2.812635,1.677327,125.848007,-0.011688,0.046768,1.022034,-0.02313,-0.028303,0.027619,66.693466,31.517227,-146.009247,,,
729861969.878481,2.813416,1.680891,125.854938,-0.011688,0.046768,1.022034,0.000521,0.010722,0.020753,66.693466,31.517227,-146.009247,,,
729861969.88188,2.813416,1.680891,125.854938,-0.011688,0.046768,1.022034,0.000521,0.010722,0.020753,66.693466,31.517227,-146.009247,,,
729861969.885216,2.816357,1.693346,125.86172,-0.011841,0.046555,1.022736,0.000521,0.010722,0.020753,66.693466,31.517227,-146.009247,,,
729861969.888485,2.818439,1.703734,125.869748,-0.011841,0.046555,1.022736,0.008754,0.038455,0.025444,66.693466,31.517227,-146.009247,,,
729861969.891835,2.818439,1.703734,125.869748,-0.011841,0.046555,1.022736,0.008754,0.038455,0.025444,66.693466,31.517227,-146.009247,,,
729861969.895165,2.819031,1.720395,125.878166,-0.018051,0.049591,1.006531,0.008754,0.038455,0.025444,66.693466,31.517227,-146.009247,,,
729861969.8985,2.81638,1.729324,125.886914,-0.018051,0.049591,1.006531,-0.00704,0.036801,0.02715,66.693466,31.517227,-146.009247,,,
729861969.901834,2.81638,1.729324,125.886914,-0.018051,0.049591,1.006531,-0.00704,0.036801,0.02715,66.693466,31.517227,-146.009247,,,
729861969.905171,2.810434,1.74277,125.894973,-0.01976,0.05246,0.979263,-0.00704,0.036801,0.02715,66.716858,31.385178,-145.845184,,,
729861969.908481,2.799175,1.74515,125.901675,-0.01976,0.05246,0.979263,-0.033132,0.017663,0.023115,66.716858,31.385178,-145.845184,,,
729861969.911897,2.799175,1.74515,125.901675,-0.01976,0.05246,0.979263,-0.033132,0.017663,0.023115,66.716858,31.385178,-145.845184,,,
729861969.915159,2.784351,1.75039,125.906195,-0.01828,0.058609,0.96373,-0.033132,0.017663,0.023115,66.716858,31.385178,-145.845184,,,
729861969.9185,2.76654,1.743137,125.9097,-0.01828,0.058609,0.96373,-0.06306,-0.017886,0.009504,66.716858,31.385178,-145.845184,,,
729861969.921831,2.76654,1.743137,125.9097,-0.01828,0.058609,0.96373,-0.06306,-0.017886,0.009504,66.716858,31.385178,-145.845184,,,
729861969.92523,2.746539,1.737584,125.910993,-0.015472,0.060394,0.964203,-0.06306,-0.017886,0.009504,66.716858,31.385178,-145.845184,,,
729861969.928489,2.726977,1.724875,125.911239,-0.015472,0.060394,0.964203,-0.070856,-0.041637,-0.001544,66.716858,31.385178,-145.845184,,,
729861969.931839,2.726977,1.724875,125.911239,-0.015472,0.060394,0.964203,-0.070856,-0.041637,-0.001544,66.716858,31.385178,-145.845184,,,
729861969.935171,2.708684,1.712948,125.910455,-0.013031,0.056824,0.981995,-0.070856,-0.041637,-0.001544,66.716858,31.385178,-145.845184,,,
729861969.938518,2.693918,1.701635,125.909151,-0.013031,0.056824,0.981995,-0.055168,-0.040193,-0.00855,66.716858,31.385178,-145.845184,,,
729861969.941858,2.693918,1.701635,125.909151,-0.013031,0.056824,0.981995,-0.055168,-0.040193,-0.00855,66.716858,31.385178,-145.845184,,,
729861969.945153,2.683144,1.689252,125.908587,-0.013397,0.047516,1.012985,-0.055168,-0.040193,-0.00855,66.584167,31.512177,-145.783813,,,
729861969.948527,2.678258,1.684067,125.908929,-0.013397,0.047516,1.012985,-0.020663,-0.018912,-0.002116,66.584167,31.512177,-145.783813,,,
729861969.951891,2.678258,1.684067,125.908929,-0.013397,0.047516,1.012985,-0.020663,-0.018912,-0.002116,66.584167,31.512177,-145.783813,,,
729861969.95516,2.679731,1.678421,125.910447,-0.015839,0.037704,1.035812,-0.020663,-0.018912,-0.002116,66.584167,31.512177,-145.783813,,,
729861969.958514,2.679731,1.680007,125.91241,-0.015839,0.037704,1.035812,0.022654,0.007737,0.006899,66.584167,31.512177,-145.783813,,,
729861969.961839,2.687193,1.680007,125.91241,-0.015839,0.037704,1.035812,0.022654,0.007737,0.006899,66.584167,31.512177,-145.783813,,,
729861969.965211,2.699929,1.681625,125.91512,-0.021408,0.033508,1.046158,0.022654,0.007737,0.006899,66.584167,31.512177,-145.783813,,,
729861969.968566,2.699929,1.681625,125.917996,-0.021408,0.033508,1.046158,0.052237,0.025488,0.011395,66.584167,31.512177,-145.783813,,,
729861969.971834,2.716417,1.688289,125.917996,-0.021408,0.033508,1.046158,0.052237,0.025488,0.011395,66.584167,31.512177,-145.783813,,,
729861969.975164,2.734821,1.692949,125.920518,-0.024704,0.037964,1.038193,0.052237,0.025488,0.011395,66.584167,31.512177,-145.783813,,,
729861969.978486,2.734821,1.692949,125.920518,-0.024704,0.037964,1.038193,0.061113,0.023822,0.007754,66.584167,31.512177,-145.783813,,,
729861969.981816,2.752383,1.69883,125.922201,-0.024704,0.037964,1.038193,0.061113,0.023822,0.007754,66.584167,31.512177,-145.783813,,,
729861969.985154,2.768835,1.701069,125.922979,-0.026047,0.04512,1.011765,0.061113,0.023822,0.007754,66.615433,31.491241,-145.918961,,,
729861969.988513,2.768835,1.701069,125.922638,-0.026047,0.04512,1.011765,0.047538,0.014487,-0.001654,66.615433,31.491241,-145.918961,,,
729861969.991879,2.781648,1.704533,125.922638,-0.026047,0.04512,1.011765,0.047538,0.014487,-0.001654,66.615433,31.491241,-145.918961,,,
729861969.995219,2.792439,1.704807,125.921536,-0.027817,0.049789,0.984848,0.047538,0.014487,-0.001654,66.615433,31.491241,-145.918961,,,
729861969.998498,2.792439,1.704807,125.921536,-0.027817,0.049789,0.984848,0.047538,0.014487,-0.001654,66.615433,31.491241,-145.918961,,,
729861970.001695,2.796885,1.708483,125.919327,-0.027817,0.049789,0.984848,0.021777,0.014314,-0.005977,66.615433,31.491241,-145.918961,,,
729861970.005284,2.799824,1.709385,125.916664,-0.030975,0.055893,0.967224,0.021777,0.014314,-0.005977,66.615433,31.491241,-145.918961,,,
729861970.008517,2.799824,1.709385,125.916664,-0.030975,0.055893,0.967224,0.021777,0.014314,-0.005977,66.615433,31.491241,-145.918961,,,
729861970.011847,2.798047,1.716625,125.913288,-0.030975,0.055893,0.967224,-0.00172,0.024502,-0.015078,66.615433,31.491241,-145.918961,,,
729861970.015155,2.792307,1.721792,125.910001,-0.034454,0.05423,0.961914,-0.00172,0.024502,-0.015078,66.615433,31.491241,-145.918961,,,
729861970.018619,2.792307,1.721792,125.907571,-0.034454,0.05423,0.961914,-0.03527,0.033863,-0.010916,66.615433,31.491241,-145.918961,,,
729861970.021874,2.780469,1.730872,125.907571,-0.034454,0.05423,0.961914,-0.03527,0.033863,-0.010916,66.615433,31.491241,-145.918961,,,
729861970.025148,2.761366,1.734944,125.90742,-0.042419,0.053085,0.955185,-0.03527,0.033863,-0.010916,66.615433,31.491241,-145.918961,,,
729861970.0286,2.761366,1.734944,125.90742,-0.042419,0.053085,0.955185,-0.03527,0.033863,-0.010916,66.733292,31.508591,-146.04425,,,
729861970.031814,2.736489,1.739185,125.908318,-0.042419,0.053085,0.955185,-0.078687,0.020978,-0.003643,66.733292,31.508591,-146.04425,,,
729861970.035241,2.705468,1.737636,125.910126,-0.049408,0.052765,0.942368,-0.078687,0.020978,-0.003643,66.733292,31.508591,-146.04425,,,
729861970.038502,2.705468,1.737636,125.910126,-0.049408,0.052765,0.942368,-0.078687,0.020978,-0.003643,66.733292,31.508591,-146.04425,,,
729861970.041831,2.672473,1.734992,125.912817,-0.049408,0.052765,0.942368,-0.113543,-0.004184,0.005688,66.733292,31.508591,-146.04425,,,
729861970.045167,2.637597,1.728122,125.915777,-0.048798,0.051575,0.947784,-0.113543,-0.004184,0.005688,66.733292,31.508591,-146.04425,,,
729861970.048539,2.637597,1.728122,125.915777,-0.048798,0.051575,0.947784,-0.113543,-0.004184,0.005688,66.733292,31.508591,-146.04425,,,
729861970.05182,2.605465,1.720468,125.919103,-0.048798,0.051575,0.947784,-0.114471,-0.019287,0.005604,66.733292,31.508591,-146.04425,,,
729861970.05516,2.577912,1.710564,125.923778,-0.045181,0.045334,0.97348,-0.114471,-0.019287,0.005604,66.733292,31.508591,-146.04425,,,
729861970.058484,2.577912,1.710564,125.923778,-0.045181,0.045334,0.97348,-0.114471,-0.019287,0.005604,66.733292,31.508591,-146.04425,,,
729861970.061837,2.558427,1.702097,125.92871,-0.045181,0.045334,0.97348,-0.076098,-0.027703,0.011502,66.733292,31.508591,-146.04425,,,
729861970.065165,2.547884,1.6946,125.934121,-0.040375,0.034088,1.010559,-0.076098,-0.027703,0.011502,66.733292,31.508591,-146.04425,,,
729861970.068572,2.547884,1.6946,125.934121,-0.040375,0.034088,1.010559,-0.076098,-0.027703,0.011502,66.567139,31.808563,-146.001877,,,
729861970.071833,2.546619,1.690006,125.940672,-0.040375,0.034088,1.010559,-0.01073,-0.01417,0.021583,66.567139,31.808563,-146.001877,,,
729861970.075174,2.554464,1.688534,125.948033,-0.040543,0.02446,1.036743,-0.01073,-0.01417,0.021583,66.567139,31.808563,-146.001877,,,
729861970.078537,2.554464,1.688534,125.948033,-0.040543,0.02446,1.036743,-0.01073,-0.01417,0.021583,66.567139,31.808563,-146.001877,,,
729861970.081854,2.568207,1.690566,125.956236,-0.040543,0.02446,1.036743,0.044276,0.008242,0.026627,66.567139,31.808563,-146.001877,,,
729861970.085156,2.587737,1.696897,125.964923,-0.037766,0.024979,1.040436,0.044276,0.008242,0.026627,66.567139,31.808563,-146.001877,,,
729861970.088534,2.587737,1.696897,125.964923,-0.037766,0.024979,1.040436,0.044276,0.008242,0.026627,66.567139,31.808563,-146.001877,,,
729861970.091823,2.608602,1.705934,125.974721,-0.037766,0.024979,1.040436,0.0726,0.034186,0.032597,66.567139,31.808563,-146.001877,,,
729861970.09515,2.630053,1.717534,125.9857,-0.040176,0.033051,1.02301,0.0726,0.034186,0.032597,66.567139,31.808563,-146.001877,,,
729861970.098541,2.630053,1.717534,125.9857,-0.040176,0.033051,1.02301,0.0726,0.034186,0.032597,66.567139,31.808563,-146.001877,,,
729861970.10183,2.649247,1.72721,125.997869,-0.040176,0.033051,1.02301,0.069362,0.038866,0.042861,66.567139,31.808563,-146.001877,,,
729861970.105159,2.664949,1.736707,126.01111,-0.040802,0.041672,0.998337,0.069362,0.038866,0.042861,66.567139,31.808563,-146.001877,,,
729861970.108489,2.664949,1.736707,126.01111,-0.040802,0.041672,0.998337,0.069362,0.038866,0.042861,66.525513,31.760422,-146.137817,,,
729861970.111841,2.674281,1.739881,126.024554,-0.040802,0.041672,0.998337,0.034312,0.018868,0.048829,66.525513,31.760422,-146.137817,,,
729861970.115154,2.677772,1.742535,126.037026,-0.036774,0.053619,0.972992,0.034312,0.018868,0.048829,66.525513,31.760422,-146.137817,,,
729861970.118507,2.677772,1.742535,126.037026,-0.036774,0.053619,0.972992,0.034312,0.018868,0.048829,66.525513,31.760422,-146.137817,,,
729861970.121841,2.674726,1.738096,126.047964,-0.036774,0.053619,0.972992,-0.008006,-0.008301,0.03771,66.525513,31.760422,-146.137817,,,
729861970.125179,2.66754,1.735159,126.056421,-0.027084,0.063034,0.965561,-0.008006,-0.008301,0.03771,66.525513,31.760422,-146.137817,,,
729861970.128497,2.66754,1.735159,126.056421,-0.027084,0.063034,0.965561,-0.008006,-0.008301,0.03771,66.525513,31.760422,-146.137817,,,
729861970.131886,2.656912,1.727645,126.0623,-0.027084,0.063034,0.965561,-0.036535,-0.022023,0.020499,66.525513,31.760422,-146.137817,,,
729861970.135151,2.64511,1.723459,126.06461,-0.013596,0.065201,0.979904,-0.036535,-0.022023,0.020499,66.525513,31.760422,-146.137817,,,
729861970.138499,2.64511,1.723459,126.06461,-0.013596,0.065201,0.979904,-0.036535,-0.022023,0.020499,66.525513,31.760422,-146.137817,,,
729861970.141834,2.634392,1.718815,126.064548,-0.013596,0.065201,0.979904,-0.035747,-0.015092,0.000551,66.525513,31.760422,-146.137817,,,
729861970.145151,2.624625,1.7199,126.063121,-0.009247,0.059494,1.005066,-0.035747,-0.015092,0.000551,66.525513,31.760422,-146.137817,,,
729861970.14849,2.624625,1.7199,126.063121,-0.009247,0.059494,1.005066,-0.035747,-0.015092,0.000551,66.589264,31.798477,-146.232452,,,
729861970.151884,2.619501,1.724489,126.060725,-0.009247,0.059494,1.005066,-0.019477,0.012993,-0.011865,66.589264,31.798477,-146.232452,,,
729861970.155206,2.616168,1.736593,126.0582,-0.007874,0.05423,1.025192,-0.019477,0.012993,-0.011865,66.589264,31.798477,-146.232452,,,
729861970.158456,2.616168,1.736593,126.0582,-0.007874,0.05423,1.025192,-0.019477,0.012993,-0.011865,66.589264,31.798477,-146.232452,,,
729861970.161865,2.619049,1.753137,126.057467,-0.007874,0.05423,1.025192,0.007494,0.053462,-0.004325,66.589264,31.798477,-146.232452,,,
729861970.165225,2.624196,1.774505,126.058692,-0.015961,0.044647,1.037323,0.007494,0.053462,-0.004325,66.589264,31.798477,-146.232452,,,
729861970.168455,2.624196,1.774505,126.058692,-0.015961,0.044647,1.037323,0.007494,0.053462,-0.004325,66.589264,31.798477,-146.232452,,,
729861970.171863,2.634713,1.79675,126.061215,-0.015961,0.044647,1.037323,0.034075,0.079481,0.007993,66.589264,31.798477,-146.232452,,,
729861970.175091,2.648716,1.820894,126.064816,-0.026367,0.037872,1.039413,0.034075,0.079481,0.007993,66.589264,31.798477,-146.232452,,,
729861970.178509,2.648716,1.820894,126.064816,-0.026367,0.037872,1.039413,0.034075,0.079481,0.007993,66.589264,31.798477,-146.232452,,,
729861970.181831,2.667675,1.842355,126.068893,-0.026367,0.037872,1.039413,0.064349,0.07944,0.01603,66.589264,31.798477,-146.232452,,,
729861970.185157,2.690273,1.861697,126.072724,-0.029694,0.036026,1.034103,0.064349,0.07944,0.01603,66.589264,31.798477,-146.232452,,,
729861970.1885,2.690273,1.861697,126.072724,-0.029694,0.036026,1.034103,0.064349,0.07944,0.01603,66.589264,31.798477,-146.232452,,,
729861970.191821,2.714282,1.874041,126.075914,-0.029694,0.036026,1.034103,0.084728,0.054483,0.01288,66.749268,31.75148,-146.333466,,,
729861970.195151,2.739185,1.880302,126.077395,-0.031219,0.041138,1.02095,0.084728,0.054483,0.01288,66.749268,31.75148,-146.333466,,,
729861970.198534,2.739185,1.880302,126.077395,-0.031219,0.041138,1.02095,0.084728,0.054483,0.01288,66.749268,31.75148,-146.333466,,,
729861970.201825,2.760711,1.878328,126.077255,-0.031219,0.041138,1.02095,0.077534,0.00058,0.003738,66.749268,31.75148,-146.333466,,,
729861970.205153,2.780419,1.866757,126.076015,-0.033051,0.048325,0.995621,0.077534,0.00058,0.003738,66.749268,31.75148,-146.333466,,,
729861970.208486,2.780419,1.866757,126.076015,-0.033051,0.048325,0.995621,0.077534,0.00058,0.003738,66.749268,31.75148,-146.333466,,,
729861970.211868,2.792025,1.853881,126.073729,-0.033051,0.048325,0.995621,0.045549,-0.041719,-0.007054,66.749268,31.75148,-146.333466,,,
729861970.215147,2.799974,1.832111,126.071206,-0.033691,0.05957,0.97554,0.045549,-0.041719,-0.007054,66.749268,31.75148,-146.333466,,,
729861970.218559,2.799974,1.832111,126.071206,-0.033691,0.05957,0.97554,0.045549,-0.041719,-0.007054,66.749268,31.75148,-146.333466,,,
729861970.22181,2.799519,1.815672,126.068391,-0.033691,0.05957,0.97554,0.005793,-0.057325,-0.011168,66.749268,31.75148,-146.333466,,,
729861970.225156,2.793471,1.793756,126.066404,-0.032806,0.065521,0.968262,0.005793,-0.057325,-0.011168,66.749268,31.75148,-146.333466,,,
729861970.22851,2.793471,1.793756,126.066404,-0.032806,0.065521,0.968262,0.005793,-0.057325,-0.011168,66.749268,31.75148,-146.333466,,,
729861970.231842,2.780381,1.778626,126.064426,-0.032806,0.065521,0.968262,-0.039267,-0.051084,-0.012047,66.853531,31.513733,-146.247635,,,
729861970.23515,2.762416,1.759632,126.063235,-0.033859,0.062149,0.964371,-0.039267,-0.051084,-0.012047,66.853531,31.513733,-146.247635,,,
729861970.238603,2.762416,1.759632,126.063235,-0.033859,0.062149,0.964371,-0.039267,-0.051084,-0.012047,66.853531,31.513733,-146.247635,,,
729861970.241848,2.740755,1.747367,126.062654,-0.033859,0.062149,0.964371,-0.076575,-0.039713,-0.006347,66.853531,31.513733,-146.247635,,,
729861970.245164,2.715532,1.734465,126.062435,-0.034012,0.056931,0.970505,-0.076575,-0.039713,-0.006347,66.853531,31.513733,-146.247635,,,
729861970.248508,2.715532,1.734465,126.062435,-0.034012,0.056931,0.970505,-0.076575,-0.039713,-0.006347,66.853531,31.513733,-146.247635,,,
729861970.251909,2.690507,1.726493,126.061846,-0.034012,0.056931,0.970505,-0.087562,-0.027121,-0.004855,66.853531,31.513733,-146.247635,,,
729861970.25515,2.664538,1.719072,126.061364,-0.034119,0.048965,0.983734,-0.087562,-0.027121,-0.004855,66.853531,31.513733,-146.247635,,,
729861970.25853,2.664538,1.719072,126.061364,-0.034119,0.048965,0.983734,-0.087562,-0.027121,-0.004855,66.853531,31.513733,-146.247635,,,
729861970.261936,2.642395,1.712807,126.061933,-0.034119,0.048965,0.983734,-0.080112,-0.02002,-0.004347,66.853531,31.513733,-146.247635,,,
729861970.265138,2.624574,1.706559,126.063923,-0.037216,0.036118,1.00383,-0.080112,-0.02002,-0.004347,66.853531,31.513733,-146.247635,,,
729861970.268329,2.624574,1.706559,126.063923,-0.037216,0.036118,1.00383,-0.080112,-0.02002,-0.004347,66.853531,31.513733,-146.247635,,,
729861970.271871,2.615324,1.701182,126.067075,-0.037216,0.036118,1.00383,-0.038881,-0.016601,0.007097,66.653137,31.766983,-146.021179,,,
729861970.275166,2.613942,1.696796,126.071945,-0.042862,0.022705,1.027481,-0.038881,-0.016601,0.007097,66.653137,31.766983,-146.021179,,,
729861970.278601,2.613942,1.696796,126.071945,-0.042862,0.022705,1.027481,-0.038881,-0.016601,0.007097,66.653137,31.766983,-146.021179,,,
729861970.281888,2.620769,1.692299,126.078749,-0.042862,0.022705,1.027481,0.019193,-0.013752,0.024069,66.653137,31.766983,-146.021179,,,
729861970.285173,2.635283,1.689395,126.087291,-0.045151,0.015884,1.044815,0.019193,-0.013752,0.024069,66.653137,31.766983,-146.021179,,,
729861970.288519,2.635283,1.689395,126.087291,-0.045151,0.015884,1.044815,0.019193,-0.013752,0.024069,66.653137,31.766983,-146.021179,,,
729861970.291926,2.655289,1.685987,126.097183,-0.045151,0.015884,1.044815,0.064427,-0.009011,0.033577,66.653137,31.766983,-146.021179,,,
729861970.295167,2.6822,1.684379,126.107347,-0.042633,0.019989,1.036575,0.064427,-0.009011,0.033577,66.653137,31.766983,-146.021179,,,
729861970.298517,2.6822,1.684379,126.107347,-0.042633,0.019989,1.036575,0.064427,-0.009011,0.033577,66.653137,31.766983,-146.021179,,,
729861970.301851,2.709022,1.68197,126.117569,-0.042633,0.019989,1.036575,0.092242,-0.004485,0.038309,66.653137,31.766983,-146.021179,,,
729861970.305157,2.738184,1.68017,126.127436,-0.036606,0.030472,1.013321,0.092242,-0.004485,0.038309,66.653137,31.766983,-146.021179,,,
729861970.308499,2.738184,1.68017,126.127436,-0.036606,0.030472,1.013321,0.092242,-0.004485,0.038309,66.653137,31.766983,-146.021179,,,
729861970.311889,2.762171,1.675678,126.136993,-0.036606,0.030472,1.013321,0.087403,-0.009155,0.033671,66.800018,31.5495,-146.402817,,,
729861970.315155,2.782907,1.670623,126.145558,-0.030136,0.04454,0.984467,0.087403,-0.009155,0.033671,66.800018,31.5495,-146.402817,,,
729861970.31856,2.782907,1.670623,126.145558,-0.030136,0.04454,0.984467,0.087403,-0.009155,0.033671,66.800018,31.5495,-146.402817,,,
729861970.321834,2.795574,1.661572,126.152228,-0.030136,0.04454,0.984467,0.050983,-0.027049,0.025432,66.800018,31.5495,-146.402817,,,
729861970.325154,2.801778,1.651951,126.156764,-0.025726,0.055878,0.952942,0.050983,-0.027049,0.025432,66.800018,31.5495,-146.402817,,,
729861970.328502,2.801778,1.651951,126.156764,-0.025726,0.055878,0.952942,0.050983,-0.027049,0.025432,66.800018,31.5495,-146.402817,,,
729861970.331887,2.801167,1.640057,126.159776,-0.025726,0.055878,0.952942,0.003812,-0.035465,0.011475,66.800018,31.5495,-146.402817,,,
729861970.335151,2.795385,1.628514,126.161417,-0.023743,0.06102,0.943329,0.003812,-0.035465,0.011475,66.800018,31.5495,-146.402817,,,
729861970.338502,2.795385,1.628514,126.161417,-0.023743,0.06102,0.943329,0.003812,-0.035465,0.011475,66.800018,31.5495,-146.402817,,,
729861970.341826,2.785174,1.615199,126.161607,-0.023743,0.06102,0.943329,-0.034069,-0.04084,0.000298,66.800018,31.5495,-146.402817,,,
729861970.345168,2.768832,1.605349,126.160525,-0.02124,0.058609,0.946121,-0.034069,-0.04084,0.000298,66.800018,31.5495,-146.402817,,,
729861970.348502,2.768832,1.605349,126.160525,-0.02124,0.058609,0.946121,-0.034069,-0.04084,0.000298,66.800018,31.5495,-146.402817,,,
729861970.351823,2.751813,1.596268,126.159208,-0.02124,0.058609,0.946121,-0.057246,-0.031625,-0.006834,66.800018,31.5495,-146.402817,,,
729861970.355157,2.730934,1.593532,126.157838,-0.01947,0.052307,0.95961,-0.057246,-0.031625,-0.006834,66.671219,31.751129,-146.110626,,,
729861970.358569,2.730934,1.593532,126.157838,-0.01947,0.052307,0.95961,-0.057246,-0.031625,-0.006834,66.671219,31.751129,-146.110626,,,
729861970.361835,2.712526,1.59124,126.156536,-0.01947,0.052307,0.95961,-0.063776,-0.008002,-0.011107,66.671219,31.751129,-146.110626,,,
729861970.365156,2.690934,1.594607,126.155914,-0.019852,0.04483,0.980103,-0.063776,-0.008002,-0.011107,66.671219,31.751129,-146.110626,,,
729861970.368502,2.690934,1.594607,126.155914,-0.019852,0.04483,0.980103,-0.063776,-0.008002,-0.011107,66.671219,31.751129,-146.110626,,,
729861970.371924,2.672855,1.596986,126.1575,-0.019852,0.04483,0.980103,-0.065657,0.008364,-0.001456,66.671219,31.751129,-146.110626,,,
729861970.37515,2.654748,1.604347,126.160717,-0.024918,0.038452,0.987183,-0.065657,0.008364,-0.001456,66.671219,31.751129,-146.110626,,,
729861970.378518,2.654748,1.604347,126.160717,-0.024918,0.038452,0.987183,-0.065657,0.008364,-0.001456,66.671219,31.751129,-146.110626,,,
729861970.381835,2.643052,1.612022,126.165547,-0.024918,0.038452,0.987183,-0.045082,0.029843,0.010916,66.671219,31.751129,-146.110626,,,
729861970.385154,2.634205,1.622236,126.171094,-0.023956,0.032898,1.003021,-0.045082,0.029843,0.010916,66.671219,31.751129,-146.110626,,,
729861970.388509,2.634205,1.622236,126.171094,-0.023956,0.032898,1.003021,-0.045082,0.029843,0.010916,66.671219,31.751129,-146.110626,,,
729861970.391822,2.630003,1.631862,126.176471,-0.023956,0.032898,1.003021,-0.017201,0.039177,0.01782,66.671219,31.751129,-146.110626,,,
729861970.395155,2.630275,1.640935,126.180678,-0.022568,0.03154,1.013687,-0.017201,0.039177,0.01782,66.806702,31.757141,-146.18573,,,
729861970.3985,2.630275,1.640935,126.180678,-0.022568,0.03154,1.013687,-0.017201,0.039177,0.01782,66.806702,31.757141,-146.18573,,,
729861970.401849,2.633447,1.648555,126.183488,-0.022568,0.03154,1.013687,0.009815,0.031942,0.007767,66.806702,31.757141,-146.18573,,,
729861970.405152,2.640744,1.654624,126.185086,-0.016876,0.037308,1.008728,0.009815,0.031942,0.007767,66.806702,31.757141,-146.18573,,,
729861970.408488,2.640744,1.654624,126.185086,-0.016876,0.037308,1.008728,0.009815,0.031942,0.007767,66.806702,31.757141,-146.18573,,,
729861970.411821,2.648175,1.659909,126.18477,-0.016876,0.037308,1.008728,0.027399,0.02286,0.00033,66.806702,31.757141,-146.18573,,,
729861970.41516,2.65829,1.66243,126.182918,-0.012711,0.041275,1.002411,0.027399,0.02286,0.00033,66.806702,31.757141,-146.18573,,,
729861970.418505,2.65829,1.66243,126.182918,-0.012711,0.041275,1.002411,0.027399,0.02286,0.00033,66.806702,31.757141,-146.18573,,,
729861970.42189,2.667022,1.664007,126.180591,-0.012711,0.041275,1.002411,0.029911,0.010152,-0.008082,66.806702,31.757141,-146.18573,,,
729861970.425154,2.676249,1.661804,126.178193,-0.015518,0.042267,0.996841,0.029911,0.010152,-0.008082,66.806702,31.757141,-146.18573,,,
729861970.4285,2.676249,1.661804,126.178193,-0.015518,0.042267,0.996841,0.029911,0.010152,-0.008082,66.806702,31.757141,-146.18573,,,
729861970.431833,2.681715,1.660166,126.17532,-0.015518,0.042267,0.996841,0.024074,-0.003607,-0.008314,66.806702,31.757141,-146.18573,,,
729861970.43515,2.684581,1.656358,126.171684,-0.01738,0.048248,0.986206,0.024074,-0.003607,-0.008314,66.859207,31.444702,-145.926819,,,
729861970.438503,2.684581,1.656358,126.171684,-0.01738,0.048248,0.986206,0.024074,-0.003607,-0.008314,66.859207,31.444702,-145.926819,,,
729861970.441825,2.682798,1.655242,126.166202,-0.01738,0.048248,0.986206,-0.001616,-0.001965,-0.017857,66.859207,31.444702,-145.926819,,,
729861970.445201,2.675946,1.652325,126.159056,-0.013504,0.055557,0.980911,-0.001616,-0.001965,-0.017857,66.859207,31.444702,-145.926819,,,
729861970.448524,2.675946,1.652325,126.159056,-0.013504,0.055557,0.980911,-0.001616,-0.001965,-0.017857,66.859207,31.444702,-145.926819,,,
729861970.451824,2.665355,1.652088,126.150512,-0.013504,0.055557,0.980911,-0.031524,-0.000207,-0.028936,66.859207,31.444702,-145.926819,,,
729861970.455156,2.650134,1.650783,126.140881,-0.013947,0.061264,0.978622,-0.031524,-0.000207,-0.028936,66.859207,31.444702,-145.926819,,,
729861970.458498,2.650134,1.650783,126.140881,-0.013947,0.061264,0.978622,-0.031524,-0.000207,-0.028936,66.859207,31.444702,-145.926819,,,
729861970.461921,2.634467,1.650799,126.129891,-0.013947,0.061264,0.978622,-0.050654,0.001757,-0.042108,66.859207,31.444702,-145.926819,,,
729861970.465157,2.616271,1.649954,126.117506,-0.014267,0.055664,0.986099,-0.050654,0.001757,-0.042108,66.859207,31.444702,-145.926819,,,
729861970.468506,2.616271,1.649954,126.117506,-0.014267,0.055664,0.986099,-0.050654,0.001757,-0.042108,66.859207,31.444702,-145.926819,,,
729861970.471845,2.600374,1.652438,126.103393,-0.014267,0.055664,0.986099,-0.055519,0.008309,-0.052031,66.859207,31.444702,-145.926819,,,
729861970.475183,2.583563,1.655001,126.088036,-0.01889,0.049057,1.003952,-0.055519,0.008309,-0.052031,66.859207,31.444702,-145.926819,,,
729861970.478497,2.583563,1.655001,126.088036,-0.01889,0.049057,1.003952,-0.055519,0.008309,-0.052031,66.754395,31.475357,-145.965164,,,
729861970.481842,2.571389,1.663811,126.071769,-0.01889,0.049057,1.003952,-0.043645,0.028605,-0.058607,66.754395,31.475357,-145.965164,,,
729861970.485163,2.563141,1.670039,126.055948,-0.023468,0.04541,1.02507,-0.043645,0.028605,-0.058607,66.754395,31.475357,-145.965164,,,
729861970.488562,2.563141,1.670039,126.055948,-0.023468,0.04541,1.02507,-0.043645,0.028605,-0.058607,66.754395,31.475357,-145.965164,,,
729861970.491828,2.561764,1.684142,126.041877,-0.023468,0.04541,1.02507,-0.008313,0.048502,-0.05336,66.754395,31.475357,-145.965164,,,
729861970.495153,2.566142,1.69342,126.031737,-0.036179,0.032394,1.045273,-0.008313,0.048502,-0.05336,66.754395,31.475357,-145.965164,,,
729861970.498485,2.566142,1.69342,126.031737,-0.036179,0.032394,1.045273,-0.008313,0.048502,-0.05336,66.754395,31.475357,-145.965164,,,
729861970.501837,2.57783,1.707412,126.025586,-0.036179,0.032394,1.045273,0.033781,0.053794,-0.026516,66.754395,31.475357,-145.965164,,,
729861970.505155,2.594877,1.714219,126.02405,-0.05368,0.020554,1.053055,0.033781,0.053794,-0.026516,66.754395,31.475357,-145.965164,,,
729861970.5085,2.594877,1.714219,126.02405,-0.05368,0.020554,1.053055,0.033781,0.053794,-0.026516,66.754395,31.475357,-145.965164,,,
729861970.511903,2.615499,1.722376,126.026011,-0.05368,0.020554,1.053055,0.068145,0.035653,0.005032,66.754395,31.475357,-145.965164,,,
729861970.515151,2.639458,1.720389,126.030564,-0.060715,0.024185,1.041321,0.068145,0.035653,0.005032,66.754395,31.475357,-145.965164,,,
729861970.51851,2.639458,1.720389,126.030564,-0.060715,0.024185,1.041321,0.068145,0.035653,0.005032,66.509201,31.748856,-145.801071,,,
729861970.521842,2.66425,1.71875,126.035683,-0.060715,0.024185,1.041321,0.086272,0.001605,0.02019,66.509201,31.748856,-145.801071,,,
729861970.525163,2.692506,1.705945,126.039637,-0.052292,0.036041,1.022598,0.086272,0.001605,0.02019,66.509201,31.748856,-145.801071,,,
729861970.528502,2.692506,1.705945,126.039637,-0.052292,0.036041,1.022598,0.086272,0.001605,0.02019,66.509201,31.748856,-145.801071,,,
729861970.531843,2.717716,1.69635,126.0407,-0.052292,0.036041,1.022598,0.092442,-0.029217,0.008044,66.509201,31.748856,-145.801071,,,
729861970.535159,2.744738,1.679306,126.039396,-0.036011,0.051331,1.005981,0.092442,-0.029217,0.008044,66.509201,31.748856,-145.801071,,,
729861970.538553,2.744738,1.679306,126.039396,-0.036011,0.051331,1.005981,0.092442,-0.029217,0.008044,66.509201,31.748856,-145.801071,,,
729861970.541823,2.767081,1.669395,126.035279,-0.036011,0.051331,1.005981,0.082224,-0.03414,-0.011405,66.509201,31.748856,-145.801071,,,
729861970.545167,2.786683,1.656781,126.029271,-0.023102,0.05867,0.993164,0.082224,-0.03414,-0.011405,66.509201,31.748856,-145.801071,,,
729861970.548504,2.786683,1.656781,126.029271,-0.023102,0.05867,0.993164,0.082224,-0.03414,-0.011405,66.509201,31.748856,-145.801071,,,
729861970.551916,2.801672,1.653888,126.021496,-0.023102,0.05867,0.993164,0.058059,-0.015043,-0.02499,66.509201,31.748856,-145.801071,,,
729861970.55515,2.812842,1.654009,126.01295,-0.019394,0.061462,0.984573,0.058059,-0.015043,-0.02499,66.509201,31.748856,-145.801071,,,
729861970.558494,2.812842,1.654009,126.01295,-0.019394,0.061462,0.984573,0.058059,-0.015043,-0.02499,66.663742,31.399582,-146.177429,,,
729861970.561847,2.820508,1.664502,126.003823,-0.019394,0.061462,0.984573,0.029514,0.030887,-0.031941,66.663742,31.399582,-146.177429,,,
729861970.565156,2.822947,1.681096,125.994752,-0.020782,0.061096,0.976578,0.029514,0.030887,-0.031941,66.663742,31.399582,-146.177429,,,
729861970.568504,2.822947,1.681096,125.994752,-0.020782,0.061096,0.976578,0.029514,0.030887,-0.031941,66.663742,31.399582,-146.177429,,,
729861970.571851,2.823126,1.704092,125.985992,-0.020782,0.061096,0.976578,0.00485,0.078519,-0.033951,66.663742,31.399582,-146.177429,,,
729861970.575156,2.817225,1.734244,125.978086,-0.029388,0.059555,0.966034,0.00485,0.078519,-0.033951,66.663742,31.399582,-146.177429,,,
729861970.578561,2.817225,1.734244,125.978086,-0.029388,0.059555,0.966034,0.00485,0.078519,-0.033951,66.663742,31.399582,-146.177429,,,
729861970.581822,2.811647,1.763614,125.972208,-0.029388,0.059555,0.966034,-0.016068,0.102578,-0.022907,66.663742,31.399582,-146.177429,,,
729861970.585155,2.799547,1.79783,125.968488,-0.038483,0.057434,0.957764,-0.016068,0.102578,-0.022907,66.663742,31.399582,-146.177429,,,
729861970.588504,2.799547,1.79783,125.968488,-0.038483,0.057434,0.957764,-0.016068,0.102578,-0.022907,66.663742,31.399582,-146.177429,,,
729861970.591876,2.787019,1.822547,125.967687,-0.038483,0.057434,0.957764,-0.039644,0.097744,-0.009378,66.663742,31.399582,-146.177429,,,
729861970.595148,2.768775,1.845408,125.96972,-0.053482,0.052444,0.945389,-0.039644,0.097744,-0.009378,66.663742,31.399582,-146.177429,,,
729861970.598483,2.768775,1.845408,125.96972,-0.053482,0.052444,0.945389,-0.039644,0.097744,-0.009378,66.687363,31.407227,-146.085678,,,
729861970.60182,2.748411,1.854291,125.974594,-0.053482,0.052444,0.945389,-0.068564,0.044863,0.012023,66.687363,31.407227,-146.085678,,,
729861970.605153,2.725289,1.855393,125.981567,-0.063095,0.050812,0.932724,-0.068564,0.044863,0.012023,66.687363,31.407227,-146.085678,,,
729861970.608502,2.725289,1.855393,125.981567,-0.063095,0.050812,0.932724,-0.068564,0.044863,0.012023,66.687363,31.407227,-146.085678,,,
729861970.611829,2.702917,1.84627,125.991045,-0.063095,0.050812,0.932724,-0.081439,-0.021519,0.026481,66.687363,31.407227,-146.085678,,,
729861970.615156,2.684001,1.829374,126.002279,-0.066589,0.048706,0.949326,-0.081439,-0.021519,0.026481,66.687363,31.407227,-146.085678,,,
729861970.618558,2.684001,1.829374,126.002279,-0.066589,0.048706,0.949326,-0.081439,-0.021519,0.026481,66.687363,31.407227,-146.085678,,,
729861970.621832,2.669733,1.806349,126.014778,-0.066589,0.048706,0.949326,-0.058643,-0.068957,0.038505,66.687363,31.407227,-146.085678,,,
729861970.625165,2.661368,1.77726,126.028841,-0.059662,0.039993,0.985184,-0.058643,-0.068957,0.038505,66.687363,31.407227,-146.085678,,,
729861970.628504,2.661368,1.77726,126.028841,-0.059662,0.039993,0.985184,-0.058643,-0.068957,0.038505,66.687363,31.407227,-146.085678,,,
729861970.6319,2.656094,1.746622,126.043804,-0.059662,0.039993,0.985184,-0.019558,-0.101681,0.050943,66.687363,31.407227,-146.085678,,,
729861970.635154,2.655856,1.71383,126.058965,-0.047821,0.035919,1.011536,-0.019558,-0.101681,0.050943,66.687363,31.407227,-146.085678,,,
729861970.638505,2.655856,1.71383,126.058965,-0.047821,0.035919,1.011536,-0.019558,-0.101681,0.050943,66.687363,31.407227,-146.085678,,,
729861970.641853,2.657909,1.685974,126.073389,-0.047821,0.035919,1.011536,0.001523,-0.09843,0.050109,66.61441,31.695877,-146.252731,,,
729861970.645156,2.657909,1.663526,126.086721,-0.031647,0.039673,1.025131,0.001523,-0.09843,0.050109,66.61441,31.695877,-146.252731,,,
729861970.648497,2.663929,1.663526,126.086721,-0.031647,0.039673,1.025131,0.001523,-0.09843,0.050109,66.61441,31.695877,-146.252731,,,
729861970.651842,2.671244,1.649334,126.098776,-0.031647,0.039673,1.025131,0.023802,-0.050038,0.042271,66.61441,31.695877,-146.252731,,,
729861970.655157,2.681585,1.643607,126.11026,-0.019257,0.04483,1.039948,0.023802,-0.050038,0.042271,66.61441,31.695877,-146.252731,,,
729861970.658502,2.681585,1.643607,126.11026,-0.019257,0.04483,1.039948,0.023802,-0.050038,0.042271,66.61441,31.695877,-146.252731,,,
729861970.661846,2.692153,1.643842,126.121692,-0.019257,0.04483,1.039948,0.037618,-0.000815,0.039563,66.61441,31.695877,-146.252731,,,
729861970.665157,2.692153,1.643842,126.121692,-0.011536,0.045898,1.040344,0.037618,-0.000815,0.039563,66.61441,31.695877,-146.252731,,,
729861970.668563,2.703435,1.651801,126.132412,-0.011536,0.045898,1.040344,0.037618,-0.000815,0.039563,66.61441,31.695877,-146.252731,,,
729861970.671823,2.712891,1.661175,126.14195,-0.011536,0.045898,1.040344,0.034462,0.031806,0.035397,66.61441,31.695877,-146.252731,,,
729861970.675157,2.721686,1.679518,126.148888,-0.007294,0.048996,1.025574,0.034462,0.031806,0.035397,66.61441,31.695877,-146.252731,,,
729861970.678487,2.721686,1.679518,126.148888,-0.007294,0.048996,1.025574,0.034462,0.031806,0.035397,66.61441,31.695877,-146.252731,,,
729861970.68189,2.727247,1.692964,126.153517,-0.007294,0.048996,1.025574,0.020805,0.052185,0.016145,66.697922,31.628159,-146.314789,,,
729861970.685143,2.727247,1.692964,126.153517,-0.006256,0.059998,1.009735,0.020805,0.052185,0.016145,66.697922,31.628159,-146.314789,,,
729861970.688506,2.730583,1.713415,126.155157,-0.006256,0.059998,1.009735,0.020805,0.052185,0.016145,66.697922,31.628159,-146.314789,,,
729861970.691834,2.731579,1.726649,126.154823,-0.006256,0.059998,1.009735,0.001639,0.050617,-0.003496,66.697922,31.628159,-146.314789,,,
729861970.695143,2.731579,1.726649,126.154823,-0.00798,0.060455,0.997833,0.001639,0.050617,-0.003496,66.697922,31.628159,-146.314789,,,
729861970.698509,2.731677,1.745601,126.152101,-0.00798,0.060455,0.997833,0.001639,0.050617,-0.003496,66.697922,31.628159,-146.314789,,,
729861970.701827,2.731611,1.756763,126.147673,-0.00798,0.060455,0.997833,-0.000369,0.043478,-0.016765,66.697922,31.628159,-146.314789,,,
729861970.705153,2.731611,1.756763,126.147673,-0.011337,0.055222,1.001663,-0.000369,0.043478,-0.016765,66.697922,31.628159,-146.314789,,,
729861970.708555,2.73183,1.771374,126.141799,-0.011337,0.055222,1.001663,-0.000369,0.043478,-0.016765,66.697922,31.628159,-146.314789,,,
729861970.711819,2.734801,1.780198,126.135816,-0.011337,0.055222,1.001663,0.011381,0.034658,-0.021839,66.697922,31.628159,-146.314789,,,
729861970.715149,2.734801,1.780198,126.135816,-0.017761,0.049622,1.009628,0.011381,0.034658,-0.021839,66.697922,31.628159,-146.314789,,,
729861970.718508,2.73836,1.789368,126.129985,-0.017761,0.049622,1.009628,0.011381,0.034658,-0.021839,66.697922,31.628159,-146.314789,,,
729861970.721824,2.744291,1.79457,126.124731,-0.017761,0.049622,1.009628,0.017912,0.023027,-0.021322,66.677734,31.569,-146.151855,,,
729861970.725222,2.744291,1.79457,126.124731,-0.028107,0.045105,1.009415,0.017912,0.023027,-0.021322,66.677734,31.569,-146.151855,,,
729861970.728481,2.750544,1.796218,126.120832,-0.028107,0.045105,1.009415,0.017912,0.023027,-0.021322,66.677734,31.569,-146.151855,,,
729861970.73182,2.758092,1.79611,126.118444,-0.028107,0.045105,1.009415,0.024459,0.003692,-0.011305,66.677734,31.569,-146.151855,,,
729861970.735154,2.758092,1.79611,126.118444,-0.032959,0.04306,1.004486,0.024459,0.003692,-0.011305,66.677734,31.569,-146.151855,,,
729861970.738504,2.766631,1.789737,126.11736,-0.032959,0.04306,1.004486,0.024459,0.003692,-0.011305,66.677734,31.569,-146.151855,,,
729861970.741825,2.776733,1.78509,126.117235,-0.032959,0.04306,1.004486,0.036014,-0.014137,0.000727,66.677734,31.569,-146.151855,,,
729861970.745154,2.776733,1.78509,126.117235,-0.03537,0.040802,1.003754,0.036014,-0.014137,0.000727,66.677734,31.569,-146.151855,,,
729861970.748533,2.78808,1.777135,126.118078,-0.03537,0.040802,1.003754,0.036014,-0.014137,0.000727,66.677734,31.569,-146.151855,,,
729861970.751822,2.802028,1.776062,126.118804,-0.03537,0.040802,1.003754,0.047497,-0.003695,0.00356,66.677734,31.569,-146.151855,,,
729861970.755179,2.802028,1.776062,126.118804,-0.03009,0.040771,1.014496,0.047497,-0.003695,0.00356,66.677734,31.569,-146.151855,,,
729861970.758487,2.818297,1.770186,126.120297,-0.03009,0.040771,1.014496,0.047497,-0.003695,0.00356,66.677734,31.569,-146.151855,,,
729861970.761825,2.835692,1.774488,126.121893,-0.03009,0.040771,1.014496,0.061436,0.016205,0.006885,66.698227,31.607239,-146.176376,,,
729861970.765154,2.835692,1.774488,126.121893,-0.02829,0.04248,1.019165,0.061436,0.016205,0.006885,66.698227,31.607239,-146.176376,,,
729861970.768497,2.856157,1.770132,126.123718,-0.02829,0.04248,1.019165,0.061436,0.016205,0.006885,66.698227,31.607239,-146.176376,,,
729861970.771819,2.874557,1.775768,126.124059,-0.02829,0.04248,1.019165,0.06859,0.022358,0.005507,66.698227,31.607239,-146.176376,,,
729861970.775229,2.874557,1.775768,126.124059,-0.025177,0.04599,1.005676,0.06859,0.022358,0.005507,66.698227,31.607239,-146.176376,,,
729861970.778497,2.893458,1.774314,126.123375,-0.025177,0.04599,1.005676,0.06859,0.022358,0.005507,66.698227,31.607239,-146.176376,,,
729861970.781824,2.908698,1.77959,126.120669,-0.025177,0.04599,1.005676,0.057242,0.023507,-0.006354,66.698227,31.607239,-146.176376,,,
729861970.785176,2.908698,1.77959,126.120669,-0.025177,0.04599,1.005676,0.057242,0.023507,-0.006354,66.698227,31.607239,-146.176376,,,
729861970.788553,2.920214,1.777337,126.116156,-0.021729,0.055344,0.988098,0.057242,0.023507,-0.006354,66.698227,31.607239,-146.176376,,,
729861970.791823,2.926282,1.779185,126.11029,-0.021729,0.055344,0.988098,0.024415,0.011002,-0.021425,66.698227,31.607239,-146.176376,,,
729861970.795172,2.926282,1.779185,126.11029,-0.021729,0.055344,0.988098,0.024415,0.011002,-0.021425,66.698227,31.607239,-146.176376,,,
729861970.798509,2.925956,1.77351,126.104572,-0.021088,0.062271,0.970444,0.024415,0.011002,-0.021425,66.698227,31.607239,-146.176376,,,
729861970.80183,2.921682,1.769625,126.098437,-0.021088,0.062271,0.970444,-0.007864,-0.010848,-0.025713,66.698227,31.607239,-146.176376,,,
729861970.80516,2.921682,1.769625,126.098437,-0.021088,0.062271,0.970444,-0.007864,-0.010848,-0.025713,66.697037,31.50882,-146.163498,,,
729861970.808501,2.912651,1.763838,126.092474,-0.024048,0.064133,0.963348,-0.007864,-0.010848,-0.025713,66.697037,31.50882,-146.163498,,,
729861970.811826,2.904253,1.758145,126.087035,-0.024048,0.064133,0.963348,-0.026953,-0.017264,-0.020747,66.697037,31.50882,-146.163498,,,
729861970.815198,2.904253,1.758145,126.087035,-0.024048,0.064133,0.963348,-0.026953,-0.017264,-0.020747,66.697037,31.50882,-146.163498,,,
729861970.818489,2.893269,1.754619,126.082016,-0.025436,0.059784,0.979401,-0.026953,-0.017264,-0.020747,66.697037,31.50882,-146.163498,,,
729861970.821823,2.884693,1.750624,126.076226,-0.025436,0.059784,0.979401,-0.029092,-0.013703,-0.02099,66.697037,31.50882,-146.163498,,,
729861970.825193,2.884693,1.750624,126.076226,-0.025436,0.059784,0.979401,-0.029092,-0.013703,-0.02099,66.697037,31.50882,-146.163498,,,
729861970.828532,2.87586,1.749267,126.069471,-0.023087,0.053864,0.99649,-0.029092,-0.013703,-0.02099,66.697037,31.50882,-146.163498,,,
729861970.831823,2.872895,1.74873,126.062587,-0.023087,0.053864,0.99649,-0.015234,-0.001507,-0.027735,66.697037,31.50882,-146.163498,,,
729861970.835189,2.872895,1.74873,126.062587,-0.023087,0.053864,0.99649,-0.015234,-0.001507,-0.027735,66.697037,31.50882,-146.163498,,,
729861970.838521,2.87259,1.751945,126.054587,-0.020355,0.050705,1.009415,-0.015234,-0.001507,-0.027735,66.697037,31.50882,-146.163498,,,
729861970.84189,2.881498,1.760934,126.046101,-0.020355,0.050705,1.009415,0.025715,0.028706,-0.030345,66.697037,31.50882,-146.163498,,,
729861970.845213,2.881498,1.760934,126.046101,-0.020355,0.050705,1.009415,0.025715,0.028706,-0.030345,66.603806,31.480408,-146.257065,,,
729861970.848423,2.89616,1.772466,126.038743,-0.022171,0.043243,1.031647,0.025715,0.028706,-0.030345,66.603806,31.480408,-146.257065,,,
729861970.851848,2.918152,1.789317,126.032032,-0.022171,0.043243,1.031647,0.075734,0.057806,-0.02507,66.603806,31.480408,-146.257065,,,
729861970.8552,2.918152,1.789317,126.032032,-0.022171,0.043243,1.031647,0.075734,0.057806,-0.02507,66.603806,31.480408,-146.257065,,,
729861970.858517,2.942854,1.803551,126.026628,-0.033279,0.036926,1.038757,0.075734,0.057806,-0.02507,66.603806,31.480408,-146.257065,,,
729861970.861832,2.969381,1.820589,126.022461,-0.033279,0.036926,1.038757,0.095765,0.063431,-0.013697,66.603806,31.480408,-146.257065,,,
729861970.865223,2.969381,1.820589,126.022461,-0.033279,0.036926,1.038757,0.095765,0.063431,-0.013697,66.603806,31.480408,-146.257065,,,
729861970.868507,2.997396,1.82958,126.019672,-0.045746,0.042297,1.012497,0.095765,0.063431,-0.013697,66.603806,31.480408,-146.257065,,,
729861970.871854,3.020537,1.839043,126.017637,-0.045746,0.042297,1.012497,0.084387,0.039925,-0.006723,66.603806,31.480408,-146.257065,,,
729861970.875152,3.020537,1.839043,126.017637,-0.045746,0.042297,1.012497,0.084387,0.039925,-0.006723,66.603806,31.480408,-146.257065,,,
729861970.878571,3.041237,1.839641,126.015833,-0.053177,0.051727,0.97699,0.084387,0.039925,-0.006723,66.603806,31.480408,-146.257065,,,
729861970.88185,3.053522,1.839173,126.013745,-0.053177,0.051727,0.97699,0.047768,0.005906,-0.005931,66.603806,31.480408,-146.257065,,,
729861970.885283,3.053522,1.839173,126.013745,-0.053177,0.051727,0.97699,0.047768,0.005906,-0.005931,66.627106,31.299622,-146.228043,,,
729861970.888501,3.062158,1.832663,126.011577,-0.054184,0.061462,0.954514,0.047768,0.005906,-0.005931,66.627106,31.299622,-146.228043,,,
729861970.891831,3.064058,1.825818,126.008841,-0.054184,0.061462,0.954514,0.013069,-0.020559,-0.008031,66.627106,31.299622,-146.228043,,,
729861970.895168,3.064058,1.825818,126.008841,-0.054184,0.061462,0.954514,0.013069,-0.020559,-0.008031,66.627106,31.299622,-146.228043,,,
729861970.898495,3.062582,1.815982,126.006251,-0.053574,0.066422,0.950729,0.013069,-0.020559,-0.008031,66.627106,31.299622,-146.228043,,,
729861970.90183,3.057401,1.808188,126.003663,-0.053574,0.066422,0.950729,-0.016521,-0.027149,-0.01093,66.627106,31.299622,-146.228043,,,
729861970.905232,3.057401,1.808188,126.003663,-0.053574,0.066422,0.950729,-0.016521,-0.027149,-0.01093,66.627106,31.299622,-146.228043,,,
729861970.908504,3.05012,1.799326,126.001126,-0.048111,0.063324,0.962112,-0.016521,-0.027149,-0.01093,66.627106,31.299622,-146.228043,,,
729861970.911822,3.042601,1.796012,125.998721,-0.048111,0.063324,0.962112,-0.02456,-0.01372,-0.011501,66.627106,31.299622,-146.228043,,,
729861970.915171,3.042601,1.796012,125.998721,-0.048111,0.063324,0.962112,-0.02456,-0.01372,-0.011501,66.627106,31.299622,-146.228043,,,
729861970.918564,3.035427,1.792898,125.996438,-0.042053,0.057968,0.979782,-0.02456,-0.01372,-0.011501,66.627106,31.299622,-146.228043,,,
729861970.921819,3.030616,1.795852,125.994372,-0.042053,0.057968,0.979782,-0.018176,0.011771,-0.010427,66.627106,31.299622,-146.228043,,,
729861970.925176,3.030616,1.795852,125.994372,-0.042053,0.057968,0.979782,-0.018176,0.011771,-0.010427,66.627106,31.299622,-146.228043,,,
729861970.928503,3.025193,1.798399,125.993185,-0.041428,0.051239,0.993607,-0.018176,0.011771,-0.010427,66.613663,31.195648,-146.27446,,,
729861970.931829,3.022982,1.804466,125.992166,-0.041428,0.051239,0.993607,-0.008683,0.024167,-0.005304,66.613663,31.195648,-146.27446,,,
729861970.935169,3.022982,1.804466,125.992166,-0.041428,0.051239,0.993607,-0.008683,0.024167,-0.005304,66.613663,31.195648,-146.27446,,,
729861970.938521,3.018485,1.812871,125.992298,-0.041763,0.050919,0.992813,-0.008683,0.024167,-0.005304,66.613663,31.195648,-146.27446,,,
729861970.941827,3.01592,1.818318,125.994467,-0.041763,0.050919,0.992813,-0.006581,0.021799,0.005568,66.613663,31.195648,-146.27446,,,
729861970.945185,3.01592,1.818318,125.994467,-0.041763,0.050919,0.992813,-0.006581,0.021799,0.005568,66.613663,31.195648,-146.27446,,,
729861970.948512,3.011759,1.827136,125.998393,-0.047134,0.049957,0.984253,-0.006581,0.021799,0.005568,66.613663,31.195648,-146.27446,,,
729861970.951827,3.00806,1.827881,126.004425,-0.047134,0.049957,0.984253,-0.012741,0.009222,0.018299,66.613663,31.195648,-146.27446,,,
729861970.955155,3.00806,1.827881,126.004425,-0.047134,0.049957,0.984253,-0.012741,0.009222,0.018299,66.613663,31.195648,-146.27446,,,
729861970.95857,3.005805,1.833608,126.011999,-0.05101,0.046188,0.978073,-0.012741,0.009222,0.018299,66.613663,31.195648,-146.27446,,,
729861970.961823,3.004937,1.82827,126.022309,-0.05101,0.046188,0.978073,-0.005833,-0.011185,0.032633,66.613663,31.195648,-146.27446,,,
729861970.965165,3.004937,1.82827,126.022309,-0.05101,0.046188,0.978073,-0.005833,-0.011185,0.032633,66.613663,31.195648,-146.27446,,,
729861970.968504,3.00892,1.82929,126.033257,-0.049759,0.040451,0.983215,-0.005833,-0.011185,0.032633,66.696487,31.481232,-146.209946,,,
729861970.97182,3.012929,1.820115,126.044653,-0.049759,0.040451,0.983215,0.014459,-0.027688,0.040736,66.696487,31.481232,-146.209946,,,
729861970.975166,3.012929,1.820115,126.044653,-0.049759,0.040451,0.983215,0.014459,-0.027688,0.040736,66.696487,31.481232,-146.209946,,,
729861970.978495,3.021601,1.817527,126.055506,-0.039124,0.042145,0.995209,0.014459,-0.027688,0.040736,66.696487,31.481232,-146.209946,,,
729861970.981827,3.028019,1.807259,126.065624,-0.039124,0.042145,0.995209,0.023897,-0.032532,0.036955,66.696487,31.481232,-146.209946,,,
729861970.985214,3.028019,1.807259,126.065624,-0.039124,0.042145,0.995209,0.023897,-0.032532,0.036955,66.696487,31.481232,-146.209946,,,
729861970.988487,3.035923,1.802552,126.073864,-0.025497,0.048431,0.996262,0.023897,-0.032532,0.036955,66.696487,31.481232,-146.209946,,,
729861970.991828,3.040276,1.792181,126.080528,-0.025497,0.048431,0.996262,0.016239,-0.032367,0.025287,66.696487,31.481232,-146.209946,,,
729861970.995162,3.040276,1.792181,126.080528,-0.025497,0.048431,0.996262,0.016239,-0.032367,0.025287,66.696487,31.481232,-146.209946,,,
729861970.998524,3.042582,1.786002,126.084912,-0.013779,0.055618,0.988892,0.016239,-0.032367,0.025287,66.696487,31.481232,-146.209946,,,
729861971.001829,3.041354,1.776775,126.087449,-0.013779,0.055618,0.988892,-0.003227,-0.031572,0.010108,66.696487,31.481232,-146.209946,,,
729861971.005164,3.041354,1.776775,126.087449,-0.013779,0.055618,0.988892,-0.003227,-0.031572,0.010108,66.696487,31.481232,-146.209946,,,
729861971.00849,3.036672,1.77319,126.087699,-0.00853,0.060867,0.984726,-0.003227,-0.031572,0.010108,66.674591,31.398941,-146.126587,,,
729861971.011822,3.031009,1.769203,126.086191,-0.00853,0.060867,0.984726,-0.01846,-0.018264,-0.004117,66.674591,31.398941,-146.126587,,,
729861971.015166,3.031009,1.769203,126.086191,-0.00853,0.060867,0.984726,-0.01846,-0.018264,-0.004117,66.674591,31.398941,-146.126587,,,
729861971.018502,3.024567,1.773434,126.082435,-0.002365,0.061218,0.991241,-0.01846,-0.018264,-0.004117,66.674591,31.398941,-146.126587,,,
729861971.021825,3.018816,1.777973,126.077115,-0.002365,0.061218,0.991241,-0.018213,0.013714,-0.019453,66.674591,31.398941,-146.126587,,,
729861971.02522,3.018816,1.777973,126.077115,-0.002365,0.061218,0.991241,-0.018213,0.013714,-0.019453,66.674591,31.398941,-146.126587,,,
729861971.028498,3.013181,1.792079,126.070197,-0.000992,0.057678,1.00531,-0.018213,0.013714,-0.019453,66.674591,31.398941,-146.126587,,,
729861971.03182,3.00789,1.804725,126.062845,-0.000992,0.057678,1.00531,-0.01745,0.041877,-0.027478,66.674591,31.398941,-146.126587,,,
729861971.035164,3.00789,1.804725,126.062845,-0.000992,0.057678,1.00531,-0.01745,0.041877,-0.027478,66.674591,31.398941,-146.126587,,,
729861971.038556,3.002181,1.828421,126.054832,-0.006348,0.055389,1.011169,-0.01745,0.041877,-0.027478,66.674591,31.398941,-146.126587,,,
729861971.041848,2.999785,1.846918,126.047217,-0.006348,0.055389,1.011169,-0.007506,0.063496,-0.028244,66.674591,31.398941,-146.126587,,,
729861971.045223,2.999785,1.846918,126.047217,-0.006348,0.055389,1.011169,-0.007506,0.063496,-0.028244,66.674591,31.398941,-146.126587,,,
729861971.048499,2.996293,1.874374,126.039479,-0.011841,0.051392,1.011093,-0.007506,0.063496,-0.028244,66.583878,31.498962,-146.058472,,,
729861971.051825,2.997018,1.894354,126.03317,-0.011841,0.051392,1.011093,0.004691,0.071381,-0.020775,66.583878,31.498962,-146.058472,,,
729861971.055182,2.997018,1.894354,126.03317,-0.011841,0.051392,1.011093,0.004691,0.071381,-0.020775,66.583878,31.498962,-146.058472,,,
729861971.058494,2.996594,1.913451,126.027717,-0.025681,0.046326,1.011307,0.004691,0.071381,-0.020775,66.583878,31.498962,-146.058472,,,
729861971.061825,2.998198,1.930916,126.023071,-0.025681,0.046326,1.011307,0.007674,0.062948,-0.020278,66.583878,31.498962,-146.058472,,,
729861971.065244,2.998198,1.930916,126.023071,-0.025681,0.046326,1.011307,0.007674,0.062948,-0.020278,66.583878,31.498962,-146.058472,,,
729861971.068502,3.000149,1.939965,126.019705,-0.036346,0.045746,1.005371,0.007674,0.062948,-0.020278,66.583878,31.498962,-146.058472,,,
729861971.071831,3.002158,1.952813,126.016173,-0.036346,0.045746,1.005371,0.009576,0.049768,-0.012502,66.583878,31.498962,-146.058472,,,
729861971.075164,3.002158,1.952813,126.016173,-0.036346,0.045746,1.005371,0.009576,0.049768,-0.012502,66.583878,31.498962,-146.058472,,,
729861971.078567,3.004734,1.951329,126.014063,-0.039917,0.045959,1.0009,0.009576,0.049768,-0.012502,66.583878,31.498962,-146.058472,,,
729861971.081823,3.005701,1.956731,126.012189,-0.039917,0.045959,1.0009,0.006965,0.024386,-0.008142,66.583878,31.498962,-146.058472,,,
729861971.085154,3.005701,1.956731,126.012189,-0.039917,0.045959,1.0009,0.006965,0.024386,-0.008142,66.583878,31.498962,-146.058472,,,
729861971.08852,3.008674,1.946087,126.011153,-0.044678,0.048019,0.996277,0.006965,0.024386,-0.008142,66.583878,31.498962,-146.058472,,,
729861971.091826,3.009365,1.946921,126.009932,-0.044678,0.048019,0.996277,0.003183,0.007747,-0.005781,66.741898,31.525375,-146.5896,,,
729861971.095169,3.009365,1.946921,126.009932,-0.044678,0.048019,0.996277,0.003183,0.007747,-0.005781,66.741898,31.525375,-146.5896,,,
729861971.098517,3.012474,1.931219,126.009889,-0.045486,0.049347,0.996674,0.003183,0.007747,-0.005781,66.741898,31.525375,-146.5896,,,
729861971.101832,3.013995,1.931035,126.009317,-0.045486,0.049347,0.996674,0.007953,0.002442,-0.000981,66.741898,31.525375,-146.5896,,,
729861971.105211,3.013995,1.931035,126.009317,-0.045486,0.049347,0.996674,0.007953,0.002442,-0.000981,66.741898,31.525375,-146.5896,,,
729861971.108508,3.017373,1.917087,126.009848,-0.04303,0.050461,1.004288,0.007953,0.002442,-0.000981,66.741898,31.525375,-146.5896,,,
729861971.111828,3.021049,1.918918,126.00944,-0.04303,0.050461,1.004288,0.015987,0.007872,-0.000677,66.741898,31.525375,-146.5896,,,
729861971.115166,3.021049,1.918918,126.00944,-0.04303,0.050461,1.004288,0.015987,0.007872,-0.000677,66.741898,31.525375,-146.5896,,,
729861971.118503,3.025269,1.910457,126.009543,-0.041229,0.050232,1.0056,0.015987,0.007872,-0.000677,66.741898,31.525375,-146.5896,,,
729861971.121829,3.029514,1.916135,126.009067,-0.041229,0.050232,1.0056,0.014257,0.023259,-0.003884,66.741898,31.525375,-146.5896,,,
729861971.125168,3.029514,1.916135,126.009067,-0.041229,0.050232,1.0056,0.014257,0.023259,-0.003884,66.741898,31.525375,-146.5896,,,
729861971.128561,3.032183,1.915771,126.008686,-0.039932,0.050659,1.001297,0.014257,0.023259,-0.003884,66.741898,31.525375,-146.5896,,,
729861971.131822,3.034405,1.924328,126.007912,-0.039932,0.050659,1.001297,0.010338,0.033662,-0.005352,67.009842,31.379929,-146.702057,,,
729861971.13517,3.034405,1.924328,126.007912,-0.039932,0.050659,1.001297,0.010338,0.033662,-0.005352,67.009842,31.379929,-146.702057,,,
729861971.138506,3.033696,1.931321,126.007281,-0.041534,0.051987,0.990753,0.010338,0.033662,-0.005352,67.009842,31.379929,-146.702057,,,
729861971.141829,3.032896,1.937785,126.007006,-0.041534,0.051987,0.990753,-0.00187,0.029867,-0.002804,67.009842,31.379929,-146.702057,,,
729861971.145167,3.032896,1.937785,126.007006,-0.041534,0.051987,0.990753,-0.00187,0.029867,-0.002804,67.009842,31.379929,-146.702057,,,
729861971.148508,3.028228,1.942925,126.007485,-0.045517,0.049988,0.980133,-0.00187,0.029867,-0.002804,67.009842,31.379929,-146.702057,,,
729861971.151827,3.023466,1.943222,126.008593,-0.045517,0.049988,0.980133,-0.013684,0.007523,0.000941,67.009842,31.379929,-146.702057,,,
729861971.155188,3.023466,1.943222,126.008593,-0.045517,0.049988,0.980133,-0.013684,0.007523,0.000941,67.009842,31.379929,-146.702057,,,
729861971.158515,3.015826,1.94392,126.010228,-0.049988,0.051163,0.977631,-0.013684,0.007523,0.000941,67.009842,31.379929,-146.702057,,,
729861971.161829,3.009775,1.937733,126.012803,-0.049988,0.051163,0.977631,-0.02016,-0.014892,0.006882,67.009842,31.379929,-146.702057,,,
729861971.165169,3.009775,1.937733,126.012803,-0.049988,0.051163,0.977631,-0.02016,-0.014892,0.006882,67.009842,31.379929,-146.702057,,,
729861971.168567,3.004099,1.934509,126.015711,-0.050964,0.051682,0.989197,-0.02016,-0.014892,0.006882,67.009842,31.379929,-146.702057,,,
729861971.171824,3.000677,1.923754,126.019443,-0.050964,0.051682,0.989197,-0.012632,-0.032708,0.011038,66.86821,31.342346,-146.332504,,,
729861971.175182,3.000677,1.923754,126.019443,-0.050964,0.051682,0.989197,-0.012632,-0.032708,0.011038,66.86821,31.342346,-146.332504,,,
729861971.1785,2.998839,1.917522,126.023676,-0.047195,0.047226,1.001831,-0.012632,-0.032708,0.011038,66.86821,31.342346,-146.332504,,,
729861971.181829,3.000587,1.907115,126.02864,-0.047195,0.047226,1.001831,0.003938,-0.031302,0.017501,66.86821,31.342346,-146.332504,,,
729861971.185174,3.000587,1.907115,126.02864,-0.047195,0.047226,1.001831,0.003938,-0.031302,0.017501,66.86821,31.342346,-146.332504,,,
729861971.188503,3.004379,1.903896,126.033944,-0.040558,0.044571,1.010773,0.003938,-0.031302,0.017501,66.86821,31.342346,-146.332504,,,
