Time (sec),Pitch (deg),Roll (deg),Yaw(deg),X-Acceleration (g),Y-Acceleration (g),Z-Acceleration (g),Pitch Rate (deg/sec),Roll Rate (deg/sec),Yaw Rate (deg/sec),Magnetic Field in X direction (uT),Magnetic Field in Y direction (uT),Magnetic Field in Z Direction (uT),Latitude (deg),Longitude (deg),Altitude (m)
729860283.830394,-0.678713,-4.74878,-24.882989,0.081223,-0.005432,0.984848,0.015283,0.013663,-0.00776,76.441696,3.971054,-148.050049,,,
729860283.833685,-0.678713,-4.74878,-24.882989,0.081223,-0.005432,0.984848,0.015283,0.013663,-0.00776,76.441696,3.971054,-148.050049,,,
729860283.836937,-0.676305,-4.747555,-24.885498,0.081223,-0.005432,0.984848,0.015283,0.013663,-0.00776,76.441696,3.971054,-148.050049,,,
729860283.840307,-0.676159,-4.746234,-24.889367,0.083435,-0.002991,0.971146,-0.000998,0.003801,-0.012824,76.441696,3.971054,-148.050049,,,
729860283.843601,-0.676159,-4.746234,-24.889367,0.083435,-0.002991,0.971146,-0.000998,0.003801,-0.012824,76.324753,3.726532,-147.897385,,,
729860283.846943,-0.679121,-4.74669,-24.894011,0.083435,-0.002991,0.971146,-0.000998,0.003801,-0.012824,76.324753,3.726532,-147.897385,,,
729860283.850287,-0.679121,-4.74669,-24.894011,0.077896,-0.003082,0.966904,-0.021808,-0.008213,-0.019447,76.324753,3.726532,-147.897385,,,
729860283.853615,-0.684852,-4.749225,-24.899246,0.077896,-0.003082,0.966904,-0.021808,-0.008213,-0.019447,76.324753,3.726532,-147.897385,,,
729860283.85694,-0.693124,-4.752294,-24.904317,0.077896,-0.003082,0.966904,-0.021808,-0.008213,-0.019447,76.324753,3.726532,-147.897385,,,
729860283.860287,-0.693124,-4.752294,-24.904317,0.077896,-0.003082,0.966904,-0.02932,-0.011602,-0.016042,76.324753,3.726532,-147.897385,,,
729860283.863614,-0.701515,-4.756169,-24.908977,0.074799,-0.007492,0.967682,-0.02932,-0.011602,-0.016042,76.324753,3.726532,-147.897385,,,
729860283.866935,-0.709844,-4.759388,-24.911972,0.074799,-0.007492,0.967682,-0.02932,-0.011602,-0.016042,76.324753,3.726532,-147.897385,,,
729860283.870278,-0.709844,-4.759388,-24.911972,0.074799,-0.007492,0.967682,-0.019858,-0.004925,-0.004569,76.324753,3.726532,-147.897385,,,
729860283.873669,-0.715969,-4.76241,-24.912902,0.069,-0.012909,0.9776,-0.019858,-0.004925,-0.004569,76.324753,3.726532,-147.897385,,,
729860283.876935,-0.720618,-4.763397,-24.912046,0.069,-0.012909,0.9776,-0.019858,-0.004925,-0.004569,76.324753,3.726532,-147.897385,,,
729860283.880316,-0.720618,-4.763397,-24.912046,0.069,-0.012909,0.9776,-0.004979,0.00304,0.009884,76.324753,3.726532,-147.897385,,,
729860283.883606,-0.723137,-4.763555,-24.909207,0.067093,-0.01738,0.995331,-0.004979,0.00304,0.009884,76.386917,3.880463,-147.621063,,,
729860283.886943,-0.724449,-4.762159,-24.905558,0.067093,-0.01738,0.995331,-0.004979,0.00304,0.009884,76.386917,3.880463,-147.621063,,,
729860283.890322,-0.724449,-4.762159,-24.905558,0.067093,-0.01738,0.995331,-0.004979,0.00304,0.009884,76.386917,3.880463,-147.621063,,,
729860283.893615,-0.725601,-4.759706,-24.902535,0.072586,-0.018341,0.998932,-0.002254,0.013176,0.008503,76.386917,3.880463,-147.621063,,,
729860283.896936,-0.726974,-4.755637,-24.901578,0.072586,-0.018341,0.998932,-0.002254,0.013176,0.008503,76.386917,3.880463,-147.621063,,,
729860283.900315,-0.726974,-4.755637,-24.901578,0.072586,-0.018341,0.998932,-0.002254,0.013176,0.008503,76.386917,3.880463,-147.621063,,,
729860283.903612,-0.730903,-4.751178,-24.903244,0.082214,-0.007446,0.991669,-0.015051,0.018939,-0.007538,76.386917,3.880463,-147.621063,,,
729860283.906944,-0.736211,-4.746574,-24.907179,0.082214,-0.007446,0.991669,-0.015051,0.018939,-0.007538,76.386917,3.880463,-147.621063,,,
729860283.910357,-0.736211,-4.746574,-24.907179,0.082214,-0.007446,0.991669,-0.015051,0.018939,-0.007538,76.386917,3.880463,-147.621063,,,
729860283.913672,-0.745369,-4.743349,-24.912954,0.089554,-0.001053,0.981003,-0.034719,0.011561,-0.017894,76.386917,3.880463,-147.621063,,,
729860283.916937,-0.755635,-4.741773,-24.920193,0.089554,-0.001053,0.981003,-0.034719,0.011561,-0.017894,76.386917,3.880463,-147.621063,,,
729860283.920319,-0.755635,-4.741773,-24.920193,0.089554,-0.001053,0.981003,-0.034719,0.011561,-0.017894,76.386917,3.880463,-147.621063,,,
729860283.923636,-0.76962,-4.740371,-24.92769,0.085831,-0.002701,0.97525,-0.053727,0.008863,-0.022324,76.386917,3.880463,-147.621063,,,
729860283.926943,-0.783869,-4.740049,-24.934702,0.085831,-0.002701,0.97525,-0.053727,0.008863,-0.022324,76.297729,4.029037,-148.471344,,,
729860283.930325,-0.783869,-4.740049,-24.934702,0.085831,-0.002701,0.97525,-0.053727,0.008863,-0.022324,76.297729,4.029037,-148.471344,,,
729860283.933623,-0.801682,-4.741069,-24.941151,0.075363,-0.008286,0.980865,-0.066113,-0.001018,-0.017315,76.297729,4.029037,-148.471344,,,
729860283.93694,-0.81849,-4.742213,-24.946564,0.075363,-0.008286,0.980865,-0.066113,-0.001018,-0.017315,76.297729,4.029037,-148.471344,,,
729860283.940372,-0.81849,-4.742213,-24.946564,0.075363,-0.008286,0.980865,-0.066113,-0.001018,-0.017315,76.297729,4.029037,-148.471344,,,
729860283.943599,-0.834961,-4.744425,-24.950557,0.073471,-0.014297,0.989853,-0.055511,-0.00546,-0.00713,76.297729,4.029037,-148.471344,,,
729860283.946936,-0.848206,-4.74525,-24.952721,0.073471,-0.014297,0.989853,-0.055511,-0.00546,-0.00713,76.297729,4.029037,-148.471344,,,
729860283.950327,-0.848206,-4.74525,-24.952721,0.073471,-0.014297,0.989853,-0.055511,-0.00546,-0.00713,76.297729,4.029037,-148.471344,,,
729860283.953698,-0.859281,-4.748368,-24.953278,0.071548,-0.017471,1.000687,-0.033197,-0.00757,-0.00097,76.297729,4.029037,-148.471344,,,
729860283.956938,-0.867457,-4.747926,-24.95294,0.071548,-0.017471,1.000687,-0.033197,-0.00757,-0.00097,76.297729,4.029037,-148.471344,,,
729860283.960339,-0.867457,-4.747926,-24.95294,0.071548,-0.017471,1.000687,-0.033197,-0.00757,-0.00097,76.297729,4.029037,-148.471344,,,
729860283.963612,-0.871857,-4.748408,-24.951428,0.073334,-0.021942,1.00795,-0.00848,0.001725,0.005971,76.297729,4.029037,-148.471344,,,
729860283.966946,-0.873576,-4.744902,-24.948497,0.073334,-0.021942,1.00795,-0.00848,0.001725,0.005971,76.435501,4.234207,-148.143143,,,
729860283.970324,-0.873576,-4.744902,-24.948497,0.073334,-0.021942,1.00795,-0.00848,0.001725,0.005971,76.435501,4.234207,-148.143143,,,
729860283.973596,-0.872163,-4.741471,-24.945726,0.076004,-0.019501,1.017822,0.010015,0.019549,0.006433,76.435501,4.234207,-148.143143,,,
729860283.976944,-0.867081,-4.735717,-24.943277,0.076004,-0.019501,1.017822,0.010015,0.019549,0.006433,76.435501,4.234207,-148.143143,,,
729860283.980386,-0.867081,-4.735717,-24.943277,0.076004,-0.019501,1.017822,0.010015,0.019549,0.006433,76.435501,4.234207,-148.143143,,,
729860283.983587,-0.860345,-4.729886,-24.941065,0.07988,-0.014832,1.015717,0.024652,0.023918,0.00604,76.435501,4.234207,-148.143143,,,
729860283.986935,-0.850848,-4.726062,-24.939829,0.07988,-0.014832,1.015717,0.024652,0.023918,0.00604,76.435501,4.234207,-148.143143,,,
729860283.99028,-0.850848,-4.726062,-24.939829,0.07988,-0.014832,1.015717,0.024652,0.023918,0.00604,76.435501,4.234207,-148.143143,,,
729860283.993659,-0.842738,-4.723541,-24.940268,0.086014,-0.01387,1.004532,0.029268,0.007908,-0.006584,76.435501,4.234207,-148.143143,,,
729860283.99693,-0.832972,-4.725041,-24.9423,0.086014,-0.01387,1.004532,0.029268,0.007908,-0.006584,76.435501,4.234207,-148.143143,,,
729860284.000306,-0.832972,-4.725041,-24.9423,0.086014,-0.01387,1.004532,0.029268,0.007908,-0.006584,76.435501,4.234207,-148.143143,,,
729860284.003615,-0.827244,-4.728098,-24.946027,0.089645,-0.010437,0.993134,0.016091,-0.007976,-0.014959,76.435501,4.234207,-148.143143,,,
729860284.006938,-0.824208,-4.733983,-24.951242,0.089645,-0.010437,0.993134,0.016091,-0.007976,-0.014959,76.477936,3.752594,-147.900787,,,
729860284.010283,-0.824208,-4.733983,-24.951242,0.089645,-0.010437,0.993134,0.016091,-0.007976,-0.014959,76.477936,3.752594,-147.900787,,,
729860284.01362,-0.826326,-4.743697,-24.957142,0.086807,-0.006332,0.977097,-0.008493,-0.031923,-0.022551,76.477936,3.752594,-147.900787,,,
729860284.01694,-0.830677,-4.755013,-24.963463,0.086807,-0.006332,0.977097,-0.008493,-0.031923,-0.022551,76.477936,3.752594,-147.900787,,,
729860284.020391,-0.830677,-4.755013,-24.963463,0.086807,-0.006332,0.977097,-0.008493,-0.031923,-0.022551,76.477936,3.752594,-147.900787,,,
729860284.023634,-0.838843,-4.76925,-24.969578,0.081985,-0.006531,0.968689,-0.032656,-0.046177,-0.019457,76.477936,3.752594,-147.900787,,,
729860284.026958,-0.850634,-4.781626,-24.974532,0.081985,-0.006531,0.968689,-0.032656,-0.046177,-0.019457,76.477936,3.752594,-147.900787,,,
729860284.030281,-0.850634,-4.781626,-24.974532,0.081985,-0.006531,0.968689,-0.032656,-0.046177,-0.019457,76.477936,3.752594,-147.900787,,,
729860284.033632,-0.864246,-4.795938,-24.977919,0.076965,-0.010284,0.975052,-0.047587,-0.050042,-0.009692,76.477936,3.752594,-147.900787,,,
729860284.036953,-0.880004,-4.807683,-24.979491,0.076965,-0.010284,0.975052,-0.047587,-0.050042,-0.009692,76.477936,3.752594,-147.900787,,,
729860284.040298,-0.880004,-4.807683,-24.979491,0.076965,-0.010284,0.975052,-0.047587,-0.050042,-0.009692,76.477936,3.752594,-147.900787,,,
729860284.043708,-0.894956,-4.819615,-24.979984,0.078278,-0.014938,0.983582,-0.050774,-0.037243,0.000402,76.477936,3.752594,-147.900787,,,
729860284.046937,-0.909086,-4.826613,-24.979926,0.078278,-0.014938,0.983582,-0.050774,-0.037243,0.000402,76.120453,4.224014,-147.997864,,,
729860284.050305,-0.909086,-4.826613,-24.979926,0.078278,-0.014938,0.983582,-0.050774,-0.037243,0.000402,76.120453,4.224014,-147.997864,,,
729860284.053635,-0.920424,-4.83175,-24.979172,0.079758,-0.016891,0.994476,-0.036079,-0.012861,0.005018,76.120453,4.224014,-147.997864,,,
729860284.056938,-0.928594,-4.831737,-24.977232,0.079758,-0.016891,0.994476,-0.036079,-0.012861,0.005018,76.120453,4.224014,-147.997864,,,
729860284.060301,-0.928594,-4.831737,-24.977232,0.079758,-0.016891,0.994476,-0.036079,-0.012861,0.005018,76.120453,4.224014,-147.997864,,,
729860284.063671,-0.932552,-4.829416,-24.974332,0.085785,-0.019653,1.007141,-0.010725,0.014518,0.010413,76.120453,4.224014,-147.997864,,,
729860284.066939,-0.931887,-4.823817,-24.971297,0.085785,-0.019653,1.007141,-0.010725,0.014518,0.010413,76.120453,4.224014,-147.997864,,,
729860284.070356,-0.931887,-4.823817,-24.971297,0.085785,-0.019653,1.007141,-0.010725,0.014518,0.010413,76.120453,4.224014,-147.997864,,,
729860284.073618,-0.927462,-4.816712,-24.967954,0.090149,-0.020447,1.017242,0.020361,0.029509,0.008159,76.120453,4.224014,-147.997864,,,
729860284.076943,-0.918925,-4.809479,-24.964756,0.090149,-0.020447,1.017242,0.020361,0.029509,0.008159,76.120453,4.224014,-147.997864,,,
729860284.080287,-0.918925,-4.809479,-24.964756,0.090149,-0.020447,1.017242,0.020361,0.029509,0.008159,76.120453,4.224014,-147.997864,,,
729860284.083678,-0.908186,-4.801338,-24.963323,0.09639,-0.017426,1.008408,0.04171,0.031182,-0.003843,76.120453,4.224014,-147.997864,,,
729860284.086937,-0.895068,-4.794944,-24.964065,0.09639,-0.017426,1.008408,0.04171,0.031182,-0.003843,76.120453,4.224014,-147.997864,,,
729860284.090287,-0.895068,-4.794944,-24.964065,0.09639,-0.017426,1.008408,0.04171,0.031182,-0.003843,76.147964,4.172485,-147.868835,,,
729860284.093621,-0.884029,-4.787275,-24.967398,0.101837,-0.012482,0.994751,0.036427,0.030492,-0.018796,76.147964,4.172485,-147.868835,,,
729860284.09694,-0.874427,-4.778777,-24.972504,0.101837,-0.012482,0.994751,0.036427,0.030492,-0.018796,76.147964,4.172485,-147.868835,,,
729860284.100282,-0.874427,-4.778777,-24.972504,0.101837,-0.012482,0.994751,0.036427,0.030492,-0.018796,76.147964,4.172485,-147.868835,,,
729860284.103618,-0.871074,-4.768519,-24.978186,0.09964,-0.010757,0.980057,0.006005,0.039681,-0.022691,76.147964,4.172485,-147.868835,,,
729860284.106941,-0.872607,-4.756432,-24.983919,0.09964,-0.010757,0.980057,0.006005,0.039681,-0.022691,76.147964,4.172485,-147.868835,,,
729860284.110338,-0.872607,-4.756432,-24.983919,0.09964,-0.010757,0.980057,0.006005,0.039681,-0.022691,76.147964,4.172485,-147.868835,,,
729860284.11361,-0.880554,-4.744787,-24.988957,0.093338,-0.013474,0.96431,-0.033815,0.042996,-0.016021,76.147964,4.172485,-147.868835,,,
729860284.116938,-0.89353,-4.734187,-24.993335,0.093338,-0.013474,0.96431,-0.033815,0.042996,-0.016021,76.147964,4.172485,-147.868835,,,
729860284.120282,-0.89353,-4.734187,-24.993335,0.093338,-0.013474,0.96431,-0.033815,0.042996,-0.016021,76.147964,4.172485,-147.868835,,,
729860284.12366,-0.911705,-4.726021,-24.997792,0.085754,-0.015091,0.953857,-0.066571,0.030919,-0.011828,76.147964,4.172485,-147.868835,,,
729860284.126935,-0.933253,-4.72028,-25.003114,0.085754,-0.015091,0.953857,-0.066571,0.030919,-0.011828,76.147964,4.172485,-147.868835,,,
729860284.130273,-0.933253,-4.72028,-25.003114,0.085754,-0.015091,0.953857,-0.066571,0.030919,-0.011828,76.36702,4.143997,-148.055161,,,
729860284.133627,-0.956569,-4.718938,-25.009172,0.083328,-0.014908,0.957458,-0.083189,0.004545,-0.017167,76.36702,4.143997,-148.055161,,,
729860284.136936,-0.980152,-4.721408,-25.015477,0.083328,-0.014908,0.957458,-0.083189,0.004545,-0.017167,76.36702,4.143997,-148.055161,,,
729860284.140288,-0.980152,-4.721408,-25.015477,0.083328,-0.014908,0.957458,-0.083189,0.004545,-0.017167,76.36702,4.143997,-148.055161,,,
729860284.143608,-1.001367,-4.728617,-25.021149,0.080032,-0.015106,0.970764,-0.071748,-0.027444,-0.014156,76.36702,4.143997,-148.055161,,,
729860284.146935,-1.01783,-4.741566,-25.025501,0.080032,-0.015106,0.970764,-0.071748,-0.027444,-0.014156,76.36702,4.143997,-148.055161,,,
729860284.150359,-1.01783,-4.741566,-25.025501,0.080032,-0.015106,0.970764,-0.071748,-0.027444,-0.014156,76.36702,4.143997,-148.055161,,,
729860284.153616,-1.02664,-4.756531,-25.029006,0.075684,-0.02655,0.991394,-0.022466,-0.051252,-0.01009,76.36702,4.143997,-148.055161,,,
729860284.156935,-1.028634,-4.773245,-25.032052,0.075684,-0.02655,0.991394,-0.022466,-0.051252,-0.01009,76.36702,4.143997,-148.055161,,,
729860284.160292,-1.028634,-4.773245,-25.032052,0.075684,-0.02655,0.991394,-0.022466,-0.051252,-0.01009,76.36702,4.143997,-148.055161,,,
729860284.16368,-1.025742,-4.788282,-25.034856,0.079926,-0.028595,1.015442,0.014186,-0.049227,-0.01186,76.36702,4.143997,-148.055161,,,
729860284.166935,-1.019178,-4.804036,-25.038614,0.079926,-0.028595,1.015442,0.014186,-0.049227,-0.01186,76.36702,4.143997,-148.055161,,,
729860284.170274,-1.019178,-4.804036,-25.038614,0.079926,-0.028595,1.015442,0.014186,-0.049227,-0.01186,76.268631,4.125656,-147.792007,,,
729860284.173618,-1.010965,-4.813496,-25.042819,0.083084,-0.024429,1.01796,0.026603,-0.025638,-0.018216,76.268631,4.125656,-147.792007,,,
729860284.176937,-1.001236,-4.822653,-25.046945,0.083084,-0.024429,1.01796,0.026603,-0.025638,-0.018216,76.268631,4.125656,-147.792007,,,
729860284.180286,-1.001236,-4.822653,-25.046945,0.083084,-0.024429,1.01796,0.026603,-0.025638,-0.018216,76.268631,4.125656,-147.792007,,,
729860284.183676,-0.994106,-4.825397,-25.051267,0.084732,-0.02034,1.00325,0.022028,-0.002064,-0.016512,76.268631,4.125656,-147.792007,,,
729860284.186939,-0.989344,-4.82715,-25.055106,0.084732,-0.02034,1.00325,0.022028,-0.002064,-0.016512,76.268631,4.125656,-147.792007,,,
729860284.190341,-0.989344,-4.82715,-25.055106,0.084732,-0.02034,1.00325,0.022028,-0.002064,-0.016512,76.268631,4.125656,-147.792007,,,
729860284.193604,-0.989105,-4.824251,-25.057931,0.078369,-0.017593,0.989166,-0.003318,0.014062,-0.009425,76.268631,4.125656,-147.792007,,,
729860284.196944,-0.992583,-4.821324,-25.060076,0.078369,-0.017593,0.989166,-0.003318,0.014062,-0.009425,76.268631,4.125656,-147.792007,,,
729860284.200296,-0.992583,-4.821324,-25.060076,0.078369,-0.017593,0.989166,-0.003318,0.014062,-0.009425,76.268631,4.125656,-147.792007,,,
729860284.203659,-1.001383,-4.816774,-25.061093,0.071411,-0.020416,0.97612,-0.036895,0.01786,0.000555,76.268631,4.125656,-147.792007,,,
729860284.206937,-1.015299,-4.813853,-25.060994,0.071411,-0.020416,0.97612,-0.036895,0.01786,0.000555,76.268631,4.125656,-147.792007,,,
729860284.210327,-1.015299,-4.813853,-25.060994,0.071411,-0.020416,0.97612,-0.036895,0.01786,0.000555,76.268631,4.125656,-147.792007,,,
729860284.213628,-1.033478,-4.812737,-25.059648,0.063675,-0.018341,0.967239,-0.064553,0.005325,0.006932,76.44838,4.070251,-148.05603,,,
729860284.216941,-1.052673,-4.814992,-25.057487,0.063675,-0.018341,0.967239,-0.064553,0.005325,0.006932,76.44838,4.070251,-148.05603,,,
729860284.220296,-1.052673,-4.814992,-25.057487,0.063675,-0.018341,0.967239,-0.064553,0.005325,0.006932,76.44838,4.070251,-148.05603,,,
729860284.22362,-1.070587,-4.820505,-25.055127,0.064041,-0.021103,0.978561,-0.059455,-0.018717,0.012164,76.44838,4.070251,-148.05603,,,
729860284.226945,-1.08436,-4.827528,-25.052005,0.064041,-0.021103,0.978561,-0.059455,-0.018717,0.012164,76.44838,4.070251,-148.05603,,,
729860284.230338,-1.08436,-4.827528,-25.052005,0.064041,-0.021103,0.978561,-0.059455,-0.018717,0.012164,76.44838,4.070251,-148.05603,,,
729860284.233603,-1.091138,-4.837936,-25.047618,0.06604,-0.02916,1.012695,-0.015428,-0.034516,0.016703,76.44838,4.070251,-148.05603,,,
729860284.236938,-1.091454,-4.849185,-25.041892,0.06604,-0.02916,1.012695,-0.015428,-0.034516,0.016703,76.44838,4.070251,-148.05603,,,
729860284.240286,-1.091454,-4.849185,-25.041892,0.06604,-0.02916,1.012695,-0.015428,-0.034516,0.016703,76.44838,4.070251,-148.05603,,,
729860284.243656,-1.082729,-4.861822,-25.034987,0.062881,-0.034119,1.045807,0.039024,-0.040096,0.019782,76.44838,4.070251,-148.05603,,,
729860284.246941,-1.067551,-4.873648,-25.027402,0.062881,-0.034119,1.045807,0.039024,-0.040096,0.019782,76.44838,4.070251,-148.05603,,,
729860284.250286,-1.067551,-4.873648,-25.027402,0.062881,-0.034119,1.045807,0.039024,-0.040096,0.019782,76.44838,4.070251,-148.05603,,,
729860284.253621,-1.045793,-4.885713,-25.019404,0.065994,-0.033524,1.053192,0.084152,-0.040106,0.02135,76.360397,4.251602,-148.013199,,,
729860284.256942,-1.019834,-4.897142,-25.011062,0.065994,-0.033524,1.053192,0.084152,-0.040106,0.02135,76.360397,4.251602,-148.013199,,,
729860284.260285,-1.019834,-4.897142,-25.011062,0.065994,-0.033524,1.053192,0.084152,-0.040106,0.02135,76.360397,4.251602,-148.013199,,,
729860284.263626,-0.991047,-4.908026,-25.002947,0.071335,-0.02774,1.040253,0.10498,-0.034341,0.020042,76.360397,4.251602,-148.013199,,,
729860284.266945,-0.960359,-4.918846,-24.994958,0.071335,-0.02774,1.040253,0.10498,-0.034341,0.020042,76.360397,4.251602,-148.013199,,,
729860284.270279,-0.960359,-4.918846,-24.994958,0.071335,-0.02774,1.040253,0.10498,-0.034341,0.020042,76.360397,4.251602,-148.013199,,,
729860284.273628,-0.928163,-4.931781,-24.98721,0.073532,-0.019943,1.023285,0.115996,-0.043791,0.014824,76.360397,4.251602,-148.013199,,,
729860284.27694,-0.895583,-4.946831,-24.979674,0.073532,-0.019943,1.023285,0.115996,-0.043791,0.014824,76.360397,4.251602,-148.013199,,,
729860284.280348,-0.895583,-4.946831,-24.979674,0.073532,-0.019943,1.023285,0.115996,-0.043791,0.014824,76.360397,4.251602,-148.013199,,,
729860284.283724,-0.862916,-4.965802,-24.97191,0.072891,-0.016098,1.006119,0.115194,-0.065833,0.015421,76.360397,4.251602,-148.013199,,,
729860284.286977,-0.831941,-4.985615,-24.963892,0.072891,-0.016098,1.006119,0.115194,-0.065833,0.015421,76.360397,4.251602,-148.013199,,,
729860284.290289,-0.831941,-4.985615,-24.963892,0.072891,-0.016098,1.006119,0.115194,-0.065833,0.015421,76.360397,4.251602,-148.013199,,,
729860284.293622,-0.802918,-5.008277,-24.955016,0.070251,-0.015656,0.994888,0.102439,-0.07731,0.022554,76.146622,3.946579,-148.337723,,,
729860284.296943,-0.777701,-5.026849,-24.944144,0.070251,-0.015656,0.994888,0.102439,-0.07731,0.022554,76.146622,3.946579,-148.337723,,,
729860284.300307,-0.777701,-5.026849,-24.944144,0.070251,-0.015656,0.994888,0.102439,-0.07731,0.022554,76.146622,3.946579,-148.337723,,,
729860284.303607,-0.755258,-5.045503,-24.931561,0.071289,-0.01268,0.991318,0.077631,-0.061891,0.036275,76.146622,3.946579,-148.337723,,,
729860284.306942,-0.736732,-5.05835,-24.917609,0.071289,-0.01268,0.991318,0.077631,-0.061891,0.036275,76.146622,3.946579,-148.337723,,,
729860284.31029,-0.736732,-5.05835,-24.917609,0.071289,-0.01268,0.991318,0.077631,-0.061891,0.036275,76.146622,3.946579,-148.337723,,,
729860284.313621,-0.718424,-5.070186,-24.901996,0.078613,-0.014557,0.996719,0.068082,-0.036037,0.049693,76.146622,3.946579,-148.337723,,,
729860284.316943,-0.703195,-5.075127,-24.884657,0.078613,-0.014557,0.996719,0.068082,-0.036037,0.049693,76.146622,3.946579,-148.337723,,,
729860284.32037,-0.703195,-5.075127,-24.884657,0.078613,-0.014557,0.996719,0.068082,-0.036037,0.049693,76.146622,3.946579,-148.337723,,,
729860284.323624,-0.685127,-5.080169,-24.866247,0.084122,-0.01442,1.009384,0.069265,-0.01177,0.056874,76.146622,3.946579,-148.337723,,,
729860284.326953,-0.667431,-5.08003,-24.847845,0.084122,-0.01442,1.009384,0.069265,-0.01177,0.056874,76.146622,3.946579,-148.337723,,,
729860284.330291,-0.667431,-5.08003,-24.847845,0.084122,-0.01442,1.009384,0.069265,-0.01177,0.056874,76.146622,3.946579,-148.337723,,,
729860284.333617,-0.644066,-5.083367,-24.830312,0.091446,-0.014175,1.018982,0.088669,-0.009072,0.052516,75.984024,3.828278,-147.751205,,,
729860284.336949,-0.617896,-5.085522,-24.81366,0.091446,-0.014175,1.018982,0.088669,-0.009072,0.052516,75.984024,3.828278,-147.751205,,,
729860284.340289,-0.617896,-5.085522,-24.81366,0.091446,-0.014175,1.018982,0.088669,-0.009072,0.052516,75.984024,3.828278,-147.751205,,,
729860284.343619,-0.583997,-5.093195,-24.79835,0.100128,-0.013412,1.028732,0.128979,-0.027096,0.040028,75.984024,3.828278,-147.751205,,,
729860284.346951,-0.545422,-5.102749,-24.784812,0.100128,-0.013412,1.028732,0.128979,-0.027096,0.040028,75.984024,3.828278,-147.751205,,,
729860284.350284,-0.545422,-5.102749,-24.784812,0.100128,-0.013412,1.028732,0.128979,-0.027096,0.040028,75.984024,3.828278,-147.751205,,,
729860284.353631,-0.50101,-5.118855,-24.773822,0.107849,-0.01062,1.030106,0.162101,-0.056449,0.019333,75.984024,3.828278,-147.751205,,,
729860284.356949,-0.453889,-5.137397,-24.766274,0.107849,-0.01062,1.030106,0.162101,-0.056449,0.019333,75.984024,3.828278,-147.751205,,,
729860284.360346,-0.453889,-5.137397,-24.766274,0.107849,-0.01062,1.030106,0.162101,-0.056449,0.019333,75.984024,3.828278,-147.751205,,,
729860284.36362,-0.403267,-5.161367,-24.761987,0.112732,-0.004562,1.016983,0.178078,-0.082646,-0.003543,75.984024,3.828278,-147.751205,,,
729860284.366951,-0.352048,-5.185389,-24.760126,0.112732,-0.004562,1.016983,0.178078,-0.082646,-0.003543,75.984024,3.828278,-147.751205,,,
729860284.370295,-0.352048,-5.185389,-24.760126,0.112732,-0.004562,1.016983,0.178078,-0.082646,-0.003543,75.984024,3.828278,-147.751205,,,
729860284.373697,-0.299692,-5.211364,-24.759847,0.116058,-0.002838,1.007111,0.1824,-0.090051,-0.017307,75.984024,3.828278,-147.751205,,,
729860284.376936,-0.248108,-5.23431,-24.760115,0.116058,-0.002838,1.007111,0.1824,-0.090051,-0.017307,75.86972,3.582489,-147.920547,,,
729860284.380274,-0.248108,-5.23431,-24.760115,0.116058,-0.002838,1.007111,0.1824,-0.090051,-0.017307,75.86972,3.582489,-147.920547,,,
729860284.383626,-0.197508,-5.254881,-24.75994,0.111465,-0.001633,0.998062,0.174068,-0.067245,-0.012859,75.86972,3.582489,-147.920547,,,
729860284.386946,-0.151494,-5.269866,-24.759071,0.111465,-0.001633,0.998062,0.174068,-0.067245,-0.012859,75.86972,3.582489,-147.920547,,,
729860284.390291,-0.151494,-5.269866,-24.759071,0.111465,-0.001633,0.998062,0.174068,-0.067245,-0.012859,75.86972,3.582489,-147.920547,,,
729860284.393619,-0.110183,-5.281654,-24.757842,0.105972,-0.000168,0.988739,0.139468,-0.033494,-0.007836,75.86972,3.582489,-147.920547,,,
729860284.396945,-0.075047,-5.2879,-24.756035,0.105972,-0.000168,0.988739,0.139468,-0.033494,-0.007836,75.86972,3.582489,-147.920547,,,
729860284.400378,-0.075047,-5.2879,-24.756035,0.105972,-0.000168,0.988739,0.139468,-0.033494,-0.007836,75.86972,3.582489,-147.920547,,,
729860284.403628,-0.042633,-5.290608,-24.753159,0.104218,0.00412,0.981018,0.108888,-0.002531,0.002585,75.86972,3.582489,-147.920547,,,
729860284.406943,-0.014084,-5.289273,-24.748766,0.104218,0.00412,0.981018,0.108888,-0.002531,0.002585,75.86972,3.582489,-147.920547,,,
729860284.410295,-0.014084,-5.289273,-24.748766,0.104218,0.00412,0.981018,0.108888,-0.002531,0.002585,75.86972,3.582489,-147.920547,,,
729860284.413687,0.017212,-5.288208,-24.742291,0.098557,0.001144,0.992798,0.112459,0.006528,0.011867,75.86972,3.582489,-147.920547,,,
729860284.416931,0.053414,-5.290065,-24.733738,0.098557,0.001144,0.992798,0.112459,0.006528,0.011867,76.053818,3.060471,-147.591278,,,
729860284.420376,0.053414,-5.290065,-24.733738,0.098557,0.001144,0.992798,0.112459,0.006528,0.011867,76.053818,3.060471,-147.591278,,,
729860284.423625,0.103878,-5.296238,-24.723152,0.086609,-0.005051,1.024216,0.188059,-0.02231,0.019951,76.053818,3.060471,-147.591278,,,
729860284.426949,0.16604,-5.309375,-24.711363,0.086609,-0.005051,1.024216,0.188059,-0.02231,0.019951,76.053818,3.060471,-147.591278,,,
729860284.430298,0.16604,-5.309375,-24.711363,0.086609,-0.005051,1.024216,0.188059,-0.02231,0.019951,76.053818,3.060471,-147.591278,,,
729860284.433638,0.241431,-5.326846,-24.699918,0.091095,-0.015289,1.057938,0.277345,-0.062782,0.011871,76.053818,3.060471,-147.591278,,,
729860284.436952,0.323573,-5.350344,-24.689657,0.091095,-0.015289,1.057938,0.277345,-0.062782,0.011871,76.053818,3.060471,-147.591278,,,
729860284.440335,0.323573,-5.350344,-24.689657,0.091095,-0.015289,1.057938,0.277345,-0.062782,0.011871,76.053818,3.060471,-147.591278,,,
729860284.44362,0.41076,-5.374668,-24.680234,0.09729,-0.003525,1.047897,0.307489,-0.084311,0.003851,76.053818,3.060471,-147.591278,,,
729860284.446968,0.497906,-5.3989,-24.670485,0.09729,-0.003525,1.047897,0.307489,-0.084311,0.003851,76.053818,3.060471,-147.591278,,,
729860284.450299,0.497906,-5.3989,-24.670485,0.09729,-0.003525,1.047897,0.307489,-0.084311,0.003851,76.053818,3.060471,-147.591278,,,
729860284.453701,0.58435,-5.413428,-24.659584,0.09935,0.002228,1.025604,0.305201,-0.038294,0.008846,76.053818,3.060471,-147.591278,,,
729860284.456969,0.667564,-5.418612,-24.646872,0.09935,0.002228,1.025604,0.305201,-0.038294,0.008846,75.921204,2.376465,-147.230606,,,
729860284.460274,0.667564,-5.418612,-24.646872,0.09935,0.002228,1.025604,0.305201,-0.038294,0.008846,75.921204,2.376465,-147.230606,,,
729860284.463628,0.748217,-5.41209,-24.632415,0.100479,0.007416,1.024506,0.280311,0.034133,0.024665,75.921204,2.376465,-147.230606,,,
729860284.467006,0.822955,-5.398235,-24.617298,0.100479,0.007416,1.024506,0.280311,0.034133,0.024665,75.921204,2.376465,-147.230606,,,
729860284.470354,0.822955,-5.398235,-24.617298,0.100479,0.007416,1.024506,0.280311,0.034133,0.024665,75.921204,2.376465,-147.230606,,,
729860284.473632,0.894406,-5.375894,-24.603483,0.102585,0.018524,0.997284,0.248722,0.088352,0.021752,75.921204,2.376465,-147.230606,,,
729860284.477055,0.96115,-5.348195,-24.591651,0.102585,0.018524,0.997284,0.248722,0.088352,0.021752,75.921204,2.376465,-147.230606,,,
729860284.480347,0.96115,-5.348195,-24.591651,0.102585,0.018524,0.997284,0.248722,0.088352,0.021752,75.921204,2.376465,-147.230606,,,
729860284.483607,1.024955,-5.317157,-24.581761,0.099411,0.028931,0.984497,0.223881,0.113175,0.011967,75.921204,2.376465,-147.230606,,,
729860284.486968,1.084595,-5.287707,-24.573711,0.099411,0.028931,0.984497,0.223881,0.113175,0.011967,75.921204,2.376465,-147.230606,,,
729860284.490293,1.084595,-5.287707,-24.573711,0.099411,0.028931,0.984497,0.223881,0.113175,0.011967,75.921204,2.376465,-147.230606,,,
729860284.493626,1.144668,-5.258154,-24.567288,0.096649,0.03215,0.970261,0.212536,0.103358,-9.1e-05,75.921204,2.376465,-147.230606,,,
729860284.496838,1.144668,-5.258154,-24.567288,0.096649,0.03215,0.970261,0.212536,0.103358,-9.1e-05,75.921204,2.376465,-147.230606,,,
729860284.500321,1.204581,-5.229294,-24.561771,0.096649,0.03215,0.970261,0.212536,0.103358,-9.1e-05,76.036469,1.947144,-147.274765,,,
729860284.503704,1.272132,-5.201873,-24.556117,0.09082,0.021454,0.990509,0.240269,0.098719,-0.003071,76.036469,1.947144,-147.274765,,,
729860284.506975,1.3425,-5.173532,-24.549178,0.09082,0.021454,0.990509,0.240269,0.098719,-0.003071,76.036469,1.947144,-147.274765,,,
729860284.510309,1.3425,-5.173532,-24.549178,0.09082,0.021454,0.990509,0.240269,0.098719,-0.003071,76.036469,1.947144,-147.274765,,,
729860284.513668,1.424596,-5.145462,-24.540028,0.081726,0.010529,1.026764,0.295383,0.103173,0.00445,76.036469,1.947144,-147.274765,,,
729860284.517027,1.510903,-5.118076,-24.52841,0.081726,0.010529,1.026764,0.295383,0.103173,0.00445,76.036469,1.947144,-147.274765,,,
729860284.520326,1.510903,-5.118076,-24.52841,0.081726,0.010529,1.026764,0.295383,0.103173,0.00445,76.036469,1.947144,-147.274765,,,
729860284.523619,1.607685,-5.094255,-24.514827,0.074265,0.008224,1.039948,0.345636,0.08372,0.014504,76.036469,1.947144,-147.274765,,,
729860284.52696,1.706804,-5.076156,-24.500131,0.074265,0.008224,1.039948,0.345636,0.08372,0.014504,76.036469,1.947144,-147.274765,,,
729860284.530284,1.706804,-5.076156,-24.500131,0.074265,0.008224,1.039948,0.345636,0.08372,0.014504,76.036469,1.947144,-147.274765,,,
729860284.533615,1.812485,-5.061922,-24.48578,0.078156,0.013519,1.019699,0.376348,0.049047,0.014762,76.036469,1.947144,-147.274765,,,
729860284.537007,1.917956,-5.054553,-24.473379,0.078156,0.013519,1.019699,0.376348,0.049047,0.014762,76.036469,1.947144,-147.274765,,,
729860284.540315,1.917956,-5.054553,-24.473379,0.078156,0.013519,1.019699,0.376348,0.049047,0.014762,76.132355,1.335236,-146.958694,,,
729860284.543616,2.027768,-5.053953,-24.463587,0.087143,0.029877,1.000076,0.385954,-0.001599,-0.000993,76.132355,1.335236,-146.958694,,,
729860284.54696,2.135884,-5.060811,-24.456572,0.087143,0.029877,1.000076,0.385954,-0.001599,-0.000993,76.132355,1.335236,-146.958694,,,
729860284.5503,2.135884,-5.060811,-24.456572,0.087143,0.029877,1.000076,0.385954,-0.001599,-0.000993,76.132355,1.335236,-146.958694,,,
729860284.553614,2.245251,-5.070121,-24.452627,0.090927,0.037689,0.981873,0.381607,-0.033431,-0.021129,76.132355,1.335236,-146.958694,,,
729860284.557029,2.353403,-5.083327,-24.450485,0.090927,0.037689,0.981873,0.381607,-0.033431,-0.021129,76.132355,1.335236,-146.958694,,,
729860284.560271,2.353403,-5.083327,-24.450485,0.090927,0.037689,0.981873,0.381607,-0.033431,-0.021129,76.132355,1.335236,-146.958694,,,
729860284.563632,2.460102,-5.099105,-24.448712,0.086884,0.042938,0.980225,0.367237,-0.053836,-0.029025,76.132355,1.335236,-146.958694,,,
729860284.566989,2.564114,-5.116169,-24.446522,0.086884,0.042938,0.980225,0.367237,-0.053836,-0.029025,76.132355,1.335236,-146.958694,,,
729860284.570333,2.564114,-5.116169,-24.446522,0.086884,0.042938,0.980225,0.367237,-0.053836,-0.029025,76.132355,1.335236,-146.958694,,,
729860284.57362,2.665305,-5.134369,-24.442108,0.079651,0.038971,0.980545,0.350711,-0.061747,-0.013239,76.132355,1.335236,-146.958694,,,
729860284.576955,2.665305,-5.134369,-24.442108,0.079651,0.038971,0.980545,0.350711,-0.061747,-0.013239,76.132355,1.335236,-146.958694,,,
729860284.580284,2.764287,-5.153036,-24.434723,0.079651,0.038971,0.980545,0.350711,-0.061747,-0.013239,75.879593,0.380188,-146.55925,,,
729860284.58372,2.860385,-5.171049,-24.424992,0.072906,0.039246,0.986084,0.334902,-0.057596,0.004912,75.879593,0.380188,-146.55925,,,
729860284.586995,2.860385,-5.188574,-24.413464,0.072906,0.039246,0.986084,0.334902,-0.057596,0.004912,75.879593,0.380188,-146.55925,,,
729860284.590285,2.95284,-5.188574,-24.413464,0.072906,0.039246,0.986084,0.334902,-0.057596,0.004912,75.879593,0.380188,-146.55925,,,
729860284.59362,3.041053,-5.206085,-24.400715,0.072433,0.044998,0.985611,0.308263,-0.054796,0.017361,75.879593,0.380188,-146.55925,,,
729860284.597034,3.041053,-5.206085,-24.38797,0.072433,0.044998,0.985611,0.308263,-0.054796,0.017361,75.879593,0.380188,-146.55925,,,
729860284.600299,3.124213,-5.22392,-24.38797,0.072433,0.044998,0.985611,0.308263,-0.054796,0.017361,75.879593,0.380188,-146.55925,,,
729860284.60362,3.20013,-5.241816,-24.37693,0.081436,0.056854,0.969849,0.258236,-0.056625,0.009305,75.879593,0.380188,-146.55925,,,
729860284.606967,3.20013,-5.241816,-24.37693,0.081436,0.056854,0.969849,0.258236,-0.056625,0.009305,75.879593,0.380188,-146.55925,,,
729860284.610358,3.268478,-5.260309,-24.368284,0.081436,0.056854,0.969849,0.258236,-0.056625,0.009305,75.879593,0.380188,-146.55925,,,
729860284.613631,3.330589,-5.279721,-24.361744,0.087494,0.066772,0.951035,0.212151,-0.064433,0.00192,75.879593,0.380188,-146.55925,,,
729860284.616969,3.330589,-5.279721,-24.361744,0.087494,0.066772,0.951035,0.212151,-0.064433,0.00192,75.879593,0.380188,-146.55925,,,
729860284.620282,3.389118,-5.3002,-24.356466,0.087494,0.066772,0.951035,0.212151,-0.064433,0.00192,75.965012,-0.082764,-146.679901,,,
729860284.62362,3.448267,-5.32208,-24.351698,0.089188,0.066788,0.960846,0.207563,-0.071106,-0.004777,75.965012,-0.082764,-146.679901,,,
729860284.62696,3.448267,-5.32208,-24.351698,0.089188,0.066788,0.960846,0.207563,-0.071106,-0.004777,75.965012,-0.082764,-146.679901,,,
729860284.63028,3.511091,-5.345242,-24.346673,0.089188,0.066788,0.960846,0.207563,-0.071106,-0.004777,75.965012,-0.082764,-146.679901,,,
729860284.633616,3.580172,-5.369938,-24.340476,0.087585,0.05307,0.997421,0.247738,-0.083402,-0.000533,75.965012,-0.082764,-146.679901,,,
729860284.637022,3.580172,-5.369938,-24.340476,0.087585,0.05307,0.997421,0.247738,-0.083402,-0.000533,75.965012,-0.082764,-146.679901,,,
729860284.64028,3.657846,-5.396305,-24.332363,0.087585,0.05307,0.997421,0.247738,-0.083402,-0.000533,75.965012,-0.082764,-146.679901,,,
729860284.643614,3.745291,-5.424218,-24.322345,0.088181,0.044327,1.025238,0.317041,-0.093967,0.005762,75.965012,-0.082764,-146.679901,,,
729860284.646947,3.745291,-5.424218,-24.322345,0.088181,0.044327,1.025238,0.317041,-0.093967,0.005762,75.965012,-0.082764,-146.679901,,,
729860284.650364,3.842138,-5.452863,-24.311258,0.088181,0.044327,1.025238,0.317041,-0.093967,0.005762,75.965012,-0.082764,-146.679901,,,
729860284.653615,3.947332,-5.481368,-24.299171,0.090698,0.04213,1.042252,0.380091,-0.093594,0.009007,75.965012,-0.082764,-146.679901,,,
729860284.65695,3.947332,-5.481368,-24.299171,0.090698,0.04213,1.042252,0.380091,-0.093594,0.009007,75.965012,-0.082764,-146.679901,,,
729860284.660297,4.059972,-5.509693,-24.28603,0.090698,0.04213,1.042252,0.380091,-0.093594,0.009007,75.965012,-0.082764,-146.679901,,,
729860284.663681,4.178089,-5.537952,-24.271932,0.091537,0.048355,1.040283,0.41994,-0.09337,0.00763,75.692535,-0.525558,-146.053848,,,
729860284.666946,4.178089,-5.537952,-24.271932,0.091537,0.048355,1.040283,0.41994,-0.09337,0.00763,75.692535,-0.525558,-146.053848,,,
729860284.670293,4.299627,-5.566118,-24.257508,0.091537,0.048355,1.040283,0.41994,-0.09337,0.00763,75.692535,-0.525558,-146.053848,,,
729860284.673641,4.423144,-5.593025,-24.243417,0.09523,0.060013,1.021561,0.433162,-0.085637,0.005057,75.692535,-0.525558,-146.053848,,,
729860284.677008,4.423144,-5.593025,-24.243417,0.09523,0.060013,1.021561,0.433162,-0.085637,0.005057,75.692535,-0.525558,-146.053848,,,
729860284.680301,4.547455,-5.617607,-24.22933,0.09523,0.060013,1.021561,0.433162,-0.085637,0.005057,75.692535,-0.525558,-146.053848,,,
729860284.68362,4.670985,-5.639123,-24.215526,0.095642,0.073486,1.010162,0.435216,-0.065288,0.002701,75.692535,-0.525558,-146.053848,,,
729860284.686957,4.670985,-5.639123,-24.215526,0.095642,0.073486,1.010162,0.435216,-0.065288,0.002701,75.692535,-0.525558,-146.053848,,,
729860284.690369,4.791694,-5.657707,-24.201763,0.095642,0.073486,1.010162,0.435216,-0.065288,0.002701,75.692535,-0.525558,-146.053848,,,
729860284.693628,4.907673,-5.674024,-24.187791,0.09343,0.082123,0.994675,0.403063,-0.045955,0.007646,75.692535,-0.525558,-146.053848,,,
729860284.696959,4.907673,-5.674024,-24.187791,0.09343,0.082123,0.994675,0.403063,-0.045955,0.007646,75.692535,-0.525558,-146.053848,,,
729860284.700299,5.018462,-5.688492,-24.173864,0.09343,0.082123,0.994675,0.403063,-0.045955,0.007646,75.692535,-0.525558,-146.053848,,,
729860284.703622,5.124736,-5.702468,-24.159614,0.094086,0.089752,0.96962,0.368944,-0.040634,0.012437,75.446533,-1.600632,-146.089493,,,
729860284.706972,5.124736,-5.702468,-24.159614,0.094086,0.089752,0.96962,0.368944,-0.040634,0.012437,75.446533,-1.600632,-146.089493,,,
729860284.710296,5.228375,-5.716907,-24.144683,0.094086,0.089752,0.96962,0.368944,-0.040634,0.012437,75.446533,-1.600632,-146.089493,,,
729860284.713622,5.33162,-5.731221,-24.12913,0.092987,0.091125,0.969162,0.367449,-0.042234,0.018438,75.446533,-1.600632,-146.089493,,,
729860284.717015,5.33162,-5.731221,-24.12913,0.092987,0.091125,0.969162,0.367449,-0.042234,0.018438,75.446533,-1.600632,-146.089493,,,
729860284.720302,5.436164,-5.746044,-24.112626,0.092987,0.091125,0.969162,0.367449,-0.042234,0.018438,75.446533,-1.600632,-146.089493,,,
729860284.723644,5.54354,-5.762219,-24.09454,0.088547,0.084381,0.991501,0.380149,-0.049043,0.023957,75.446533,-1.600632,-146.089493,,,
729860284.72695,5.54354,-5.762219,-24.09454,0.088547,0.084381,0.991501,0.380149,-0.049043,0.023957,75.446533,-1.600632,-146.089493,,,
729860284.730296,5.656012,-5.780847,-24.074699,0.088547,0.084381,0.991501,0.380149,-0.049043,0.023957,75.446533,-1.600632,-146.089493,,,
729860284.733621,5.775031,-5.803096,-24.052132,0.086563,0.080887,1.013062,0.425303,-0.06956,0.037328,75.446533,-1.600632,-146.089493,,,
729860284.737028,5.775031,-5.803096,-24.052132,0.086563,0.080887,1.013062,0.425303,-0.06956,0.037328,75.446533,-1.600632,-146.089493,,,
729860284.740295,5.901922,-5.828218,-24.026459,0.086563,0.080887,1.013062,0.425303,-0.06956,0.037328,75.446533,-1.600632,-146.089493,,,
729860284.743618,6.036919,-5.855665,-23.998499,0.086075,0.079453,1.031372,0.481648,-0.084051,0.045949,75.472137,-2.180084,-145.353821,,,
729860284.746963,6.036919,-5.855665,-23.998499,0.086075,0.079453,1.031372,0.481648,-0.084051,0.045949,75.472137,-2.180084,-145.353821,,,
729860284.750293,6.17865,-5.885856,-23.969448,0.086075,0.079453,1.031372,0.481648,-0.084051,0.045949,75.472137,-2.180084,-145.353821,,,
729860284.753618,6.327339,-5.918654,-23.9402,0.091736,0.088715,1.034531,0.530148,-0.102243,0.046378,75.472137,-2.180084,-145.353821,,,
729860284.756963,6.327339,-5.918654,-23.9402,0.091736,0.088715,1.034531,0.530148,-0.102243,0.046378,75.472137,-2.180084,-145.353821,,,
729860284.760292,6.482698,-5.954137,-23.911151,0.091736,0.088715,1.034531,0.530148,-0.102243,0.046378,75.472137,-2.180084,-145.353821,,,
729860284.763615,6.643336,-5.992289,-23.882877,0.100281,0.09761,1.025299,0.570219,-0.120672,0.032896,75.472137,-2.180084,-145.353821,,,
729860284.76702,6.643336,-5.992289,-23.882877,0.100281,0.09761,1.025299,0.570219,-0.120672,0.032896,75.472137,-2.180084,-145.353821,,,
729860284.770279,6.808723,-6.032605,-23.856259,0.100281,0.09761,1.025299,0.570219,-0.120672,0.032896,75.472137,-2.180084,-145.353821,,,
729860284.773634,6.976851,-6.074838,-23.831912,0.107758,0.109436,1.017288,0.593464,-0.134927,0.020598,75.472137,-2.180084,-145.353821,,,
729860284.776961,6.976851,-6.074838,-23.831912,0.107758,0.109436,1.017288,0.593464,-0.134927,0.020598,75.472137,-2.180084,-145.353821,,,
729860284.780359,7.14615,-6.118254,-23.809342,0.107758,0.109436,1.017288,0.593464,-0.134927,0.020598,75.472137,-2.180084,-145.353821,,,
729860284.78361,7.31473,-6.161853,-23.788538,0.110947,0.120163,1.001968,0.591065,-0.138885,0.006947,74.843613,-3.310654,-144.8405,,,
729860284.786988,7.31473,-6.161853,-23.788538,0.110947,0.120163,1.001968,0.591065,-0.138885,0.006947,74.843613,-3.310654,-144.8405,,,
729860284.79029,7.480222,-6.205964,-23.769615,0.110947,0.120163,1.001968,0.591065,-0.138885,0.006947,74.843613,-3.310654,-144.8405,,,
729860284.793619,7.640935,-6.249692,-23.752835,0.114212,0.130341,0.975174,0.557943,-0.139536,-0.006652,74.843613,-3.310654,-144.8405,,,
729860284.79696,7.640935,-6.249692,-23.752835,0.114212,0.130341,0.975174,0.557943,-0.139536,-0.006652,74.843613,-3.310654,-144.8405,,,
729860284.800296,7.79509,-6.29069,-23.73764,0.114212,0.130341,0.975174,0.557943,-0.139536,-0.006652,74.843613,-3.310654,-144.8405,,,
729860284.803642,7.941732,-6.327461,-23.72342,0.115768,0.140427,0.956848,0.505193,-0.114424,-0.010046,74.843613,-3.310654,-144.8405,,,
729860284.807049,7.941732,-6.327461,-23.72342,0.115768,0.140427,0.956848,0.505193,-0.114424,-0.010046,74.843613,-3.310654,-144.8405,,,
729860284.810307,8.081323,-6.359449,-23.7091,0.115768,0.140427,0.956848,0.505193,-0.114424,-0.010046,74.843613,-3.310654,-144.8405,,,
729860284.813632,8.214645,-6.38658,-23.692754,0.110153,0.145309,0.955078,0.462519,-0.077261,0.004621,74.843613,-3.310654,-144.8405,,,
729860284.816972,8.214645,-6.38658,-23.692754,0.110153,0.145309,0.955078,0.462519,-0.077261,0.004621,74.843613,-3.310654,-144.8405,,,
729860284.820361,8.342347,-6.410665,-23.673811,0.110153,0.145309,0.955078,0.462519,-0.077261,0.004621,74.843613,-3.310654,-144.8405,,,
729860284.82361,8.464301,-6.43357,-23.651852,0.103775,0.141159,0.957474,0.426066,-0.06411,0.028606,74.843613,-3.310654,-144.8405,,,
729860284.826958,8.464301,-6.43357,-23.651852,0.103775,0.141159,0.957474,0.426066,-0.06411,0.028606,74.747879,-4.234665,-144.33522,,,
729860284.830299,8.579997,-6.454919,-23.626746,0.103775,0.141159,0.957474,0.426066,-0.06411,0.028606,74.747879,-4.234665,-144.33522,,,
729860284.833617,8.691268,-6.473066,-23.598533,0.101913,0.139618,0.953812,0.394875,-0.043574,0.052991,74.747879,-4.234665,-144.33522,,,
729860284.836953,8.691268,-6.473066,-23.598533,0.101913,0.139618,0.953812,0.394875,-0.043574,0.052991,74.747879,-4.234665,-144.33522,,,
729860284.840301,8.801619,-6.486616,-23.567235,0.101913,0.139618,0.953812,0.394875,-0.043574,0.052991,74.747879,-4.234665,-144.33522,,,
729860284.843616,8.914067,-6.49585,-23.533054,0.10289,0.141815,0.975723,0.406229,-0.004786,0.07529,74.747879,-4.234665,-144.33522,,,
729860284.847002,8.914067,-6.49585,-23.533054,0.10289,0.141815,0.975723,0.406229,-0.004786,0.07529,74.747879,-4.234665,-144.33522,,,
729860284.8503,9.030406,-6.502831,-23.495873,0.10289,0.141815,0.975723,0.406229,-0.004786,0.07529,74.747879,-4.234665,-144.33522,,,
729860284.853622,9.150169,-6.510097,-23.456506,0.107574,0.137299,1.002274,0.430285,-0.000342,0.087618,74.747879,-4.234665,-144.33522,,,
729860284.856979,9.150169,-6.510097,-23.456506,0.107574,0.137299,1.002274,0.430285,-0.000342,0.087618,74.747879,-4.234665,-144.33522,,,
729860284.860359,9.271662,-6.519912,-23.416026,0.107574,0.137299,1.002274,0.430285,-0.000342,0.087618,74.747879,-4.234665,-144.33522,,,
729860284.863617,9.393473,-6.533717,-23.376231,0.110596,0.145523,0.990173,0.43853,-0.027681,0.085125,74.747879,-4.234665,-144.33522,,,
729860284.866957,9.393473,-6.533717,-23.376231,0.110596,0.145523,0.990173,0.43853,-0.027681,0.085125,74.57634,-5.015976,-143.852402,,,
729860284.870312,9.514044,-6.551734,-23.340113,0.110596,0.145523,0.990173,0.43853,-0.027681,0.085125,74.57634,-5.015976,-143.852402,,,
729860284.873625,9.632096,-6.573832,-23.308995,0.12233,0.163681,0.962677,0.419868,-0.06226,0.05548,74.57634,-5.015976,-143.852402,,,
729860284.87695,9.632096,-6.573832,-23.308995,0.12233,0.163681,0.962677,0.419868,-0.06226,0.05548,74.57634,-5.015976,-143.852402,,,
729860284.880304,9.747276,-6.600667,-23.283777,0.12233,0.163681,0.962677,0.419868,-0.06226,0.05548,74.57634,-5.015976,-143.852402,,,
729860284.883751,9.860414,-6.632967,-23.265082,0.134628,0.179062,0.943451,0.398065,-0.107589,0.013758,74.57634,-5.015976,-143.852402,,,
729860284.886981,9.860414,-6.632967,-23.265082,0.134628,0.179062,0.943451,0.398065,-0.107589,0.013758,74.57634,-5.015976,-143.852402,,,
729860284.890313,9.971894,-6.671168,-23.25243,0.134628,0.179062,0.943451,0.398065,-0.107589,0.013758,74.57634,-5.015976,-143.852402,,,
729860284.893732,10.082255,-6.713959,-23.245489,0.140915,0.183594,0.937271,0.38358,-0.146295,-0.026773,74.57634,-5.015976,-143.852402,,,
729860284.897058,10.082255,-6.713959,-23.245489,0.140915,0.183594,0.937271,0.38358,-0.146295,-0.026773,74.57634,-5.015976,-143.852402,,,
729860284.900312,10.192295,-6.758904,-23.243001,0.140915,0.183594,0.937271,0.38358,-0.146295,-0.026773,74.57634,-5.015976,-143.852402,,,
729860284.903735,10.301877,-6.803897,-23.242668,0.134903,0.180588,0.95256,0.377645,-0.155783,-0.043844,74.57634,-5.015976,-143.852402,,,
729860284.906975,10.301877,-6.803897,-23.242668,0.134903,0.180588,0.95256,0.377645,-0.155783,-0.043844,74.666031,-5.772202,-143.626038,,,
729860284.910401,10.40968,-6.84691,-23.242381,0.134903,0.180588,0.95256,0.377645,-0.155783,-0.043844,74.666031,-5.772202,-143.626038,,,
729860284.913621,10.51487,-6.885363,-23.240476,0.122742,0.175827,0.967377,0.362323,-0.126206,-0.037456,74.666031,-5.772202,-143.626038,,,
729860284.91698,10.51487,-6.885363,-23.240476,0.122742,0.175827,0.967377,0.362323,-0.126206,-0.037456,74.666031,-5.772202,-143.626038,,,
729860284.920312,10.616982,-6.917119,-23.23575,0.122742,0.175827,0.967377,0.362323,-0.126206,-0.037456,74.666031,-5.772202,-143.626038,,,
729860284.923629,10.714595,-6.941145,-23.228618,0.116074,0.174271,0.973129,0.337932,-0.07029,-0.016851,74.666031,-5.772202,-143.626038,,,
729860284.926967,10.714595,-6.941145,-23.228618,0.116074,0.174271,0.973129,0.337932,-0.07029,-0.016851,74.666031,-5.772202,-143.626038,,,
729860284.930295,10.806674,-6.958402,-23.219745,0.116074,0.174271,0.973129,0.337932,-0.07029,-0.016851,74.666031,-5.772202,-143.626038,,,
729860284.933621,10.892911,-6.969279,-23.209168,0.115295,0.181259,0.96669,0.298444,-0.020228,9.5e-05,74.666031,-5.772202,-143.626038,,,
729860284.937027,10.892911,-6.969279,-23.209168,0.115295,0.181259,0.96669,0.298444,-0.020228,9.5e-05,74.666031,-5.772202,-143.626038,,,
729860284.940297,10.974796,-6.973469,-23.198101,0.115295,0.181259,0.96669,0.298444,-0.020228,9.5e-05,74.666031,-5.772202,-143.626038,,,
729860284.943626,11.05487,-6.970689,-23.186927,0.119644,0.189041,0.957733,0.279583,0.026776,0.002486,74.666031,-5.772202,-143.626038,,,
729860284.947028,11.05487,-6.970689,-23.186927,0.119644,0.189041,0.957733,0.279583,0.026776,0.002486,74.521408,-6.256683,-142.941864,,,
729860284.950355,11.136025,-6.960678,-23.174125,0.119644,0.189041,0.957733,0.279583,0.026776,0.002486,74.521408,-6.256683,-142.941864,,,
729860284.953621,11.22198,-6.94519,-23.158398,0.118118,0.183319,0.988434,0.311596,0.073324,0.016703,74.521408,-6.256683,-142.941864,,,
729860284.956971,11.22198,-6.94519,-23.158398,0.118118,0.183319,0.988434,0.311596,0.073324,0.016703,74.521408,-6.256683,-142.941864,,,
729860284.96032,11.316123,-6.927164,-23.139208,0.118118,0.183319,0.988434,0.311596,0.073324,0.016703,74.521408,-6.256683,-142.941864,,,
729860284.963622,11.420301,-6.90858,-23.11637,0.11322,0.171387,1.021744,0.379059,0.087045,0.03502,74.521408,-6.256683,-142.941864,,,
729860284.966969,11.420301,-6.90858,-23.11637,0.11322,0.171387,1.021744,0.379059,0.087045,0.03502,74.521408,-6.256683,-142.941864,,,
729860284.970297,11.53599,-6.891695,-23.090002,0.11322,0.171387,1.021744,0.379059,0.087045,0.03502,74.521408,-6.256683,-142.941864,,,
729860284.973621,11.663291,-6.878507,-23.061497,0.11026,0.163086,1.040939,0.461489,0.065604,0.042629,74.521408,-6.256683,-142.941864,,,
729860284.977042,11.663291,-6.878507,-23.061497,0.11026,0.163086,1.040939,0.461489,0.065604,0.042629,74.521408,-6.256683,-142.941864,,,
729860284.980296,11.801414,-6.870615,-23.032751,0.11026,0.163086,1.040939,0.461489,0.065604,0.042629,74.521408,-6.256683,-142.941864,,,
729860284.983624,11.948374,-6.870032,-23.005125,0.117279,0.176712,1.033325,0.525365,0.018314,0.028181,74.521408,-6.256683,-142.941864,,,
729860284.986974,11.948374,-6.870032,-23.005125,0.117279,0.176712,1.033325,0.525365,0.018314,0.028181,74.521408,-6.256683,-142.941864,,,
729860284.990352,12.101557,-6.877904,-22.97983,0.117279,0.176712,1.033325,0.525365,0.018314,0.028181,74.578384,-7.021088,-142.708282,,,
729860284.993613,12.258477,-6.894825,-22.958334,0.125351,0.193451,1.002441,0.553739,-0.046993,0.002286,74.578384,-7.021088,-142.708282,,,
729860284.996968,12.258477,-6.894825,-22.958334,0.125351,0.193451,1.002441,0.553739,-0.046993,0.002286,74.578384,-7.021088,-142.708282,,,
729860285.000309,12.417498,-6.921211,-22.941695,0.125351,0.193451,1.002441,0.553739,-0.046993,0.002286,74.578384,-7.021088,-142.708282,,,
729860285.003637,12.577188,-6.956326,-22.929593,0.12558,0.20929,0.975388,0.558609,-0.119202,-0.028728,74.578384,-7.021088,-142.708282,,,
729860285.006963,12.577188,-6.956326,-22.929593,0.12558,0.20929,0.975388,0.558609,-0.119202,-0.028728,74.578384,-7.021088,-142.708282,,,
729860285.010298,12.73781,-6.998912,-22.920295,0.12558,0.20929,0.975388,0.558609,-0.119202,-0.028728,74.578384,-7.021088,-142.708282,,,
729860285.013623,12.90128,-7.048874,-22.911726,0.122299,0.219315,0.961075,0.573664,-0.169995,-0.043506,74.578384,-7.021088,-142.708282,,,
729860285.017012,12.90128,-7.048874,-22.911726,0.122299,0.219315,0.961075,0.573664,-0.169995,-0.043506,74.578384,-7.021088,-142.708282,,,
729860285.020361,13.064445,-7.105079,-22.904432,0.122299,0.219315,0.961075,0.573664,-0.169995,-0.043506,74.578384,-7.021088,-142.708282,,,
729860285.023612,13.223194,-7.163321,-22.898719,0.117844,0.218994,0.951202,0.546745,-0.200083,-0.04906,74.578384,-7.021088,-142.708282,,,
729860285.026966,13.223194,-7.163321,-22.898719,0.117844,0.218994,0.951202,0.546745,-0.200083,-0.04906,74.578384,-7.021088,-142.708282,,,
729860285.030385,13.37686,-7.221409,-22.894098,0.117844,0.218994,0.951202,0.546745,-0.200083,-0.04906,74.348053,-8.340744,-141.940643,,,
729860285.033619,13.525027,-7.278625,-22.890299,0.117798,0.232727,0.943802,0.510342,-0.191126,-0.053991,74.348053,-8.340744,-141.940643,,,
729860285.036973,13.525027,-7.278625,-22.890299,0.117798,0.232727,0.943802,0.510342,-0.191126,-0.053991,74.348053,-8.340744,-141.940643,,,
729860285.040306,13.667614,-7.33335,-22.886933,0.117798,0.232727,0.943802,0.510342,-0.191126,-0.053991,74.348053,-8.340744,-141.940643,,,
729860285.043629,13.804055,-7.384937,-22.883817,0.120499,0.237793,0.937256,0.468546,-0.172282,-0.052081,74.348053,-8.340744,-141.940643,,,
729860285.04698,13.804055,-7.384937,-22.883817,0.120499,0.237793,0.937256,0.468546,-0.172282,-0.052081,74.348053,-8.340744,-141.940643,,,
729860285.050308,13.934778,-7.431965,-22.879412,0.120499,0.237793,0.937256,0.468546,-0.172282,-0.052081,74.348053,-8.340744,-141.940643,,,
729860285.05363,14.061577,-7.471408,-22.872099,0.122818,0.237305,0.932907,0.437293,-0.121687,-0.032473,74.348053,-8.340744,-141.940643,,,
729860285.056961,14.061577,-7.471408,-22.872099,0.122818,0.237305,0.932907,0.437293,-0.121687,-0.032473,74.348053,-8.340744,-141.940643,,,
729860285.0603,14.187893,-7.501052,-22.859331,0.122818,0.237305,0.932907,0.437293,-0.121687,-0.032473,74.348053,-8.340744,-141.940643,,,
729860285.063674,14.316476,-7.521136,-22.839193,0.109055,0.228348,0.972488,0.457436,-0.04203,0.012061,74.348053,-8.340744,-141.940643,,,
729860285.067017,14.316476,-7.521136,-22.839193,0.109055,0.228348,0.972488,0.457436,-0.04203,0.012061,74.348053,-8.340744,-141.940643,,,
729860285.070292,14.447744,-7.53217,-22.812129,0.109055,0.228348,0.972488,0.457436,-0.04203,0.012061,73.93187,-8.885101,-141.195648,,,
729860285.073643,14.581897,-7.534327,-22.778711,0.102936,0.219086,1.003418,0.481307,0.036052,0.054881,73.93187,-8.885101,-141.195648,,,
729860285.076981,14.581897,-7.534327,-22.778711,0.102936,0.219086,1.003418,0.481307,0.036052,0.054881,73.93187,-8.885101,-141.195648,,,
729860285.080374,14.718963,-7.529701,-22.739813,0.102936,0.219086,1.003418,0.481307,0.036052,0.054881,73.93187,-8.885101,-141.195648,,,
729860285.083615,14.860117,-7.521136,-22.696372,0.104126,0.222992,1.00853,0.512685,0.072583,0.082634,73.93187,-8.885101,-141.195648,,,
729860285.086982,14.860117,-7.521136,-22.696372,0.104126,0.222992,1.00853,0.512685,0.072583,0.082634,73.93187,-8.885101,-141.195648,,,
729860285.090294,15.007392,-7.512323,-22.648602,0.104126,0.222992,1.00853,0.512685,0.072583,0.082634,73.93187,-8.885101,-141.195648,,,
729860285.093622,15.161406,-7.507447,-22.59719,0.105667,0.228912,1.005478,0.560711,0.062697,0.102178,73.93187,-8.885101,-141.195648,,,
729860285.096982,15.161406,-7.507447,-22.59719,0.105667,0.228912,1.005478,0.560711,0.062697,0.102178,73.93187,-8.885101,-141.195648,,,
729860285.100297,15.319148,-7.510913,-22.543899,0.105667,0.228912,1.005478,0.560711,0.062697,0.102178,73.93187,-8.885101,-141.195648,,,
729860285.103621,15.476299,-7.525082,-22.489088,0.105225,0.234421,0.977005,0.563257,-0.004279,0.110439,73.93187,-8.885101,-141.195648,,,
729860285.106957,15.476299,-7.525082,-22.489088,0.105225,0.234421,0.977005,0.563257,-0.004279,0.110439,73.93187,-8.885101,-141.195648,,,
729860285.110298,15.631334,-7.551583,-22.432511,0.105225,0.234421,0.977005,0.563257,-0.004279,0.110439,73.93187,-8.885101,-141.195648,,,
729860285.113622,15.784078,-7.589269,-22.377948,0.104263,0.248947,0.924698,0.549256,-0.090673,0.106056,74.089569,-9.998871,-140.606567,,,
729860285.117043,15.784078,-7.589269,-22.377948,0.104263,0.248947,0.924698,0.549256,-0.090673,0.106056,74.089569,-9.998871,-140.606567,,,
729860285.120299,15.932033,-7.634714,-22.330121,0.104263,0.248947,0.924698,0.549256,-0.090673,0.106056,74.089569,-9.998871,-140.606567,,,
729860285.12364,16.073323,-7.686418,-22.290743,0.123413,0.291199,0.902359,0.498926,-0.146704,0.057942,74.089569,-9.998871,-140.606567,,,
729860285.126977,16.073323,-7.686418,-22.290743,0.123413,0.291199,0.902359,0.498926,-0.146704,0.057942,74.089569,-9.998871,-140.606567,,,
729860285.130301,16.207875,-7.744401,-22.25983,0.123413,0.291199,0.902359,0.498926,-0.146704,0.057942,74.089569,-9.998871,-140.606567,,,
729860285.13363,16.333855,-7.808279,-22.236222,0.138016,0.301605,0.875336,0.434764,-0.202145,0.011713,74.089569,-9.998871,-140.606567,,,
729860285.13696,16.333855,-7.808279,-22.236222,0.138016,0.301605,0.875336,0.434764,-0.202145,0.011713,74.089569,-9.998871,-140.606567,,,
729860285.140298,16.450923,-7.876779,-22.216886,0.138016,0.301605,0.875336,0.434764,-0.202145,0.011713,74.089569,-9.998871,-140.606567,,,
729860285.14363,16.559987,-7.946152,-22.199379,0.135635,0.307236,0.870178,0.376428,-0.221454,0.001158,74.089569,-9.998871,-140.606567,,,
729860285.147038,16.559987,-7.946152,-22.199379,0.135635,0.307236,0.870178,0.376428,-0.221454,0.001158,74.089569,-9.998871,-140.606567,,,
729860285.150305,16.661118,-8.011931,-22.182135,0.135635,0.307236,0.870178,0.376428,-0.221454,0.001158,74.089569,-9.998871,-140.606567,,,
729860285.153627,16.753871,-8.07136,-22.164122,0.129761,0.294952,0.890945,0.321069,-0.179412,0.016258,73.800034,-10.842392,-139.936417,,,
729860285.156957,16.753871,-8.07136,-22.164122,0.129761,0.294952,0.890945,0.321069,-0.179412,0.016258,73.800034,-10.842392,-139.936417,,,
729860285.160297,16.837976,-8.122877,-22.145256,0.129761,0.294952,0.890945,0.321069,-0.179412,0.016258,73.800034,-10.842392,-139.936417,,,
729860285.163622,16.91424,-8.164702,-22.127584,0.128143,0.29277,0.904617,0.266617,-0.116043,0.018623,73.800034,-10.842392,-139.936417,,,
729860285.167018,16.91424,-8.164702,-22.127584,0.128143,0.29277,0.904617,0.266617,-0.116043,0.018623,73.800034,-10.842392,-139.936417,,,
729860285.170291,16.986362,-8.196827,-22.113071,0.128143,0.29277,0.904617,0.266617,-0.116043,0.018623,73.800034,-10.842392,-139.936417,,,
729860285.173625,17.059315,-8.222346,-22.100228,0.142944,0.291016,0.914169,0.257763,-0.068108,0.001725,73.800034,-10.842392,-139.936417,,,
729860285.176989,17.059315,-8.222346,-22.100228,0.142944,0.291016,0.914169,0.257763,-0.068108,0.001725,73.800034,-10.842392,-139.936417,,,
729860285.18035,17.136186,-8.244119,-22.086643,0.142944,0.291016,0.914169,0.257763,-0.068108,0.001725,73.800034,-10.842392,-139.936417,,,
729860285.183623,17.219461,-8.263393,-22.070229,0.143021,0.295227,0.96199,0.301967,-0.044065,0.013406,73.800034,-10.842392,-139.936417,,,
729860285.186981,17.219461,-8.263393,-22.070229,0.143021,0.295227,0.96199,0.301967,-0.044065,0.013406,73.800034,-10.842392,-139.936417,,,
729860285.19029,17.313062,-8.280645,-22.04903,0.143021,0.295227,0.96199,0.301967,-0.044065,0.013406,73.800034,-10.842392,-139.936417,,,
729860285.193666,17.420076,-8.295607,-22.022435,0.135666,0.256454,1.003159,0.392482,-0.016468,0.036523,73.316956,-11.205002,-139.532639,,,
729860285.196988,17.420076,-8.295607,-22.022435,0.135666,0.256454,1.003159,0.392482,-0.016468,0.036523,73.316956,-11.205002,-139.532639,,,
729860285.200297,17.541604,-8.307834,-21.990593,0.135666,0.256454,1.003159,0.392482,-0.016468,0.036523,73.316956,-11.205002,-139.532639,,,
729860285.203631,17.677785,-8.318389,-21.954032,0.137161,0.253571,1.034149,0.501712,0.006729,0.054518,73.316956,-11.205002,-139.532639,,,
729860285.207014,17.677785,-8.318389,-21.954032,0.137161,0.253571,1.034149,0.501712,0.006729,0.054518,73.316956,-11.205002,-139.532639,,,
729860285.210294,17.827909,-8.330882,-21.913965,0.137161,0.253571,1.034149,0.501712,0.006729,0.054518,73.316956,-11.205002,-139.532639,,,
729860285.213632,17.989971,-8.348674,-21.87113,0.136551,0.258163,1.029617,0.590449,-0.017982,0.059234,73.316956,-11.205002,-139.532639,,,
729860285.217026,17.989971,-8.348674,-21.87113,0.136551,0.258163,1.029617,0.590449,-0.017982,0.059234,73.316956,-11.205002,-139.532639,,,
729860285.220296,18.160821,-8.372902,-21.827639,0.136551,0.258163,1.029617,0.590449,-0.017982,0.059234,73.316956,-11.205002,-139.532639,,,
729860285.223667,18.33712,-8.403407,-21.78624,0.144257,0.275452,0.987747,0.63133,-0.06593,0.042057,73.316956,-11.205002,-139.532639,,,
729860285.226988,18.33712,-8.403407,-21.78624,0.144257,0.275452,0.987747,0.63133,-0.06593,0.042057,73.316956,-11.205002,-139.532639,,,
729860285.230372,18.514748,-8.439935,-21.74787,0.144257,0.275452,0.987747,0.63133,-0.06593,0.042057,73.316956,-11.205002,-139.532639,,,
729860285.233616,18.514748,-8.439935,-21.74787,0.153992,0.302185,0.937363,0.616056,-0.119738,0.016749,73.316956,-11.205002,-139.532639,,,
729860285.236976,18.690036,-8.483301,-21.71397,0.153992,0.302185,0.937363,0.616056,-0.119738,0.016749,73.280182,-12.052246,-138.763702,,,
729860285.240301,18.862114,-8.533358,-21.686177,0.153992,0.302185,0.937363,0.616056,-0.119738,0.016749,73.280182,-12.052246,-138.763702,,,
729860285.243634,19.030696,-8.587018,-21.664925,0.164825,0.325836,0.900574,0.586281,-0.160434,-0.024342,73.280182,-12.052246,-138.763702,,,
729860285.24697,19.030696,-8.587018,-21.664925,0.164825,0.325836,0.900574,0.586281,-0.160434,-0.024342,73.280182,-12.052246,-138.763702,,,
729860285.250316,19.194443,-8.641213,-21.650392,0.164825,0.325836,0.900574,0.586281,-0.160434,-0.024342,73.280182,-12.052246,-138.763702,,,
729860285.253684,19.35157,-8.694086,-21.642358,0.172089,0.34996,0.900635,0.537726,-0.173029,-0.061866,73.280182,-12.052246,-138.763702,,,
729860285.256956,19.35157,-8.694086,-21.642358,0.172089,0.34996,0.900635,0.537726,-0.173029,-0.061866,73.280182,-12.052246,-138.763702,,,
729860285.260303,19.501364,-8.743055,-21.639461,0.172089,0.34996,0.900635,0.537726,-0.173029,-0.061866,73.280182,-12.052246,-138.763702,,,
729860285.263626,19.644309,-8.785095,-21.639176,0.168076,0.343079,0.904053,0.48557,-0.136534,-0.076621,73.280182,-12.052246,-138.763702,,,
729860285.267021,19.644309,-8.785095,-21.639176,0.168076,0.343079,0.904053,0.48557,-0.136534,-0.076621,73.280182,-12.052246,-138.763702,,,
729860285.270304,19.78015,-8.81802,-21.638188,0.168076,0.343079,0.904053,0.48557,-0.136534,-0.076621,73.280182,-12.052246,-138.763702,,,
729860285.273635,19.90908,-8.841508,-21.634076,0.156555,0.344894,0.91893,0.444078,-0.065177,-0.052657,73.280182,-12.052246,-138.763702,,,
729860285.276988,19.90908,-8.841508,-21.634076,0.156555,0.344894,0.91893,0.444078,-0.065177,-0.052657,73.184174,-12.998627,-137.980347,,,
729860285.280394,20.031602,-8.855788,-21.626574,0.156555,0.344894,0.91893,0.444078,-0.065177,-0.052657,73.184174,-12.998627,-137.980347,,,
729860285.283629,20.149557,-8.860287,-21.61541,0.147476,0.337387,0.927612,0.410779,0.009752,-0.024956,73.184174,-12.998627,-137.980347,,,
