Time (sec),Pitch (deg),Roll (deg),Yaw(deg),X-Acceleration (g),Y-Acceleration (g),Z-Acceleration (g),Pitch Rate (deg/sec),Roll Rate (deg/sec),Yaw Rate (deg/sec),Magnetic Field in X direction (uT),Magnetic Field in Y direction (uT),Magnetic Field in Z Direction (uT),Latitude (deg),Longitude (deg),Altitude (m)
729862447.610903,1.910899,4.25439,51.160108,-0.064865,0.029297,0.988403,-0.055955,0.031959,-0.007311,46.458405,6.371964,-147.874344,,,
729862447.614241,1.895198,4.264638,51.158129,-0.067902,0.026367,0.992538,-0.050408,0.035377,-0.013928,46.458405,6.371964,-147.874344,,,
729862447.617582,1.895198,4.264638,51.158129,-0.067902,0.026367,0.992538,-0.050408,0.035377,-0.013928,46.458405,6.371964,-147.874344,,,
729862447.62092,1.880961,4.274505,51.155041,-0.067902,0.026367,0.992538,-0.050408,0.035377,-0.013928,46.458405,6.371964,-147.874344,,,
729862447.62424,1.867532,4.286535,51.150388,-0.072418,0.025146,1.001328,-0.042384,0.036666,-0.023868,46.458405,6.371964,-147.874344,,,
729862447.627574,1.867532,4.286535,51.150388,-0.072418,0.025146,1.001328,-0.042384,0.036666,-0.023868,46.458405,6.371964,-147.874344,,,
729862447.630929,1.856558,4.29565,51.14529,-0.072418,0.025146,1.001328,-0.042384,0.036666,-0.023868,46.458405,6.371964,-147.874344,,,
729862447.634232,1.849642,4.303996,51.141089,-0.081146,0.022339,1.012482,-0.014075,0.022658,-0.015149,46.458405,6.371964,-147.874344,,,
729862447.637629,1.849642,4.303996,51.141089,-0.081146,0.022339,1.012482,-0.014075,0.022658,-0.015149,46.458405,6.371964,-147.874344,,,
729862447.640917,1.84698,4.308304,51.137724,-0.081146,0.022339,1.012482,-0.014075,0.022658,-0.015149,46.458405,6.371964,-147.874344,,,
729862447.644265,1.847703,4.309568,51.135177,-0.088196,0.019669,1.017441,0.00832,-0.001094,-0.007688,46.458405,6.371964,-147.874344,,,
729862447.647596,1.847703,4.309568,51.135177,-0.088196,0.019669,1.017441,0.00832,-0.001094,-0.007688,46.458405,6.371964,-147.874344,,,
729862447.650918,1.850423,4.306644,51.133915,-0.088196,0.019669,1.017441,0.00832,-0.001094,-0.007688,46.36618,6.158936,-147.72821,,,
729862447.654244,1.853533,4.299676,51.133916,-0.087463,0.02478,1.002335,0.009183,-0.026161,0.001077,46.36618,6.158936,-147.72821,,,
729862447.657587,1.853533,4.299676,51.133916,-0.087463,0.02478,1.002335,0.009183,-0.026161,0.001077,46.36618,6.158936,-147.72821,,,
729862447.660914,1.85465,4.29054,51.13447,-0.087463,0.02478,1.002335,0.009183,-0.026161,0.001077,46.36618,6.158936,-147.72821,,,
729862447.664243,1.851843,4.279016,51.135182,-0.079041,0.036896,0.984467,-0.017137,-0.036851,2e-06,46.36618,6.158936,-147.72821,,,
729862447.667568,1.851843,4.279016,51.135182,-0.079041,0.036896,0.984467,-0.017137,-0.036851,2e-06,46.36618,6.158936,-147.72821,,,
729862447.670906,1.844647,4.267734,51.135749,-0.079041,0.036896,0.984467,-0.017137,-0.036851,2e-06,46.36618,6.158936,-147.72821,,,
729862447.674243,1.833195,4.256379,51.135907,-0.069534,0.041504,0.977402,-0.045769,-0.030245,-0.005196,46.36618,6.158936,-147.72821,,,
729862447.677597,1.833195,4.256379,51.135907,-0.069534,0.041504,0.977402,-0.045769,-0.030245,-0.005196,46.36618,6.158936,-147.72821,,,
729862447.680928,1.817666,4.247669,51.135474,-0.069534,0.041504,0.977402,-0.045769,-0.030245,-0.005196,46.36618,6.158936,-147.72821,,,
729862447.684241,1.798702,4.2406,51.134621,-0.065781,0.042984,0.98558,-0.068825,-0.010457,-0.010054,46.36618,6.158936,-147.72821,,,
729862447.687675,1.798702,4.2406,51.134621,-0.065781,0.042984,0.98558,-0.068825,-0.010457,-0.010054,46.36618,6.158936,-147.72821,,,
729862447.690994,1.778007,4.238563,51.133418,-0.065781,0.042984,0.98558,-0.068825,-0.010457,-0.010054,46.36618,6.158936,-147.72821,,,
729862447.694272,1.757349,4.238483,51.132658,-0.068832,0.038895,1.000748,-0.066927,0.009922,-0.007004,46.295151,6.297836,-147.854782,,,
729862447.697592,1.757349,4.238483,51.132658,-0.068832,0.038895,1.000748,-0.066927,0.009922,-0.007004,46.295151,6.297836,-147.854782,,,
729862447.700925,1.739475,4.241512,51.133204,-0.068832,0.038895,1.000748,-0.066927,0.009922,-0.007004,46.295151,6.297836,-147.854782,,,
729862447.704245,1.725014,4.245361,51.135459,-0.07251,0.030563,1.012222,-0.042154,0.019531,0.006663,46.295151,6.297836,-147.854782,,,
729862447.707596,1.725014,4.245361,51.135459,-0.07251,0.030563,1.012222,-0.042154,0.019531,0.006663,46.295151,6.297836,-147.854782,,,
729862447.710913,1.713946,4.250835,51.138561,-0.07251,0.030563,1.012222,-0.042154,0.019531,0.006663,46.295151,6.297836,-147.854782,,,
729862447.714275,1.705258,4.257846,51.141456,-0.072189,0.029892,1.009781,-0.022728,0.026476,0.006751,46.295151,6.297836,-147.854782,,,
729862447.717572,1.705258,4.257846,51.141456,-0.072189,0.029892,1.009781,-0.022728,0.026476,0.006751,46.295151,6.297836,-147.854782,,,
729862447.720919,1.699918,4.264191,51.143653,-0.072189,0.029892,1.009781,-0.022728,0.026476,0.006751,46.295151,6.297836,-147.854782,,,
729862447.724236,1.695286,4.271783,51.144255,-0.064789,0.03302,1.004944,-0.012728,0.024265,-0.003274,46.295151,6.297836,-147.854782,,,
729862447.727584,1.695286,4.271783,51.144255,-0.064789,0.03302,1.004944,-0.012728,0.024265,-0.003274,46.295151,6.297836,-147.854782,,,
729862447.731013,1.69096,4.277612,51.142387,-0.064789,0.03302,1.004944,-0.012728,0.024265,-0.003274,46.295151,6.297836,-147.854782,,,
729862447.734235,1.685799,4.284672,51.137662,-0.063049,0.036316,0.99205,-0.013672,0.018975,-0.022863,46.187393,6.28067,-147.988556,,,
729862447.737596,1.685799,4.284672,51.137662,-0.063049,0.036316,0.99205,-0.013672,0.018975,-0.022863,46.187393,6.28067,-147.988556,,,
729862447.740924,1.680783,4.288883,51.131634,-0.063049,0.036316,0.99205,-0.013672,0.018975,-0.022863,46.187393,6.28067,-147.988556,,,
729862447.744249,1.675751,4.293727,51.125679,-0.069122,0.035233,0.993256,-0.016157,0.016236,-0.022332,46.187393,6.28067,-147.988556,,,
729862447.747592,1.675751,4.293727,51.125679,-0.069122,0.035233,0.993256,-0.016157,0.016236,-0.022332,46.187393,6.28067,-147.988556,,,
729862447.750914,1.670233,4.297906,51.120466,-0.069122,0.035233,0.993256,-0.016157,0.016236,-0.022332,46.187393,6.28067,-147.988556,,,
729862447.754244,1.665161,4.302157,51.117008,-0.079361,0.03125,1.00029,-0.019261,0.019069,-0.010375,46.187393,6.28067,-147.988556,,,
729862447.757571,1.665161,4.302157,51.117008,-0.079361,0.03125,1.00029,-0.019261,0.019069,-0.010375,46.187393,6.28067,-147.988556,,,
729862447.760905,1.659722,4.306199,51.116366,-0.079361,0.03125,1.00029,-0.019261,0.019069,-0.010375,46.187393,6.28067,-147.988556,,,
729862447.764235,1.654924,4.307308,51.118657,-0.084686,0.02829,0.997955,-0.022277,0.008327,0.009516,46.187393,6.28067,-147.988556,,,
729862447.767635,1.654924,4.307308,51.118657,-0.084686,0.02829,0.997955,-0.022277,0.008327,0.009516,46.187393,6.28067,-147.988556,,,
729862447.770912,1.648885,4.307874,51.122947,-0.084686,0.02829,0.997955,-0.022277,0.008327,0.009516,46.187393,6.28067,-147.988556,,,
729862447.774236,1.643302,4.305299,51.127875,-0.07637,0.030472,0.996185,-0.024637,-0.006975,0.013604,46.310013,6.255814,-147.990387,,,
729862447.777568,1.643302,4.305299,51.127875,-0.07637,0.030472,0.996185,-0.024637,-0.006975,0.013604,46.310013,6.255814,-147.990387,,,
729862447.780918,1.63628,4.302266,51.131816,-0.07637,0.030472,0.996185,-0.024637,-0.006975,0.013604,46.310013,6.255814,-147.990387,,,
729862447.784295,1.62907,4.297642,51.133626,-0.062454,0.03186,0.99794,-0.026257,-0.014171,-0.001421,46.310013,6.255814,-147.990387,,,
729862447.787581,1.62907,4.297642,51.133626,-0.062454,0.03186,0.99794,-0.026257,-0.014171,-0.001421,46.310013,6.255814,-147.990387,,,
729862447.790998,1.621216,4.293162,51.132768,-0.062454,0.03186,0.99794,-0.026257,-0.014171,-0.001421,46.310013,6.255814,-147.990387,,,
729862447.794233,1.61376,4.289477,51.12949,-0.062897,0.026794,1.003754,-0.022657,-0.006878,-0.018172,46.310013,6.255814,-147.990387,,,
729862447.797585,1.61376,4.289477,51.12949,-0.062897,0.026794,1.003754,-0.022657,-0.006878,-0.018172,46.310013,6.255814,-147.990387,,,
729862447.80092,1.607148,4.288146,51.125003,-0.062897,0.026794,1.003754,-0.022657,-0.006878,-0.018172,46.310013,6.255814,-147.990387,,,
729862447.804238,1.601076,4.287942,51.120653,-0.071686,0.023575,1.01239,-0.02056,0.010407,-0.017362,46.310013,6.255814,-147.990387,,,
729862447.80758,1.601076,4.287942,51.120653,-0.071686,0.023575,1.01239,-0.02056,0.010407,-0.017362,46.310013,6.255814,-147.990387,,,
729862447.810905,1.595677,4.291797,51.117188,-0.071686,0.023575,1.01239,-0.02056,0.010407,-0.017362,46.310013,6.255814,-147.990387,,,
729862447.814248,1.592752,4.296012,51.114987,-0.081192,0.024796,1.019043,-0.007417,0.025173,-0.007816,46.378677,6.27681,-148.181519,,,
729862447.81763,1.592752,4.296012,51.114987,-0.081192,0.024796,1.019043,-0.007417,0.025173,-0.007816,46.378677,6.27681,-148.181519,,,
729862447.820922,1.59177,4.302329,51.114432,-0.081192,0.024796,1.019043,-0.007417,0.025173,-0.007816,46.378677,6.27681,-148.181519,,,
729862447.824238,1.594007,4.307383,51.115815,-0.085312,0.021561,1.019119,0.010545,0.023817,0.006874,46.378677,6.27681,-148.181519,,,
729862447.827615,1.594007,4.307383,51.115815,-0.085312,0.021561,1.019119,0.010545,0.023817,0.006874,46.378677,6.27681,-148.181519,,,
729862447.830987,1.598422,4.313661,51.118218,-0.085312,0.021561,1.019119,0.010545,0.023817,0.006874,46.378677,6.27681,-148.181519,,,
729862447.834235,1.60628,4.319878,51.120839,-0.086243,0.017914,1.022278,0.032366,0.021775,0.010097,46.378677,6.27681,-148.181519,,,
729862447.837588,1.60628,4.319878,51.120839,-0.086243,0.017914,1.022278,0.032366,0.021775,0.010097,46.378677,6.27681,-148.181519,,,
729862447.840936,1.616657,4.323715,51.123972,-0.086243,0.017914,1.022278,0.032366,0.021775,0.010097,46.378677,6.27681,-148.181519,,,
729862447.844245,1.629868,4.325024,51.127803,-0.086334,0.019333,1.013992,0.051246,-0.004586,0.016661,46.378677,6.27681,-148.181519,,,
729862447.847659,1.629868,4.325024,51.127803,-0.086334,0.019333,1.013992,0.051246,-0.004586,0.016661,46.378677,6.27681,-148.181519,,,
729862447.850917,1.645226,4.321718,51.131451,-0.086334,0.019333,1.013992,0.051246,-0.004586,0.016661,46.378677,6.27681,-148.181519,,,
729862447.854243,1.661694,4.317237,51.134393,-0.081879,0.024536,1.005707,0.059266,-0.01732,0.012444,46.378677,6.27681,-148.181519,,,
729862447.857569,1.661694,4.317237,51.134393,-0.081879,0.024536,1.005707,0.059266,-0.01732,0.012444,46.319443,5.936447,-148.191681,,,
729862447.860912,1.67886,4.311244,51.1369,-0.081879,0.024536,1.005707,0.059266,-0.01732,0.012444,46.319443,5.936447,-148.191681,,,
729862447.864242,1.694978,4.303956,51.138498,-0.07605,0.026871,0.999771,0.051048,-0.015841,0.005131,46.319443,5.936447,-148.191681,,,
729862447.867645,1.694978,4.303956,51.138498,-0.07605,0.026871,0.999771,0.051048,-0.015841,0.005131,46.319443,5.936447,-148.191681,,,
729862447.870897,1.708198,4.298908,51.139304,-0.07605,0.026871,0.999771,0.051048,-0.015841,0.005131,46.319443,5.936447,-148.191681,,,
729862447.874238,1.71856,4.293833,51.140052,-0.071259,0.030136,0.98732,0.031868,-0.001951,0.002873,46.319443,5.936447,-148.191681,,,
729862447.877583,1.71856,4.293833,51.140052,-0.071259,0.030136,0.98732,0.031868,-0.001951,0.002873,46.319443,5.936447,-148.191681,,,
729862447.881003,1.726061,4.293148,51.141376,-0.071259,0.030136,0.98732,0.031868,-0.001951,0.002873,46.319443,5.936447,-148.191681,,,
729862447.884234,1.730704,4.292932,51.14344,-0.072891,0.034332,0.984711,0.014181,0.008884,0.00652,46.319443,5.936447,-148.191681,,,
729862447.88759,1.730704,4.292932,51.14344,-0.072891,0.034332,0.984711,0.014181,0.008884,0.00652,46.319443,5.936447,-148.191681,,,
729862447.890925,1.733992,4.295212,51.145192,-0.072891,0.034332,0.984711,0.014181,0.008884,0.00652,46.319443,5.936447,-148.191681,,,
729862447.894244,1.735724,4.29899,51.146662,-0.07666,0.032211,0.985855,0.006101,0.01636,0.004012,46.319443,5.936447,-148.191681,,,
729862447.897573,1.735724,4.29899,51.146662,-0.07666,0.032211,0.985855,0.006101,0.01636,0.004012,46.169891,6.297333,-147.92601,,,
729862447.900927,1.736811,4.302474,51.148276,-0.07666,0.032211,0.985855,0.006101,0.01636,0.004012,46.169891,6.297333,-147.92601,,,
729862447.904242,1.736484,4.305128,51.150224,-0.079163,0.028717,0.988525,-0.000346,0.00252,0.006098,46.169891,6.297333,-147.92601,,,
729862447.90765,1.736484,4.305128,51.150224,-0.079163,0.028717,0.988525,-0.000346,0.00252,0.006098,46.169891,6.297333,-147.92601,,,
729862447.910911,1.736751,4.303624,51.152808,-0.079163,0.028717,0.988525,-0.000346,0.00252,0.006098,46.169891,6.297333,-147.92601,,,
729862447.914247,1.73666,4.300681,51.156693,-0.08252,0.027176,0.981873,0.001375,-0.016637,0.015577,46.169891,6.297333,-147.92601,,,
729862447.917594,1.73666,4.300681,51.156693,-0.08252,0.027176,0.981873,0.001375,-0.016637,0.015577,46.169891,6.297333,-147.92601,,,
729862447.920983,1.737579,4.294319,51.161684,-0.08252,0.027176,0.981873,0.001375,-0.016637,0.015577,46.169891,6.297333,-147.92601,,,
729862447.924231,1.738114,4.288634,51.167125,-0.082275,0.028183,0.983795,0.003431,-0.021113,0.019204,46.169891,6.297333,-147.92601,,,
729862447.927593,1.738114,4.288634,51.167125,-0.082275,0.028183,0.983795,0.003431,-0.021113,0.019204,46.169891,6.297333,-147.92601,,,
729862447.930913,1.739509,4.28193,51.17315,-0.082275,0.028183,0.983795,0.003431,-0.021113,0.019204,46.169891,6.297333,-147.92601,,,
729862447.934238,1.739639,4.277537,51.179321,-0.069855,0.032364,0.98114,-0.002471,-0.013543,0.020073,46.169891,6.297333,-147.92601,,,
729862447.937569,1.739639,4.277537,51.179321,-0.069855,0.032364,0.98114,-0.002471,-0.013543,0.020073,46.034302,6.323395,-147.836655,,,
729862447.940931,1.739452,4.273059,51.184785,-0.069855,0.032364,0.98114,-0.002471,-0.013543,0.020073,46.034302,6.323395,-147.836655,,,
729862447.94424,1.738078,4.270625,51.188662,-0.058105,0.034241,0.980774,-0.007991,-0.00196,0.008664,46.034302,6.323395,-147.836655,,,
729862447.947573,1.738078,4.270625,51.188662,-0.058105,0.034241,0.980774,-0.007991,-0.00196,0.008664,46.034302,6.323395,-147.836655,,,
729862447.950917,1.735635,4.270672,51.190439,-0.058105,0.034241,0.980774,-0.007991,-0.00196,0.008664,46.034302,6.323395,-147.836655,,,
729862447.95424,1.732357,4.274059,51.190125,-0.052231,0.035004,0.987,-0.012611,0.022938,-0.006286,46.034302,6.323395,-147.836655,,,
729862447.957675,1.732357,4.274059,51.190125,-0.052231,0.035004,0.987,-0.012611,0.022938,-0.006286,46.034302,6.323395,-147.836655,,,
729862447.960927,1.727438,4.28134,51.188012,-0.052231,0.035004,0.987,-0.012611,0.022938,-0.006286,46.034302,6.323395,-147.836655,,,
729862447.964246,1.7216,4.290257,51.184886,-0.051514,0.033768,0.985611,-0.020114,0.036429,-0.014023,46.034302,6.323395,-147.836655,,,
729862447.967583,1.7216,4.290257,51.184886,-0.051514,0.033768,0.985611,-0.020114,0.036429,-0.014023,46.034302,6.323395,-147.836655,,,
729862447.970974,1.714892,4.299748,51.181236,-0.051514,0.033768,0.985611,-0.020114,0.036429,-0.014023,46.034302,6.323395,-147.836655,,,
729862447.974228,1.707591,4.308768,51.176254,-0.052612,0.03064,0.98259,-0.02533,0.030877,-0.023678,46.034302,6.323395,-147.836655,,,
729862447.977567,1.707591,4.308768,51.176254,-0.052612,0.03064,0.98259,-0.02533,0.030877,-0.023678,45.825317,6.303864,-147.805023,,,
729862447.980924,1.699704,4.316921,51.169116,-0.052612,0.03064,0.98259,-0.02533,0.030877,-0.023678,45.825317,6.303864,-147.805023,,,
729862447.984234,1.692303,4.325656,51.159594,-0.056152,0.024658,0.996567,-0.020648,0.029953,-0.039828,45.825317,6.303864,-147.805023,,,
729862447.987585,1.692303,4.325656,51.159594,-0.056152,0.024658,0.996567,-0.020648,0.029953,-0.039828,45.825317,6.303864,-147.805023,,,
729862447.990903,1.685857,4.333616,51.148377,-0.056152,0.024658,0.996567,-0.020648,0.029953,-0.039828,45.825317,6.303864,-147.805023,,,
729862447.994244,1.680904,4.342103,51.136518,-0.06636,0.020081,1.005386,-0.009431,0.026525,-0.043266,45.825317,6.303864,-147.805023,,,
729862447.997582,1.680904,4.342103,51.136518,-0.06636,0.020081,1.005386,-0.009431,0.026525,-0.043266,45.825317,6.303864,-147.805023,,,
729862448.000922,1.678037,4.348746,51.125533,-0.06636,0.020081,1.005386,-0.009431,0.026525,-0.043266,45.825317,6.303864,-147.805023,,,
729862448.004242,1.676178,4.354795,51.116674,-0.078186,0.018219,1.000595,-0.002881,0.014145,-0.027674,45.825317,6.303864,-147.805023,,,
729862448.007637,1.676178,4.354795,51.116674,-0.078186,0.018219,1.000595,-0.002881,0.014145,-0.027674,45.825317,6.303864,-147.805023,,,
729862448.010899,1.674874,4.356801,51.10993,-0.078186,0.018219,1.000595,-0.002881,0.014145,-0.027674,45.825317,6.303864,-147.805023,,,
729862448.014264,1.674289,4.356136,51.10471,-0.081024,0.0224,0.990692,0.000221,-0.002414,-0.016927,45.825317,6.303864,-147.805023,,,
729862448.017591,1.674289,4.356136,51.10471,-0.081024,0.0224,0.990692,0.000221,-0.002414,-0.016927,45.825317,6.303864,-147.805023,,,
729862448.021,1.673583,4.354491,51.100601,-0.081024,0.0224,0.990692,0.000221,-0.002414,-0.016927,46.210419,6.174454,-147.817612,,,
729862448.024243,1.672339,4.350367,51.096899,-0.077026,0.025528,0.985504,-0.006254,-0.005111,-0.014919,46.210419,6.174454,-147.817612,,,
729862448.027582,1.672339,4.350367,51.096899,-0.077026,0.025528,0.985504,-0.006254,-0.005111,-0.014919,46.210419,6.174454,-147.817612,,,
729862448.030958,1.669552,4.348002,51.093446,-0.077026,0.025528,0.985504,-0.006254,-0.005111,-0.014919,46.210419,6.174454,-147.817612,,,
729862448.034243,1.666214,4.341824,51.090009,-0.071564,0.028229,0.978546,-0.013093,-0.009894,-0.015854,46.210419,6.174454,-147.817612,,,
729862448.037657,1.666214,4.341824,51.090009,-0.071564,0.028229,0.978546,-0.013093,-0.009894,-0.015854,46.210419,6.174454,-147.817612,,,
729862448.040913,1.661666,4.338595,51.085927,-0.071564,0.028229,0.978546,-0.013093,-0.009894,-0.015854,46.210419,6.174454,-147.817612,,,
729862448.044242,1.65754,4.333134,51.081235,-0.064804,0.028961,0.988434,-0.012148,-0.001947,-0.020771,46.210419,6.174454,-147.817612,,,
729862448.04766,1.65754,4.333134,51.081235,-0.064804,0.028961,0.988434,-0.012148,-0.001947,-0.020771,46.210419,6.174454,-147.817612,,,
729862448.05092,1.654167,4.333153,51.074929,-0.064804,0.028961,0.988434,-0.012148,-0.001947,-0.020771,46.210419,6.174454,-147.817612,,,
729862448.054243,1.65282,4.332643,51.067431,-0.06662,0.022614,1.007004,0.001365,0.01696,-0.028727,46.210419,6.174454,-147.817612,,,
729862448.0576,1.65282,4.332643,51.067431,-0.06662,0.022614,1.007004,0.001365,0.01696,-0.028727,46.210419,6.174454,-147.817612,,,
729862448.060922,1.653063,4.337638,51.059239,-0.06662,0.022614,1.007004,0.001365,0.01696,-0.028727,46.458054,6.212067,-147.938675,,,
729862448.064245,1.654192,4.341126,51.050526,-0.070724,0.0224,1.005951,0.008299,0.026823,-0.032415,46.458054,6.212067,-147.938675,,,
729862448.067589,1.654192,4.341126,51.050526,-0.070724,0.0224,1.005951,0.008299,0.026823,-0.032415,46.458054,6.212067,-147.938675,,,
729862448.070913,1.655296,4.348912,51.04097,-0.070724,0.0224,1.005951,0.008299,0.026823,-0.032415,46.458054,6.212067,-147.938675,,,
729862448.074244,1.655,4.356117,51.031131,-0.076263,0.028824,1.001984,0.002052,0.035984,-0.035296,46.458054,6.212067,-147.938675,,,
729862448.077582,1.655,4.356117,51.031131,-0.076263,0.028824,1.001984,0.002052,0.035984,-0.035296,46.458054,6.212067,-147.938675,,,
729862448.080939,1.653806,4.36569,51.021336,-0.076263,0.028824,1.001984,0.002052,0.035984,-0.035296,46.458054,6.212067,-147.938675,,,
729862448.084244,1.650652,4.374472,51.01222,-0.087769,0.027603,0.995377,-0.007366,0.031299,-0.031299,46.458054,6.212067,-147.938675,,,
729862448.087578,1.650652,4.374472,51.01222,-0.087769,0.027603,0.995377,-0.007366,0.031299,-0.031299,46.458054,6.212067,-147.938675,,,
729862448.090924,1.646997,4.382219,51.004844,-0.087769,0.027603,0.995377,-0.007366,0.031299,-0.031299,46.458054,6.212067,-147.938675,,,
729862448.094242,1.642687,4.388596,50.99984,-0.097992,0.026199,0.992783,-0.009878,0.016841,-0.014783,46.458054,6.212067,-147.938675,,,
729862448.097652,1.642687,4.388596,50.99984,-0.097992,0.026199,0.992783,-0.009878,0.016841,-0.014783,46.458054,6.212067,-147.938675,,,
729862448.100896,1.639348,4.391726,50.997264,-0.097992,0.026199,0.992783,-0.009878,0.016841,-0.014783,46.243301,5.990387,-148.07608,,,
729862448.104242,1.636591,4.39287,50.996978,-0.105453,0.027252,0.99556,-0.005233,0.000603,0.001626,46.243301,5.990387,-148.07608,,,
729862448.107584,1.636591,4.39287,50.996978,-0.105453,0.027252,0.99556,-0.005233,0.000603,0.001626,46.243301,5.990387,-148.07608,,,
729862448.110972,1.635314,4.391249,50.999438,-0.105453,0.027252,0.99556,-0.005233,0.000603,0.001626,46.243301,5.990387,-148.07608,,,
729862448.114239,1.634505,4.386416,51.004403,-0.102921,0.026978,0.99321,-0.003324,-0.0187,0.019093,46.243301,5.990387,-148.07608,,,
729862448.117572,1.634505,4.386416,51.004403,-0.102921,0.026978,0.99321,-0.003324,-0.0187,0.019093,46.243301,5.990387,-148.07608,,,
729862448.120919,1.634525,4.37854,51.011281,-0.102921,0.026978,0.99321,-0.003324,-0.0187,0.019093,46.243301,5.990387,-148.07608,,,
729862448.124236,1.635404,4.366387,51.019421,-0.093491,0.026855,0.989243,0.001035,-0.038894,0.027892,46.243301,5.990387,-148.07608,,,
729862448.127581,1.635404,4.366387,51.019421,-0.093491,0.026855,0.989243,0.001035,-0.038894,0.027892,46.243301,5.990387,-148.07608,,,
729862448.130949,1.636764,4.353892,51.027797,-0.093491,0.026855,0.989243,0.001035,-0.038894,0.027892,46.243301,5.990387,-148.07608,,,
729862448.134264,1.638514,4.339415,51.035533,-0.077469,0.028107,0.996689,0.00602,-0.041435,0.023495,46.243301,5.990387,-148.07608,,,
729862448.137715,1.638514,4.339415,51.035533,-0.077469,0.028107,0.996689,0.00602,-0.041435,0.023495,46.243301,5.990387,-148.07608,,,
729862448.140944,1.640529,4.328221,51.041641,-0.077469,0.028107,0.996689,0.00602,-0.041435,0.023495,46.243301,5.990387,-148.07608,,,
729862448.144259,1.641507,4.31969,51.045934,-0.066711,0.032242,1.001511,0.002914,-0.01705,0.010406,46.159348,6.033859,-148.024963,,,
729862448.147581,1.641507,4.31969,51.045934,-0.066711,0.032242,1.001511,0.002914,-0.01705,0.010406,46.159348,6.033859,-148.024963,,,
729862448.150936,1.642485,4.316129,51.048627,-0.066711,0.032242,1.001511,0.002914,-0.01705,0.010406,46.159348,6.033859,-148.024963,,,
729862448.154247,1.643747,4.316624,51.05062,-0.060638,0.028229,1.006012,0.005726,0.012115,0.005702,46.159348,6.033859,-148.024963,,,
729862448.157579,1.643747,4.316624,51.05062,-0.060638,0.028229,1.006012,0.005726,0.012115,0.005702,46.159348,6.033859,-148.024963,,,
729862448.161016,1.646045,4.32086,51.052278,-0.060638,0.028229,1.006012,0.005726,0.012115,0.005702,46.159348,6.033859,-148.024963,,,
729862448.164236,1.64971,4.328951,51.05357,-0.064743,0.025711,1.009857,0.015601,0.030048,0.00416,46.159348,6.033859,-148.024963,,,
729862448.167585,1.64971,4.328951,51.05357,-0.064743,0.025711,1.009857,0.015601,0.030048,0.00416,46.159348,6.033859,-148.024963,,,
729862448.170921,1.654829,4.336915,51.054249,-0.064743,0.025711,1.009857,0.015601,0.030048,0.00416,46.159348,6.033859,-148.024963,,,
729862448.174244,1.66071,4.347396,51.05402,-0.070404,0.026703,1.006012,0.02267,0.026151,-0.001104,46.159348,6.033859,-148.024963,,,
729862448.177583,1.66071,4.347396,51.05402,-0.070404,0.026703,1.006012,0.02267,0.026151,-0.001104,46.159348,6.033859,-148.024963,,,
729862448.180921,1.667832,4.35298,51.053971,-0.070404,0.026703,1.006012,0.02267,0.026151,-0.001104,46.159348,6.033859,-148.024963,,,
729862448.184288,1.675893,4.359876,51.05416,-0.07695,0.025299,0.997299,0.030064,0.006527,0.002039,46.316376,6.022171,-147.896423,,,
729862448.187571,1.675893,4.359876,51.05416,-0.07695,0.025299,0.997299,0.030064,0.006527,0.002039,46.316376,6.022171,-147.896423,,,
729862448.190908,1.683709,4.359133,51.054811,-0.07695,0.025299,0.997299,0.030064,0.006527,0.002039,46.316376,6.022171,-147.896423,,,
729862448.194236,1.683709,4.359133,51.054811,-0.074188,0.028748,0.985077,0.022233,-0.018525,0.001242,46.316376,6.022171,-147.896423,,,
729862448.1976,1.690206,4.358896,51.055308,-0.074188,0.028748,0.985077,0.022233,-0.018525,0.001242,46.316376,6.022171,-147.896423,,,
729862448.200924,1.695973,4.351513,51.055051,-0.074188,0.028748,0.985077,0.022233,-0.018525,0.001242,46.316376,6.022171,-147.896423,,,
729862448.204289,1.695973,4.351513,51.055051,-0.065063,0.034409,0.976578,0.009219,-0.027232,-0.009791,46.316376,6.022171,-147.896423,,,
729862448.207606,1.699587,4.346018,51.053265,-0.065063,0.034409,0.976578,0.009219,-0.027232,-0.009791,46.316376,6.022171,-147.896423,,,
729862448.210999,1.700633,4.338777,51.050131,-0.065063,0.034409,0.976578,0.009219,-0.027232,-0.009791,46.316376,6.022171,-147.896423,,,
729862448.214231,1.700633,4.335304,51.046283,-0.063324,0.034348,0.979752,-0.007687,-0.007345,-0.015878,46.316376,6.022171,-147.896423,,,
729862448.217593,1.699075,4.335304,51.046283,-0.063324,0.034348,0.979752,-0.007687,-0.007345,-0.015878,46.316376,6.022171,-147.896423,,,
729862448.220915,1.694778,4.334897,51.041922,-0.063324,0.034348,0.979752,-0.007687,-0.007345,-0.015878,46.316376,6.022171,-147.896423,,,
729862448.224233,1.694778,4.334897,51.041922,-0.063324,0.034348,0.979752,-0.024351,0.01911,-0.01746,46.357407,6.23378,-148.231476,,,
729862448.227587,1.688161,4.33727,51.037545,-0.066864,0.033585,0.987686,-0.024351,0.01911,-0.01746,46.357407,6.23378,-148.231476,,,
729862448.230928,1.681167,4.343464,51.03396,-0.066864,0.033585,0.987686,-0.024351,0.01911,-0.01746,46.357407,6.23378,-148.231476,,,
729862448.234328,1.681167,4.343464,51.031314,-0.075699,0.029877,0.997574,-0.017574,0.033159,-0.010885,46.357407,6.23378,-148.231476,,,
729862448.237664,1.675261,4.349531,51.031314,-0.075699,0.029877,0.997574,-0.017574,0.033159,-0.010885,46.357407,6.23378,-148.231476,,,
729862448.240925,1.671044,4.35835,51.029804,-0.075699,0.029877,0.997574,-0.017574,0.033159,-0.010885,46.357407,6.23378,-148.231476,,,
729862448.244278,1.671044,4.35835,51.029804,-0.075699,0.029877,0.997574,-0.003465,0.034828,-0.007233,46.357407,6.23378,-148.231476,,,
729862448.247584,1.66867,4.365375,51.028724,-0.077393,0.025055,1.005035,-0.003465,0.034828,-0.007233,46.357407,6.23378,-148.231476,,,
729862448.251006,1.667527,4.374395,51.02723,-0.077393,0.025055,1.005035,-0.003465,0.034828,-0.007233,46.357407,6.23378,-148.231476,,,
729862448.254305,1.667527,4.374395,51.02723,-0.077393,0.025055,1.005035,-0.004597,0.026613,-0.013925,46.357407,6.23378,-148.231476,,,
729862448.257601,1.666028,4.380976,51.024827,-0.07695,0.024979,0.996063,-0.004597,0.026613,-0.013925,46.357407,6.23378,-148.231476,,,
729862448.260909,1.663808,4.386269,51.021043,-0.07695,0.024979,0.996063,-0.004597,0.026613,-0.013925,46.357407,6.23378,-148.231476,,,
729862448.264262,1.663808,4.386269,51.021043,-0.07695,0.024979,0.996063,-0.003579,0.001421,-0.016845,46.298126,6.204285,-147.759506,,,
729862448.267591,1.661478,4.387909,51.016825,-0.079193,0.028976,0.985138,-0.003579,0.001421,-0.016845,46.298126,6.204285,-147.759506,,,
729862448.270906,1.659641,4.386313,51.012656,-0.079193,0.028976,0.985138,-0.003579,0.001421,-0.016845,46.298126,6.204285,-147.759506,,,
729862448.274298,1.659641,4.386313,51.012656,-0.079193,0.028976,0.985138,-0.005369,-0.016683,-0.013191,46.298126,6.204285,-147.759506,,,
729862448.277591,1.6575,4.382116,51.009033,-0.082733,0.026978,0.985245,-0.005369,-0.016683,-0.013191,46.298126,6.204285,-147.759506,,,
729862448.280917,1.655705,4.376004,51.006745,-0.082733,0.026978,0.985245,-0.005369,-0.016683,-0.013191,46.298126,6.204285,-147.759506,,,
729862448.284244,1.655705,4.376004,51.006745,-0.082733,0.026978,0.985245,-0.005369,-0.016683,-0.013191,46.298126,6.204285,-147.759506,,,
729862448.287664,1.654299,4.367895,51.005997,-0.083542,0.026505,0.985168,-0.005808,-0.023175,-0.002596,46.298126,6.204285,-147.759506,,,
729862448.290896,1.652173,4.360574,51.006794,-0.083542,0.026505,0.985168,-0.005808,-0.023175,-0.002596,46.298126,6.204285,-147.759506,,,
729862448.29425,1.652173,4.360574,51.006794,-0.083542,0.026505,0.985168,-0.005808,-0.023175,-0.002596,46.298126,6.204285,-147.759506,,,
729862448.297589,1.649889,4.351601,51.008888,-0.078766,0.02948,0.985367,-0.010297,-0.023012,0.005815,46.298126,6.204285,-147.759506,,,
729862448.300906,1.646563,4.344391,51.011128,-0.078766,0.02948,0.985367,-0.010297,-0.023012,0.005815,46.298126,6.204285,-147.759506,,,
729862448.30428,1.646563,4.344391,51.011128,-0.078766,0.02948,0.985367,-0.010308,-0.014065,0.00154,46.298126,6.204285,-147.759506,,,
729862448.307586,1.643542,4.337179,51.012799,-0.06839,0.032394,0.987564,-0.010308,-0.014065,0.00154,46.170822,6.188416,-147.771271,,,
729862448.310904,1.640491,4.333758,51.013104,-0.06839,0.032394,0.987564,-0.010308,-0.014065,0.00154,46.170822,6.188416,-147.771271,,,
729862448.314253,1.640491,4.333758,51.013104,-0.06839,0.032394,0.987564,-0.010308,-0.014065,0.00154,46.170822,6.188416,-147.771271,,,
729862448.317584,1.637203,4.333076,51.011669,-0.058167,0.031509,0.997025,-0.011844,0.006348,-0.01078,46.170822,6.188416,-147.771271,,,
729862448.320904,1.633043,4.336016,51.008228,-0.058167,0.031509,0.997025,-0.011844,0.006348,-0.01078,46.170822,6.188416,-147.771271,,,
729862448.324281,1.633043,4.336016,51.008228,-0.058167,0.031509,0.997025,-0.011844,0.006348,-0.01078,46.170822,6.188416,-147.771271,,,
729862448.327581,1.628568,4.341542,51.003039,-0.056732,0.029755,0.996017,-0.012326,0.022066,-0.022994,46.170822,6.188416,-147.771271,,,
729862448.330914,1.624449,4.347123,50.997136,-0.056732,0.029755,0.996017,-0.012326,0.022066,-0.022994,46.170822,6.188416,-147.771271,,,
729862448.334237,1.624449,4.347123,50.997136,-0.056732,0.029755,0.996017,-0.012326,0.022066,-0.022994,46.170822,6.188416,-147.771271,,,
729862448.337604,1.620307,4.352382,50.991364,-0.067917,0.029602,0.991913,-0.010951,0.01928,-0.021982,46.170822,6.188416,-147.771271,,,
729862448.340903,1.616411,4.357053,50.986522,-0.067917,0.029602,0.991913,-0.010951,0.01928,-0.021982,46.170822,6.188416,-147.771271,,,
729862448.344345,1.616411,4.357053,50.986522,-0.067917,0.029602,0.991913,-0.010951,0.01928,-0.021982,46.170822,6.188416,-147.771271,,,
729862448.347672,1.612465,4.361262,50.983415,-0.076462,0.029953,0.990051,-0.012418,0.01296,-0.00982,46.621017,6.115555,-147.933578,,,
729862448.35092,1.608969,4.362658,50.981511,-0.076462,0.029953,0.990051,-0.012418,0.01296,-0.00982,46.621017,6.115555,-147.933578,,,
729862448.354276,1.608969,4.362658,50.981511,-0.076462,0.029953,0.990051,-0.012418,0.01296,-0.00982,46.621017,6.115555,-147.933578,,,
729862448.357589,1.605764,4.361895,50.980292,-0.07579,0.032318,0.983292,-0.010669,-0.008805,-0.00472,46.621017,6.115555,-147.933578,,,
729862448.360908,1.601678,4.357231,50.979518,-0.07579,0.032318,0.983292,-0.010669,-0.008805,-0.00472,46.621017,6.115555,-147.933578,,,
729862448.364248,1.601678,4.357231,50.979518,-0.07579,0.032318,0.983292,-0.010669,-0.008805,-0.00472,46.621017,6.115555,-147.933578,,,
729862448.367584,1.595872,4.352074,50.978327,-0.072296,0.033096,0.975067,-0.021758,-0.022312,-0.008233,46.621017,6.115555,-147.933578,,,
729862448.370907,1.588558,4.344774,50.976294,-0.072296,0.033096,0.975067,-0.021758,-0.022312,-0.008233,46.621017,6.115555,-147.933578,,,
729862448.374302,1.588558,4.344774,50.976294,-0.072296,0.033096,0.975067,-0.021758,-0.022312,-0.008233,46.621017,6.115555,-147.933578,,,
729862448.377663,1.580099,4.338361,50.973193,-0.067093,0.033676,0.977066,-0.029654,-0.022001,-0.016064,46.621017,6.115555,-147.933578,,,
729862448.380928,1.570669,4.331494,50.969568,-0.067093,0.033676,0.977066,-0.029654,-0.022001,-0.016064,46.621017,6.115555,-147.933578,,,
729862448.384298,1.570669,4.331494,50.969568,-0.067093,0.033676,0.977066,-0.029654,-0.022001,-0.016064,46.621017,6.115555,-147.933578,,,
729862448.387571,1.561763,4.324457,50.965347,-0.060043,0.033737,0.984756,-0.027746,-0.019492,-0.020151,46.312531,6.365448,-147.720856,,,
729862448.390905,1.553491,4.318788,50.960216,-0.060043,0.033737,0.984756,-0.027746,-0.019492,-0.020151,46.312531,6.365448,-147.720856,,,
729862448.394237,1.553491,4.318788,50.960216,-0.060043,0.033737,0.984756,-0.027746,-0.019492,-0.020151,46.312531,6.365448,-147.720856,,,
729862448.397658,1.546318,4.312148,50.954398,-0.058472,0.027939,0.992722,-0.022022,-0.010937,-0.025,46.312531,6.365448,-147.720856,,,
729862448.400906,1.539669,4.309559,50.947689,-0.058472,0.027939,0.992722,-0.022022,-0.010937,-0.025,46.312531,6.365448,-147.720856,,,
729862448.40429,1.539669,4.309559,50.947689,-0.058472,0.027939,0.992722,-0.022022,-0.010937,-0.025,46.312531,6.365448,-147.720856,,,
729862448.40758,1.533189,4.307223,50.939613,-0.058075,0.026031,0.997131,-0.021668,0.009531,-0.035037,46.312531,6.365448,-147.720856,,,
729862448.410916,1.526082,4.310909,50.930216,-0.058075,0.026031,0.997131,-0.021668,0.009531,-0.035037,46.312531,6.365448,-147.720856,,,
729862448.414247,1.526082,4.310909,50.930216,-0.058075,0.026031,0.997131,-0.021668,0.009531,-0.035037,46.312531,6.365448,-147.720856,,,
729862448.417584,1.519101,4.315881,50.92026,-0.060577,0.02626,1.000198,-0.021994,0.029053,-0.039274,46.312531,6.365448,-147.720856,,,
729862448.420939,1.511436,4.325119,50.90977,-0.060577,0.02626,1.000198,-0.021994,0.029053,-0.039274,46.312531,6.365448,-147.720856,,,
729862448.42435,1.511436,4.325119,50.90977,-0.060577,0.02626,1.000198,-0.021994,0.029053,-0.039274,46.312531,6.365448,-147.720856,,,
729862448.427573,1.50339,4.336901,50.898953,-0.070831,0.02536,1.001404,-0.025787,0.046597,-0.041897,46.629318,6.054611,-148.164352,,,
729862448.430917,1.494389,4.349966,50.88824,-0.070831,0.02536,1.001404,-0.025787,0.046597,-0.041897,46.629318,6.054611,-148.164352,,,
729862448.434255,1.494389,4.349966,50.88824,-0.070831,0.02536,1.001404,-0.025787,0.046597,-0.041897,46.629318,6.054611,-148.164352,,,
729862448.437639,1.485308,4.363401,50.878534,-0.082794,0.022919,1.000626,-0.029072,0.047715,-0.035162,46.629318,6.054611,-148.164352,,,
729862448.440905,1.475314,4.375924,50.8699,-0.082794,0.022919,1.000626,-0.029072,0.047715,-0.035162,46.629318,6.054611,-148.164352,,,
729862448.44426,1.475314,4.375924,50.8699,-0.082794,0.022919,1.000626,-0.029072,0.047715,-0.035162,46.629318,6.054611,-148.164352,,,
729862448.447584,1.46436,4.386639,50.862953,-0.093872,0.023148,0.996719,-0.040265,0.037034,-0.024328,46.629318,6.054611,-148.164352,,,
729862448.450909,1.452904,4.395044,50.858551,-0.093872,0.023148,0.996719,-0.040265,0.037034,-0.024328,46.629318,6.054611,-148.164352,,,
729862448.454255,1.452904,4.395044,50.858551,-0.093872,0.023148,0.996719,-0.040265,0.037034,-0.024328,46.629318,6.054611,-148.164352,,,
729862448.457597,1.4427,4.398566,50.856008,-0.10051,0.023544,0.995911,-0.036275,0.010775,-0.011215,46.629318,6.054611,-148.164352,,,
729862448.46091,1.432163,4.398618,50.854495,-0.10051,0.023544,0.995911,-0.036275,0.010775,-0.011215,46.629318,6.054611,-148.164352,,,
729862448.464254,1.432163,4.398618,50.854495,-0.10051,0.023544,0.995911,-0.036275,0.010775,-0.011215,46.629318,6.054611,-148.164352,,,
729862448.467597,1.423351,4.391542,50.853732,-0.095764,0.020721,0.999084,-0.028945,-0.023648,-0.005765,46.629318,6.054611,-148.164352,,,
729862448.470911,1.415602,4.3819,50.853048,-0.095764,0.020721,0.999084,-0.028945,-0.023648,-0.005765,46.642838,5.924393,-148.285614,,,
729862448.474323,1.415602,4.3819,50.853048,-0.095764,0.020721,0.999084,-0.028945,-0.023648,-0.005765,46.642838,5.924393,-148.285614,,,
729862448.477578,1.410474,4.366047,50.851992,-0.092529,0.017349,1.005966,-0.012567,-0.049352,-0.007526,46.642838,5.924393,-148.285614,,,
729862448.480919,1.408333,4.350525,50.850599,-0.092529,0.017349,1.005966,-0.012567,-0.049352,-0.007526,46.642838,5.924393,-148.285614,,,
729862448.484258,1.408333,4.350525,50.850599,-0.092529,0.017349,1.005966,-0.012567,-0.049352,-0.007526,46.642838,5.924393,-148.285614,,,
729862448.487653,1.410554,4.33196,50.849888,-0.090042,0.015167,1.01828,0.016496,-0.05345,-0.001008,46.642838,5.924393,-148.285614,,,
729862448.490901,1.416413,4.316957,50.850234,-0.090042,0.015167,1.01828,0.016496,-0.05345,-0.001008,46.642838,5.924393,-148.285614,,,
729862448.494255,1.416413,4.316957,50.850234,-0.090042,0.015167,1.01828,0.016496,-0.05345,-0.001008,46.642838,5.924393,-148.285614,,,
729862448.497589,1.425358,4.30088,50.852189,-0.086472,0.014191,1.026749,0.036022,-0.043748,0.011268,46.642838,5.924393,-148.285614,,,
729862448.500915,1.436553,4.28868,50.855303,-0.086472,0.014191,1.026749,0.036022,-0.043748,0.011268,46.642838,5.924393,-148.285614,,,
729862448.504256,1.436553,4.28868,50.855303,-0.086472,0.014191,1.026749,0.036022,-0.043748,0.011268,46.642838,5.924393,-148.285614,,,
729862448.507589,1.448118,4.277675,50.858998,-0.076584,0.018417,1.014191,0.037895,-0.027549,0.01529,46.642838,5.924393,-148.285614,,,
729862448.510905,1.459006,4.270031,50.862374,-0.076584,0.018417,1.014191,0.037895,-0.027549,0.01529,46.416519,5.983002,-148.249893,,,
729862448.514354,1.459006,4.270031,50.862374,-0.076584,0.018417,1.014191,0.037895,-0.027549,0.01529,46.416519,5.983002,-148.249893,,,
729862448.517622,1.468995,4.26526,50.864176,-0.06546,0.027908,1.003906,0.0335,-0.013019,0.004081,46.416519,5.983002,-148.249893,,,
729862448.520958,1.478183,4.262132,50.864516,-0.06546,0.027908,1.003906,0.0335,-0.013019,0.004081,46.416519,5.983002,-148.249893,,,
729862448.524342,1.478183,4.262132,50.864516,-0.06546,0.027908,1.003906,0.0335,-0.013019,0.004081,46.416519,5.983002,-148.249893,,,
729862448.527584,1.485935,4.263074,50.863245,-0.06308,0.030396,0.99704,0.025809,-0.001439,-0.007268,46.416519,5.983002,-148.249893,,,
729862448.530919,1.491871,4.261809,50.861152,-0.06308,0.030396,0.99704,0.025809,-0.001439,-0.007268,46.416519,5.983002,-148.249893,,,
729862448.534239,1.491871,4.261809,50.861152,-0.06308,0.030396,0.99704,0.025809,-0.001439,-0.007268,46.416519,5.983002,-148.249893,,,
729862448.537656,1.495397,4.264248,50.859287,-0.065094,0.030655,0.986847,0.009987,-0.002351,-0.006114,46.416519,5.983002,-148.249893,,,
729862448.540655,1.496695,4.262799,50.857678,-0.065094,0.030655,0.986847,0.009987,-0.002351,-0.006114,46.416519,5.983002,-148.249893,,,
729862448.544298,1.496695,4.262799,50.857678,-0.065094,0.030655,0.986847,0.009987,-0.002351,-0.006114,46.416519,5.983002,-148.249893,,,
729862448.547584,1.494994,4.265048,50.856178,-0.065948,0.034195,0.981705,-0.008613,0.000188,-0.006148,46.416519,5.983002,-148.249893,,,
729862448.550914,1.490239,4.264836,50.854934,-0.065948,0.034195,0.981705,-0.008613,0.000188,-0.006148,46.455902,6.060699,-148.476044,,,
729862448.554262,1.490239,4.264836,50.854934,-0.065948,0.034195,0.981705,-0.008613,0.000188,-0.006148,46.455902,6.060699,-148.476044,,,
729862448.557602,1.481786,4.268992,50.853322,-0.067215,0.034576,0.975281,-0.030591,0.012103,-0.009833,46.455902,6.060699,-148.476044,,,
729862448.560996,1.471599,4.272601,50.851509,-0.067215,0.034576,0.975281,-0.030591,0.012103,-0.009833,46.455902,6.060699,-148.476044,,,
729862448.564345,1.471599,4.272601,50.851509,-0.067215,0.034576,0.975281,-0.030591,0.012103,-0.009833,46.455902,6.060699,-148.476044,,,
729862448.56759,1.45841,4.280305,50.849564,-0.06633,0.034637,0.982956,-0.04688,0.025934,-0.011595,46.455902,6.060699,-148.476044,,,
729862448.570909,1.44456,4.288038,50.847077,-0.06633,0.034637,0.982956,-0.04688,0.025934,-0.011595,46.455902,6.060699,-148.476044,,,
729862448.574319,1.44456,4.288038,50.847077,-0.06633,0.034637,0.982956,-0.04688,0.025934,-0.011595,46.455902,6.060699,-148.476044,,,
729862448.577586,1.430207,4.29907,50.843744,-0.066467,0.030869,0.991608,-0.045098,0.037993,-0.01707,46.455902,6.060699,-148.476044,,,
729862448.580914,1.417487,4.309549,50.839007,-0.066467,0.030869,0.991608,-0.045098,0.037993,-0.01707,46.455902,6.060699,-148.476044,,,
729862448.584251,1.417487,4.309549,50.839007,-0.066467,0.030869,0.991608,-0.045098,0.037993,-0.01707,46.455902,6.060699,-148.476044,,,
729862448.587677,1.406294,4.3209,50.83275,-0.070511,0.024277,1.006729,-0.029978,0.04023,-0.026518,46.455902,6.060699,-148.476044,,,
729862448.590979,1.398463,4.33119,50.825626,-0.070511,0.024277,1.006729,-0.029978,0.04023,-0.026518,46.349365,6.044083,-148.308762,,,
729862448.594252,1.398463,4.33119,50.825626,-0.070511,0.024277,1.006729,-0.029978,0.04023,-0.026518,46.349365,6.044083,-148.308762,,,
729862448.597592,1.39443,4.3389,50.818354,-0.080322,0.019714,1.0168,-0.004243,0.031093,-0.025826,46.349365,6.044083,-148.308762,,,
729862448.600909,1.394249,4.346136,50.812313,-0.080322,0.019714,1.0168,-0.004243,0.031093,-0.025826,46.349365,6.044083,-148.308762,,,
729862448.604258,1.394249,4.346136,50.812313,-0.080322,0.019714,1.0168,-0.004243,0.031093,-0.025826,46.349365,6.044083,-148.308762,,,
729862448.607594,1.398093,4.348578,50.808165,-0.093048,0.01178,1.017227,0.02038,0.010504,-0.011025,46.349365,6.044083,-148.308762,,,
729862448.610908,1.404464,4.349525,50.806257,-0.093048,0.01178,1.017227,0.02038,0.010504,-0.011025,46.349365,6.044083,-148.308762,,,
729862448.614253,1.404464,4.349525,50.806257,-0.093048,0.01178,1.017227,0.02038,0.010504,-0.011025,46.349365,6.044083,-148.308762,,,
729862448.6176,1.411783,4.346195,50.806635,-0.092667,0.019791,1.008759,0.023341,-0.008527,0.004883,46.349365,6.044083,-148.308762,,,
729862448.620911,1.417766,4.341973,50.808221,-0.092667,0.019791,1.008759,0.023341,-0.008527,0.004883,46.349365,6.044083,-148.308762,,,
729862448.624305,1.417766,4.341973,50.808221,-0.092667,0.019791,1.008759,0.023341,-0.008527,0.004883,46.349365,6.044083,-148.308762,,,
729862448.627671,1.422391,4.334928,50.810059,-0.088654,0.023575,0.995712,0.009888,-0.018605,0.005401,46.349365,6.044083,-148.308762,,,
729862448.63093,1.424186,4.328458,50.812409,-0.088654,0.023575,0.995712,0.009888,-0.018605,0.005401,46.349365,6.044083,-148.308762,,,
729862448.634249,1.424186,4.328458,50.812409,-0.088654,0.023575,0.995712,0.009888,-0.018605,0.005401,46.384628,5.949966,-148.16272,,,
729862448.637648,1.424901,4.32022,50.815559,-0.0811,0.026199,0.988388,-0.002377,-0.023662,0.009881,46.384628,5.949966,-148.16272,,,
729862448.640907,1.424106,4.312871,50.819095,-0.0811,0.026199,0.988388,-0.002377,-0.023662,0.009881,46.384628,5.949966,-148.16272,,,
729862448.644243,1.424106,4.312871,50.819095,-0.0811,0.026199,0.988388,-0.002377,-0.023662,0.009881,46.384628,5.949966,-148.16272,,,
729862448.647591,1.424426,4.305031,50.822957,-0.074524,0.024521,0.995468,0.000733,-0.019613,0.012244,46.384628,5.949966,-148.16272,,,
729862448.650908,1.42538,4.299118,50.826896,-0.074524,0.024521,0.995468,0.000733,-0.019613,0.012244,46.384628,5.949966,-148.16272,,,
729862448.65424,1.42538,4.299118,50.826896,-0.074524,0.024521,0.995468,0.000733,-0.019613,0.012244,46.384628,5.949966,-148.16272,,,
729862448.657591,1.427467,4.29341,50.830535,-0.067383,0.022232,1.001404,0.005168,-0.010872,0.01027,46.384628,5.949966,-148.16272,,,
729862448.660914,1.429747,4.290269,50.833668,-0.067383,0.022232,1.001404,0.005168,-0.010872,0.01027,46.384628,5.949966,-148.16272,,,
729862448.664311,1.429747,4.290269,50.833668,-0.067383,0.022232,1.001404,0.005168,-0.010872,0.01027,46.384628,5.949966,-148.16272,,,
729862448.66758,1.432288,4.288696,50.836515,-0.063034,0.022659,0.999969,0.00713,0.007168,0.008329,46.384628,5.949966,-148.16272,,,
729862448.670915,1.434047,4.291407,50.838637,-0.063034,0.022659,0.999969,0.00713,0.007168,0.008329,46.384628,5.949966,-148.16272,,,
729862448.674239,1.434047,4.291407,50.838637,-0.063034,0.022659,0.999969,0.00713,0.007168,0.008329,46.285568,6.050613,-148.180878,,,
729862448.677583,1.434306,4.296721,50.83929,-0.056107,0.027252,0.993866,-0.000986,0.023347,-0.002448,46.285568,6.050613,-148.180878,,,
729862448.680996,1.432777,4.30449,50.838079,-0.056107,0.027252,0.993866,-0.000986,0.023347,-0.002448,46.285568,6.050613,-148.180878,,,
729862448.684236,1.432777,4.30449,50.838079,-0.056107,0.027252,0.993866,-0.000986,0.023347,-0.002448,46.285568,6.050613,-148.180878,,,
729862448.687578,1.428137,4.31763,50.834514,-0.057968,0.029114,0.993301,-0.01591,0.045985,-0.019676,46.285568,6.050613,-148.180878,,,
729862448.690907,1.422499,4.331774,50.829214,-0.057968,0.029114,0.993301,-0.01591,0.045985,-0.019676,46.285568,6.050613,-148.180878,,,
729862448.694315,1.422499,4.331774,50.829214,-0.057968,0.029114,0.993301,-0.01591,0.045985,-0.019676,46.285568,6.050613,-148.180878,,,
729862448.697511,1.41613,4.349697,50.823688,-0.072357,0.023239,0.996078,-0.017609,0.055526,-0.020945,46.285568,6.050613,-148.180878,,,
729862448.700934,1.411816,4.365011,50.819301,-0.072357,0.023239,0.996078,-0.017609,0.055526,-0.020945,46.285568,6.050613,-148.180878,,,
729862448.704258,1.411816,4.365011,50.819301,-0.072357,0.023239,0.996078,-0.017609,0.055526,-0.020945,46.285568,6.050613,-148.180878,,,
729862448.707589,1.410399,4.381213,50.816337,-0.086426,0.017761,1.003372,0.002716,0.048071,-0.009091,46.285568,6.050613,-148.180878,,,
729862448.710908,1.412709,4.391757,50.815678,-0.086426,0.017761,1.003372,0.002716,0.048071,-0.009091,46.285568,6.050613,-148.180878,,,
729862448.714241,1.412709,4.391757,50.815678,-0.086426,0.017761,1.003372,0.002716,0.048071,-0.009091,46.333878,6.009109,-148.289871,,,
729862448.717598,1.418307,4.398927,50.817024,-0.09729,0.016418,1.006073,0.023821,0.018164,0.006797,46.333878,6.009109,-148.289871,,,
729862448.720911,1.426451,4.401465,50.819715,-0.09729,0.016418,1.006073,0.023821,0.018164,0.006797,46.333878,6.009109,-148.289871,,,
729862448.724309,1.426451,4.401465,50.819715,-0.09729,0.016418,1.006073,0.023821,0.018164,0.006797,46.333878,6.009109,-148.289871,,,
729862448.727594,1.436817,4.399832,50.823646,-0.098129,0.018173,1.000778,0.038102,-0.010343,0.016533,46.333878,6.009109,-148.289871,,,
729862448.730913,1.447738,4.394013,50.828327,-0.098129,0.018173,1.000778,0.038102,-0.010343,0.016533,46.333878,6.009109,-148.289871,,,
729862448.734242,1.447738,4.394013,50.828327,-0.098129,0.018173,1.000778,0.038102,-0.010343,0.016533,46.333878,6.009109,-148.289871,,,
729862448.737632,1.457535,4.383908,50.833577,-0.087585,0.022202,0.985275,0.03106,-0.03194,0.019708,46.333878,6.009109,-148.289871,,,
729862448.740904,1.466335,4.372956,50.838345,-0.087585,0.022202,0.985275,0.03106,-0.03194,0.019708,46.333878,6.009109,-148.289871,,,
729862448.744261,1.466335,4.372956,50.838345,-0.087585,0.022202,0.985275,0.03106,-0.03194,0.019708,46.333878,6.009109,-148.289871,,,
729862448.747576,1.473441,4.35969,50.842279,-0.076935,0.030716,0.980194,0.021089,-0.035605,0.012739,46.333878,6.009109,-148.289871,,,
729862448.750907,1.477768,4.349237,50.845901,-0.076935,0.030716,0.980194,0.021089,-0.035605,0.012739,46.333878,6.009109,-148.289871,,,
729862448.754262,1.477768,4.349237,50.845901,-0.076935,0.030716,0.980194,0.021089,-0.035605,0.012739,46.333878,6.009109,-148.289871,,,
729862448.757573,1.479066,4.337924,50.849444,-0.069702,0.031311,0.977829,8e-05,-0.0242,0.010175,46.563416,5.86853,-147.957291,,,
729862448.760909,1.477697,4.331366,50.853212,-0.069702,0.031311,0.977829,8e-05,-0.0242,0.010175,46.563416,5.86853,-147.957291,,,
729862448.764341,1.477697,4.331366,50.853212,-0.069702,0.031311,0.977829,8e-05,-0.0242,0.010175,46.563416,5.86853,-147.957291,,,
729862448.767597,1.474683,4.325236,50.857366,-0.061951,0.029984,0.979263,-0.013295,-0.001486,0.011346,46.563416,5.86853,-147.957291,,,
729862448.770918,1.470035,4.326087,50.861058,-0.061951,0.029984,0.979263,-0.013295,-0.001486,0.011346,46.563416,5.86853,-147.957291,,,
729862448.774264,1.470035,4.326087,50.861058,-0.061951,0.029984,0.979263,-0.013295,-0.001486,0.011346,46.563416,5.86853,-147.957291,,,
729862448.777648,1.463285,4.3302,50.864542,-0.059082,0.028671,0.987869,-0.027275,0.028229,0.008578,46.563416,5.86853,-147.957291,,,
729862448.780941,1.455068,4.339035,50.867347,-0.059082,0.028671,0.987869,-0.027275,0.028229,0.008578,46.563416,5.86853,-147.957291,,,
729862448.784141,1.455068,4.339035,50.867347,-0.059082,0.028671,0.987869,-0.027275,0.028229,0.008578,46.563416,5.86853,-147.957291,,,
729862448.78761,1.447145,4.350882,50.869253,-0.060287,0.026367,0.990555,-0.022169,0.041727,0.002868,46.563416,5.86853,-147.957291,,,
729862448.790955,1.441164,4.361849,50.870927,-0.060287,0.026367,0.990555,-0.022169,0.041727,0.002868,46.563416,5.86853,-147.957291,,,
729862448.794247,1.441164,4.361849,50.870927,-0.060287,0.026367,0.990555,-0.022169,0.041727,0.002868,46.563416,5.86853,-147.957291,,,
729862448.797592,1.437256,4.374794,50.872108,-0.062912,0.020157,1.002594,-0.003601,0.036865,0.001257,46.599625,5.920258,-147.842865,,,
729862448.800908,1.437874,4.383337,50.872152,-0.062912,0.020157,1.002594,-0.003601,0.036865,0.001257,46.599625,5.920258,-147.842865,,,
729862448.804308,1.437874,4.383337,50.872152,-0.062912,0.020157,1.002594,-0.003601,0.036865,0.001257,46.599625,5.920258,-147.842865,,,
729862448.807576,1.441252,4.391908,50.870231,-0.065033,0.017456,1.007889,0.020009,0.014235,-0.010085,46.599625,5.920258,-147.842865,,,
729862448.810908,1.446785,4.393915,50.866769,-0.065033,0.017456,1.007889,0.020009,0.014235,-0.010085,46.599625,5.920258,-147.842865,,,
729862448.814272,1.446785,4.393915,50.866769,-0.065033,0.017456,1.007889,0.020009,0.014235,-0.010085,46.599625,5.920258,-147.842865,,,
729862448.817633,1.452203,4.395487,50.861863,-0.067093,0.021255,0.995422,0.02198,-0.004105,-0.019654,46.599625,5.920258,-147.842865,,,
729862448.82091,1.457374,4.392393,50.855436,-0.067093,0.021255,0.995422,0.02198,-0.004105,-0.019654,46.599625,5.920258,-147.842865,,,
729862448.824249,1.457374,4.392393,50.855436,-0.067093,0.021255,0.995422,0.02198,-0.004105,-0.019654,46.599625,5.920258,-147.842865,,,
729862448.827573,1.461626,4.38663,50.848421,-0.070023,0.024796,0.985687,0.014315,-0.026657,-0.024229,46.599625,5.920258,-147.842865,,,
729862448.83091,1.464058,4.378124,50.841289,-0.070023,0.024796,0.985687,0.014315,-0.026657,-0.024229,46.599625,5.920258,-147.842865,,,
729862448.834241,1.464058,4.378124,50.841289,-0.070023,0.024796,0.985687,0.014315,-0.026657,-0.024229,46.599625,5.920258,-147.842865,,,
729862448.837571,1.46493,4.368855,50.834406,-0.072021,0.029816,0.98233,0.00025,-0.028083,-0.023662,46.601852,5.582657,-147.793854,,,
729862448.84091,1.463046,4.361807,50.828793,-0.072021,0.029816,0.98233,0.00025,-0.028083,-0.023662,46.601852,5.582657,-147.793854,,,
729862448.844336,1.463046,4.361807,50.828793,-0.072021,0.029816,0.98233,0.00025,-0.028083,-0.023662,46.601852,5.582657,-147.793854,,,
729862448.847669,1.458966,4.356472,50.824452,-0.073593,0.028183,0.988541,-0.017799,-0.004208,-0.016463,46.601852,5.582657,-147.793854,,,
729862448.850909,1.452504,4.356454,50.821279,-0.073593,0.028183,0.988541,-0.017799,-0.004208,-0.016463,46.601852,5.582657,-147.793854,,,
729862448.854255,1.452504,4.356454,50.821279,-0.073593,0.028183,0.988541,-0.017799,-0.004208,-0.016463,46.601852,5.582657,-147.793854,,,
729862448.857586,1.444925,4.358206,50.818942,-0.070023,0.028061,0.991638,-0.027838,0.024275,-0.011778,46.601852,5.582657,-147.793854,,,
729862448.860917,1.436283,4.366444,50.816441,-0.070023,0.028061,0.991638,-0.027838,0.024275,-0.011778,46.601852,5.582657,-147.793854,,,
729862448.864266,1.436283,4.366444,50.816441,-0.070023,0.028061,0.991638,-0.027838,0.024275,-0.011778,46.601852,5.582657,-147.793854,,,
729862448.867649,1.428585,4.375667,50.813435,-0.071518,0.029327,1.000519,-0.022496,0.047398,-0.015266,46.601852,5.582657,-147.793854,,,
729862448.870899,1.42282,4.389607,50.80889,-0.071518,0.029327,1.000519,-0.022496,0.047398,-0.015266,46.601852,5.582657,-147.793854,,,
729862448.874251,1.42282,4.389607,50.80889,-0.071518,0.029327,1.000519,-0.022496,0.047398,-0.015266,46.601852,5.582657,-147.793854,,,
729862448.877594,1.418685,4.40251,50.802867,-0.072861,0.024857,1.005463,-0.008969,0.054684,-0.024862,46.703888,5.793457,-147.838547,,,
729862448.880913,1.416197,4.417802,50.796046,-0.072861,0.024857,1.005463,-0.008969,0.054684,-0.024862,46.703888,5.793457,-147.838547,,,
729862448.884266,1.416197,4.417802,50.796046,-0.072861,0.024857,1.005463,-0.008969,0.054684,-0.024862,46.703888,5.793457,-147.838547,,,
729862448.887589,1.414014,4.430884,50.789072,-0.080963,0.024765,1.000473,-0.003829,0.052158,-0.025873,46.703888,5.793457,-147.838547,,,
729862448.890908,1.411789,4.443882,50.781879,-0.080963,0.024765,1.000473,-0.003829,0.052158,-0.025873,46.703888,5.793457,-147.838547,,,
729862448.894336,1.411789,4.443882,50.781879,-0.080963,0.024765,1.000473,-0.003829,0.052158,-0.025873,46.703888,5.793457,-147.838547,,,
729862448.897592,1.409259,4.452289,50.77461,-0.089722,0.028656,0.994934,-0.004284,0.031789,-0.026674,46.703888,5.793457,-147.838547,,,
729862448.900942,1.407558,4.459616,50.768293,-0.089722,0.028656,0.994934,-0.004284,0.031789,-0.026674,46.703888,5.793457,-147.838547,,,
729862448.904273,1.407558,4.459616,50.768293,-0.089722,0.028656,0.994934,-0.004284,0.031789,-0.026674,46.703888,5.793457,-147.838547,,,
729862448.907608,1.406344,4.463838,50.763602,-0.096619,0.024094,0.999802,-0.001815,0.018103,-0.015314,46.703888,5.793457,-147.838547,,,
729862448.910904,1.405839,4.468079,50.760878,-0.096619,0.024094,0.999802,-0.001815,0.018103,-0.015314,46.703888,5.793457,-147.838547,,,
729862448.914252,1.405839,4.468079,50.760878,-0.096619,0.024094,0.999802,-0.001815,0.018103,-0.015314,46.703888,5.793457,-147.838547,,,
729862448.917581,1.406945,4.470087,50.760949,-0.104355,0.016525,1.008194,0.00575,0.008987,0.004636,46.703888,5.793457,-147.838547,,,
729862448.920904,1.409838,4.470811,50.763958,-0.104355,0.016525,1.008194,0.00575,0.008987,0.004636,46.745056,5.668671,-147.786423,,,
729862448.924244,1.409838,4.470811,50.763958,-0.104355,0.016525,1.008194,0.00575,0.008987,0.004636,46.745056,5.668671,-147.786423,,,
729862448.927578,1.41549,4.468874,50.769021,-0.102264,0.018631,1.01088,0.02231,-0.005952,0.020161,46.745056,5.668671,-147.786423,,,
729862448.930914,1.423087,4.465553,50.77501,-0.102264,0.018631,1.01088,0.02231,-0.005952,0.020161,46.745056,5.668671,-147.786423,,,
729862448.934238,1.423087,4.465553,50.77501,-0.102264,0.018631,1.01088,0.02231,-0.005952,0.020161,46.745056,5.668671,-147.786423,,,
729862448.937594,1.432272,4.460139,50.780951,-0.087143,0.024597,1.00972,0.032044,-0.013655,0.020375,46.745056,5.668671,-147.786423,,,
729862448.940953,1.440782,4.455687,50.78557,-0.087143,0.024597,1.00972,0.032044,-0.013655,0.020375,46.745056,5.668671,-147.786423,,,
729862448.94426,1.440782,4.455687,50.78557,-0.087143,0.024597,1.00972,0.032044,-0.013655,0.020375,46.745056,5.668671,-147.786423,,,
729862448.947557,1.448092,4.451128,50.788518,-0.073578,0.025742,1.002258,0.023164,-0.006849,0.007803,46.745056,5.668671,-147.786423,,,
729862448.951003,1.453636,4.449474,50.789869,-0.073578,0.025742,1.002258,0.023164,-0.006849,0.007803,46.745056,5.668671,-147.786423,,,
729862448.954259,1.453636,4.449474,50.789869,-0.073578,0.025742,1.002258,0.023164,-0.006849,0.007803,46.745056,5.668671,-147.786423,,,
729862448.957648,1.456709,4.448424,50.790154,-0.066406,0.029663,0.99469,0.006161,0.002937,-0.001078,46.745056,5.668671,-147.786423,,,
729862448.960906,1.457163,4.449529,50.789664,-0.066406,0.029663,0.99469,0.006161,0.002937,-0.001078,46.767014,5.655029,-147.801682,,,
729862448.964251,1.457163,4.449529,50.789664,-0.066406,0.029663,0.99469,0.006161,0.002937,-0.001078,46.767014,5.655029,-147.801682,,,
729862448.967577,1.455841,4.452266,50.789027,-0.069519,0.030289,0.995728,-0.005206,0.013621,-0.003012,46.767014,5.655029,-147.801682,,,
729862448.970968,1.453981,4.456005,50.788579,-0.069519,0.030289,0.995728,-0.005206,0.013621,-0.003012,46.767014,5.655029,-147.801682,,,
729862448.974254,1.453981,4.456005,50.788579,-0.069519,0.030289,0.995728,-0.005206,0.013621,-0.003012,46.767014,5.655029,-147.801682,,,
729862448.977589,1.453019,4.462258,50.788126,-0.074722,0.025269,1.00267,-0.000202,0.021026,-0.002388,46.767014,5.655029,-147.801682,,,
729862448.980936,1.45335,4.467871,50.7879,-0.074722,0.025269,1.00267,-0.000202,0.021026,-0.002388,46.767014,5.655029,-147.801682,,,
729862448.98424,1.45335,4.467871,50.7879,-0.074722,0.025269,1.00267,-0.000202,0.021026,-0.002388,46.767014,5.655029,-147.801682,,,
729862448.987577,1.455203,4.47628,50.787836,-0.078857,0.024017,1.010193,0.01006,0.023159,-1.3e-05,46.767014,5.655029,-147.801682,,,
729862448.99099,1.458571,4.482141,50.787859,-0.078857,0.024017,1.010193,0.01006,0.023159,-1.3e-05,46.767014,5.655029,-147.801682,,,
729862448.994262,1.458571,4.482141,50.787859,-0.078857,0.024017,1.010193,0.01006,0.023159,-1.3e-05,46.767014,5.655029,-147.801682,,,
729862448.997652,1.463035,4.491641,50.787356,-0.077438,0.024414,1.008804,0.021321,0.024693,-0.00217,46.767014,5.655029,-147.801682,,,
729862449.000924,1.470044,4.49801,50.786158,-0.077438,0.024414,1.008804,0.021321,0.024693,-0.00217,46.924835,5.582275,-147.615128,,,
729862449.004267,1.470044,4.49801,50.786158,-0.077438,0.024414,1.008804,0.021321,0.024693,-0.00217,46.924835,5.582275,-147.615128,,,
729862449.007583,1.478559,4.507472,50.784246,-0.079483,0.022049,1.012009,0.035912,0.02147,-0.005349,46.924835,5.582275,-147.615128,,,
729862449.010913,1.489316,4.512312,50.781949,-0.079483,0.022049,1.012009,0.035912,0.02147,-0.005349,46.924835,5.582275,-147.615128,,,
729862449.014336,1.489316,4.512312,50.781949,-0.079483,0.022049,1.012009,0.035912,0.02147,-0.005349,46.924835,5.582275,-147.615128,,,
729862449.01759,1.501204,4.5183,50.779696,-0.081223,0.020905,1.006439,0.045084,0.018159,-0.004046,46.924835,5.582275,-147.615128,,,
729862449.02099,1.514525,4.523096,50.778389,-0.081223,0.020905,1.006439,0.045084,0.018159,-0.004046,46.924835,5.582275,-147.615128,,,
729862449.024312,1.514525,4.523096,50.778389,-0.081223,0.020905,1.006439,0.045084,0.018159,-0.004046,46.924835,5.582275,-147.615128,,,
729862449.027594,1.528622,4.52742,50.778208,-0.084366,0.020737,1.001907,0.050275,0.018295,0.004185,46.924835,5.582275,-147.615128,,,
729862449.030963,1.542437,4.531888,50.779702,-0.084366,0.020737,1.001907,0.050275,0.018295,0.004185,46.924835,5.582275,-147.615128,,,
729862449.034233,1.542437,4.531888,50.779702,-0.084366,0.020737,1.001907,0.050275,0.018295,0.004185,46.924835,5.582275,-147.615128,,,
729862449.037634,1.554841,4.534329,50.783096,-0.083939,0.025818,0.990051,0.038702,0.015618,0.016346,46.924835,5.582275,-147.615128,,,
729862449.041023,1.564751,4.538198,50.787394,-0.083939,0.025818,0.990051,0.038702,0.015618,0.016346,46.924835,5.582275,-147.615128,,,
729862449.04426,1.564751,4.538198,50.787394,-0.083939,0.025818,0.990051,0.038702,0.015618,0.016346,46.957291,5.627121,-147.526031,,,
729862449.047585,1.571813,4.539865,50.791489,-0.077805,0.02977,0.976364,0.017366,0.011958,0.012918,46.957291,5.627121,-147.526031,,,
729862449.05097,1.575563,4.542391,50.795311,-0.077805,0.02977,0.976364,0.017366,0.011958,0.012918,46.957291,5.627121,-147.526031,,,
729862449.054241,1.575563,4.542391,50.795311,-0.077805,0.02977,0.976364,0.017366,0.011958,0.012918,46.957291,5.627121,-147.526031,,,
729862449.057596,1.576364,4.543279,50.798971,-0.069092,0.033752,0.971573,-0.002606,0.006089,0.010081,46.957291,5.627121,-147.526031,,,
729862449.061039,1.575019,4.543596,50.801078,-0.069092,0.033752,0.971573,-0.002606,0.006089,0.010081,46.957291,5.627121,-147.526031,,,
729862449.064241,1.575019,4.543596,50.801078,-0.069092,0.033752,0.971573,-0.002606,0.006089,0.010081,46.957291,5.627121,-147.526031,,,
729862449.067579,1.572304,4.541829,50.80141,-0.06665,0.03273,0.972153,-0.009241,-0.006752,-0.002879,46.957291,5.627121,-147.526031,,,
729862449.07094,1.568745,4.538626,50.800874,-0.06665,0.03273,0.972153,-0.009241,-0.006752,-0.002879,46.957291,5.627121,-147.526031,,,
729862449.074332,1.568745,4.538626,50.800874,-0.06665,0.03273,0.972153,-0.009241,-0.006752,-0.002879,46.957291,5.627121,-147.526031,,,
729862449.077595,1.564444,4.534551,50.799161,-0.06749,0.026672,0.980392,-0.012601,-0.011484,-0.011416,46.957291,5.627121,-147.526031,,,
729862449.080951,1.564444,4.534551,50.796964,-0.06749,0.026672,0.980392,-0.012601,-0.011484,-0.011416,46.957291,5.627121,-147.526031,,,
729862449.084265,1.56221,4.530658,50.796964,-0.06749,0.026672,0.980392,-0.012601,-0.011484,-0.011416,46.863571,5.597519,-147.199982,,,
729862449.087586,1.562703,4.528378,50.794845,-0.068405,0.022522,0.99826,0.008398,0.001237,-0.009308,46.863571,5.597519,-147.199982,,,
