Time (sec),Pitch (deg),Roll (deg),Yaw(deg),X-Acceleration (g),Y-Acceleration (g),Z-Acceleration (g),Pitch Rate (deg/sec),Roll Rate (deg/sec),Yaw Rate (deg/sec),Magnetic Field in X direction (uT),Magnetic Field in Y direction (uT),Magnetic Field in Z Direction (uT),Latitude (deg),Longitude (deg),Altitude (m)
729861878.808012,0.228151,2.586439,124.045203,-0.068756,0.016846,0.940613,-0.130444,-0.049092,-0.039827,67.132233,33.144531,-145.793274,,,
729861878.811333,0.190183,2.56446,124.033027,-0.068756,0.016846,0.940613,-0.132013,-0.077299,-0.046631,67.325424,33.112335,-146.095901,,,
729861878.81469,0.190183,2.56446,124.033027,-0.068756,0.016846,0.940613,-0.132013,-0.077299,-0.046631,67.325424,33.112335,-146.095901,,,
729861878.818007,0.154812,2.543682,124.019467,-0.060333,0.015015,0.971786,-0.132013,-0.077299,-0.046631,67.325424,33.112335,-146.095901,,,
729861878.821338,0.123553,2.531864,124.00463,-0.060333,0.015015,0.971786,-0.109998,-0.046407,-0.057624,67.325424,33.112335,-146.095901,,,
729861878.824755,0.123553,2.531864,124.00463,-0.060333,0.015015,0.971786,-0.109998,-0.046407,-0.057624,67.325424,33.112335,-146.095901,,,
729861878.828019,0.09804,2.528161,123.989258,-0.054184,0.013123,1.014771,-0.109998,-0.046407,-0.057624,67.325424,33.112335,-146.095901,,,
729861878.831345,0.075389,2.538925,123.974719,-0.054184,0.013123,1.014771,-0.076719,0.028638,-0.058024,67.325424,33.112335,-146.095901,,,
729861878.834666,0.075389,2.538925,123.974719,-0.054184,0.013123,1.014771,-0.076719,0.028638,-0.058024,67.325424,33.112335,-146.095901,,,
729861878.838012,0.056779,2.55999,123.961766,-0.05748,0.005005,1.041763,-0.076719,0.028638,-0.058024,67.325424,33.112335,-146.095901,,,
729861878.841342,0.042429,2.593709,123.951217,-0.05748,0.005005,1.041763,-0.052501,0.112459,-0.04281,67.325424,33.112335,-146.095901,,,
729861878.844689,0.042429,2.593709,123.951217,-0.05748,0.005005,1.041763,-0.052501,0.112459,-0.04281,67.325424,33.112335,-146.095901,,,
729861878.848013,0.032571,2.636219,123.943874,-0.068451,-0.000717,1.044952,-0.052501,0.112459,-0.04281,67.325424,33.112335,-146.095901,,,
729861878.851351,0.024491,2.684988,123.939702,-0.068451,-0.000717,1.044952,-0.030394,0.171096,-0.018826,67.21138,33.453003,-146.053589,,,
729861878.854672,0.024491,2.684988,123.939702,-0.068451,-0.000717,1.044952,-0.030394,0.171096,-0.018826,67.21138,33.453003,-146.053589,,,
729861878.858018,0.019629,2.735478,123.938732,-0.081604,-0.006363,1.041595,-0.030394,0.171096,-0.018826,67.21138,33.453003,-146.053589,,,
729861878.861342,0.01601,2.781206,123.941061,-0.081604,-0.006363,1.041595,-0.015593,0.16813,0.006204,67.21138,33.453003,-146.053589,,,
729861878.86474,0.01601,2.781206,123.941061,-0.081604,-0.006363,1.041595,-0.015593,0.16813,0.006204,67.21138,33.453003,-146.053589,,,
729861878.867992,0.013614,2.819741,123.945843,-0.09201,-0.00882,1.025665,-0.015593,0.16813,0.006204,67.21138,33.453003,-146.053589,,,
729861878.871333,0.011847,2.845407,123.951598,-0.09201,-0.00882,1.025665,-0.00698,0.104019,0.020304,67.21138,33.453003,-146.053589,,,
729861878.874702,0.011847,2.845407,123.951598,-0.09201,-0.00882,1.025665,-0.00698,0.104019,0.020304,67.21138,33.453003,-146.053589,,,
729861878.878053,0.011928,2.860874,123.955947,-0.091156,-0.003525,1.010269,-0.00698,0.104019,0.020304,67.21138,33.453003,-146.053589,,,
729861878.881329,0.013397,2.862979,123.957595,-0.091156,-0.003525,1.010269,0.005033,0.018494,0.008674,67.21138,33.453003,-146.053589,,,
729861878.884671,0.013397,2.862979,123.957595,-0.091156,-0.003525,1.010269,0.005033,0.018494,0.008674,67.21138,33.453003,-146.053589,,,
729861878.88802,0.018026,2.855671,123.956138,-0.077621,0.007187,1.011917,0.005033,0.018494,0.008674,67.21138,33.453003,-146.053589,,,
729861878.891333,0.024535,2.838296,123.951527,-0.077621,0.007187,1.011917,0.021815,-0.05066,-0.014051,67.21138,33.453003,-146.053589,,,
729861878.894677,0.024535,2.838296,123.951527,-0.077621,0.007187,1.011917,0.021815,-0.05066,-0.014051,67.296326,33.541748,-146.39151,,,
729861878.898011,0.034818,2.816852,123.944885,-0.058044,0.013062,1.02034,0.021815,-0.05066,-0.014051,67.296326,33.541748,-146.39151,,,
729861878.90137,0.047439,2.793609,123.937696,-0.058044,0.013062,1.02034,0.044038,-0.079435,-0.026952,67.296326,33.541748,-146.39151,,,
729861878.904719,0.047439,2.793609,123.937696,-0.058044,0.013062,1.02034,0.044038,-0.079435,-0.026952,67.296326,33.541748,-146.39151,,,
729861878.908022,0.06244,2.773337,123.930937,-0.053925,0.008011,1.028046,0.044038,-0.079435,-0.026952,67.296326,33.541748,-146.39151,,,
729861878.911336,0.079562,2.758641,123.926082,-0.053925,0.008011,1.028046,0.058539,-0.054291,-0.019854,67.296326,33.541748,-146.39151,,,
729861878.914746,0.079562,2.758641,123.926082,-0.053925,0.008011,1.028046,0.058539,-0.054291,-0.019854,67.296326,33.541748,-146.39151,,,
729861878.918,0.098258,2.752621,123.925126,-0.054474,0.00209,1.034683,0.058539,-0.054291,-0.019854,67.296326,33.541748,-146.39151,,,
729861878.921346,0.117467,2.753568,123.928859,-0.054474,0.00209,1.034683,0.065617,0.000685,0.01068,67.296326,33.541748,-146.39151,,,
729861878.924667,0.117467,2.753568,123.928859,-0.054474,0.00209,1.034683,0.065617,0.000685,0.01068,67.296326,33.541748,-146.39151,,,
729861878.92811,0.135812,2.762179,123.936784,-0.055573,-0.005524,1.037186,0.065617,0.000685,0.01068,67.296326,33.541748,-146.39151,,,
729861878.931335,0.152963,2.772442,123.947349,-0.055573,-0.005524,1.037186,0.061191,0.039495,0.035602,67.296326,33.541748,-146.39151,,,
729861878.934676,0.152963,2.772442,123.947349,-0.055573,-0.005524,1.037186,0.061191,0.039495,0.035602,67.118484,33.324341,-146.060394,,,
729861878.938046,0.167881,2.787876,123.959077,-0.049576,-0.004944,1.024063,0.061191,0.039495,0.035602,67.118484,33.324341,-146.060394,,,
729861878.941341,0.181314,2.798989,123.969825,-0.049576,-0.004944,1.024063,0.048438,0.041049,0.040773,67.118484,33.324341,-146.060394,,,
729861878.944665,0.181314,2.798989,123.969825,-0.049576,-0.004944,1.024063,0.048438,0.041049,0.040773,67.118484,33.324341,-146.060394,,,
729861878.948007,0.192879,2.81566,123.977864,-0.035583,0.00705,1.010239,0.048438,0.041049,0.040773,67.118484,33.324341,-146.060394,,,
729861878.951345,0.205074,2.821491,123.982852,-0.035583,0.00705,1.010239,0.043635,0.025388,0.021994,67.118484,33.324341,-146.060394,,,
729861878.954669,0.205074,2.821491,123.982852,-0.035583,0.00705,1.010239,0.043635,0.025388,0.021994,67.118484,33.324341,-146.060394,,,
729861878.958016,0.217388,2.830557,123.98442,-0.020523,0.012192,1.008957,0.043635,0.025388,0.021994,67.118484,33.324341,-146.060394,,,
729861878.961341,0.231278,2.830099,123.982444,-0.020523,0.012192,1.008957,0.047737,0.00094,-0.002725,67.118484,33.324341,-146.060394,,,
729861878.964685,0.231278,2.830099,123.982444,-0.020523,0.012192,1.008957,0.047737,0.00094,-0.002725,67.118484,33.324341,-146.060394,,,
729861878.96807,0.247393,2.832268,123.977075,-0.012268,0.011292,1.011185,0.047737,0.00094,-0.002725,67.118484,33.324341,-146.060394,,,
729861878.971419,0.264123,2.832873,123.969088,-0.012268,0.011292,1.011185,0.058071,0.001455,-0.022164,67.118484,33.324341,-146.060394,,,
729861878.974659,0.264123,2.832873,123.969088,-0.012268,0.011292,1.011185,0.058071,0.001455,-0.022164,67.351837,33.228012,-145.968079,,,
729861878.978019,0.281878,2.836212,123.959919,-0.012634,0.012543,1.01358,0.058071,0.001455,-0.022164,67.351837,33.228012,-145.968079,,,
729861878.981332,0.299737,2.841848,123.950725,-0.012634,0.012543,1.01358,0.066067,0.019554,-0.028622,67.351837,33.228012,-145.968079,,,
729861878.984665,0.299737,2.841848,123.950725,-0.012634,0.012543,1.01358,0.066067,0.019554,-0.028622,67.351837,33.228012,-145.968079,,,
729861878.988012,0.317567,2.850537,123.941362,-0.017792,0.011047,1.005402,0.066067,0.019554,-0.028622,67.351837,33.228012,-145.968079,,,
729861878.991333,0.334972,2.861556,123.931866,-0.017792,0.011047,1.005402,0.061441,0.038587,-0.027622,67.351837,33.228012,-145.968079,,,
729861878.994752,0.334972,2.861556,123.931866,-0.017792,0.011047,1.005402,0.061441,0.038587,-0.027622,67.351837,33.228012,-145.968079,,,
729861878.998019,0.351129,2.876132,123.922375,-0.024353,0.012146,0.993378,0.061441,0.038587,-0.027622,67.351837,33.228012,-145.968079,,,
729861879.001342,0.367309,2.892677,123.913253,-0.024353,0.012146,0.993378,0.058859,0.060865,-0.030046,67.351837,33.228012,-145.968079,,,
729861879.004674,0.367309,2.892677,123.913253,-0.024353,0.012146,0.993378,0.058859,0.060865,-0.030046,67.351837,33.228012,-145.968079,,,
729861879.008082,0.3812,2.911367,123.904531,-0.035416,0.013138,0.98082,0.058859,0.060865,-0.030046,67.351837,33.228012,-145.968079,,,
729861879.011333,0.394202,2.928436,123.895826,-0.035416,0.013138,0.98082,0.049056,0.065607,-0.030359,67.351837,33.228012,-145.968079,,,
729861879.014728,0.394202,2.928436,123.895826,-0.035416,0.013138,0.98082,0.049056,0.065607,-0.030359,67.351837,33.228012,-145.968079,,,
729861879.018005,0.403006,2.941113,123.887755,-0.045898,0.013351,0.967331,0.049056,0.065607,-0.030359,67.297501,33.186371,-146.318054,,,
729861879.021342,0.409271,2.952858,123.880573,-0.045898,0.013351,0.967331,0.02658,0.047097,-0.022555,67.297501,33.186371,-146.318054,,,
729861879.0247,0.409271,2.952858,123.880573,-0.045898,0.013351,0.967331,0.02658,0.047097,-0.022555,67.297501,33.186371,-146.318054,,,
729861879.028018,0.412504,2.953996,123.874137,-0.055786,0.014267,0.954926,0.02658,0.047097,-0.022555,67.297501,33.186371,-146.318054,,,
729861879.031339,0.412676,2.959597,123.868156,-0.055786,0.014267,0.954926,0.002969,0.023106,-0.022241,67.297501,33.186371,-146.318054,,,
729861879.034767,0.412676,2.959597,123.868156,-0.055786,0.014267,0.954926,0.002969,0.023106,-0.022241,67.297501,33.186371,-146.318054,,,
729861879.038013,0.411502,2.954588,123.862324,-0.062485,0.016342,0.95401,0.002969,0.023106,-0.022241,67.297501,33.186371,-146.318054,,,
729861879.041341,0.408073,2.957208,123.856942,-0.062485,0.016342,0.95401,-0.010107,0.009185,-0.019255,67.297501,33.186371,-146.318054,,,
729861879.044684,0.408073,2.957208,123.856942,-0.062485,0.016342,0.95401,-0.010107,0.009185,-0.019255,67.297501,33.186371,-146.318054,,,
729861879.048073,0.402924,2.9499,123.852481,-0.065231,0.013016,0.963562,-0.010107,0.009185,-0.019255,67.297501,33.186371,-146.318054,,,
729861879.051335,0.395531,2.951344,123.848794,-0.065231,0.013016,0.963562,-0.022555,0.008218,-0.017027,67.297501,33.186371,-146.318054,,,
729861879.054669,0.395531,2.951344,123.848794,-0.065231,0.013016,0.963562,-0.022555,0.008218,-0.017027,67.297501,33.186371,-146.318054,,,
729861879.05801,0.386955,2.94422,123.845902,-0.067276,0.012573,0.973846,-0.022555,0.008218,-0.017027,67.181152,33.2733,-146.335419,,,
729861879.061341,0.376762,2.946233,123.843662,-0.067276,0.012573,0.973846,-0.035127,0.009445,-0.012779,67.181152,33.2733,-146.335419,,,
729861879.064693,0.376762,2.946233,123.843662,-0.067276,0.012573,0.973846,-0.035127,0.009445,-0.012779,67.181152,33.2733,-146.335419,,,
729861879.068004,0.366692,2.940452,123.842131,-0.067001,0.010208,0.979416,-0.035127,0.009445,-0.012779,67.181152,33.2733,-146.335419,,,
729861879.071345,0.355716,2.943919,123.841206,-0.067001,0.010208,0.979416,-0.035156,0.013403,-0.005829,67.181152,33.2733,-146.335419,,,
729861879.07473,0.355716,2.943919,123.841206,-0.067001,0.010208,0.979416,-0.035156,0.013403,-0.005829,67.181152,33.2733,-146.335419,,,
729861879.078003,0.346868,2.940712,123.841268,-0.065369,0.004745,0.99321,-0.035156,0.013403,-0.005829,67.181152,33.2733,-146.335419,,,
729861879.081343,0.339161,2.945339,123.842045,-0.065369,0.004745,0.99321,-0.025397,0.018758,-0.002496,67.181152,33.2733,-146.335419,,,
729861879.084664,0.339161,2.945339,123.842045,-0.065369,0.004745,0.99321,-0.025397,0.018758,-0.002496,67.181152,33.2733,-146.335419,,,
729861879.08806,0.334975,2.945637,123.843169,-0.063721,-0.000961,1.009445,-0.025397,0.018758,-0.002496,67.181152,33.2733,-146.335419,,,
729861879.091337,0.333529,2.950206,123.844427,-0.063721,-0.000961,1.009445,-0.010138,0.018142,0.004043,67.181152,33.2733,-146.335419,,,
729861879.09465,0.333529,2.950206,123.844427,-0.063721,-0.000961,1.009445,-0.010138,0.018142,0.004043,67.181152,33.2733,-146.335419,,,
729861879.098031,0.337898,2.954181,123.846418,-0.062103,-0.005249,1.022995,-0.010138,0.018142,0.004043,67.459473,33.24823,-146.406174,,,
729861879.101339,0.345512,2.95688,123.848647,-0.062103,-0.005249,1.022995,0.023992,0.01211,0.009632,67.459473,33.24823,-146.406174,,,
729861879.10468,0.345512,2.95688,123.848647,-0.062103,-0.005249,1.022995,0.023992,0.01211,0.009632,67.459473,33.24823,-146.406174,,,
729861879.108008,0.358445,2.96133,123.850651,-0.059113,-0.007599,1.030304,0.023992,0.01211,0.009632,67.459473,33.24823,-146.406174,,,
729861879.111391,0.373148,2.962751,123.852154,-0.059113,-0.007599,1.030304,0.049622,0.007624,0.006436,67.459473,33.24823,-146.406174,,,
729861879.114688,0.373148,2.962751,123.852154,-0.059113,-0.007599,1.030304,0.049622,0.007624,0.006436,67.459473,33.24823,-146.406174,,,
729861879.118029,0.391672,2.968084,123.852769,-0.055771,-0.004501,1.03157,0.049622,0.007624,0.006436,67.459473,33.24823,-146.406174,,,
729861879.121368,0.411223,2.969373,123.853071,-0.055771,-0.004501,1.03157,0.065632,0.007803,0.002204,67.459473,33.24823,-146.406174,,,
729861879.12478,0.411223,2.969373,123.853071,-0.055771,-0.004501,1.03157,0.065632,0.007803,0.002204,67.459473,33.24823,-146.406174,,,
729861879.128025,0.432766,2.975171,123.852795,-0.053741,0.001282,1.023941,0.065632,0.007803,0.002204,67.459473,33.24823,-146.406174,,,
729861879.131337,0.4537,2.977156,123.852295,-0.053741,0.001282,1.023941,0.074332,0.009375,0.000802,67.459473,33.24823,-146.406174,,,
729861879.134684,0.4537,2.977156,123.852295,-0.053741,0.001282,1.023941,0.074332,0.009375,0.000802,67.459473,33.24823,-146.406174,,,
729861879.138009,0.473597,2.984656,123.852143,-0.052872,0.005081,1.010422,0.074332,0.009375,0.000802,67.486176,33.212997,-146.431351,,,
729861879.141337,0.490118,2.989135,123.85214,-0.052872,0.005081,1.010422,0.063005,0.017029,0.00191,67.486176,33.212997,-146.431351,,,
729861879.144675,0.490118,2.989135,123.85214,-0.052872,0.005081,1.010422,0.063005,0.017029,0.00191,67.486176,33.212997,-146.431351,,,
729861879.148,0.502923,2.99964,123.852482,-0.054596,0.008041,0.994308,0.063005,0.017029,0.00191,67.486176,33.212997,-146.431351,,,
729861879.151337,0.511754,3.006015,123.854037,-0.054596,0.008041,0.994308,0.037275,0.025238,0.00426,67.486176,33.212997,-146.431351,,,
729861879.154668,0.511754,3.006015,123.854037,-0.054596,0.008041,0.994308,0.037275,0.025238,0.00426,67.486176,33.212997,-146.431351,,,
729861879.157999,0.515615,3.015147,123.856875,-0.058289,0.00946,0.980026,0.037275,0.025238,0.00426,67.486176,33.212997,-146.431351,,,
729861879.161337,0.515921,3.020241,123.861002,-0.058289,0.00946,0.980026,0.006156,0.020733,0.012089,67.486176,33.212997,-146.431351,,,
729861879.164732,0.515921,3.020241,123.861002,-0.058289,0.00946,0.980026,0.006156,0.020733,0.012089,67.486176,33.212997,-146.431351,,,
729861879.168004,0.51142,3.026031,123.866028,-0.060455,0.008881,0.974747,0.006156,0.020733,0.012089,67.486176,33.212997,-146.431351,,,
729861879.171369,0.505695,3.027572,123.871309,-0.060455,0.008881,0.974747,-0.01888,0.009245,0.013816,67.486176,33.212997,-146.431351,,,
729861879.174699,0.505695,3.027572,123.871309,-0.060455,0.008881,0.974747,-0.01888,0.009245,0.013816,67.486176,33.212997,-146.431351,,,
729861879.178056,0.496885,3.029184,123.876236,-0.055954,0.010681,0.977676,-0.01888,0.009245,0.013816,67.486176,33.212997,-146.431351,,,
729861879.181341,0.490448,3.027372,123.881021,-0.055954,0.010681,0.977676,-0.022185,-0.000957,0.013627,67.58783,32.998932,-146.22699,,,
729861879.18468,0.490448,3.027372,123.881021,-0.055954,0.010681,0.977676,-0.022185,-0.000957,0.013627,67.58783,32.998932,-146.22699,,,
729861879.188009,0.484182,3.025538,123.884922,-0.048981,0.007721,0.998245,-0.022185,-0.000957,0.013627,67.58783,32.998932,-146.22699,,,
729861879.191446,0.48395,3.023406,123.887194,-0.048981,0.007721,0.998245,-0.005286,-0.007481,0.008245,67.58783,32.998932,-146.22699,,,
729861879.194664,0.48395,3.023406,123.887194,-0.048981,0.007721,0.998245,-0.005286,-0.007481,0.008245,67.58783,32.998932,-146.22699,,,
729861879.198035,0.487125,3.024088,123.888039,-0.041046,0.004837,1.019699,-0.005286,-0.007481,0.008245,67.58783,32.998932,-146.22699,,,
729861879.201429,0.498014,3.028534,123.887625,-0.041046,0.004837,1.019699,0.031226,0.014279,-0.000756,67.58783,32.998932,-146.22699,,,
729861879.204731,0.498014,3.028534,123.887625,-0.041046,0.004837,1.019699,0.031226,0.014279,-0.000756,67.58783,32.998932,-146.22699,,,
729861879.208019,0.512294,3.037057,123.887002,-0.033401,0.00238,1.034012,0.031226,0.014279,-0.000756,67.58783,32.998932,-146.22699,,,
729861879.211449,0.53146,3.04953,123.887398,-0.033401,0.00238,1.034012,0.066357,0.043288,0.000781,67.58783,32.998932,-146.22699,,,
729861879.214666,0.53146,3.04953,123.887398,-0.033401,0.00238,1.034012,0.066357,0.043288,0.000781,67.58783,32.998932,-146.22699,,,
729861879.218096,0.552917,3.064104,123.889847,-0.038879,-0.000412,1.031342,0.066357,0.043288,0.000781,67.58783,32.998932,-146.22699,,,
729861879.221401,0.575581,3.078236,123.893783,-0.038879,-0.000412,1.031342,0.079871,0.05576,0.014342,67.240967,33.106644,-146.225327,,,
729861879.224689,0.575581,3.078236,123.893783,-0.038879,-0.000412,1.031342,0.079871,0.05576,0.014342,67.240967,33.106644,-146.225327,,,
729861879.228018,0.595934,3.092071,123.898167,-0.050186,-0.000626,1.005951,0.079871,0.05576,0.014342,67.240967,33.106644,-146.225327,,,
729861879.231385,0.613234,3.101199,123.90296,-0.050186,-0.000626,1.005951,0.061421,0.041666,0.016676,67.240967,33.106644,-146.225327,,,
729861879.234692,0.613234,3.101199,123.90296,-0.050186,-0.000626,1.005951,0.061421,0.041666,0.016676,67.240967,33.106644,-146.225327,,,
729861879.238014,0.626274,3.107196,123.907242,-0.054718,0.007675,0.97319,0.061421,0.041666,0.016676,67.240967,33.106644,-146.225327,,,
729861879.241438,0.634546,3.104438,123.91025,-0.054718,0.007675,0.97319,0.03156,-0.000607,0.012677,67.240967,33.106644,-146.225327,,,
729861879.244735,0.634546,3.104438,123.91025,-0.054718,0.007675,0.97319,0.03156,-0.000607,0.012677,67.240967,33.106644,-146.225327,,,
729861879.248016,0.638061,3.096918,123.911975,-0.056015,0.015656,0.950851,0.03156,-0.000607,0.012677,67.240967,33.106644,-146.225327,,,
729861879.251396,0.638061,3.096918,123.912669,-0.056015,0.015656,0.950851,0.002088,-0.045132,0.003073,67.240967,33.106644,-146.225327,,,
729861879.254669,0.637231,3.081952,123.912669,-0.056015,0.015656,0.950851,0.002088,-0.045132,0.003073,67.240967,33.106644,-146.225327,,,
729861879.258008,0.632454,3.063923,123.912409,-0.05336,0.018448,0.944336,0.002088,-0.045132,0.003073,67.240967,33.106644,-146.225327,,,
729861879.261428,0.624339,3.045895,123.910932,-0.05336,0.018448,0.944336,-0.026621,-0.058101,-0.008107,67.401459,33.009125,-146.144638,,,
729861879.264683,0.624339,3.045895,123.910932,-0.05336,0.018448,0.944336,-0.026621,-0.058101,-0.008107,67.401459,33.009125,-146.144638,,,
729861879.268087,0.612014,3.028934,123.908781,-0.047379,0.018555,0.954483,-0.026621,-0.058101,-0.008107,67.401459,33.009125,-146.144638,,,
729861879.271333,0.612014,3.028934,123.908781,-0.047379,0.018555,0.954483,-0.026621,-0.058101,-0.008107,67.401459,33.009125,-146.144638,,,
729861879.274683,0.597452,3.017867,123.907283,-0.047379,0.018555,0.954483,-0.048674,-0.038862,-0.009086,67.401459,33.009125,-146.144638,,,
729861879.27803,0.580691,3.008743,123.906494,-0.045074,0.017029,0.971954,-0.048674,-0.038862,-0.009086,67.401459,33.009125,-146.144638,,,
729861879.281391,0.580691,3.008743,123.906494,-0.045074,0.017029,0.971954,-0.048674,-0.038862,-0.009086,67.401459,33.009125,-146.144638,,,
729861879.284669,0.563541,3.009467,123.906358,-0.045074,0.017029,0.971954,-0.059662,0.001678,-0.004756,67.401459,33.009125,-146.144638,,,
729861879.288066,0.546062,3.010477,123.907331,-0.046661,0.012512,0.984787,-0.059662,0.001678,-0.004756,67.401459,33.009125,-146.144638,,,
729861879.291415,0.546062,3.010477,123.907331,-0.046661,0.012512,0.984787,-0.059662,0.001678,-0.004756,67.401459,33.009125,-146.144638,,,
729861879.294741,0.531883,3.021687,123.909303,-0.046661,0.012512,0.984787,-0.050874,0.03991,0.004327,67.401459,33.009125,-146.144638,,,
729861879.298012,0.519772,3.034606,123.912016,-0.047729,0.003967,0.996262,-0.050874,0.03991,0.004327,67.401459,33.009125,-146.144638,,,
729861879.301332,0.519772,3.034606,123.912016,-0.047729,0.003967,0.996262,-0.050874,0.03991,0.004327,67.387634,33.310776,-146.411987,,,
729861879.304674,0.511496,3.052524,123.914834,-0.047729,0.003967,0.996262,-0.030758,0.064462,0.005381,67.387634,33.310776,-146.411987,,,
729861879.308002,0.504693,3.070185,123.918111,-0.05159,-0.000854,1.003006,-0.030758,0.064462,0.005381,67.387634,33.310776,-146.411987,,,
729861879.311337,0.504693,3.070185,123.918111,-0.05159,-0.000854,1.003006,-0.030758,0.064462,0.005381,67.387634,33.310776,-146.411987,,,
729861879.314674,0.499769,3.085022,123.921858,-0.05159,-0.000854,1.003006,-0.018645,0.059787,0.010688,67.387634,33.310776,-146.411987,,,
729861879.318085,0.494291,3.096366,123.925803,-0.059814,0.000778,0.992966,-0.018645,0.059787,0.010688,67.387634,33.310776,-146.411987,,,
729861879.321363,0.494291,3.096366,123.925803,-0.059814,0.000778,0.992966,-0.018645,0.059787,0.010688,67.387634,33.310776,-146.411987,,,
729861879.324682,0.486574,3.101406,123.930233,-0.059814,0.000778,0.992966,-0.022943,0.025625,0.010039,67.387634,33.310776,-146.411987,,,
729861879.328003,0.477727,3.101854,123.934633,-0.065781,0.003265,0.975449,-0.022943,0.025625,0.010039,67.387634,33.310776,-146.411987,,,
729861879.33141,0.477727,3.101854,123.934633,-0.065781,0.003265,0.975449,-0.022943,0.025625,0.010039,67.387634,33.310776,-146.411987,,,
729861879.334665,0.465567,3.095742,123.939088,-0.065781,0.003265,0.975449,-0.039113,-0.014632,0.011788,67.387634,33.310776,-146.411987,,,
729861879.338017,0.452348,3.084674,123.944233,-0.063263,0.004745,0.969482,-0.039113,-0.014632,0.011788,67.387634,33.310776,-146.411987,,,
729861879.341379,0.452348,3.084674,123.944233,-0.063263,0.004745,0.969482,-0.039113,-0.014632,0.011788,67.387634,33.310776,-146.411987,,,
729861879.344755,0.436254,3.070116,123.949204,-0.063263,0.004745,0.969482,-0.058334,-0.045815,0.013124,67.467987,33.082108,-146.323761,,,
729861879.348002,0.420118,3.052525,123.952594,-0.058578,0.005737,0.977112,-0.058334,-0.045815,0.013124,67.467987,33.082108,-146.323761,,,
729861879.351366,0.420118,3.052525,123.952594,-0.058578,0.005737,0.977112,-0.058334,-0.045815,0.013124,67.467987,33.082108,-146.323761,,,
729861879.354664,0.401683,3.037481,123.953514,-0.058578,0.005737,0.977112,-0.063435,-0.052203,0.001173,67.467987,33.082108,-146.323761,,,
729861879.35805,0.384862,3.024093,123.951732,-0.041916,0.01001,0.994171,-0.063435,-0.052203,0.001173,67.467987,33.082108,-146.323761,,,
729861879.361356,0.384862,3.024093,123.951732,-0.041916,0.01001,0.994171,-0.063435,-0.052203,0.001173,67.467987,33.082108,-146.323761,,,
729861879.364677,0.369626,3.017568,123.948168,-0.041916,0.01001,0.994171,-0.052855,-0.024185,-0.015507,67.467987,33.082108,-146.323761,,,
729861879.368007,0.357702,3.014888,123.943471,-0.031693,0.010101,1.016205,-0.052855,-0.024185,-0.015507,67.467987,33.082108,-146.323761,,,
729861879.37142,0.357702,3.014888,123.943471,-0.031693,0.010101,1.016205,-0.052855,-0.024185,-0.015507,67.467987,33.082108,-146.323761,,,
729861879.374678,0.34851,3.018886,123.938068,-0.031693,0.010101,1.016205,-0.033334,0.013025,-0.023468,67.467987,33.082108,-146.323761,,,
729861879.378136,0.341984,3.027247,123.93295,-0.033997,0.006393,1.027695,-0.033334,0.013025,-0.023468,67.467987,33.082108,-146.323761,,,
729861879.381369,0.341984,3.027247,123.93295,-0.033997,0.006393,1.027695,-0.033334,0.013025,-0.023468,67.467987,33.082108,-146.323761,,,
729861879.384749,0.338601,3.04105,123.928389,-0.033997,0.006393,1.027695,-0.010922,0.049548,-0.018068,67.651443,33.173828,-146.443298,,,
729861879.387998,0.336155,3.057561,123.924979,-0.043274,0.00061,1.027771,-0.010922,0.049548,-0.018068,67.651443,33.173828,-146.443298,,,
729861879.391352,0.336155,3.057561,123.924979,-0.043274,0.00061,1.027771,-0.010922,0.049548,-0.018068,67.651443,33.173828,-146.443298,,,
729861879.394684,0.335156,3.074256,123.923009,-0.043274,0.00061,1.027771,-0.002364,0.062835,-0.011545,67.651443,33.173828,-146.443298,,,
729861879.398008,0.333507,3.091748,123.922385,-0.054367,-0.000336,1.014664,-0.002364,0.062835,-0.011545,67.651443,33.173828,-146.443298,,,
729861879.401349,0.333507,3.091748,123.922385,-0.054367,-0.000336,1.014664,-0.002364,0.062835,-0.011545,67.651443,33.173828,-146.443298,,,
729861879.404686,0.332303,3.10193,123.922964,-0.054367,-0.000336,1.014664,-0.003623,0.042416,-0.001589,67.651443,33.173828,-146.443298,,,
729861879.407788,0.329721,3.110514,123.924107,-0.062759,0.000488,0.997696,-0.003623,0.042416,-0.001589,67.651443,33.173828,-146.443298,,,
729861879.411478,0.329721,3.110514,123.924107,-0.062759,0.000488,0.997696,-0.003623,0.042416,-0.001589,67.651443,33.173828,-146.443298,,,
729861879.414679,0.325844,3.107627,123.925237,-0.062759,0.000488,0.997696,-0.010261,-0.002319,0.002786,67.651443,33.173828,-146.443298,,,
729861879.418006,0.320989,3.102067,123.925418,-0.063187,0.000168,0.992325,-0.010261,-0.002319,0.002786,67.651443,33.173828,-146.443298,,,
729861879.421349,0.320989,3.102067,123.925418,-0.063187,0.000168,0.992325,-0.010261,-0.002319,0.002786,67.651443,33.173828,-146.443298,,,
729861879.424669,0.315504,3.086507,123.924269,-0.063187,0.000168,0.992325,-0.018132,-0.047201,-0.005108,67.539841,33.412659,-146.345642,,,
729861879.428001,0.30962,3.067048,123.922274,-0.054688,0.003403,0.992462,-0.018132,-0.047201,-0.005108,67.539841,33.412659,-146.345642,,,
729861879.431347,0.30962,3.067048,123.922274,-0.054688,0.003403,0.992462,-0.018132,-0.047201,-0.005108,67.539841,33.412659,-146.345642,,,
729861879.434679,0.302982,3.046026,123.919675,-0.054688,0.003403,0.992462,-0.023923,-0.070411,-0.012871,67.539841,33.412659,-146.345642,,,
729861879.438005,0.297961,3.018897,123.916616,-0.045425,0.000961,1.001312,-0.023923,-0.070411,-0.012871,67.539841,33.412659,-146.345642,,,
729861879.441339,0.297961,3.018897,123.916616,-0.045425,0.000961,1.001312,-0.023923,-0.070411,-0.012871,67.539841,33.412659,-146.345642,,,
729861879.444676,0.293224,3.002311,123.913421,-0.045425,0.000961,1.001312,-0.018198,-0.057685,-0.011097,67.539841,33.412659,-146.345642,,,
729861879.447997,0.291141,2.980942,123.910685,-0.041458,-0.001419,1.017044,-0.018198,-0.057685,-0.011097,67.539841,33.412659,-146.345642,,,
729861879.451393,0.291141,2.980942,123.910685,-0.041458,-0.001419,1.017044,-0.018198,-0.057685,-0.011097,67.539841,33.412659,-146.345642,,,
729861879.454672,0.290765,2.973929,123.908409,-0.041458,-0.001419,1.017044,-0.003018,-0.026143,-0.009451,67.539841,33.412659,-146.345642,,,
729861879.458006,0.2931,2.965482,123.905804,-0.036209,-0.00293,1.028625,-0.003018,-0.026143,-0.009451,67.539841,33.412659,-146.345642,,,
729861879.461333,0.2931,2.965482,123.905804,-0.036209,-0.00293,1.028625,-0.003018,-0.026143,-0.009451,67.539841,33.412659,-146.345642,,,
729861879.464738,0.298435,2.969879,123.902432,-0.036209,-0.00293,1.028625,0.020455,0.013786,-0.010244,67.539841,33.412659,-146.345642,,,
729861879.468,0.305149,2.977657,123.898141,-0.029388,0.000687,1.027924,0.020455,0.013786,-0.010244,67.267242,33.30751,-146.177155,,,
729861879.471351,0.305149,2.977657,123.898141,-0.029388,0.000687,1.027924,0.020455,0.013786,-0.010244,67.267242,33.30751,-146.177155,,,
729861879.474679,0.316205,2.992613,123.893195,-0.029388,0.000687,1.027924,0.033554,0.055039,-0.016422,67.267242,33.30751,-146.177155,,,
729861879.478,0.328586,3.012885,123.887829,-0.030151,0.004181,1.019852,0.033554,0.055039,-0.016422,67.267242,33.30751,-146.177155,,,
729861879.48136,0.328586,3.012885,123.887829,-0.030151,0.004181,1.019852,0.033554,0.055039,-0.016422,67.267242,33.30751,-146.177155,,,
729861879.484686,0.342398,3.032107,123.881863,-0.030151,0.004181,1.019852,0.04972,0.070732,-0.021373,67.267242,33.30751,-146.177155,,,
729861879.488002,0.354923,3.055642,123.876059,-0.039627,0.004852,1.005219,0.04972,0.070732,-0.021373,67.267242,33.30751,-146.177155,,,
729861879.491339,0.354923,3.055642,123.876059,-0.039627,0.004852,1.005219,0.04972,0.070732,-0.021373,67.267242,33.30751,-146.177155,,,
729861879.49471,0.367056,3.072219,123.870114,-0.039627,0.004852,1.005219,0.049078,0.062491,-0.018658,67.267242,33.30751,-146.177155,,,
729861879.498017,0.375399,3.08858,123.862884,-0.047531,0.00827,0.983124,0.049078,0.062491,-0.018658,67.267242,33.30751,-146.177155,,,
729861879.501427,0.375399,3.08858,123.862884,-0.047531,0.00827,0.983124,0.049078,0.062491,-0.018658,67.267242,33.30751,-146.177155,,,
729861879.504686,0.380278,3.09769,123.854369,-0.047531,0.00827,0.983124,0.022646,0.041071,-0.028728,67.267242,33.30751,-146.177155,,,
729861879.508009,0.380037,3.100957,123.844222,-0.055267,0.01738,0.961578,0.022646,0.041071,-0.028728,67.550491,33.106796,-146.382721,,,
729861879.511348,0.380037,3.100957,123.844222,-0.055267,0.01738,0.961578,0.022646,0.041071,-0.028728,67.550491,33.106796,-146.382721,,,
729861879.514677,0.375717,3.101982,123.832931,-0.055267,0.01738,0.961578,-0.009633,0.008457,-0.040753,67.550491,33.106796,-146.382721,,,
729861879.518004,0.366134,3.095988,123.821064,-0.060333,0.024796,0.948593,-0.009633,0.008457,-0.040753,67.550491,33.106796,-146.382721,,,
729861879.521349,0.366134,3.095988,123.821064,-0.060333,0.024796,0.948593,-0.009633,0.008457,-0.040753,67.550491,33.106796,-146.382721,,,
729861879.524684,0.353609,3.090168,123.80881,-0.060333,0.024796,0.948593,-0.038374,-0.015607,-0.04591,67.550491,33.106796,-146.382721,,,
729861879.528008,0.33695,3.0797,123.797728,-0.070831,0.025146,0.948776,-0.038374,-0.015607,-0.04591,67.550491,33.106796,-146.382721,,,
729861879.531351,0.33695,3.0797,123.797728,-0.070831,0.025146,0.948776,-0.038374,-0.015607,-0.04591,67.550491,33.106796,-146.382721,,,
729861879.534714,0.318464,3.073063,123.789074,-0.070831,0.025146,0.948776,-0.059097,-0.019992,-0.037019,67.550491,33.106796,-146.382721,,,
729861879.538011,0.29677,3.063178,123.783215,-0.079926,0.018158,0.954849,-0.059097,-0.019992,-0.037019,67.550491,33.106796,-146.382721,,,
729861879.541337,0.29677,3.063178,123.783215,-0.079926,0.018158,0.954849,-0.059097,-0.019992,-0.037019,67.550491,33.106796,-146.382721,,,
729861879.544699,0.273577,3.059593,123.780804,-0.079926,0.018158,0.954849,-0.076375,-0.008341,-0.016078,67.550491,33.106796,-146.382721,,,
729861879.548007,0.248748,3.050536,123.782119,-0.089203,0.010086,0.964691,-0.076375,-0.008341,-0.016078,67.472992,33.64328,-146.33374,,,
729861879.551362,0.248748,3.050536,123.782119,-0.089203,0.010086,0.964691,-0.076375,-0.008341,-0.016078,67.472992,33.64328,-146.33374,,,
729861879.55474,0.223933,3.048856,123.786523,-0.089203,0.010086,0.964691,-0.087087,0.000256,0.008475,67.472992,33.64328,-146.33374,,,
729861879.558001,0.200075,3.041691,123.793533,-0.090637,0.004822,0.983597,-0.087087,0.000256,0.008475,67.472992,33.64328,-146.33374,,,
729861879.561352,0.200075,3.041691,123.793533,-0.090637,0.004822,0.983597,-0.087087,0.000256,0.008475,67.472992,33.64328,-146.33374,,,
729861879.564687,0.178206,3.03807,123.801965,-0.090637,0.004822,0.983597,-0.079414,-0.005432,0.024479,67.472992,33.64328,-146.33374,,,
729861879.568007,0.160142,3.029972,123.811208,-0.084702,-0.001938,1.003281,-0.079414,-0.005432,0.024479,67.472992,33.64328,-146.33374,,,
729861879.57135,0.160142,3.029972,123.811208,-0.084702,-0.001938,1.003281,-0.079414,-0.005432,0.024479,67.472992,33.64328,-146.33374,,,
729861879.574695,0.146599,3.022235,123.8202,-0.084702,-0.001938,1.003281,-0.051959,-0.023366,0.027221,67.472992,33.64328,-146.33374,,,
729861879.578004,0.139346,3.012577,123.827942,-0.074249,-0.001816,1.022491,-0.051959,-0.023366,0.027221,67.472992,33.64328,-146.33374,,,
729861879.581424,0.139346,3.012577,123.827942,-0.074249,-0.001816,1.022491,-0.051959,-0.023366,0.027221,67.472992,33.64328,-146.33374,,,
729861879.584672,0.135949,3.002682,123.834352,-0.074249,-0.001816,1.022491,-0.016009,-0.031234,0.021925,67.472992,33.64328,-146.33374,,,
729861879.588006,0.138318,2.995249,123.839576,-0.060669,0.00087,1.037109,-0.016009,-0.031234,0.021925,67.253784,33.433105,-146.445694,,,
729861879.591352,0.138318,2.995249,123.839576,-0.060669,0.00087,1.037109,-0.016009,-0.031234,0.021925,67.253784,33.433105,-146.445694,,,
729861879.594723,0.143378,2.9883,123.844358,-0.060669,0.00087,1.037109,0.012519,-0.023317,0.015755,67.253784,33.433105,-146.445694,,,
729861879.598003,0.152871,2.985302,123.849338,-0.056702,0.002853,1.040298,0.012519,-0.023317,0.015755,67.253784,33.433105,-146.445694,,,
729861879.601334,0.152871,2.985302,123.849338,-0.056702,0.002853,1.040298,0.012519,-0.023317,0.015755,67.253784,33.433105,-146.445694,,,
729861879.604677,0.161392,2.982555,123.854772,-0.056702,0.002853,1.040298,0.030075,-0.007569,0.018645,67.253784,33.433105,-146.445694,,,
729861879.608015,0.170643,2.986859,123.860495,-0.054886,0.005859,1.027496,0.030075,-0.007569,0.018645,67.253784,33.433105,-146.445694,,,
729861879.611457,0.170643,2.986859,123.860495,-0.054886,0.005859,1.027496,0.030075,-0.007569,0.018645,67.253784,33.433105,-146.445694,,,
729861879.614694,0.176605,2.988862,123.866769,-0.054886,0.005859,1.027496,0.023136,0.008382,0.020925,67.253784,33.433105,-146.445694,,,
729861879.618007,0.181373,2.998655,123.873796,-0.053589,0.009583,1.008545,0.023136,0.008382,0.020925,67.253784,33.433105,-146.445694,,,
729861879.621348,0.181373,2.998655,123.873796,-0.053589,0.009583,1.008545,0.023136,0.008382,0.020925,67.253784,33.433105,-146.445694,,,
729861879.624668,0.182657,3.002711,123.880918,-0.053589,0.009583,1.008545,0.005205,0.015377,0.023167,67.253784,33.433105,-146.445694,,,
729861879.628086,0.181495,3.015336,123.887366,-0.051804,0.015152,0.993088,0.005205,0.015377,0.023167,67.253784,33.433105,-146.445694,,,
729861879.63133,0.181495,3.015336,123.887366,-0.051804,0.015152,0.993088,0.005205,0.015377,0.023167,67.424805,33.465744,-146.326401,,,
729861879.63467,0.177095,3.020206,123.892661,-0.051804,0.015152,0.993088,-0.015518,0.021715,0.018201,67.424805,33.465744,-146.326401,,,
729861879.638005,0.170119,3.031856,123.897083,-0.048706,0.015518,0.986237,-0.015518,0.021715,0.018201,67.424805,33.465744,-146.326401,,,
729861879.641352,0.170119,3.031856,123.897083,-0.048706,0.015518,0.986237,-0.015518,0.021715,0.018201,67.424805,33.465744,-146.326401,,,
729861879.644725,0.161056,3.035088,123.90116,-0.048706,0.015518,0.986237,-0.030223,0.014062,0.012089,67.424805,33.465744,-146.326401,,,
729861879.647998,0.150097,3.042293,123.904713,-0.047974,0.013916,0.983521,-0.030223,0.014062,0.012089,67.424805,33.465744,-146.326401,,,
729861879.651364,0.150097,3.042293,123.904713,-0.047974,0.013916,0.983521,-0.030223,0.014062,0.012089,67.424805,33.465744,-146.326401,,,
729861879.654679,0.13987,3.041796,123.908247,-0.047974,0.013916,0.983521,-0.038221,0.003611,0.00827,67.424805,33.465744,-146.326401,,,
729861879.658004,0.131531,3.04275,123.912136,-0.04892,0.007156,0.991898,-0.038221,0.003611,0.00827,67.424805,33.465744,-146.326401,,,
729861879.661358,0.131531,3.04275,123.912136,-0.04892,0.007156,0.991898,-0.038221,0.003611,0.00827,67.424805,33.465744,-146.326401,,,
729861879.664689,0.127523,3.03993,123.916299,-0.04892,0.007156,0.991898,-0.019001,-0.009407,0.010108,67.424805,33.465744,-146.326401,,,
729861879.668002,0.127958,3.0374,123.920776,-0.052322,-0.000778,1.012024,-0.019001,-0.009407,0.010108,67.424805,33.465744,-146.326401,,,
729861879.671333,0.127958,3.0374,123.920776,-0.052322,-0.000778,1.012024,-0.019001,-0.009407,0.010108,67.56131,33.580704,-146.130737,,,
729861879.674684,0.132792,3.033611,123.926394,-0.052322,-0.000778,1.012024,0.011602,-0.010329,0.016124,67.56131,33.580704,-146.130737,,,
729861879.678001,0.141418,3.029475,123.933395,-0.052963,-0.00473,1.02388,0.011602,-0.010329,0.016124,67.56131,33.580704,-146.130737,,,
729861879.681451,0.141418,3.029475,123.933395,-0.052963,-0.00473,1.02388,0.011602,-0.010329,0.016124,67.56131,33.580704,-146.130737,,,
729861879.684692,0.152888,3.025236,123.9413,-0.052963,-0.00473,1.02388,0.038347,-0.010891,0.02798,67.56131,33.580704,-146.130737,,,
729861879.68801,0.167255,3.021069,123.949606,-0.053925,-0.005829,1.016266,0.038347,-0.010891,0.02798,67.56131,33.580704,-146.130737,,,
729861879.691357,0.167255,3.021069,123.949606,-0.053925,-0.005829,1.016266,0.038347,-0.010891,0.02798,67.56131,33.580704,-146.130737,,,
729861879.694751,0.181911,3.017378,123.957709,-0.053925,-0.005829,1.016266,0.051482,-0.0096,0.029761,67.56131,33.580704,-146.130737,,,
729861879.698003,0.198009,3.015336,123.964777,-0.047775,0.00029,1.000183,0.051482,-0.0096,0.029761,67.56131,33.580704,-146.130737,,,
729861879.701352,0.198009,3.015336,123.964777,-0.047775,0.00029,1.000183,0.051482,-0.0096,0.029761,67.56131,33.580704,-146.130737,,,
729861879.7047,0.211273,3.015101,123.969763,-0.047775,0.00029,1.000183,0.048465,-0.000958,0.018094,67.56131,33.580704,-146.130737,,,
729861879.708096,0.224522,3.016414,123.973572,-0.042877,0.006805,0.982376,0.048465,-0.000958,0.018094,67.56131,33.580704,-146.130737,,,
729861879.71134,0.224522,3.016414,123.973572,-0.042877,0.006805,0.982376,0.048465,-0.000958,0.018094,67.495651,33.370895,-146.340332,,,
729861879.714698,0.231241,3.019971,123.977188,-0.042877,0.006805,0.982376,0.030387,0.013561,0.013604,67.495651,33.370895,-146.340332,,,
729861879.718001,0.234101,3.021708,123.981259,-0.045624,0.007446,0.967651,0.030387,0.013561,0.013604,67.495651,33.370895,-146.340332,,,
729861879.721406,0.234101,3.021708,123.981259,-0.045624,0.007446,0.967651,0.030387,0.013561,0.013604,67.495651,33.370895,-146.340332,,,
729861879.724671,0.229216,3.023312,123.986618,-0.045624,0.007446,0.967651,-0.011693,0.008453,0.015504,67.495651,33.370895,-146.340332,,,
729861879.728009,0.219597,3.021963,123.99247,-0.051346,0.007599,0.955032,-0.011693,0.008453,0.015504,67.495651,33.370895,-146.340332,,,
729861879.731444,0.219597,3.021963,123.99247,-0.051346,0.007599,0.955032,-0.011693,0.008453,0.015504,67.495651,33.370895,-146.340332,,,
729861879.734714,0.204161,3.020853,123.997676,-0.051346,0.007599,0.955032,-0.050359,-0.00019,0.015205,67.495651,33.370895,-146.340332,,,
729861879.738063,0.185458,3.019386,124.00113,-0.051285,0.00943,0.958099,-0.050359,-0.00019,0.015205,67.495651,33.370895,-146.340332,,,
729861879.741373,0.185458,3.019386,124.00113,-0.051285,0.00943,0.958099,-0.050359,-0.00019,0.015205,67.495651,33.370895,-146.340332,,,
729861879.744779,0.165559,3.019258,124.002956,-0.051285,0.00943,0.958099,-0.070282,0.002968,0.001314,67.495651,33.370895,-146.340332,,,
729861879.748006,0.145126,3.019307,124.00382,-0.0448,0.010147,0.979202,-0.070282,0.002968,0.001314,67.495651,33.370895,-146.340332,,,
729861879.751352,0.145126,3.019307,124.00382,-0.0448,0.010147,0.979202,-0.070282,0.002968,0.001314,67.646332,33.530716,-146.109985,,,
729861879.754699,0.12684,3.019715,124.004085,-0.0448,0.010147,0.979202,-0.063171,0.001768,-0.000733,67.646332,33.530716,-146.109985,,,
729861879.75801,0.110812,3.020601,124.004759,-0.047333,0.000931,1.002136,-0.063171,0.001768,-0.000733,67.646332,33.530716,-146.109985,,,
729861879.761295,0.110812,3.020601,124.004759,-0.047333,0.000931,1.002136,-0.063171,0.001768,-0.000733,67.646332,33.530716,-146.109985,,,
729861879.764711,0.099943,3.0236,124.00578,-0.047333,0.000931,1.002136,-0.039814,0.011346,-0.002166,67.646332,33.530716,-146.109985,,,
729861879.768008,0.091774,3.028304,124.007135,-0.048584,-0.005325,1.017731,-0.039814,0.011346,-0.002166,67.646332,33.530716,-146.109985,,,
729861879.77142,0.091774,3.028304,124.007135,-0.048584,-0.005325,1.017731,-0.039814,0.011346,-0.002166,67.646332,33.530716,-146.109985,,,
729861879.774692,0.089445,3.03431,124.009325,-0.048584,-0.005325,1.017731,-0.012075,0.024213,0.004295,67.646332,33.530716,-146.109985,,,
729861879.778012,0.091537,3.037468,124.012275,-0.054031,-0.010132,1.024384,-0.012075,0.024213,0.004295,67.646332,33.530716,-146.109985,,,
729861879.781355,0.091537,3.037468,124.012275,-0.054031,-0.010132,1.024384,-0.012075,0.024213,0.004295,67.646332,33.530716,-146.109985,,,
729861879.784741,0.096855,3.043542,124.016021,-0.054031,-0.010132,1.024384,0.013849,0.024516,0.013013,67.646332,33.530716,-146.109985,,,
729861879.788018,0.106319,3.044612,124.020708,-0.06076,-0.012741,1.019241,0.013849,0.024516,0.013013,67.646332,33.530716,-146.109985,,,
729861879.791358,0.106319,3.044612,124.020708,-0.06076,-0.012741,1.019241,0.013849,0.024516,0.013013,67.646332,33.530716,-146.109985,,,
729861879.794696,0.117422,3.046501,124.026086,-0.06076,-0.012741,1.019241,0.037225,0.010653,0.021092,67.736572,33.153076,-146.356369,,,
729861879.798036,0.1307,3.045141,124.031945,-0.061874,-0.011887,1.011047,0.037225,0.010653,0.021092,67.736572,33.153076,-146.356369,,,
729861879.801333,0.1307,3.045141,124.031945,-0.061874,-0.011887,1.011047,0.037225,0.010653,0.021092,67.736572,33.153076,-146.356369,,,
729861879.8047,0.143004,3.043244,124.037551,-0.061874,-0.011887,1.011047,0.044739,-0.002958,0.021932,67.736572,33.153076,-146.356369,,,
729861879.808008,0.153945,3.041585,124.041675,-0.060501,-0.003479,0.997131,0.044739,-0.002958,0.021932,67.736572,33.153076,-146.356369,,,
729861879.811446,0.153945,3.041585,124.041675,-0.060501,-0.003479,0.997131,0.044739,-0.002958,0.021932,67.736572,33.153076,-146.356369,,,
729861879.814678,0.160666,3.038573,124.044177,-0.060501,-0.003479,0.997131,0.023491,-0.007195,0.010859,67.736572,33.153076,-146.356369,,,
729861879.818014,0.165325,3.035045,124.045027,-0.052017,0.006317,0.984787,0.023491,-0.007195,0.010859,67.736572,33.153076,-146.356369,,,
729861879.821354,0.165325,3.035045,124.045027,-0.052017,0.006317,0.984787,0.023491,-0.007195,0.010859,67.736572,33.153076,-146.356369,,,
729861879.824752,0.165355,3.035001,124.044746,-0.052017,0.006317,0.984787,0.002237,2.2e-05,-0.002317,67.736572,33.153076,-146.356369,,,
729861879.828,0.162541,3.034964,124.043959,-0.049271,0.010117,0.979614,0.002237,2.2e-05,-0.002317,67.736572,33.153076,-146.356369,,,
729861879.831358,0.162541,3.034964,124.043959,-0.049271,0.010117,0.979614,0.002237,2.2e-05,-0.002317,67.736572,33.153076,-146.356369,,,
729861879.83468,0.155905,3.040362,124.043037,-0.049271,0.010117,0.979614,-0.016927,0.018437,-0.005678,67.677887,33.433441,-146.356628,,,
729861879.838012,0.145816,3.046308,124.042676,-0.051559,0.007782,0.979675,-0.016927,0.018437,-0.005678,67.677887,33.433441,-146.356628,,,
729861879.841358,0.145816,3.046308,124.042676,-0.051559,0.007782,0.979675,-0.016927,0.018437,-0.005678,67.677887,33.433441,-146.356628,,,
729861879.84469,0.134489,3.05756,124.043071,-0.051559,0.007782,0.979675,-0.036961,0.038647,-0.004704,67.677887,33.433441,-146.356628,,,
729861879.848009,0.120471,3.069584,124.044576,-0.056381,0.004486,0.981934,-0.036961,0.038647,-0.004704,67.677887,33.433441,-146.356628,,,
729861879.851336,0.120471,3.069584,124.044576,-0.056381,0.004486,0.981934,-0.036961,0.038647,-0.004704,67.677887,33.433441,-146.356628,,,
729861879.854695,0.108459,3.084599,124.047367,-0.056381,0.004486,0.981934,-0.043703,0.055097,0.005289,67.677887,33.433441,-146.356628,,,
729861879.858015,0.095651,3.100178,124.051572,-0.060669,-0.000214,0.989517,-0.043703,0.055097,0.005289,67.677887,33.433441,-146.356628,,,
729861879.861365,0.095651,3.100178,124.051572,-0.060669,-0.000214,0.989517,-0.043703,0.055097,0.005289,67.677887,33.433441,-146.356628,,,
729861879.86468,0.08717,3.112535,124.056847,-0.060669,-0.000214,0.989517,-0.031942,0.0492,0.014928,67.677887,33.433441,-146.356628,,,
729861879.86801,0.078491,3.1238,124.062517,-0.063034,-0.00621,0.994705,-0.031942,0.0492,0.014928,67.677887,33.433441,-146.356628,,,
729861879.871352,0.078491,3.1238,124.062517,-0.063034,-0.00621,0.994705,-0.031942,0.0492,0.014928,67.677887,33.433441,-146.356628,,,
729861879.874681,0.074887,3.128316,124.067812,-0.063034,-0.00621,0.994705,-0.013455,0.020702,0.018444,67.716782,33.368073,-146.042618,,,
729861879.878024,0.071533,3.131773,124.072313,-0.063019,-0.007675,0.998123,-0.013455,0.020702,0.018444,67.716782,33.368073,-146.042618,,,
729861879.881342,0.071533,3.131773,124.072313,-0.063019,-0.007675,0.998123,-0.013455,0.020702,0.018444,67.716782,33.368073,-146.042618,,,
729861879.884674,0.071923,3.127935,124.076262,-0.063019,-0.007675,0.998123,-0.000153,-0.007792,0.011863,67.716782,33.368073,-146.042618,,,
729861879.888007,0.073328,3.122023,124.079986,-0.059601,-0.004623,0.997116,-0.000153,-0.007792,0.011863,67.716782,33.368073,-146.042618,,,
729861879.891299,0.073328,3.122023,124.079986,-0.059601,-0.004623,0.997116,-0.000153,-0.007792,0.011863,67.716782,33.368073,-146.042618,,,
729861879.894698,0.075326,3.111497,124.084037,-0.059601,-0.004623,0.997116,0.007226,-0.031394,0.01139,67.716782,33.368073,-146.042618,,,
729861879.89801,0.077835,3.097568,124.089162,-0.05806,-0.004517,0.991516,0.007226,-0.031394,0.01139,67.716782,33.368073,-146.042618,,,
729861879.90141,0.077835,3.097568,124.089162,-0.05806,-0.004517,0.991516,0.007226,-0.031394,0.01139,67.716782,33.368073,-146.042618,,,
729861879.904681,0.077528,3.084415,124.095444,-0.05806,-0.004517,0.991516,-0.000713,-0.043279,0.019408,67.716782,33.368073,-146.042618,,,
729861879.908005,0.077528,3.07032,124.101976,-0.056686,-0.003357,0.988251,-0.000713,-0.043279,0.019408,67.716782,33.368073,-146.042618,,,
729861879.911355,0.076955,3.07032,124.101976,-0.056686,-0.003357,0.988251,-0.000713,-0.043279,0.019408,67.716782,33.368073,-146.042618,,,
729861879.914724,0.073172,3.059057,124.108395,-0.056686,-0.003357,0.988251,-0.013017,-0.039582,0.021934,67.716782,33.368073,-146.042618,,,
729861879.918002,0.068424,3.050701,124.114376,-0.045975,0.001175,0.990692,-0.013017,-0.039582,0.021934,67.600342,33.502945,-146.058945,,,
729861879.921354,0.068424,3.050701,124.114376,-0.045975,0.001175,0.990692,-0.013017,-0.039582,0.021934,67.600342,33.502945,-146.058945,,,
729861879.924676,0.059676,3.044711,124.119115,-0.045975,0.001175,0.990692,-0.029585,-0.022653,0.014615,67.600342,33.502945,-146.058945,,,
729861879.928007,0.04874,3.043977,124.121885,-0.03627,0.006256,0.997025,-0.029585,-0.022653,0.014615,67.600342,33.502945,-146.058945,,,
729861879.931352,0.04874,3.043977,124.121885,-0.03627,0.006256,0.997025,-0.029585,-0.022653,0.014615,67.600342,33.502945,-146.058945,,,
729861879.93467,0.036539,3.043482,124.122224,-0.03627,0.006256,0.997025,-0.042749,1.6e-05,-0.000322,67.600342,33.502945,-146.058945,,,
729861879.938006,0.036539,3.050018,124.120166,-0.030121,0.009537,1.001434,-0.042749,1.6e-05,-0.000322,67.600342,33.502945,-146.058945,,,
729861879.941402,0.024369,3.050018,124.120166,-0.030121,0.009537,1.001434,-0.042749,1.6e-05,-0.000322,67.600342,33.502945,-146.058945,,,
729861879.944702,0.014888,3.055688,124.116398,-0.030121,0.009537,1.001434,-0.034344,0.017109,-0.015463,67.600342,33.502945,-146.058945,,,
729861879.948003,0.014888,3.055688,124.116398,-0.025009,0.007858,1.016815,-0.034344,0.017109,-0.015463,67.600342,33.502945,-146.058945,,,
729861879.951357,0.006277,3.069449,124.111471,-0.025009,0.007858,1.016815,-0.034344,0.017109,-0.015463,67.600342,33.502945,-146.058945,,,
729861879.954734,0.001591,3.081168,124.105519,-0.025009,0.007858,1.016815,-0.017825,0.042261,-0.023396,67.600342,33.502945,-146.058945,,,
729861879.957995,0.001591,3.081168,124.105519,-0.030197,0.00145,1.026413,-0.017825,0.042261,-0.023396,67.747482,33.38768,-146.380188,,,
729861879.961341,-0.001618,3.098414,124.099307,-0.030197,0.00145,1.026413,-0.017825,0.042261,-0.023396,67.747482,33.38768,-146.380188,,,
729861879.964687,-0.001498,3.113136,124.093752,-0.030197,0.00145,1.026413,0.000418,0.053189,-0.021614,67.747482,33.38768,-146.380188,,,
729861879.968002,-0.001498,3.113136,124.093752,-0.041031,-0.003006,1.022415,0.000418,0.053189,-0.021614,67.747482,33.38768,-146.380188,,,
729861879.971355,-0.000259,3.129303,124.089256,-0.041031,-0.003006,1.022415,0.000418,0.053189,-0.021614,67.747482,33.38768,-146.380188,,,
729861879.974679,0.003775,3.142255,124.086065,-0.041031,-0.003006,1.022415,0.011895,0.047885,-0.013765,67.747482,33.38768,-146.380188,,,
729861879.978046,0.003775,3.142255,124.086065,-0.054733,-0.007172,1.014862,0.011895,0.047885,-0.013765,67.747482,33.38768,-146.380188,,,
729861879.981382,0.008883,3.153945,124.083952,-0.054733,-0.007172,1.014862,0.011895,0.047885,-0.013765,67.747482,33.38768,-146.380188,,,
729861879.98469,0.016632,3.159655,124.082872,-0.054733,-0.007172,1.014862,0.026994,0.027015,-0.002879,67.747482,33.38768,-146.380188,,,
729861879.988066,0.016632,3.159655,124.082872,-0.061981,-0.00705,1.005402,0.026994,0.027015,-0.002879,67.747482,33.38768,-146.380188,,,
729861879.991416,0.024886,3.160255,124.082341,-0.061981,-0.00705,1.005402,0.026994,0.027015,-0.002879,67.747482,33.38768,-146.380188,,,
729861879.994687,0.033148,3.15564,124.082252,-0.061981,-0.00705,1.005402,0.034351,-0.007961,0.002195,67.747482,33.38768,-146.380188,,,
729861879.998048,0.033148,3.15564,124.082252,-0.061371,-0.002121,0.991745,0.034351,-0.007961,0.002195,67.80394,33.226624,-146.119278,,,
729861880.001371,0.039951,3.140246,124.082206,-0.061371,-0.002121,0.991745,0.034351,-0.007961,0.002195,67.80394,33.226624,-146.119278,,,
729861880.004677,0.044126,3.12633,124.08057,-0.061371,-0.002121,0.991745,0.016527,-0.042913,-0.005439,67.80394,33.226624,-146.119278,,,
729861880.008099,0.044126,3.12633,124.08057,-0.056458,0.00441,0.975143,0.016527,-0.042913,-0.005439,67.80394,33.226624,-146.119278,,,
729861880.011347,0.047121,3.102076,124.077115,-0.056458,0.00441,0.975143,0.016527,-0.042913,-0.005439,67.80394,33.226624,-146.119278,,,
729861880.014672,0.046798,3.086772,124.072015,-0.056458,0.00441,0.975143,0.000268,-0.052659,-0.01797,67.80394,33.226624,-146.119278,,,
729861880.018067,0.046798,3.086772,124.072015,-0.048859,0.008728,0.977554,0.000268,-0.052659,-0.01797,67.80394,33.226624,-146.119278,,,
729861880.02136,0.046552,3.060982,124.065633,-0.048859,0.008728,0.977554,0.000268,-0.052659,-0.01797,67.80394,33.226624,-146.119278,,,
729861880.02468,0.042813,3.048764,124.05939,-0.048859,0.008728,0.977554,-0.007922,-0.040385,-0.026145,67.80394,33.226624,-146.119278,,,
729861880.028054,0.042813,3.048764,124.05939,-0.048859,0.008728,0.977554,-0.007922,-0.040385,-0.026145,67.80394,33.226624,-146.119278,,,
729861880.031411,0.037844,3.028895,124.054008,-0.048355,0.006516,0.985596,-0.007922,-0.040385,-0.026145,67.80394,33.226624,-146.119278,,,
729861880.034673,0.02998,3.024841,124.049283,-0.048355,0.006516,0.985596,-0.02618,-0.017281,-0.018537,67.80394,33.226624,-146.119278,,,
729861880.038089,0.02998,3.024841,124.049283,-0.048355,0.006516,0.985596,-0.02618,-0.017281,-0.018537,67.74942,33.237091,-146.408112,,,
729861880.041238,0.01986,3.017029,124.044769,-0.05069,0.003662,0.986649,-0.02618,-0.017281,-0.018537,67.74942,33.237091,-146.408112,,,
729861880.044703,0.008488,3.022807,124.040265,-0.05069,0.003662,0.986649,-0.038985,0.016396,-0.016837,67.74942,33.237091,-146.408112,,,
729861880.048045,0.008488,3.022807,124.040265,-0.05069,0.003662,0.986649,-0.038985,0.016396,-0.016837,67.74942,33.237091,-146.408112,,,
729861880.051354,-0.004393,3.029261,124.035795,-0.052094,0.002533,0.9944,-0.038985,0.016396,-0.016837,67.74942,33.237091,-146.408112,,,
729861880.05468,-0.016369,3.040055,124.031504,-0.052094,0.002533,0.9944,-0.040876,0.040826,-0.020051,67.74942,33.237091,-146.408112,,,
729861880.058077,-0.016369,3.040055,124.031504,-0.052094,0.002533,0.9944,-0.040876,0.040826,-0.020051,67.74942,33.237091,-146.408112,,,
729861880.061346,-0.028431,3.053149,124.027456,-0.054367,0.000992,1.001495,-0.040876,0.040826,-0.020051,67.74942,33.237091,-146.408112,,,
729861880.064673,-0.036527,3.064362,124.023577,-0.054367,0.000992,1.001495,-0.032698,0.04262,-0.016979,67.74942,33.237091,-146.408112,,,
729861880.06801,-0.036527,3.064362,124.023577,-0.054367,0.000992,1.001495,-0.032698,0.04262,-0.016979,67.74942,33.237091,-146.408112,,,
729861880.071388,-0.042311,3.078313,124.020409,-0.059998,-0.00386,1.004898,-0.032698,0.04262,-0.016979,67.74942,33.237091,-146.408112,,,
729861880.074694,-0.043969,3.087504,124.018336,-0.059998,-0.00386,1.004898,-0.008458,0.036787,-0.009164,67.74942,33.237091,-146.408112,,,
729861880.078057,-0.043969,3.087504,124.018336,-0.059998,-0.00386,1.004898,-0.008458,0.036787,-0.009164,67.74942,33.237091,-146.408112,,,
729861880.081439,-0.041858,3.097439,124.017498,-0.069107,-0.00882,1.010132,-0.008458,0.036787,-0.009164,67.645386,33.53804,-146.154022,,,
729861880.084675,-0.037,3.101832,124.018074,-0.069107,-0.00882,1.010132,0.015895,0.020931,0.000231,67.645386,33.53804,-146.154022,,,
729861880.088034,-0.037,3.101832,124.018074,-0.069107,-0.00882,1.010132,0.015895,0.020931,0.000231,67.645386,33.53804,-146.154022,,,
729861880.091357,-0.029369,3.103799,124.019787,-0.072998,-0.008972,1.00882,0.015895,0.020931,0.000231,67.645386,33.53804,-146.154022,,,
729861880.094683,-0.022745,3.10217,124.022136,-0.072998,-0.008972,1.00882,0.020165,5e-05,0.007519,67.645386,33.53804,-146.154022,,,
729861880.098082,-0.022745,3.10217,124.022136,-0.072998,-0.008972,1.00882,0.020165,5e-05,0.007519,67.645386,33.53804,-146.154022,,,
729861880.101414,-0.014881,3.095084,124.025103,-0.071884,-0.008148,1.001709,0.020165,5e-05,0.007519,67.645386,33.53804,-146.154022,,,
729861880.104696,-0.009639,3.087802,124.028357,-0.071884,-0.008148,1.001709,0.02083,-0.021783,0.011753,67.645386,33.53804,-146.154022,,,
729861880.108051,-0.009639,3.087802,124.028357,-0.071884,-0.008148,1.001709,0.02083,-0.021783,0.011753,67.645386,33.53804,-146.154022,,,
729861880.111396,-0.00382,3.077982,124.031521,-0.07103,-0.004166,0.994751,0.02083,-0.021783,0.011753,67.645386,33.53804,-146.154022,,,
729861880.114677,3e-05,3.070092,124.034836,-0.07103,-0.004166,0.994751,0.01505,-0.025633,0.011423,67.645386,33.53804,-146.154022,,,
729861880.118053,3e-05,3.070092,124.034836,-0.07103,-0.004166,0.994751,0.01505,-0.025633,0.011423,67.645386,33.53804,-146.154022,,,
729861880.121359,0.00448,3.062909,124.038408,-0.065414,-0.001724,0.997101,0.01505,-0.025633,0.011423,67.892776,33.531219,-146.217133,,,
729861880.124685,0.009196,3.05889,124.042158,-0.065414,-0.001724,0.997101,0.016391,-0.01533,0.011109,67.892776,33.531219,-146.217133,,,
729861880.128085,0.009196,3.05889,124.042158,-0.065414,-0.001724,0.997101,0.016391,-0.01533,0.011109,67.892776,33.531219,-146.217133,,,
729861880.131355,0.014501,3.056533,124.04609,-0.059143,-0.000885,1.006897,0.016391,-0.01533,0.011109,67.892776,33.531219,-146.217133,,,
729861880.134677,0.0193,3.056062,124.050662,-0.059143,-0.000885,1.006897,0.013835,0.003679,0.01564,67.892776,33.531219,-146.217133,,,
729861880.138007,0.0193,3.056062,124.050662,-0.059143,-0.000885,1.006897,0.013835,0.003679,0.01564,67.892776,33.531219,-146.217133,,,
729861880.141347,0.024066,3.057854,124.056205,-0.056366,-0.000504,1.009171,0.013835,0.003679,0.01564,67.892776,33.531219,-146.217133,,,
729861880.144673,0.028516,3.059157,124.061931,-0.056366,-0.000504,1.009171,0.014822,0.009119,0.019241,67.892776,33.531219,-146.217133,,,
729861880.14813,0.028516,3.059157,124.061931,-0.056366,-0.000504,1.009171,0.014822,0.009119,0.019241,67.892776,33.531219,-146.217133,,,
729861880.151325,0.031714,3.06465,124.067654,-0.051804,0.000229,1.004318,0.014822,0.009119,0.019241,67.892776,33.531219,-146.217133,,,
729861880.154683,0.036381,3.065159,124.073024,-0.051804,0.000229,1.004318,0.015879,0.004323,0.017567,67.892776,33.531219,-146.217133,,,
729861880.158021,0.036381,3.065159,124.073024,-0.051804,0.000229,1.004318,0.015879,0.004323,0.017567,67.892776,33.531219,-146.217133,,,
729861880.161341,0.039273,3.070265,124.077018,-0.049728,0.003418,1.001266,0.015879,0.004323,0.017567,67.851151,33.3508,-146.160233,,,
729861880.164682,0.044483,3.065242,124.079761,-0.049728,0.003418,1.001266,0.014365,-0.011166,0.010779,67.851151,33.3508,-146.160233,,,
729861880.168005,0.044483,3.065242,124.079761,-0.049728,0.003418,1.001266,0.014365,-0.011166,0.010779,67.851151,33.3508,-146.160233,,,
729861880.171421,0.048155,3.065356,124.081055,-0.044891,0.004837,0.996643,0.014365,-0.011166,0.010779,67.851151,33.3508,-146.160233,,,
729861880.174664,0.053423,3.055897,124.080495,-0.044891,0.004837,0.996643,0.016049,-0.029932,0.00066,67.851151,33.3508,-146.160233,,,
729861880.178034,0.053423,3.055897,124.080495,-0.044891,0.004837,0.996643,0.016049,-0.029932,0.00066,67.851151,33.3508,-146.160233,,,
729861880.181354,0.057818,3.05358,124.078553,-0.039642,0.007355,0.996597,0.016049,-0.029932,0.00066,67.851151,33.3508,-146.160233,,,
729861880.184674,0.064588,3.045774,124.075172,-0.039642,0.007355,0.996597,0.022955,-0.028085,-0.011854,67.851151,33.3508,-146.160233,,,
729861880.188006,0.064588,3.045774,124.075172,-0.039642,0.007355,0.996597,0.022955,-0.028085,-0.011854,67.851151,33.3508,-146.160233,,,
729861880.191354,0.072774,3.049178,124.070689,-0.035904,0.007523,1.001862,0.022955,-0.028085,-0.011854,67.851151,33.3508,-146.160233,,,
729861880.194676,0.083408,3.051235,124.066013,-0.035904,0.007523,1.001862,0.038253,0.006265,-0.015638,67.851151,33.3508,-146.160233,,,
729861880.198064,0.083408,3.051235,124.066013,-0.035904,0.007523,1.001862,0.038253,0.006265,-0.015638,67.851151,33.3508,-146.160233,,,
729861880.20134,0.095178,3.06265,124.061636,-0.035522,0.004501,1.010117,0.038253,0.006265,-0.015638,67.611359,33.404083,-146.197571,,,
729861880.204679,0.108481,3.075352,124.058405,-0.035522,0.004501,1.010117,0.04641,0.044815,-0.008446,67.611359,33.404083,-146.197571,,,
729861880.208005,0.108481,3.075352,124.058405,-0.035522,0.004501,1.010117,0.04641,0.044815,-0.008446,67.611359,33.404083,-146.197571,,,
729861880.211424,0.121583,3.09352,124.056433,-0.044113,0.000946,1.00647,0.04641,0.044815,-0.008446,67.611359,33.404083,-146.197571,,,
729861880.214671,0.135094,3.112204,124.055426,-0.044113,0.000946,1.00647,0.049046,0.066712,-0.003139,67.611359,33.404083,-146.197571,,,
729861880.218005,0.135094,3.112204,124.055426,-0.044113,0.000946,1.00647,0.049046,0.066712,-0.003139,67.611359,33.404083,-146.197571,,,
729861880.221359,0.146565,3.131232,124.055361,-0.051498,0.001923,0.992172,0.049046,0.066712,-0.003139,67.611359,33.404083,-146.197571,,,
729861880.224682,0.155518,3.148078,124.055639,-0.051498,0.001923,0.992172,0.036176,0.066833,0.002029,67.611359,33.404083,-146.197571,,,
729861880.228025,0.155518,3.148078,124.055639,-0.051498,0.001923,0.992172,0.036176,0.066833,0.002029,67.611359,33.404083,-146.197571,,,
729861880.231362,0.16092,3.159497,124.055738,-0.057724,0.006119,0.972855,0.036176,0.066833,0.002029,67.611359,33.404083,-146.197571,,,
729861880.23468,0.16339,3.168364,124.055523,-0.057724,0.006119,0.972855,0.009487,0.039703,0.000148,67.611359,33.404083,-146.197571,,,
729861880.238079,0.16339,3.168364,124.055523,-0.057724,0.006119,0.972855,0.009487,0.039703,0.000148,67.611359,33.404083,-146.197571,,,
729861880.241348,0.162625,3.169377,124.054806,-0.062897,0.013107,0.961304,0.009487,0.039703,0.000148,67.611359,33.404083,-146.197571,,,
729861880.244671,0.157674,3.168103,124.053724,-0.062897,0.013107,0.961304,-0.015612,0.002859,-0.007887,67.89711,33.364792,-146.173141,,,
729861880.24801,0.157674,3.168103,124.053724,-0.062897,0.013107,0.961304,-0.015612,0.002859,-0.007887,67.89711,33.364792,-146.173141,,,
729861880.251414,0.149795,3.157667,124.053074,-0.066467,0.010773,0.957336,-0.015612,0.002859,-0.007887,67.89711,33.364792,-146.173141,,,
729861880.254665,0.138802,3.149078,124.053002,-0.066467,0.010773,0.957336,-0.034845,-0.024872,-0.00493,67.89711,33.364792,-146.173141,,,
729861880.258016,0.138802,3.149078,124.053002,-0.066467,0.010773,0.957336,-0.034845,-0.024872,-0.00493,67.89711,33.364792,-146.173141,,,
729861880.26135,0.126862,3.132523,124.053406,-0.067535,0.00708,0.966675,-0.034845,-0.024872,-0.00493,67.89711,33.364792,-146.173141,,,
729861880.264672,0.112836,3.122999,124.055069,-0.067535,0.00708,0.966675,-0.048912,-0.031874,0.000113,67.89711,33.364792,-146.173141,,,
