Time (sec),Pitch (deg),Roll (deg),Yaw(deg),X-Acceleration (g),Y-Acceleration (g),Z-Acceleration (g),Pitch Rate (deg/sec),Roll Rate (deg/sec),Yaw Rate (deg/sec),Magnetic Field in X direction (uT),Magnetic Field in Y direction (uT),Magnetic Field in Z Direction (uT),Latitude (deg),Longitude (deg),Altitude (m)
729862062.785464,1.545442,5.577084,58.203121,-0.095566,0.0215,1.009216,0.044718,-0.000889,0.014286,59.103149,26.081207,-153.612869,,,
729862062.788781,1.545442,5.577084,58.203121,-0.095566,0.0215,1.009216,0.044718,-0.000889,0.014286,59.181183,26.069855,-153.653107,,,
729862062.792125,1.555513,5.586611,58.205138,-0.092621,0.025284,0.995239,0.03001,0.012804,0.008812,59.181183,26.069855,-153.653107,,,
729862062.795445,1.56214,5.590134,58.20688,-0.092621,0.025284,0.995239,0.03001,0.012804,0.008812,59.181183,26.069855,-153.653107,,,
729862062.798779,1.56214,5.590134,58.20688,-0.092621,0.025284,0.995239,0.03001,0.012804,0.008812,59.181183,26.069855,-153.653107,,,
729862062.802122,1.564093,5.603995,58.208046,-0.092331,0.028442,0.983078,0.005609,0.018514,0.004263,59.181183,26.069855,-153.653107,,,
729862062.805446,1.563578,5.609379,58.209484,-0.092331,0.028442,0.983078,0.005609,0.018514,0.004263,59.181183,26.069855,-153.653107,,,
729862062.808885,1.563578,5.609379,58.209484,-0.092331,0.028442,0.983078,0.005609,0.018514,0.004263,59.181183,26.069855,-153.653107,,,
729862062.812182,1.557568,5.625294,58.211063,-0.097977,0.028793,0.978134,-0.021773,0.030036,0.004205,59.181183,26.069855,-153.653107,,,
729862062.815514,1.550656,5.63235,58.213127,-0.097977,0.028793,0.978134,-0.021773,0.030036,0.004205,59.181183,26.069855,-153.653107,,,
729862062.818877,1.550656,5.63235,58.213127,-0.097977,0.028793,0.978134,-0.021773,0.030036,0.004205,59.181183,26.069855,-153.653107,,,
729862062.822215,1.541289,5.645911,58.214496,-0.099167,0.028824,0.980255,-0.024818,0.017771,0.000529,59.181183,26.069855,-153.653107,,,
729862062.82545,1.534511,5.64865,58.215232,-0.099167,0.028824,0.980255,-0.024818,0.017771,0.000529,59.181183,26.069855,-153.653107,,,
729862062.828853,1.534511,5.64865,58.215232,-0.099167,0.028824,0.980255,-0.024818,0.017771,0.000529,59.349258,25.644073,-153.569992,,,
729862062.832111,1.527046,5.655244,58.214806,-0.10376,0.023529,0.995895,-0.012178,-0.001064,-0.005127,59.349258,25.644073,-153.569992,,,
729862062.83546,1.524627,5.653746,58.21404,-0.10376,0.023529,0.995895,-0.012178,-0.001064,-0.005127,59.349258,25.644073,-153.569992,,,
729862062.838784,1.524627,5.653746,58.21404,-0.10376,0.023529,0.995895,-0.012178,-0.001064,-0.005127,59.349258,25.644073,-153.569992,,,
729862062.842125,1.522773,5.657185,58.213355,-0.110413,0.020447,1.009537,0.01021,-0.010076,-0.001233,59.349258,25.644073,-153.569992,,,
729862062.845449,1.526991,5.653468,58.213964,-0.110413,0.020447,1.009537,0.01021,-0.010076,-0.001233,59.349258,25.644073,-153.569992,,,
729862062.848777,1.526991,5.653468,58.213964,-0.110413,0.020447,1.009537,0.01021,-0.010076,-0.001233,59.349258,25.644073,-153.569992,,,
729862062.852118,1.53195,5.653489,58.215803,-0.111298,0.018631,1.011383,0.029459,-0.008695,0.009936,59.349258,25.644073,-153.569992,,,
729862062.855454,1.541272,5.650163,58.218214,-0.111298,0.018631,1.011383,0.029459,-0.008695,0.009936,59.349258,25.644073,-153.569992,,,
729862062.858778,1.541272,5.650163,58.218214,-0.111298,0.018631,1.011383,0.029459,-0.008695,0.009936,59.349258,25.644073,-153.569992,,,
729862062.862214,1.550688,5.646173,58.220776,-0.106201,0.020142,1.007919,0.041266,-0.003778,0.011802,59.349258,25.644073,-153.569992,,,
729862062.865519,1.562514,5.644108,58.222845,-0.106201,0.020142,1.007919,0.041266,-0.003778,0.011802,59.349258,25.644073,-153.569992,,,
729862062.868844,1.562514,5.644108,58.222845,-0.106201,0.020142,1.007919,0.041266,-0.003778,0.011802,59.078384,25.564667,-153.291962,,,
729862062.872185,1.574546,5.639075,58.224212,-0.101303,0.024292,0.998093,0.047552,-0.009653,0.007087,59.078384,25.564667,-153.291962,,,
729862062.875514,1.587975,5.63517,58.22471,-0.101303,0.024292,0.998093,0.047552,-0.009653,0.007087,59.078384,25.564667,-153.291962,,,
729862062.878898,1.587975,5.63517,58.22471,-0.101303,0.024292,0.998093,0.047552,-0.009653,0.007087,59.078384,25.564667,-153.291962,,,
729862062.882186,1.601168,5.628372,58.225158,-0.095581,0.025681,0.992126,0.044939,-0.012787,0.005995,59.078384,25.564667,-153.291962,,,
729862062.88552,1.613383,5.624637,58.226173,-0.095581,0.025681,0.992126,0.044939,-0.012787,0.005995,59.078384,25.564667,-153.291962,,,
729862062.88885,1.613383,5.624637,58.226173,-0.095581,0.025681,0.992126,0.044939,-0.012787,0.005995,59.078384,25.564667,-153.291962,,,
729862062.892248,1.624305,5.62285,58.227213,-0.093643,0.028305,0.990143,0.034754,-0.001221,0.00514,59.078384,25.564667,-153.291962,,,
729862062.895539,1.632581,5.623542,58.227914,-0.093643,0.028305,0.990143,0.034754,-0.001221,0.00514,59.078384,25.564667,-153.291962,,,
729862062.89886,1.632581,5.623542,58.227914,-0.093643,0.028305,0.990143,0.034754,-0.001221,0.00514,59.078384,25.564667,-153.291962,,,
729862062.902189,1.638384,5.628198,58.228747,-0.091614,0.030365,0.983078,0.014746,0.019488,0.004288,59.078384,25.564667,-153.291962,,,
729862062.905446,1.640785,5.633855,58.230276,-0.091614,0.030365,0.983078,0.014746,0.019488,0.004288,59.078384,25.564667,-153.291962,,,
729862062.9088,1.640785,5.633855,58.230276,-0.091614,0.030365,0.983078,0.014746,0.019488,0.004288,59.237213,25.509811,-153.322891,,,
729862062.912132,1.639257,5.643291,58.23273,-0.094528,0.03009,0.972733,-0.007951,0.031174,0.008939,59.237213,25.509811,-153.322891,,,
729862062.915472,1.635644,5.651201,58.236339,-0.094528,0.03009,0.972733,-0.007951,0.031174,0.008939,59.237213,25.509811,-153.322891,,,
729862062.91878,1.635644,5.651201,58.236339,-0.094528,0.03009,0.972733,-0.007951,0.031174,0.008939,59.237213,25.509811,-153.322891,,,
729862062.922117,1.627916,5.662285,58.240162,-0.093033,0.033081,0.968521,-0.024807,0.027228,0.009549,59.237213,25.509811,-153.322891,,,
729862062.925452,1.619743,5.669183,58.243234,-0.093033,0.033081,0.968521,-0.024807,0.027228,0.009549,59.237213,25.509811,-153.322891,,,
729862062.928785,1.619743,5.669183,58.243234,-0.093033,0.033081,0.968521,-0.024807,0.027228,0.009549,59.237213,25.509811,-153.322891,,,
729862062.932157,1.607905,5.680889,58.245371,-0.090332,0.03157,0.975449,-0.034889,0.026231,0.002967,59.237213,25.509811,-153.322891,,,
729862062.935444,1.598201,5.687343,58.246402,-0.090332,0.03157,0.975449,-0.034889,0.026231,0.002967,59.237213,25.509811,-153.322891,,,
729862062.93879,1.598201,5.687343,58.246402,-0.090332,0.03157,0.975449,-0.034889,0.026231,0.002967,59.237213,25.509811,-153.322891,,,
729862062.942205,1.587746,5.695403,58.24578,-0.091125,0.025162,0.985168,-0.024277,0.016621,-0.007025,59.237213,25.509811,-153.322891,,,
729862062.945519,1.581619,5.699406,58.244353,-0.091125,0.025162,0.985168,-0.024277,0.016621,-0.007025,59.237213,25.509811,-153.322891,,,
729862062.948858,1.581619,5.699406,58.244353,-0.091125,0.025162,0.985168,-0.024277,0.016621,-0.007025,59.237213,25.509811,-153.322891,,,
729862062.952236,1.577405,5.7053,58.242219,-0.095612,0.019699,1.003159,-0.003628,0.018248,-0.009634,59.127899,25.572601,-153.300507,,,
729862062.955518,1.578466,5.709215,58.239915,-0.095612,0.019699,1.003159,-0.003628,0.018248,-0.009634,59.127899,25.572601,-153.300507,,,
729862062.958856,1.578466,5.709215,58.239915,-0.095612,0.019699,1.003159,-0.003628,0.018248,-0.009634,59.127899,25.572601,-153.300507,,,
729862062.962181,1.583719,5.710649,58.237907,-0.104218,0.015823,1.015244,0.028927,0.008267,-0.004497,59.127899,25.572601,-153.300507,,,
729862062.965514,1.593491,5.710944,58.236556,-0.104218,0.015823,1.015244,0.028927,0.008267,-0.004497,59.127899,25.572601,-153.300507,,,
729862062.968848,1.593491,5.710944,58.236556,-0.104218,0.015823,1.015244,0.028927,0.008267,-0.004497,59.127899,25.572601,-153.300507,,,
729862062.972187,1.607074,5.706865,58.236318,-0.108047,0.011887,1.012344,0.055562,-0.008864,0.005545,59.127899,25.572601,-153.300507,,,
729862062.975521,1.624101,5.70304,58.237427,-0.108047,0.011887,1.012344,0.055562,-0.008864,0.005545,59.127899,25.572601,-153.300507,,,
729862062.97885,1.624101,5.70304,58.237427,-0.108047,0.011887,1.012344,0.055562,-0.008864,0.005545,59.127899,25.572601,-153.300507,,,
729862062.982205,1.643722,5.695749,58.23984,-0.107742,0.016205,1.00592,0.068681,-0.012311,0.015423,59.127899,25.572601,-153.300507,,,
729862062.985522,1.663228,5.691239,58.242471,-0.107742,0.016205,1.00592,0.068681,-0.012311,0.015423,59.127899,25.572601,-153.300507,,,
729862062.988848,1.663228,5.691239,58.242471,-0.107742,0.016205,1.00592,0.068681,-0.012311,0.015423,59.127899,25.572601,-153.300507,,,
729862062.992204,1.682171,5.684528,58.245926,-0.10202,0.024643,0.988693,0.060786,-0.018576,0.020167,59.163055,25.427383,-153.273819,,,
729862062.995518,1.698732,5.677731,58.250092,-0.10202,0.024643,0.988693,0.060786,-0.018576,0.020167,59.163055,25.427383,-153.273819,,,
729862062.998857,1.698732,5.677731,58.250092,-0.10202,0.024643,0.988693,0.060786,-0.018576,0.020167,59.163055,25.427383,-153.273819,,,
729862063.00226,1.714004,5.669235,58.253275,-0.090103,0.030106,0.976318,0.045826,-0.024499,0.011625,59.163055,25.427383,-153.273819,,,
729862063.005525,1.725892,5.660796,58.255277,-0.090103,0.030106,0.976318,0.045826,-0.024499,0.011625,59.163055,25.427383,-153.273819,,,
729862063.008806,1.725892,5.660796,58.255277,-0.090103,0.030106,0.976318,0.045826,-0.024499,0.011625,59.163055,25.427383,-153.273819,,,
729862063.012116,1.735088,5.649356,58.256853,-0.087967,0.033508,0.965698,0.023056,-0.02968,0.005838,59.163055,25.427383,-153.273819,,,
729862063.015465,1.739516,5.640004,58.258092,-0.087967,0.033508,0.965698,0.023056,-0.02968,0.005838,59.163055,25.427383,-153.273819,,,
729862063.018776,1.739516,5.640004,58.258092,-0.087967,0.033508,0.965698,0.023056,-0.02968,0.005838,59.163055,25.427383,-153.273819,,,
729862063.022186,1.739306,5.628292,58.259249,-0.087738,0.036484,0.958923,-0.004671,-0.026742,0.001945,59.163055,25.427383,-153.273819,,,
729862063.025467,1.736795,5.620763,58.260855,-0.087738,0.036484,0.958923,-0.004671,-0.026742,0.001945,59.163055,25.427383,-153.273819,,,
729862063.028821,1.736795,5.620763,58.260855,-0.087738,0.036484,0.958923,-0.004671,-0.026742,0.001945,59.163055,25.427383,-153.273819,,,
729862063.032004,1.730307,5.614377,58.26411,-0.091354,0.032623,0.9702,-0.018619,-0.008435,0.011763,59.113113,25.564484,-153.097672,,,
729862063.035466,1.725313,5.611852,58.268672,-0.091354,0.032623,0.9702,-0.018619,-0.008435,0.011763,59.113113,25.564484,-153.097672,,,
729862063.038786,1.725313,5.611852,58.268672,-0.091354,0.032623,0.9702,-0.018619,-0.008435,0.011763,59.113113,25.564484,-153.097672,,,
729862063.04213,1.718245,5.612005,58.273718,-0.092133,0.02533,0.99147,-0.012785,0.002468,0.015988,59.113113,25.564484,-153.097672,,,
729862063.045473,1.716801,5.611421,58.278556,-0.092133,0.02533,0.99147,-0.012785,0.002468,0.015988,59.113113,25.564484,-153.097672,,,
729862063.048777,1.716801,5.611421,58.278556,-0.092133,0.02533,0.99147,-0.012785,0.002468,0.015988,59.113113,25.564484,-153.097672,,,
729862063.051978,1.715275,5.61424,58.281954,-0.088806,0.021317,1.005997,0.015884,0.002585,0.009458,59.113113,25.564484,-153.097672,,,
729862063.055464,1.72225,5.613995,58.283513,-0.088806,0.021317,1.005997,0.015884,0.002585,0.009458,59.113113,25.564484,-153.097672,,,
729862063.058785,1.72225,5.613995,58.283513,-0.088806,0.021317,1.005997,0.015884,0.002585,0.009458,59.113113,25.564484,-153.097672,,,
729862063.061934,1.729251,5.618152,58.283124,-0.085205,0.020203,1.013474,0.042371,0.005763,-0.000691,59.113113,25.564484,-153.097672,,,
729862063.065478,1.74206,5.618923,58.281491,-0.085205,0.020203,1.013474,0.042371,0.005763,-0.000691,59.113113,25.564484,-153.097672,,,
729862063.068777,1.74206,5.618923,58.281491,-0.085205,0.020203,1.013474,0.042371,0.005763,-0.000691,59.113113,25.564484,-153.097672,,,
729862063.072002,1.755195,5.621292,58.279392,-0.090973,0.022049,1.00473,0.057386,-0.000819,-0.001892,59.113113,25.564484,-153.097672,,,
729862063.075486,1.771916,5.619963,58.277571,-0.090973,0.022049,1.00473,0.057386,-0.000819,-0.001892,58.984726,25.606873,-152.961334,,,
729862063.078802,1.771916,5.619963,58.277571,-0.090973,0.022049,1.00473,0.057386,-0.000819,-0.001892,58.984726,25.606873,-152.961334,,,
729862063.082192,1.788822,5.616908,58.276128,-0.094116,0.024872,0.995728,0.061361,-0.000645,0.000834,58.984726,25.606873,-152.961334,,,
729862063.085445,1.804879,5.616665,58.275613,-0.094116,0.024872,0.995728,0.061361,-0.000645,0.000834,58.984726,25.606873,-152.961334,,,
729862063.088786,1.804879,5.616665,58.275613,-0.094116,0.024872,0.995728,0.061361,-0.000645,0.000834,58.984726,25.606873,-152.961334,,,
729862063.092125,1.81928,5.613392,58.275179,-0.093033,0.026962,0.984421,0.045097,2.7e-05,-0.00082,58.984726,25.606873,-152.961334,,,
729862063.095449,1.830253,5.6124,58.27378,-0.093033,0.026962,0.984421,0.045097,2.7e-05,-0.00082,58.984726,25.606873,-152.961334,,,
729862063.098784,1.830253,5.6124,58.27378,-0.093033,0.026962,0.984421,0.045097,2.7e-05,-0.00082,58.984726,25.606873,-152.961334,,,
729862063.102114,1.839389,5.607356,58.271546,-0.090164,0.036758,0.972382,0.023138,-0.00753,-0.00953,58.984726,25.606873,-152.961334,,,
729862063.105336,1.84333,5.603835,58.268225,-0.090164,0.036758,0.972382,0.023138,-0.00753,-0.00953,58.984726,25.606873,-152.961334,,,
729862063.108807,1.84333,5.603835,58.268225,-0.090164,0.036758,0.972382,0.023138,-0.00753,-0.00953,58.984726,25.606873,-152.961334,,,
729862063.112112,1.843814,5.597049,58.264754,-0.088455,0.038559,0.963455,-0.005085,-0.01589,-0.013795,58.984726,25.606873,-152.961334,,,
729862063.115289,1.840304,5.592093,58.261543,-0.088455,0.038559,0.963455,-0.005085,-0.01589,-0.013795,59.098282,25.424973,-152.961105,,,
729862063.118888,1.840304,5.592093,58.261543,-0.088455,0.038559,0.963455,-0.005085,-0.01589,-0.013795,59.098282,25.424973,-152.961105,,,
729862063.122183,1.832264,5.586377,58.258556,-0.087494,0.036942,0.965607,-0.029073,-0.010412,-0.014886,59.098282,25.424973,-152.961105,,,
729862063.125519,1.822294,5.583412,58.255266,-0.087494,0.036942,0.965607,-0.029073,-0.010412,-0.014886,59.098282,25.424973,-152.961105,,,
729862063.128855,1.822294,5.583412,58.255266,-0.087494,0.036942,0.965607,-0.029073,-0.010412,-0.014886,59.098282,25.424973,-152.961105,,,
729862063.132113,1.808704,5.579615,58.251774,-0.089218,0.033676,0.976883,-0.040335,0.005501,-0.018056,59.098282,25.424973,-152.961105,,,
729862063.135489,1.797923,5.580572,58.24801,-0.089218,0.033676,0.976883,-0.040335,0.005501,-0.018056,59.098282,25.424973,-152.961105,,,
729862063.13878,1.797923,5.580572,58.24801,-0.089218,0.033676,0.976883,-0.040335,0.005501,-0.018056,59.098282,25.424973,-152.961105,,,
729862063.142124,1.787843,5.577747,58.244121,-0.090546,0.02916,0.998428,-0.02112,0.008593,-0.01797,59.098282,25.424973,-152.961105,,,
729862063.14545,1.782492,5.581829,58.240529,-0.090546,0.02916,0.998428,-0.02112,0.008593,-0.01797,59.098282,25.424973,-152.961105,,,
729862063.14879,1.782492,5.581829,58.240529,-0.090546,0.02916,0.998428,-0.02112,0.008593,-0.01797,59.098282,25.424973,-152.961105,,,
729862063.152123,1.778222,5.586376,58.237235,-0.098389,0.019669,1.013107,-0.000421,0.033882,-0.014496,59.098282,25.424973,-152.961105,,,
729862063.155455,1.778594,5.595661,58.233556,-0.098389,0.019669,1.013107,-0.000421,0.033882,-0.014496,59.1819,25.240967,-152.921463,,,
729862063.158778,1.778594,5.595661,58.233556,-0.098389,0.019669,1.013107,-0.000421,0.033882,-0.014496,59.1819,25.240967,-152.921463,,,
729862063.162218,1.779479,5.60406,58.230227,-0.095749,0.024765,1.009399,0.013157,0.041176,-0.011098,59.1819,25.240967,-152.921463,,,
729862063.165392,1.784464,5.614869,58.226643,-0.095749,0.024765,1.009399,0.013157,0.041176,-0.011098,59.1819,25.240967,-152.921463,,,
729862063.168899,1.784464,5.614869,58.226643,-0.095749,0.024765,1.009399,0.013157,0.041176,-0.011098,59.1819,25.240967,-152.921463,,,
729862063.171968,1.790783,5.623539,58.221755,-0.098801,0.023254,1.00589,0.031235,0.038536,-0.018869,59.1819,25.240967,-152.921463,,,
729862063.17556,1.799621,5.634078,58.215083,-0.098801,0.023254,1.00589,0.031235,0.038536,-0.018869,59.1819,25.240967,-152.921463,,,
729862063.178863,1.799621,5.634078,58.215083,-0.098801,0.023254,1.00589,0.031235,0.038536,-0.018869,59.1819,25.240967,-152.921463,,,
729862063.182189,1.810387,5.643132,58.207576,-0.103027,0.024857,1.00473,0.037613,0.043141,-0.02465,59.1819,25.240967,-152.921463,,,
729862063.185517,1.820213,5.65494,58.200165,-0.103027,0.024857,1.00473,0.037613,0.043141,-0.02465,59.1819,25.240967,-152.921463,,,
729862063.188884,1.820213,5.65494,58.200165,-0.103027,0.024857,1.00473,0.037613,0.043141,-0.02465,59.1819,25.240967,-152.921463,,,
729862063.192148,1.831273,5.663544,58.193974,-0.106781,0.028259,0.998627,0.032479,0.042146,-0.017291,59.1819,25.240967,-152.921463,,,
729862063.19546,1.839333,5.673837,58.188983,-0.106781,0.028259,0.998627,0.032479,0.042146,-0.017291,59.092682,25.281433,-153.180206,,,
729862063.198797,1.839333,5.673837,58.188983,-0.106781,0.028259,0.998627,0.032479,0.042146,-0.017291,59.092682,25.281433,-153.180206,,,
729862063.202025,1.847133,5.677962,58.184659,-0.10788,0.032715,0.980637,0.020955,0.022869,-0.014471,59.092682,25.281433,-153.180206,,,
729862063.205468,1.849767,5.682077,58.180515,-0.10788,0.032715,0.980637,0.020955,0.022869,-0.014471,59.092682,25.281433,-153.180206,,,
729862063.208781,1.849767,5.682077,58.180515,-0.10788,0.032715,0.980637,0.020955,0.022869,-0.014471,59.092682,25.281433,-153.180206,,,
729862063.212119,1.848014,5.679636,58.17675,-0.110931,0.037674,0.964508,-0.015174,-0.000395,-0.016125,59.092682,25.281433,-153.180206,,,
729862063.215446,1.841338,5.677288,58.173014,-0.110931,0.037674,0.964508,-0.015174,-0.000395,-0.016125,59.092682,25.281433,-153.180206,,,
729862063.218792,1.841338,5.677288,58.173014,-0.110931,0.037674,0.964508,-0.015174,-0.000395,-0.016125,59.092682,25.281433,-153.180206,,,
729862063.222115,1.832357,5.667875,58.170159,-0.112656,0.038925,0.962341,-0.029535,-0.023529,-0.012253,59.092682,25.281433,-153.180206,,,
729862063.225547,1.823106,5.659726,58.168403,-0.112656,0.038925,0.962341,-0.029535,-0.023529,-0.012253,59.092682,25.281433,-153.180206,,,
729862063.228846,1.823106,5.659726,58.168403,-0.112656,0.038925,0.962341,-0.029535,-0.023529,-0.012253,59.092682,25.281433,-153.180206,,,
729862063.232213,1.811448,5.648261,58.167753,-0.115967,0.033844,0.982788,-0.030175,-0.034107,-0.00487,59.092682,25.281433,-153.180206,,,
729862063.235596,1.804505,5.638236,58.168322,-0.115967,0.033844,0.982788,-0.030175,-0.034107,-0.00487,59.092682,25.281433,-153.180206,,,
729862063.238844,1.804505,5.638236,58.168322,-0.115967,0.033844,0.982788,-0.030175,-0.034107,-0.00487,59.15538,25.376877,-152.9841,,,
729862063.242188,1.799589,5.628618,58.169932,-0.114243,0.027588,1.007996,-0.002739,-0.021096,0.004865,59.15538,25.376877,-152.9841,,,
729862063.245526,1.801099,5.623581,58.172053,-0.114243,0.027588,1.007996,-0.002739,-0.021096,0.004865,59.15538,25.376877,-152.9841,,,
729862063.248893,1.801099,5.623581,58.172053,-0.114243,0.027588,1.007996,-0.002739,-0.021096,0.004865,59.15538,25.376877,-152.9841,,,
729862063.252187,1.805334,5.622319,58.174871,-0.108932,0.022751,1.02301,0.026499,0.009914,0.012503,59.15538,25.376877,-152.9841,,,
729862063.255515,1.81528,5.626044,58.178401,-0.108932,0.022751,1.02301,0.026499,0.009914,0.012503,59.15538,25.376877,-152.9841,,,
729862063.258856,1.81528,5.626044,58.178401,-0.108932,0.022751,1.02301,0.026499,0.009914,0.012503,59.15538,25.376877,-152.9841,,,
729862063.26224,1.827405,5.633983,58.181533,-0.103867,0.023514,1.026428,0.054283,0.031554,0.01274,59.15538,25.376877,-152.9841,,,
729862063.265514,1.844549,5.643152,58.183789,-0.103867,0.023514,1.026428,0.054283,0.031554,0.01274,59.15538,25.376877,-152.9841,,,
729862063.268854,1.844549,5.643152,58.183789,-0.103867,0.023514,1.026428,0.054283,0.031554,0.01274,59.15538,25.376877,-152.9841,,,
729862063.27221,1.862115,5.65645,58.185586,-0.101822,0.025238,1.012451,0.063726,0.038312,0.011184,59.15538,25.376877,-152.9841,,,
729862063.275454,1.880173,5.666346,58.186921,-0.101822,0.025238,1.012451,0.063726,0.038312,0.011184,59.15538,25.376877,-152.9841,,,
729862063.27879,1.880173,5.666346,58.186921,-0.101822,0.025238,1.012451,0.063726,0.038312,0.011184,59.022644,25.209305,-152.973816,,,
729862063.28221,1.896324,5.679596,58.18847,-0.104736,0.03299,0.986588,0.053086,0.032797,0.01263,59.022644,25.209305,-152.973816,,,
729862063.285453,1.910613,5.685825,58.191408,-0.104736,0.03299,0.986588,0.053086,0.032797,0.01263,59.022644,25.209305,-152.973816,,,
729862063.288789,1.910613,5.685825,58.191408,-0.104736,0.03299,0.986588,0.053086,0.032797,0.01263,59.022644,25.209305,-152.973816,,,
729862063.29214,1.922975,5.693556,58.194996,-0.10643,0.038239,0.969208,0.033409,0.002654,0.016614,59.022644,25.209305,-152.973816,,,
729862063.295449,1.930121,5.69214,58.199176,-0.10643,0.038239,0.969208,0.033409,0.002654,0.016614,59.022644,25.209305,-152.973816,,,
729862063.298783,1.930121,5.69214,58.199176,-0.10643,0.038239,0.969208,0.033409,0.002654,0.016614,59.022644,25.209305,-152.973816,,,
729862063.302125,1.934138,5.694327,58.203164,-0.105652,0.042267,0.95842,0.001863,-0.017932,0.013733,59.022644,25.209305,-152.973816,,,
729862063.305554,1.932034,5.686879,58.208169,-0.105652,0.042267,0.95842,0.001863,-0.017932,0.013733,59.022644,25.209305,-152.973816,,,
729862063.308878,1.932034,5.686879,58.208169,-0.105652,0.042267,0.95842,0.001863,-0.017932,0.013733,59.022644,25.209305,-152.973816,,,
729862063.312202,1.925477,5.68269,58.214542,-0.103653,0.04425,0.953018,-0.033047,-0.037141,0.021274,59.022644,25.209305,-152.973816,,,
729862063.315519,1.915182,5.669896,58.222461,-0.103653,0.04425,0.953018,-0.033047,-0.037141,0.021274,59.022644,25.209305,-152.973816,,,
729862063.31886,1.915182,5.669896,58.222461,-0.103653,0.04425,0.953018,-0.033047,-0.037141,0.021274,59.196609,25.237595,-153.011551,,,
729862063.322216,1.901862,5.661514,58.230595,-0.096191,0.044678,0.962524,-0.048879,-0.042676,0.022444,59.196609,25.237595,-153.011551,,,
729862063.325466,1.888543,5.64915,58.238599,-0.096191,0.044678,0.962524,-0.048879,-0.042676,0.022444,59.196609,25.237595,-153.011551,,,
729862063.328785,1.888543,5.64915,58.238599,-0.096191,0.044678,0.962524,-0.048879,-0.042676,0.022444,59.196609,25.237595,-153.011551,,,
729862063.332123,1.873512,5.642598,58.245745,-0.085205,0.039978,0.984711,-0.048438,-0.022562,0.017197,59.196609,25.237595,-153.011551,,,
729862063.335534,1.860439,5.63758,58.251235,-0.085205,0.039978,0.984711,-0.048438,-0.022562,0.017197,59.196609,25.237595,-153.011551,,,
729862063.338845,1.860439,5.63758,58.251235,-0.085205,0.039978,0.984711,-0.048438,-0.022562,0.017197,59.196609,25.237595,-153.011551,,,
729862063.342111,1.845814,5.638624,58.254143,-0.075439,0.036087,0.996796,-0.044543,0.009259,-0.000152,59.196609,25.237595,-153.011551,,,
729862063.34545,1.833895,5.643789,58.255006,-0.075439,0.036087,0.996796,-0.044543,0.009259,-0.000152,59.196609,25.237595,-153.011551,,,
729862063.348802,1.833895,5.643789,58.255006,-0.075439,0.036087,0.996796,-0.044543,0.009259,-0.000152,59.196609,25.237595,-153.011551,,,
729862063.352128,1.822303,5.654737,58.254257,-0.071915,0.033676,1.001541,-0.031611,0.047495,-0.010089,59.196609,25.237595,-153.011551,,,
729862063.355458,1.81415,5.668409,58.251517,-0.071915,0.033676,1.001541,-0.031611,0.047495,-0.010089,59.196609,25.237595,-153.011551,,,
729862063.358779,1.81415,5.668409,58.251517,-0.071915,0.033676,1.001541,-0.031611,0.047495,-0.010089,59.15239,25.442474,-153.20462,,,
729862063.362315,1.80926,5.683227,58.247072,-0.075729,0.030807,1.003082,-0.007436,0.04289,-0.019329,59.15239,25.442474,-153.20462,,,
729862063.365571,1.807543,5.693627,58.240802,-0.075729,0.030807,1.003082,-0.007436,0.04289,-0.019329,59.15239,25.442474,-153.20462,,,
729862063.368786,1.807543,5.693627,58.240802,-0.075729,0.030807,1.003082,-0.007436,0.04289,-0.019329,59.15239,25.442474,-153.20462,,,
729862063.372044,1.808569,5.705806,58.23269,-0.089401,0.029556,0.998245,0.004717,0.033514,-0.030314,59.15239,25.442474,-153.20462,,,
729862063.375485,1.808988,5.715663,58.224207,-0.089401,0.029556,0.998245,0.004717,0.033514,-0.030314,59.15239,25.442474,-153.20462,,,
729862063.378807,1.808988,5.715663,58.224207,-0.089401,0.029556,0.998245,0.004717,0.033514,-0.030314,59.15239,25.442474,-153.20462,,,
729862063.382125,1.811354,5.730009,58.216546,-0.098297,0.028427,0.996475,0.001609,0.040209,-0.024058,59.15239,25.442474,-153.20462,,,
729862063.385465,1.810644,5.740277,58.211344,-0.098297,0.028427,0.996475,0.001609,0.040209,-0.024058,59.15239,25.442474,-153.20462,,,
729862063.388793,1.810644,5.740277,58.211344,-0.098297,0.028427,0.996475,0.001609,0.040209,-0.024058,59.15239,25.442474,-153.20462,,,
729862063.392119,1.811998,5.752524,58.208872,-0.10437,0.027924,0.990601,-0.005932,0.029118,-0.004932,59.15239,25.442474,-153.20462,,,
729862063.395464,1.809059,5.759147,58.208952,-0.10437,0.027924,0.990601,-0.005932,0.029118,-0.004932,59.15239,25.442474,-153.20462,,,
729862063.398789,1.809059,5.759147,58.208952,-0.10437,0.027924,0.990601,-0.005932,0.029118,-0.004932,59.15239,25.442474,-153.20462,,,
729862063.402114,1.807922,5.764771,58.211066,-0.108612,0.030945,0.984955,-0.018003,0.01603,0.008225,59.140305,25.465546,-153.106049,,,
729862063.405636,1.801546,5.767357,58.214322,-0.108612,0.030945,0.984955,-0.018003,0.01603,0.008225,59.140305,25.465546,-153.106049,,,
729862063.408848,1.801546,5.767357,58.214322,-0.108612,0.030945,0.984955,-0.018003,0.01603,0.008225,59.140305,25.465546,-153.106049,,,
729862063.412198,1.796399,5.761737,58.217971,-0.103821,0.032501,0.984039,-0.026829,-0.006136,0.009009,59.140305,25.465546,-153.106049,,,
729862063.415623,1.788332,5.75713,58.22125,-0.103821,0.032501,0.984039,-0.026829,-0.006136,0.009009,59.140305,25.465546,-153.106049,,,
729862063.418865,1.788332,5.75713,58.22125,-0.103821,0.032501,0.984039,-0.026829,-0.006136,0.009009,59.140305,25.465546,-153.106049,,,
729862063.422259,1.781473,5.739566,58.223915,-0.092072,0.030914,0.984985,-0.02762,-0.03051,0.002525,59.140305,25.465546,-153.106049,,,
729862063.42552,1.773235,5.729365,58.224567,-0.092072,0.030914,0.984985,-0.02762,-0.03051,0.002525,59.140305,25.465546,-153.106049,,,
729862063.42885,1.773235,5.729365,58.224567,-0.092072,0.030914,0.984985,-0.02762,-0.03051,0.002525,59.140305,25.465546,-153.106049,,,
729862063.432194,1.76526,5.707109,58.223389,-0.086151,0.032455,0.986328,-0.028337,-0.03843,-0.012726,59.140305,25.465546,-153.106049,,,
729862063.435639,1.758076,5.695435,58.22018,-0.086151,0.032455,0.986328,-0.028337,-0.03843,-0.012726,59.140305,25.465546,-153.106049,,,
729862063.43885,1.758076,5.695435,58.22018,-0.086151,0.032455,0.986328,-0.028337,-0.03843,-0.012726,59.140305,25.465546,-153.106049,,,
729862063.442191,1.752999,5.674982,58.215511,-0.081696,0.031479,0.998001,-0.013084,-0.028706,-0.023598,59.199249,25.563858,-153.087601,,,
729862063.445634,1.749303,5.667502,58.208689,-0.081696,0.031479,0.998001,-0.013084,-0.028706,-0.023598,59.199249,25.563858,-153.087601,,,
729862063.448907,1.749303,5.667502,58.208689,-0.081696,0.031479,0.998001,-0.013084,-0.028706,-0.023598,59.199249,25.563858,-153.087601,,,
729862063.452186,1.746698,5.657521,58.200596,-0.079956,0.027481,1.007584,-0.003034,-0.006792,-0.032768,59.199249,25.563858,-153.087601,,,
729862063.455543,1.745716,5.656898,58.1916,-0.079956,0.027481,1.007584,-0.003034,-0.006792,-0.032768,59.199249,25.563858,-153.087601,,,
729862063.458861,1.745716,5.656898,58.1916,-0.079956,0.027481,1.007584,-0.003034,-0.006792,-0.032768,59.199249,25.563858,-153.087601,,,
729862063.462281,1.746997,5.659251,58.181457,-0.084229,0.027252,1.012497,0.01687,0.018103,-0.03894,59.199249,25.563858,-153.087601,,,
729862063.46555,1.75202,5.665442,58.170429,-0.084229,0.027252,1.012497,0.01687,0.018103,-0.03894,59.199249,25.563858,-153.087601,,,
729862063.468864,1.75202,5.665442,58.170429,-0.084229,0.027252,1.012497,0.01687,0.018103,-0.03894,59.199249,25.563858,-153.087601,,,
729862063.472208,1.758185,5.675445,58.159364,-0.094604,0.026077,1.015442,0.029726,0.033392,-0.0375,59.199249,25.563858,-153.087601,,,
729862063.475584,1.766224,5.685564,58.148214,-0.094604,0.026077,1.015442,0.029726,0.033392,-0.0375,59.199249,25.563858,-153.087601,,,
729862063.478858,1.766224,5.685564,58.148214,-0.094604,0.026077,1.015442,0.029726,0.033392,-0.0375,59.199249,25.563858,-153.087601,,,
729862063.482188,1.775349,5.699728,58.137505,-0.105942,0.030182,1.005997,0.037766,0.035777,-0.032813,59.247559,25.462753,-153.126282,,,
729862063.485553,1.775349,5.699728,58.127979,-0.105942,0.030182,1.005997,0.037766,0.035777,-0.032813,59.247559,25.462753,-153.126282,,,
729862063.488934,1.784573,5.709167,58.127979,-0.105942,0.030182,1.005997,0.037766,0.035777,-0.032813,59.247559,25.462753,-153.126282,,,
729862063.492162,1.792722,5.720479,58.11979,-0.111893,0.034027,0.989792,0.026868,0.025776,-0.023832,59.247559,25.462753,-153.126282,,,
729862063.495484,1.792722,5.720479,58.11979,-0.111893,0.034027,0.989792,0.026868,0.025776,-0.023832,59.247559,25.462753,-153.126282,,,
729862063.498825,1.798599,5.727016,58.113667,-0.111893,0.034027,0.989792,0.026868,0.025776,-0.023832,59.247559,25.462753,-153.126282,,,
729862063.501889,1.801455,5.731183,58.10979,-0.114639,0.035767,0.979874,0.005547,0.019636,-0.010576,59.247559,25.462753,-153.126282,,,
729862063.505601,1.801455,5.735549,58.108338,-0.114639,0.035767,0.979874,0.005547,0.019636,-0.010576,59.247559,25.462753,-153.126282,,,
729862063.508764,1.800949,5.735549,58.108338,-0.114639,0.035767,0.979874,0.005547,0.019636,-0.010576,59.247559,25.462753,-153.126282,,,
729862063.512143,1.798056,5.733653,58.108745,-0.113327,0.03891,0.972595,-0.012749,0.010618,-0.000472,59.247559,25.462753,-153.126282,,,
729862063.515462,1.798056,5.733653,58.108745,-0.113327,0.03891,0.972595,-0.012749,0.010618,-0.000472,59.247559,25.462753,-153.126282,,,
729862063.518625,1.79341,5.734405,58.110102,-0.113327,0.03891,0.972595,-0.012749,0.010618,-0.000472,59.247559,25.462753,-153.126282,,,
729862063.522151,1.787943,5.725352,58.112642,-0.107788,0.037964,0.97168,-0.020559,-0.009473,0.005612,59.482056,25.26149,-153.408997,,,
729862063.525446,1.787943,5.725352,58.112642,-0.107788,0.037964,0.97168,-0.020559,-0.009473,0.005612,59.482056,25.26149,-153.408997,,,
729862063.528793,1.781412,5.721227,58.114839,-0.107788,0.037964,0.97168,-0.020559,-0.009473,0.005612,59.482056,25.26149,-153.408997,,,
729862063.532116,1.773815,5.706659,58.115923,-0.099304,0.038025,0.979919,-0.022148,-0.020755,-0.004266,59.482056,25.26149,-153.408997,,,
729862063.535553,1.773815,5.706659,58.115923,-0.099304,0.038025,0.979919,-0.022148,-0.020755,-0.004266,59.482056,25.26149,-153.408997,,,
729862063.538854,1.768144,5.699642,58.113905,-0.099304,0.038025,0.979919,-0.022148,-0.020755,-0.004266,59.482056,25.26149,-153.408997,,,
729862063.542193,1.764412,5.684552,58.10922,-0.092407,0.035889,0.997543,-0.000876,-0.026031,-0.022478,59.482056,25.26149,-153.408997,,,
729862063.545518,1.764412,5.684552,58.10922,-0.092407,0.035889,0.997543,-0.000876,-0.026031,-0.022478,59.482056,25.26149,-153.408997,,,
729862063.548914,1.764746,5.676319,58.101996,-0.092407,0.035889,0.997543,-0.000876,-0.026031,-0.022478,59.482056,25.26149,-153.408997,,,
729862063.552179,1.767347,5.665915,58.092477,-0.092087,0.029358,1.019623,0.024756,-0.015998,-0.036776,59.482056,25.26149,-153.408997,,,
729862063.555523,1.767347,5.665915,58.092477,-0.092087,0.029358,1.019623,0.024756,-0.015998,-0.036776,59.482056,25.26149,-153.408997,,,
729862063.558854,1.774168,5.663303,58.08077,-0.092087,0.029358,1.019623,0.024756,-0.015998,-0.036776,59.482056,25.26149,-153.408997,,,
729862063.562187,1.782355,5.666836,58.068515,-0.099731,0.024765,1.029556,0.038249,0.015895,-0.038914,59.482056,25.26149,-153.408997,,,
729862063.565529,1.782355,5.666836,58.068515,-0.099731,0.024765,1.029556,0.038249,0.015895,-0.038914,59.464111,25.316864,-153.434723,,,
729862063.568852,1.792637,5.672855,58.057972,-0.099731,0.024765,1.029556,0.038249,0.015895,-0.038914,59.464111,25.316864,-153.434723,,,
729862063.572113,1.803599,5.687277,58.049842,-0.112411,0.023849,1.020203,0.038785,0.041999,-0.020877,59.464111,25.316864,-153.434723,,,
729862063.575472,1.803599,5.687277,58.049842,-0.112411,0.023849,1.020203,0.038785,0.041999,-0.020877,59.464111,25.316864,-153.434723,,,
729862063.578792,1.813309,5.699089,58.045235,-0.112411,0.023849,1.020203,0.038785,0.041999,-0.020877,59.464111,25.316864,-153.434723,,,
729862063.582127,1.821854,5.718275,58.044671,-0.124207,0.027542,0.995239,0.023098,0.04665,0.007402,59.464111,25.316864,-153.434723,,,
729862063.585448,1.821854,5.718275,58.044671,-0.124207,0.027542,0.995239,0.023098,0.04665,0.007402,59.464111,25.316864,-153.434723,,,
729862063.588795,1.826468,5.730498,58.04703,-0.124207,0.027542,0.995239,0.023098,0.04665,0.007402,59.464111,25.316864,-153.434723,,,
729862063.592118,1.829062,5.748545,58.050502,-0.125137,0.033569,0.974548,-0.003437,0.037863,0.01413,59.464111,25.316864,-153.434723,,,
729862063.595448,1.829062,5.748545,58.050502,-0.125137,0.033569,0.974548,-0.003437,0.037863,0.01413,59.464111,25.316864,-153.434723,,,
729862063.598789,1.82677,5.757201,58.055979,-0.125137,0.033569,0.974548,-0.003437,0.037863,0.01413,59.464111,25.316864,-153.434723,,,
729862063.602164,1.822412,5.767132,58.062682,-0.118134,0.036041,0.959488,-0.028842,0.01451,0.021191,59.464111,25.316864,-153.434723,,,
729862063.605456,1.822412,5.767132,58.062682,-0.118134,0.036041,0.959488,-0.028842,0.01451,0.021191,59.643326,25.388458,-153.75528,,,
729862063.608813,1.81375,5.768102,58.07059,-0.118134,0.036041,0.959488,-0.028842,0.01451,0.021191,59.643326,25.388458,-153.75528,,,
729862063.612123,1.804504,5.766144,58.079888,-0.115082,0.032486,0.954651,-0.043393,-0.014201,0.029701,59.643326,25.388458,-153.75528,,,
729862063.615463,1.804504,5.766144,58.079888,-0.115082,0.032486,0.954651,-0.043393,-0.014201,0.029701,59.643326,25.388458,-153.75528,,,
729862063.618793,1.792643,5.759711,58.09039,-0.115082,0.032486,0.954651,-0.043393,-0.014201,0.029701,59.643326,25.388458,-153.75528,,,
729862063.622124,1.781566,5.749765,58.101401,-0.107788,0.030838,0.96611,-0.045427,-0.024661,0.032672,59.643326,25.388458,-153.75528,,,
729862063.625532,1.781566,5.749765,58.101401,-0.107788,0.030838,0.96611,-0.045427,-0.024661,0.032672,59.643326,25.388458,-153.75528,,,
729862063.628834,1.770104,5.74187,58.112479,-0.107788,0.030838,0.96611,-0.045427,-0.024661,0.032672,59.643326,25.388458,-153.75528,,,
729862063.632121,1.760946,5.730899,58.122214,-0.097397,0.02475,0.986313,-0.028097,-0.019994,0.024209,59.643326,25.388458,-153.75528,,,
729862063.635453,1.760946,5.730899,58.122214,-0.097397,0.02475,0.986313,-0.028097,-0.019994,0.024209,59.643326,25.388458,-153.75528,,,
729862063.638795,1.75604,5.725049,58.129116,-0.097397,0.02475,0.986313,-0.028097,-0.019994,0.024209,59.643326,25.388458,-153.75528,,,
729862063.642122,1.754663,5.719442,58.13344,-0.084595,0.022095,1.007828,0.006804,-0.004151,0.009208,59.643326,25.388458,-153.75528,,,
729862063.645473,1.754663,5.719442,58.13344,-0.084595,0.022095,1.007828,0.006804,-0.004151,0.009208,59.538071,25.330032,-153.308517,,,
729862063.648829,1.758393,5.719208,58.134786,-0.084595,0.022095,1.007828,0.006804,-0.004151,0.009208,59.538071,25.330032,-153.308517,,,
729862063.652123,1.763407,5.723869,58.133358,-0.081314,0.01825,1.013321,0.027181,0.014892,-0.007768,59.538071,25.330032,-153.308517,,,
729862063.655453,1.763407,5.723869,58.133358,-0.081314,0.01825,1.013321,0.027181,0.014892,-0.007768,59.538071,25.330032,-153.308517,,,
729862063.658789,1.77106,5.728636,58.129866,-0.081314,0.01825,1.013321,0.027181,0.014892,-0.007768,59.538071,25.330032,-153.308517,,,
729862063.662129,1.778188,5.742272,58.125233,-0.087646,0.020462,0.999863,0.03019,0.026944,-0.013886,59.538071,25.330032,-153.308517,,,
729862063.665456,1.778188,5.742272,58.125233,-0.087646,0.020462,0.999863,0.03019,0.026944,-0.013886,59.538071,25.330032,-153.308517,,,
729862063.668792,1.785745,5.74996,58.120442,-0.087646,0.020462,0.999863,0.03019,0.026944,-0.013886,59.538071,25.330032,-153.308517,,,
729862063.672132,1.791683,5.768502,58.115942,-0.099731,0.02597,0.984634,0.016236,0.033167,-0.011086,59.538071,25.330032,-153.308517,,,
729862063.675454,1.791683,5.768502,58.115942,-0.099731,0.02597,0.984634,0.016236,0.033167,-0.011086,59.538071,25.330032,-153.308517,,,
729862063.678878,1.79396,5.777123,58.113816,-0.099731,0.02597,0.984634,0.016236,0.033167,-0.011086,59.538071,25.330032,-153.308517,,,
729862063.682221,1.793928,5.792236,58.113462,-0.10643,0.028,0.969925,-0.009178,0.023076,0.000498,59.538071,25.330032,-153.308517,,,
729862063.685527,1.793928,5.792236,58.113462,-0.10643,0.028,0.969925,-0.009178,0.023076,0.000498,59.538071,25.330032,-153.308517,,,
729862063.688852,1.789394,5.796032,58.114895,-0.10643,0.028,0.969925,-0.009178,0.023076,0.000498,59.32254,25.368896,-153.638138,,,
729862063.692185,1.782981,5.802465,58.116972,-0.109512,0.031921,0.963577,-0.026901,-0.003488,0.004618,59.32254,25.368896,-153.638138,,,
729862063.695564,1.782981,5.802465,58.116972,-0.109512,0.031921,0.963577,-0.026901,-0.003488,0.004618,59.32254,25.368896,-153.638138,,,
729862063.698853,1.774408,5.798967,58.119361,-0.109512,0.031921,0.963577,-0.026901,-0.003488,0.004618,59.32254,25.368896,-153.638138,,,
729862063.702188,1.765527,5.796197,58.121755,-0.110458,0.03334,0.9702,-0.030062,-0.026702,0.005227,59.32254,25.368896,-153.638138,,,
729862063.70552,1.765527,5.796197,58.121755,-0.110458,0.03334,0.9702,-0.030062,-0.026702,0.005227,59.32254,25.368896,-153.638138,,,
729862063.708907,1.756623,5.786877,58.124672,-0.110458,0.03334,0.9702,-0.030062,-0.026702,0.005227,59.32254,25.368896,-153.638138,,,
729862063.71218,1.747131,5.775675,58.128405,-0.106003,0.029587,0.98233,-0.02946,-0.041791,0.010997,59.32254,25.368896,-153.638138,,,
729862063.715519,1.747131,5.775675,58.128405,-0.106003,0.029587,0.98233,-0.02946,-0.041791,0.010997,59.32254,25.368896,-153.638138,,,
729862063.718849,1.739181,5.762273,58.132588,-0.106003,0.029587,0.98233,-0.02946,-0.041791,0.010997,59.32254,25.368896,-153.638138,,,
729862063.722186,1.730771,5.743104,58.1373,-0.098846,0.029953,0.993332,-0.02103,-0.045427,0.014406,59.32254,25.368896,-153.638138,,,
729862063.72553,1.730771,5.743104,58.1373,-0.098846,0.029953,0.993332,-0.02103,-0.045427,0.014406,59.32254,25.368896,-153.638138,,,
729862063.728857,1.72542,5.729951,58.142267,-0.098846,0.029953,0.993332,-0.02103,-0.045427,0.014406,59.387085,25.469772,-153.319305,,,
729862063.732187,1.718123,5.712063,58.146951,-0.0923,0.029251,0.997849,-0.019819,-0.029039,0.011047,59.387085,25.469772,-153.319305,,,
729862063.735586,1.718123,5.712063,58.146951,-0.0923,0.029251,0.997849,-0.019819,-0.029039,0.011047,59.387085,25.469772,-153.319305,,,
729862063.738874,1.71382,5.703224,58.150402,-0.0923,0.029251,0.997849,-0.019819,-0.029039,0.011047,59.387085,25.469772,-153.319305,,,
729862063.742185,1.710081,5.690444,58.152848,-0.082382,0.029709,1.002563,-0.00201,-0.021411,0.004772,59.387085,25.469772,-153.319305,,,
729862063.74554,1.710081,5.690444,58.152848,-0.082382,0.029709,1.002563,-0.00201,-0.021411,0.004772,59.387085,25.469772,-153.319305,,,
729862063.748916,1.710388,5.684415,58.154348,-0.082382,0.029709,1.002563,-0.00201,-0.021411,0.004772,59.387085,25.469772,-153.319305,,,
729862063.752184,1.710839,5.68037,58.154352,-0.077194,0.029831,1.008209,0.006403,-0.005357,-0.004934,59.387085,25.469772,-153.319305,,,
729862063.755534,1.710839,5.68037,58.154352,-0.077194,0.029831,1.008209,0.006403,-0.005357,-0.004934,59.387085,25.469772,-153.319305,,,
729862063.758986,1.713274,5.678773,58.15192,-0.077194,0.029831,1.008209,0.006403,-0.005357,-0.004934,59.387085,25.469772,-153.319305,,,
729862063.762252,1.716284,5.682746,58.146993,-0.07663,0.028641,1.006912,0.016154,0.008593,-0.02072,59.387085,25.469772,-153.319305,,,
729862063.765518,1.716284,5.682746,58.146993,-0.07663,0.028641,1.006912,0.016154,0.008593,-0.02072,59.387085,25.469772,-153.319305,,,
729862063.768865,1.720219,5.685728,58.140451,-0.07663,0.028641,1.006912,0.016154,0.008593,-0.02072,59.470032,25.441589,-153.816193,,,
729862063.772298,1.724291,5.697032,58.132681,-0.080887,0.03067,1.00563,0.015295,0.027785,-0.028201,59.470032,25.441589,-153.816193,,,
729862063.775584,1.724291,5.697032,58.132681,-0.080887,0.03067,1.00563,0.015295,0.027785,-0.028201,59.470032,25.441589,-153.816193,,,
729862063.77887,1.726748,5.70506,58.12445,-0.080887,0.03067,1.00563,0.015295,0.027785,-0.028201,59.470032,25.441589,-153.816193,,,
729862063.782211,1.728524,5.720049,58.115958,-0.090576,0.030121,0.996811,0.004834,0.036787,-0.029817,59.470032,25.441589,-153.816193,,,
729862063.78553,1.728524,5.720049,58.115958,-0.090576,0.030121,0.996811,0.004834,0.036787,-0.029817,59.470032,25.441589,-153.816193,,,
729862063.788924,1.727798,5.73002,58.107789,-0.090576,0.030121,0.996811,0.004834,0.036787,-0.029817,59.470032,25.441589,-153.816193,,,
729862063.792201,1.724849,5.743411,58.100028,-0.101547,0.031677,0.989578,-0.01206,0.033778,-0.027892,59.470032,25.441589,-153.816193,,,
729862063.795528,1.724849,5.743411,58.100028,-0.101547,0.031677,0.989578,-0.01206,0.033778,-0.027892,59.470032,25.441589,-153.816193,,,
729862063.798862,1.720066,5.751533,58.093541,-0.101547,0.031677,0.989578,-0.01206,0.033778,-0.027892,59.470032,25.441589,-153.816193,,,
729862063.802196,1.714909,5.756889,58.088422,-0.113892,0.032272,0.987106,-0.014714,0.014625,-0.018594,59.470032,25.441589,-153.816193,,,
729862063.805526,1.714909,5.756889,58.088422,-0.113892,0.032272,0.987106,-0.014714,0.014625,-0.018594,59.470032,25.441589,-153.816193,,,
729862063.808865,1.708679,5.759192,58.084815,-0.113892,0.032272,0.987106,-0.014714,0.014625,-0.018594,59.266357,25.610977,-153.8974,,,
729862063.812189,1.700591,5.756281,58.083056,-0.119812,0.034271,0.985916,-0.027882,-0.0063,-0.007539,59.266357,25.610977,-153.8974,,,
729862063.815349,1.700591,5.756281,58.083056,-0.119812,0.034271,0.985916,-0.027882,-0.0063,-0.007539,59.266357,25.610977,-153.8974,,,
729862063.818951,1.692451,5.752066,58.08297,-0.119812,0.034271,0.985916,-0.027882,-0.0063,-0.007539,59.266357,25.610977,-153.8974,,,
729862063.822197,1.683485,5.738669,58.084297,-0.118851,0.035004,0.983246,-0.033854,-0.024499,0.00046,59.266357,25.610977,-153.8974,,,
729862063.82563,1.683485,5.738669,58.084297,-0.118851,0.035004,0.983246,-0.033854,-0.024499,0.00046,59.266357,25.610977,-153.8974,,,
729862063.828886,1.674666,5.729489,58.085932,-0.118851,0.035004,0.983246,-0.033854,-0.024499,0.00046,59.266357,25.610977,-153.8974,,,
729862063.832209,1.668375,5.708507,58.087123,-0.10907,0.034592,0.98761,-0.016997,-0.042315,-0.002894,59.266357,25.610977,-153.8974,,,
729862063.835533,1.668375,5.708507,58.087123,-0.10907,0.034592,0.98761,-0.016997,-0.042315,-0.002894,59.266357,25.610977,-153.8974,,,
729862063.83887,1.66396,5.695694,58.086428,-0.10907,0.034592,0.98761,-0.016997,-0.042315,-0.002894,59.266357,25.610977,-153.8974,,,
729862063.842198,1.661755,5.67465,58.084819,-0.100021,0.029526,1.003601,-0.000896,-0.030927,-0.009687,59.266357,25.610977,-153.8974,,,
729862063.845565,1.661755,5.67465,58.084819,-0.100021,0.029526,1.003601,-0.000896,-0.030927,-0.009687,59.266357,25.610977,-153.8974,,,
729862063.84899,1.661903,5.667132,58.081854,-0.100021,0.029526,1.003601,-0.000896,-0.030927,-0.009687,59.266357,25.610977,-153.8974,,,
729862063.852214,1.664029,5.656481,58.078507,-0.097015,0.024643,1.018555,0.012118,0.007017,-0.012787,59.354858,25.393967,-153.71286,,,
729862063.855543,1.664029,5.656481,58.078507,-0.097015,0.024643,1.018555,0.012118,0.007017,-0.012787,59.354858,25.393967,-153.71286,,,
729862063.858865,1.668144,5.660589,58.075562,-0.097015,0.024643,1.018555,0.012118,0.007017,-0.012787,59.354858,25.393967,-153.71286,,,
729862063.862192,1.674093,5.665291,58.073804,-0.103729,0.025818,1.019699,0.023638,0.039858,-0.00416,59.354858,25.393967,-153.71286,,,
729862063.865565,1.674093,5.665291,58.073804,-0.103729,0.025818,1.019699,0.023638,0.039858,-0.00416,59.354858,25.393967,-153.71286,,,
729862063.868855,1.680987,5.67717,58.073048,-0.103729,0.025818,1.019699,0.023638,0.039858,-0.00416,59.354858,25.393967,-153.71286,,,
729862063.872193,1.688917,5.691376,58.072685,-0.10701,0.027634,1.008911,0.027029,0.056169,-0.000964,59.354858,25.393967,-153.71286,,,
729862063.875632,1.688917,5.691376,58.072685,-0.10701,0.027634,1.008911,0.027029,0.056169,-0.000964,59.354858,25.393967,-153.71286,,,
729862063.87888,1.695865,5.70664,58.072309,-0.10701,0.027634,1.008911,0.027029,0.056169,-0.000964,59.354858,25.393967,-153.71286,,,
729862063.882197,1.70216,5.725862,58.07238,-0.11528,0.029617,0.994873,0.017452,0.046022,0.002373,59.354858,25.393967,-153.71286,,,
729862063.885543,1.70216,5.725862,58.07238,-0.11528,0.029617,0.994873,0.017452,0.046022,0.002373,59.354858,25.393967,-153.71286,,,
729862063.888935,1.705245,5.736272,58.072973,-0.11528,0.029617,0.994873,0.017452,0.046022,0.002373,59.354858,25.393967,-153.71286,,,
729862063.892177,1.706108,5.75027,58.073783,-0.119019,0.03363,0.974426,-0.004951,0.012976,0.003372,59.361877,25.416321,-153.560745,,,
729862063.89552,1.706108,5.75027,58.073783,-0.119019,0.03363,0.974426,-0.004951,0.012976,0.003372,59.361877,25.416321,-153.560745,,,
729862063.898854,1.703571,5.750425,58.075452,-0.119019,0.03363,0.974426,-0.004951,0.012976,0.003372,59.361877,25.416321,-153.560745,,,
729862063.902195,1.700138,5.753879,58.077483,-0.119461,0.035629,0.975067,-0.018965,-0.023603,0.00637,59.361877,25.416321,-153.560745,,,
729862063.905538,1.700138,5.753879,58.077483,-0.119461,0.035629,0.975067,-0.018965,-0.023603,0.00637,59.361877,25.416321,-153.560745,,,
729862063.908853,1.695199,5.743622,58.080399,-0.119461,0.035629,0.975067,-0.018965,-0.023603,0.00637,59.361877,25.416321,-153.560745,,,
729862063.912186,1.693159,5.734632,58.084128,-0.123734,0.027908,0.988937,-0.008218,-0.05084,0.014231,59.361877,25.416321,-153.560745,,,
729862063.91555,1.693159,5.734632,58.084128,-0.123734,0.027908,0.988937,-0.008218,-0.05084,0.014231,59.361877,25.416321,-153.560745,,,
729862063.918867,1.692433,5.718766,58.089868,-0.123734,0.027908,0.988937,-0.008218,-0.05084,0.014231,59.361877,25.416321,-153.560745,,,
729862063.922188,1.694423,5.703064,58.097075,-0.115067,0.025024,1.005219,0.008769,-0.05529,0.02637,59.361877,25.416321,-153.560745,,,
729862063.925615,1.694423,5.703064,58.097075,-0.115067,0.025024,1.005219,0.008769,-0.05529,0.02637,59.361877,25.416321,-153.560745,,,
729862063.928873,1.699247,5.687203,58.105265,-0.115067,0.025024,1.005219,0.008769,-0.05529,0.02637,59.361877,25.416321,-153.560745,,,
729862063.932196,1.705387,5.671805,58.113805,-0.100372,0.025024,1.009018,0.024662,-0.038447,0.030022,59.28862,25.208038,-153.519104,,,
729862063.935541,1.705387,5.671805,58.113805,-0.100372,0.025024,1.009018,0.024662,-0.038447,0.030022,59.28862,25.208038,-153.519104,,,
729862063.938937,1.714157,5.661103,58.121494,-0.100372,0.025024,1.009018,0.024662,-0.038447,0.030022,59.28862,25.208038,-153.519104,,,
729862063.942189,1.722797,5.654452,58.127845,-0.088257,0.027328,1.007492,0.032561,-0.014073,0.021616,59.28862,25.208038,-153.519104,,,
729862063.945551,1.722797,5.654452,58.127845,-0.088257,0.027328,1.007492,0.032561,-0.014073,0.021616,59.28862,25.208038,-153.519104,,,
729862063.948882,1.732223,5.65195,58.131955,-0.088257,0.027328,1.007492,0.032561,-0.014073,0.021616,59.28862,25.208038,-153.519104,,,
729862063.952196,1.739787,5.656396,58.133433,-0.078583,0.03096,1.00293,0.026171,0.019209,0.002989,59.28862,25.208038,-153.519104,,,
729862063.955543,1.739787,5.656396,58.133433,-0.078583,0.03096,1.00293,0.026171,0.019209,0.002989,59.28862,25.208038,-153.519104,,,
729862063.958881,1.745844,5.663252,58.133098,-0.078583,0.03096,1.00293,0.026171,0.019209,0.002989,59.28862,25.208038,-153.519104,,,
729862063.962194,1.748737,5.679623,58.131578,-0.079605,0.031052,0.990067,0.008136,0.044283,-0.005825,59.28862,25.208038,-153.519104,,,
729862063.965599,1.748737,5.679623,58.131578,-0.079605,0.031052,0.990067,0.008136,0.044283,-0.005825,59.28862,25.208038,-153.519104,,,
729862063.96887,1.749463,5.692312,58.130264,-0.079605,0.031052,0.990067,0.008136,0.044283,-0.005825,59.28862,25.208038,-153.519104,,,
729862063.972217,1.748623,5.715066,58.128855,-0.091202,0.028061,0.982666,-0.00697,0.051127,-0.006049,59.207153,25.430801,-153.681091,,,
729862063.975536,1.748623,5.715066,58.128855,-0.091202,0.028061,0.982666,-0.00697,0.051127,-0.006049,59.207153,25.430801,-153.681091,,,
729862063.97894,1.74593,5.728213,58.128116,-0.091202,0.028061,0.982666,-0.00697,0.051127,-0.006049,59.207153,25.430801,-153.681091,,,
729862063.982186,1.744133,5.748098,58.127645,-0.100632,0.026688,0.987198,-0.009685,0.035513,-0.002549,59.207153,25.430801,-153.681091,,,
729862063.985549,1.744133,5.748098,58.127645,-0.100632,0.026688,0.987198,-0.009685,0.035513,-0.002549,59.207153,25.430801,-153.681091,,,
729862063.98886,1.741398,5.755972,58.128224,-0.100632,0.026688,0.987198,-0.009685,0.035513,-0.002549,59.207153,25.430801,-153.681091,,,
729862063.992202,1.738857,5.770728,58.129614,-0.10675,0.025848,0.984146,-0.009347,0.014633,0.005215,59.207153,25.430801,-153.681091,,,
729862063.995552,1.738857,5.770728,58.129614,-0.10675,0.025848,0.984146,-0.009347,0.014633,0.005215,59.207153,25.430801,-153.681091,,,
729862063.998879,1.736385,5.771857,58.131956,-0.10675,0.025848,0.984146,-0.009347,0.014633,0.005215,59.207153,25.430801,-153.681091,,,
729862064.002274,1.733028,5.77582,58.13448,-0.102829,0.02446,0.977936,-0.007604,-0.014296,0.008125,59.207153,25.430801,-153.681091,,,
729862064.005442,1.733028,5.77582,58.13448,-0.102829,0.02446,0.977936,-0.007604,-0.014296,0.008125,59.207153,25.430801,-153.681091,,,
729862064.0089,1.731537,5.769638,58.137006,-0.102829,0.02446,0.977936,-0.007604,-0.014296,0.008125,59.207153,25.430801,-153.681091,,,
729862064.012189,1.729773,5.762265,58.137955,-0.09642,0.025299,0.984467,0.000202,-0.029932,-0.001921,59.207153,25.430801,-153.681091,,,
729862064.015631,1.729773,5.762265,58.137955,-0.09642,0.025299,0.984467,0.000202,-0.029932,-0.001921,59.333176,25.404144,-153.499649,,,
729862064.018876,1.730143,5.753017,58.136548,-0.09642,0.025299,0.984467,0.000202,-0.029932,-0.001921,59.333176,25.404144,-153.499649,,,
729862064.022234,1.73092,5.74028,58.134046,-0.09288,0.024506,0.995651,0.009922,-0.023582,-0.00954,59.333176,25.404144,-153.499649,,,
729862064.025538,1.73092,5.74028,58.134046,-0.09288,0.024506,0.995651,0.009922,-0.023582,-0.00954,59.333176,25.404144,-153.499649,,,
729862064.028965,1.734811,5.733236,58.131763,-0.09288,0.024506,0.995651,0.009922,-0.023582,-0.00954,59.333176,25.404144,-153.499649,,,
729862064.03222,1.741353,5.720247,58.130263,-0.092422,0.020935,1.001801,0.028404,-0.009556,-0.003903,59.333176,25.404144,-153.499649,,,
729862064.035559,1.741353,5.720247,58.130263,-0.092422,0.020935,1.001801,0.028404,-0.009556,-0.003903,59.333176,25.404144,-153.499649,,,
729862064.038878,1.749982,5.717673,58.128945,-0.092422,0.020935,1.001801,0.028404,-0.009556,-0.003903,59.333176,25.404144,-153.499649,,,
729862064.042225,1.760128,5.708626,58.127786,-0.09111,0.025497,1.002365,0.036,0.008435,-0.004001,59.333176,25.404144,-153.499649,,,
729862064.045523,1.760128,5.708626,58.127786,-0.09111,0.025497,1.002365,0.036,0.008435,-0.004001,59.333176,25.404144,-153.499649,,,
729862064.048963,1.769478,5.711365,58.125409,-0.09111,0.025497,1.002365,0.036,0.008435,-0.004001,59.333176,25.404144,-153.499649,,,
729862064.052236,1.777184,5.711171,58.121693,-0.09201,0.028641,0.992538,0.027558,0.015936,-0.015142,59.333176,25.404144,-153.499649,,,
729862064.055599,1.777184,5.711171,58.121693,-0.09201,0.028641,0.992538,0.027558,0.015936,-0.015142,59.282715,25.457489,-153.291687,,,
729862064.058871,1.783545,5.715292,58.117065,-0.09201,0.028641,0.992538,0.027558,0.015936,-0.015142,59.282715,25.457489,-153.291687,,,
729862064.06219,1.78681,5.719088,58.112899,-0.097092,0.031418,0.97644,0.012327,0.015329,-0.013527,59.282715,25.457489,-153.291687,,,
729862064.065535,1.78681,5.719088,58.112899,-0.097092,0.031418,0.97644,0.012327,0.015329,-0.013527,59.282715,25.457489,-153.291687,,,
729862064.06896,1.788096,5.723121,58.109257,-0.097092,0.031418,0.97644,0.012327,0.015329,-0.013527,59.282715,25.457489,-153.291687,,,
729862064.072249,1.784152,5.731114,58.106781,-0.10434,0.034866,0.968384,-0.016325,0.019741,-0.0075,59.282715,25.457489,-153.291687,,,
729862064.075556,1.784152,5.731114,58.106781,-0.10434,0.034866,0.968384,-0.016325,0.019741,-0.0075,59.282715,25.457489,-153.291687,,,
729862064.078956,1.778624,5.736177,58.105804,-0.10434,0.034866,0.968384,-0.016325,0.019741,-0.0075,59.282715,25.457489,-153.291687,,,
729862064.082182,1.770329,5.742935,58.106116,-0.107468,0.034332,0.968231,-0.029067,0.017124,0.00064,59.282715,25.457489,-153.291687,,,
729862064.085531,1.770329,5.742935,58.106116,-0.107468,0.034332,0.968231,-0.029067,0.017124,0.00064,59.282715,25.457489,-153.291687,,,
729862064.088863,1.761143,5.74629,58.107606,-0.107468,0.034332,0.968231,-0.029067,0.017124,0.00064,59.282715,25.457489,-153.291687,,,
729862064.092289,1.749704,5.74838,58.109863,-0.108002,0.032822,0.97171,-0.036732,0.010057,0.005236,59.282715,25.457489,-153.291687,,,
729862064.095548,1.749704,5.74838,58.109863,-0.108002,0.032822,0.97171,-0.036732,0.010057,0.005236,59.354172,25.592407,-153.71402,,,
729862064.098868,1.739038,5.749366,58.112681,-0.108002,0.032822,0.97171,-0.036732,0.010057,0.005236,59.354172,25.592407,-153.71402,,,
729862064.102195,1.72721,5.745628,58.11635,-0.109177,0.032318,0.97406,-0.03825,-0.002624,0.010467,59.354172,25.592407,-153.71402,,,
729862064.105652,1.72721,5.745628,58.11635,-0.109177,0.032318,0.97406,-0.03825,-0.002624,0.010467,59.354172,25.592407,-153.71402,,,
729862064.108873,1.716546,5.742621,58.121029,-0.109177,0.032318,0.97406,-0.03825,-0.002624,0.010467,59.354172,25.592407,-153.71402,,,
729862064.112215,1.716546,5.742621,58.1261,-0.101486,0.030975,0.980606,-0.031729,-0.021092,0.013272,59.354172,25.592407,-153.71402,,,
729862064.115549,1.705149,5.734019,58.1261,-0.101486,0.030975,0.980606,-0.031729,-0.021092,0.013272,59.354172,25.592407,-153.71402,,,
729862064.11893,1.698149,5.725804,58.130098,-0.101486,0.030975,0.980606,-0.031729,-0.021092,0.013272,59.354172,25.592407,-153.71402,,,
729862064.12219,1.698149,5.712296,58.132335,-0.091461,0.023849,0.993973,-0.009685,-0.03607,0.002501,59.354172,25.592407,-153.71402,,,
729862064.125539,1.693119,5.712296,58.132335,-0.091461,0.023849,0.993973,-0.009685,-0.03607,0.002501,59.354172,25.592407,-153.71402,,,
729862064.128885,1.691844,5.701077,58.13256,-0.091461,0.023849,0.993973,-0.009685,-0.03607,0.002501,59.354172,25.592407,-153.71402,,,
729862064.132219,1.691844,5.701077,58.131191,-0.089615,0.0233,1.003891,0.010853,-0.036281,-0.007285,59.354172,25.592407,-153.71402,,,
729862064.135583,1.693025,5.686454,58.131191,-0.089615,0.0233,1.003891,0.010853,-0.036281,-0.007285,59.354172,25.592407,-153.71402,,,
729862064.138873,1.696921,5.675871,58.128582,-0.089615,0.0233,1.003891,0.010853,-0.036281,-0.007285,59.15477,25.486771,-153.702271,,,
729862064.142194,1.696921,5.675871,58.128582,-0.087875,0.022263,1.010025,0.024885,-0.023947,-0.008086,59.15477,25.486771,-153.702271,,,
729862064.1456,1.703241,5.666518,58.125671,-0.087875,0.022263,1.010025,0.024885,-0.023947,-0.008086,59.15477,25.486771,-153.702271,,,
729862064.148874,1.710352,5.660068,58.122268,-0.087875,0.022263,1.010025,0.024885,-0.023947,-0.008086,59.15477,25.486771,-153.702271,,,
729862064.152274,1.710352,5.660068,58.11802,-0.090836,0.022568,1.006851,0.027937,-0.008646,-0.013195,59.15477,25.486771,-153.702271,,,
729862064.155542,1.718854,5.658731,58.11802,-0.090836,0.022568,1.006851,0.027937,-0.008646,-0.013195,59.15477,25.486771,-153.702271,,,
729862064.158928,1.72526,5.65662,58.11421,-0.090836,0.022568,1.006851,0.027937,-0.008646,-0.013195,59.15477,25.486771,-153.702271,,,
729862064.162281,1.731154,5.660292,58.110768,-0.090836,0.022568,1.006851,0.016387,-0.002935,-0.010725,59.15477,25.486771,-153.702271,,,
729862064.165536,1.731154,5.660292,58.110768,-0.097534,0.025604,0.992294,0.016387,-0.002935,-0.010725,59.15477,25.486771,-153.702271,,,
729862064.168875,1.734937,5.658089,58.108393,-0.097534,0.025604,0.992294,0.016387,-0.002935,-0.010725,59.15477,25.486771,-153.702271,,,
729862064.172239,1.734937,5.658089,58.108393,-0.097534,0.025604,0.992294,0.011848,-0.015836,0.000913,59.15477,25.486771,-153.702271,,,
729862064.175552,1.739143,5.658987,58.107601,-0.102341,0.028687,0.984055,0.011848,-0.015836,0.000913,59.15477,25.486771,-153.702271,,,
729862064.178866,1.74203,5.652501,58.108681,-0.102341,0.028687,0.984055,0.011848,-0.015836,0.000913,59.022186,25.553299,-153.628189,,,
729862064.182256,1.74203,5.652501,58.108681,-0.102341,0.028687,0.984055,0.005596,-0.030678,0.007715,59.022186,25.553299,-153.628189,,,
729862064.185593,1.744749,5.649147,58.110655,-0.102661,0.031311,0.978088,0.005596,-0.030678,0.007715,59.022186,25.553299,-153.628189,,,
729862064.18887,1.746045,5.638474,58.113232,-0.102661,0.031311,0.978088,0.005596,-0.030678,0.007715,59.022186,25.553299,-153.628189,,,
729862064.192242,1.746045,5.638474,58.113232,-0.102661,0.031311,0.978088,-0.001619,-0.041052,0.00722,59.022186,25.553299,-153.628189,,,
729862064.195534,1.746618,5.629685,58.115734,-0.097473,0.030853,0.977905,-0.001619,-0.041052,0.00722,59.022186,25.553299,-153.628189,,,
729862064.198866,1.745633,5.617078,58.117879,-0.097473,0.030853,0.977905,-0.001619,-0.041052,0.00722,59.022186,25.553299,-153.628189,,,
729862064.20227,1.745633,5.617078,58.117879,-0.097473,0.030853,0.977905,-0.008318,-0.040664,0.005365,59.022186,25.553299,-153.628189,,,
729862064.205527,1.742598,5.602844,58.119909,-0.085373,0.035049,0.977463,-0.008318,-0.040664,0.005365,59.022186,25.553299,-153.628189,,,
729862064.208908,1.739915,5.589878,58.121508,-0.085373,0.035049,0.977463,-0.008318,-0.040664,0.005365,59.022186,25.553299,-153.628189,,,
729862064.212233,1.739915,5.589878,58.121508,-0.085373,0.035049,0.977463,-0.017744,-0.046268,-0.004986,59.022186,25.553299,-153.628189,,,
729862064.21557,1.734303,5.573065,58.121848,-0.08139,0.036407,0.976791,-0.017744,-0.046268,-0.004986,59.022186,25.553299,-153.628189,,,
729862064.218859,1.729789,5.558895,58.120116,-0.08139,0.036407,0.976791,-0.017744,-0.046268,-0.004986,58.937256,25.626862,-153.699036,,,
729862064.222245,1.729789,5.558895,58.120116,-0.076111,0.035751,0.98468,-0.004426,-0.039571,-0.016867,58.937256,25.626862,-153.699036,,,
729862064.225526,1.725458,5.542002,58.11661,-0.076111,0.035751,0.98468,-0.004426,-0.039571,-0.016867,58.937256,25.626862,-153.699036,,,
729862064.228869,1.723627,5.531845,58.111819,-0.076111,0.035751,0.98468,-0.004426,-0.039571,-0.016867,58.937256,25.626862,-153.699036,,,
729862064.232222,1.723627,5.531845,58.111819,-0.076111,0.035751,0.98468,-0.007089,-0.015644,-0.024474,58.937256,25.626862,-153.699036,,,
729862064.235555,1.719505,5.521788,58.106078,-0.07959,0.031769,1.000885,-0.007089,-0.015644,-0.024474,58.937256,25.626862,-153.699036,,,
729862064.238863,1.716504,5.51878,58.099593,-0.07959,0.031769,1.000885,-0.007089,-0.015644,-0.024474,58.937256,25.626862,-153.699036,,,
729862064.242205,1.716504,5.51878,58.099593,-0.07959,0.031769,1.000885,-0.007089,-0.015644,-0.024474,58.937256,25.626862,-153.699036,,,
729862064.245626,1.711769,5.520429,58.092896,-0.076004,0.035416,0.991241,-0.011433,0.018125,-0.026437,58.937256,25.626862,-153.699036,,,
729862064.248846,1.706619,5.52719,58.085737,-0.076004,0.035416,0.991241,-0.011433,0.018125,-0.026437,58.937256,25.626862,-153.699036,,,
729862064.25223,1.706619,5.52719,58.085737,-0.076004,0.035416,0.991241,-0.011433,0.018125,-0.026437,58.937256,25.626862,-153.699036,,,
729862064.255543,1.698822,5.54088,58.077931,-0.083542,0.038849,0.989471,-0.025957,0.048851,-0.031805,58.937256,25.626862,-153.699036,,,
